rosbagTimestamp,control_method,x_current,x_desired,y_current,y_desired,z_current,z_desired,x_velocity_current,x_velocity_desired,y_velocity_current,y_velocity_desired,z_velocity_current,z_velocity_desired,yaw_current,yaw_desired,yaw_velocity_current,yaw_velocity_desired,roll_current,roll_desired,roll_velocity_current,roll_velocity_desired,pitch_current,pitch_desired,pitch_velocity_current,pitch_velocity_desired,required_force_x,required_force_y,required_moment_z,resultant_force_x,resultant_force_y,resultant_moment_z,current_port_servo_angle,current_port_thruster_force,current_starboard_servo_angle,current_starboard_thruster_force,estimated_port_servo_angle,estimated_port_thruster_force,estimated_starboard_servo_angle,estimated_starboard_thruster_force,cost_value,step,user_defined_1,user_defined_2,user_defined_3,user_defined_4,user_defined_5
1402758443887129132,3,-21.8341238664,-7.1377884924,6.98113976413,2.38304939926,37.33530986,-3.84635974695,-0.0051993083178,0.0,0.00836675471642,0.0,0.0550635439996,0.0,3.12643829353,0.0,0.00520903907132,0.0,-0.0013478810769,0.0,0.0104001003266,0.0,0.0717827645654,0.0,0.00316645963322,0.0,-0.0,-0.0,0.592139422894,-11.0,-110.851251684,99.7524210943,1.04105981986,0.0,-1.04412880738,0.0,1.0471975512,-75.0,-1.0471975512,53.0,11108600.7306,0.0,0.0,0.0,0.0,0.0,0.0
1402758443907342913,3,-21.8341238664,-7.1377884924,6.98113976413,2.38304939926,37.33530986,-3.84635974695,-0.0051993083178,0.0,0.00836675471642,0.0,0.0550635439996,0.0,3.12643829353,0.0,0.00520903907132,0.0,-0.0013478810769,0.0,0.0104001003266,0.0,0.0717827645654,0.0,0.00316645963322,0.0,-0.0,-0.0,0.592139422894,-11.0,-110.851251684,99.7524210943,1.04259428183,0.0,-1.04412880738,0.0,1.0471975512,-75.0,-1.0471975512,53.0,11108600.7306,0.0,0.0,0.0,0.0,0.0,0.0
1402758443926795814,3,-21.8317837592,-7.1377884924,6.97900211403,2.38304939926,37.3210864169,-3.84635974695,-0.00686556114652,0.0,0.00782344834251,0.0,0.0543541066657,0.0,3.1265922518,0.0,0.00282955851133,0.0,-0.00181613308378,0.0,0.00960575700286,0.0,0.0717677870242,0.0,0.00528080191127,0.0,-0.0,-0.0,0.592139422894,-11.0,-110.851251684,99.7524210943,1.04259428183,0.0,-1.04412880738,0.0,1.0471975512,-75.0,-1.0471975512,53.0,11108600.7306,0.0,0.0,0.0,0.0,0.0,0.0
1402758443946577626,3,-21.8317837592,-7.1377884924,6.97900211403,2.38304939926,37.3210864169,-3.84635974695,-0.00686556114652,0.0,0.00782344834251,0.0,0.0543541066657,0.0,3.1265922518,0.0,0.00282955851133,0.0,-0.00181613308378,0.0,0.00960575700286,0.0,0.0717677870242,0.0,0.00528080191127,0.0,-0.0,-0.0,0.592139422894,-11.0,-110.851251684,99.7524210943,1.04259428183,0.0,-1.04412880738,0.0,1.0471975512,-75.0,-1.0471975512,53.0,11108600.7306,0.0,0.0,0.0,0.0,0.0,0.0
1402758443967321826,3,-21.8264801981,-7.1377884924,6.97933815757,2.38304939926,37.3161436588,-3.84635974695,-0.00304937601605,0.0,0.0113108019073,0.0,0.0574016294679,0.0,3.12678431145,0.0,0.00324425056104,0.0,-0.00180586832278,0.0,0.0108354861108,0.0,0.0710342751303,0.0,0.00802537869872,0.0,-0.0,-0.0,0.592139422894,-11.0,-110.851251684,99.7524210943,1.04105981986,0.0,-1.04412880738,0.0,1.0471975512,-75.0,-1.0471975512,53.0,11108600.7306,0.0,0.0,0.0,0.0,0.0,0.0
1402758443986716057,3,-21.8264801981,-7.1377884924,6.97933815757,2.38304939926,37.3161436588,-3.84635974695,-0.00304937601605,0.0,0.0113108019073,0.0,0.0574016294679,0.0,3.12678431145,0.0,0.00324425056104,0.0,-0.00180586832278,0.0,0.0108354861108,0.0,0.0710342751303,0.0,0.00802537869872,0.0,-0.0,-0.0,0.592139422894,-11.0,-110.851251684,99.7524210943,1.04105981986,0.0,-1.04412880738,0.0,1.0471975512,-75.0,-1.0471975512,53.0,11108600.7306,0.0,0.0,0.0,0.0,0.0,0.0
1402758444006804124,3,-21.8257583533,-7.1377884924,6.97918836668,2.38304939926,37.3127718337,-3.84635974695,-0.011617884139,0.0,0.0129363472031,0.0,0.0612718583951,0.0,3.12702933012,0.0,-0.00574328921965,0.0,-0.00149725007904,0.0,0.0135938944899,0.0,0.0716820342288,0.0,0.0088858367491,0.0,-0.0,-0.0,0.592139422894,-11.0,-110.851251684,99.7524210943,1.04105981986,0.0,-1.04412880738,0.0,1.0471975512,-75.0,-1.0471975512,53.0,11108600.7306,0.0,0.0,0.0,0.0,0.0,0.0
1402758444027085636,3,-21.8257583533,-7.1377884924,6.97918836668,2.38304939926,37.3127718337,-3.84635974695,-0.011617884139,0.0,0.0129363472031,0.0,0.0612718583951,0.0,3.12702933012,0.0,-0.00574328921965,0.0,-0.00149725007904,0.0,0.0135938944899,0.0,0.0716820342288,0.0,0.0088858367491,0.0,-0.0,-0.0,0.592139422894,-11.0,-110.851251684,99.7524210943,1.04105981986,0.0,-1.04412880738,0.0,1.0471975512,-75.0,-1.0471975512,53.0,11108600.7306,0.0,0.0,0.0,0.0,0.0,0.0
1402758444046645857,3,-21.8263712557,-7.1377884924,6.9797502731,2.38304939926,37.315387846,-3.84635974695,-0.011736819267,0.0,0.014496824081,0.0,0.0637165110836,0.0,3.12717777411,0.0,0.00194472529731,0.0,-0.00156702503257,0.0,0.00345151389333,0.0,0.0712078911491,0.0,0.0120037555132,0.0,-0.0,-0.0,0.592139422894,-11.0,-110.851251684,99.7524210943,1.04259428183,0.0,-1.04412880738,0.0,1.0471975512,-75.0,-1.0471975512,53.0,11108600.7306,0.0,0.0,0.0,0.0,0.0,0.0
1402758444067048225,3,-21.8263712557,-7.1377884924,6.9797502731,2.38304939926,37.315387846,-3.84635974695,-0.011736819267,0.0,0.014496824081,0.0,0.0637165110836,0.0,3.12717777411,0.0,0.00194472529731,0.0,-0.00156702503257,0.0,0.00345151389333,0.0,0.0712078911491,0.0,0.0120037555132,0.0,-0.0,-0.0,0.592139422894,-11.0,-110.851251684,99.7524210943,1.04105981986,0.0,-1.04412880738,0.0,1.0471975512,-75.0,-1.0471975512,53.0,11108600.7306,0.0,0.0,0.0,0.0,0.0,0.0
1402758444088117641,3,-21.8201175757,-7.1377884924,6.97545680101,2.38304939926,37.2877924004,-3.84635974695,-0.0025435956049,0.0,0.0111931565868,0.0,0.0588189957952,0.0,3.12747295395,0.0,0.00866430299036,0.0,-0.00206791387448,0.0,-0.00179442351182,0.0,0.0696809646216,0.0,0.0109588874118,0.0,-0.0,-0.0,0.592139422894,-11.0,-110.851251684,99.7524210943,1.04259428183,0.0,-1.04412880738,0.0,1.0471975512,-75.0,-1.0471975512,53.0,11108600.7306,0.0,0.0,0.0,0.0,0.0,0.0
1402758444106851009,3,-21.8201175757,-7.1377884924,6.97545680101,2.38304939926,37.2877924004,-3.84635974695,-0.0025435956049,0.0,0.0111931565868,0.0,0.0588189957952,0.0,3.12747295395,0.0,0.00866430299036,0.0,-0.00206791387448,0.0,-0.00179442351182,0.0,0.0696809646216,0.0,0.0109588874118,0.0,-0.0,-0.0,0.592139422894,-11.0,-110.851251684,99.7524210943,1.04259428183,0.0,-1.04412880738,0.0,1.0471975512,-75.0,-1.0471975512,53.0,11108600.7306,0.0,0.0,0.0,0.0,0.0,0.0
1402758444126554921,3,-21.8159797503,-7.1377884924,6.9703148311,2.38304939926,37.2897498759,-3.84635974695,-0.00157527527108,0.0,0.000102269954538,0.0,0.0634701784433,0.0,3.12771383456,0.0,0.00716886708045,0.0,-0.00303928223527,0.0,0.000417832171959,0.0,0.0691320453451,0.0,0.0111451247877,0.0,-0.0,-0.0,0.592139422894,-11.0,-110.851251684,99.7524210943,1.04105981986,0.0,-1.04412880738,0.0,1.0471975512,-75.0,-1.0471975512,53.0,11108600.7306,0.0,0.0,0.0,0.0,0.0,0.0
1402758444147617377,3,-21.8159797503,-7.1377884924,6.9703148311,2.38304939926,37.2897498759,-3.84635974695,-0.00157527527108,0.0,0.000102269954538,0.0,0.0634701784433,0.0,3.12771383456,0.0,0.00716886708045,0.0,-0.00303928223527,0.0,0.000417832171959,0.0,0.0691320453451,0.0,0.0111451247877,0.0,-0.0,-0.0,0.592139422894,-11.0,-110.851251684,99.7524210943,1.04105981986,0.0,-1.04412880738,0.0,1.0471975512,-75.0,-1.0471975512,53.0,11108600.7306,0.0,0.0,0.0,0.0,0.0,0.0
1402758444166520415,3,-21.8118485433,-7.1377884924,6.96953188343,2.38304939926,37.2694661248,-3.84635974695,0.00117826908415,0.0,0.00544352422676,0.0,0.0604951742484,0.0,3.1280766302,0.0,0.00473804535839,0.0,-0.00194403112138,0.0,-0.00903605075366,0.0,0.0683982043139,0.0,0.0119470174697,0.0,-0.0,-0.0,0.592139422894,-11.0,-110.851251684,99.7524210943,1.04259428183,0.0,-1.04412880738,0.0,1.0471975512,-75.0,-1.0471975512,53.0,11108600.7306,0.0,0.0,0.0,0.0,0.0,0.0
1402758444186419187,3,-21.8118485433,-7.1377884924,6.96953188343,2.38304939926,37.2694661248,-3.84635974695,0.00117826908415,0.0,0.00544352422676,0.0,0.0604951742484,0.0,3.1280766302,0.0,0.00473804535839,0.0,-0.00194403112138,0.0,-0.00903605075366,0.0,0.0683982043139,0.0,0.0119470174697,0.0,-0.0,-0.0,0.592139422894,-11.0,-110.851251684,99.7524210943,1.04105981986,0.0,-1.04412880738,0.0,1.0471975512,-75.0,-1.0471975512,53.0,11108600.7306,0.0,0.0,0.0,0.0,0.0,0.0
1402758444207102640,3,-21.8113102141,-7.1377884924,6.96575283092,2.38304939926,37.2544706005,-3.84635974695,-0.00645567033103,0.0,0.00219831526281,0.0,0.0597661611683,0.0,3.12843182955,0.0,0.00388038972516,0.0,-0.00180236905527,0.0,-0.0148562515985,0.0,0.06885832103,0.0,0.00318520610048,0.0,-0.0,-0.0,0.592139422894,-11.0,-110.851251684,99.7524210943,1.04259428183,0.0,-1.04412880738,0.0,1.0471975512,-75.0,-1.0471975512,53.0,11108600.7306,0.0,0.0,0.0,0.0,0.0,0.0
1402758444226572996,3,-21.8113102141,-7.1377884924,6.96575283092,2.38304939926,37.2544706005,-3.84635974695,-0.00645567033103,0.0,0.00219831526281,0.0,0.0597661611683,0.0,3.12843182955,0.0,0.00388038972516,0.0,-0.00180236905527,0.0,-0.0148562515985,0.0,0.06885832103,0.0,0.00318520610048,0.0,-0.0,-0.0,0.592139422894,-11.0,-110.851251684,99.7524210943,1.04259428183,0.0,-1.04412880738,0.0,1.0471975512,-75.0,-1.0471975512,53.0,11108600.7306,0.0,0.0,0.0,0.0,0.0,0.0
1402758444246646576,3,-21.8114522456,-7.1377884924,6.96584559816,2.38304939926,37.2567331063,-3.84635974695,-0.00587338705861,0.0,0.00224768338853,0.0,0.0595571423111,0.0,3.12880378443,0.0,0.00661128119022,0.0,-0.00122070861015,0.0,-0.0153990190415,0.0,0.0686691428262,0.0,0.00141877685143,0.0,-0.0,-0.0,0.592139422894,-11.0,-110.851251684,99.7524210943,1.04105981986,0.0,-1.04412880738,0.0,1.0471975512,-75.0,-1.0471975512,53.0,11108600.7306,0.0,0.0,0.0,0.0,0.0,0.0
1402758444267465871,3,-21.8114522456,-7.1377884924,6.96584559816,2.38304939926,37.2567331063,-3.84635974695,-0.00587338705861,0.0,0.00224768338853,0.0,0.0595571423111,0.0,3.12880378443,0.0,0.00661128119022,0.0,-0.00122070861015,0.0,-0.0153990190415,0.0,0.0686691428262,0.0,0.00141877685143,0.0,-0.0,-0.0,0.592139422894,-11.0,-110.851251684,99.7524210943,1.04259428183,0.0,-1.04412880738,0.0,1.0471975512,-75.0,-1.0471975512,53.0,11108600.7306,0.0,0.0,0.0,0.0,0.0,0.0
1402758444286712288,3,-21.8051001762,-7.1377884924,6.96499981189,2.38304939926,37.2463034321,-3.84635974695,0.000116613628858,0.0,0.0063446695469,0.0,0.0588630023161,0.0,3.1291002075,0.0,0.00143000468678,0.0,-2.83441365598e-05,0.0,-0.0168196320182,0.0,0.0680723302064,0.0,0.00088900557151,0.0,-0.0,-0.0,0.592139422894,-11.0,-110.851251684,99.7524210943,1.04259428183,0.0,-1.04412880738,0.0,1.0471975512,-75.0,-1.0471975512,53.0,11108600.7306,0.0,0.0,0.0,0.0,0.0,0.0
1402758444306767565,3,-21.8051001762,-7.1377884924,6.96499981189,2.38304939926,37.2463034321,-3.84635974695,0.000116613628858,0.0,0.0063446695469,0.0,0.0588630023161,0.0,3.1291002075,0.0,0.00143000468678,0.0,-2.83441365598e-05,0.0,-0.0168196320182,0.0,0.0680723302064,0.0,0.00088900557151,0.0,-0.0,-0.0,0.592139422894,-11.0,-110.851251684,99.7524210943,1.04259428183,0.0,-1.04412880738,0.0,1.0471975512,-75.0,-1.0471975512,53.0,11108600.7306,0.0,0.0,0.0,0.0,0.0,0.0
1402758444327333060,3,-21.7981554534,-7.1377884924,6.96573715515,2.38304939926,37.2361057572,-3.84635974695,0.00526397199221,0.0,0.0146133839664,0.0,0.0588952441628,0.0,3.12981063175,0.0,0.00971914857542,0.0,0.00139899435763,0.0,-0.0125202744113,0.0,0.0677493865397,0.0,-0.00932064037878,0.0,-0.0,-0.0,0.592139422894,-11.0,-110.851251684,99.7524210943,1.04259428183,0.0,-1.04412880738,0.0,1.0471975512,-75.0,-1.0471975512,53.0,11108600.7306,0.0,0.0,0.0,0.0,0.0,0.0
1402758444346704446,3,-21.7981554534,-7.1377884924,6.96573715515,2.38304939926,37.2361057572,-3.84635974695,0.00526397199221,0.0,0.0146133839664,0.0,0.0588952441628,0.0,3.12981063175,0.0,0.00971914857542,0.0,0.00139899435763,0.0,-0.0125202744113,0.0,0.0677493865397,0.0,-0.00932064037878,0.0,-0.0,-0.0,0.592139422894,-11.0,-110.851251684,99.7524210943,1.04259428183,0.0,-1.04412880738,0.0,1.0471975512,-75.0,-1.0471975512,53.0,11108600.7306,0.0,0.0,0.0,0.0,0.0,0.0
1402758444366755878,3,-21.7973886289,-7.1377884924,6.96015077867,2.38304939926,37.2156848265,-3.84635974695,-0.00228163902441,0.0,0.00724058500602,0.0,0.0550752712534,0.0,3.12987081642,0.0,0.00664703005838,0.0,0.000808787124467,0.0,-0.00376232298748,0.0,0.0687444958962,0.0,-0.00667198083556,0.0,-0.0,-0.0,0.592139422894,-11.0,-110.851251684,99.7524210943,1.04259428183,0.0,-1.04412880738,0.0,1.0471975512,-75.0,-1.0471975512,53.0,11108600.7306,0.0,0.0,0.0,0.0,0.0,0.0
1402758444387132051,3,-21.7973886289,-7.1377884924,6.96015077867,2.38304939926,37.2156848265,-3.84635974695,-0.00228163902441,0.0,0.00724058500602,0.0,0.0550752712534,0.0,3.12987081642,0.0,0.00664703005838,0.0,0.000808787124467,0.0,-0.00376232298748,0.0,0.0687444958962,0.0,-0.00667198083556,0.0,-0.0,-0.0,0.592139422894,-11.0,-110.851251684,99.7524210943,1.04259428183,0.0,-1.04412880738,0.0,1.0471975512,-75.0,-1.0471975512,53.0,11108600.7306,0.0,0.0,0.0,0.0,0.0,0.0
1402758444406641564,3,-21.7962324627,-7.1377884924,6.95795175501,2.38304939926,37.2002523513,-3.84635974695,-0.00733915969111,0.0,0.00915571982404,0.0,0.0518992138432,0.0,3.13027275649,0.0,0.00880664583288,0.0,0.00121806424415,0.0,-0.00784146633523,0.0,0.0696653983424,0.0,-0.0110397915175,0.0,-0.0,-0.0,0.592139422894,-11.0,-110.851251684,99.7524210943,1.04105981986,0.0,-1.04412880738,0.0,1.0471975512,-75.0,-1.0471975512,53.0,11108600.7306,0.0,0.0,0.0,0.0,0.0,0.0
1402758444426528185,3,-21.7962324627,-7.1377884924,6.95795175501,2.38304939926,37.2002523513,-3.84635974695,-0.00733915969111,0.0,0.00915571982404,0.0,0.0518992138432,0.0,3.13027275649,0.0,0.00880664583288,0.0,0.00121806424415,0.0,-0.00784146633523,0.0,0.0696653983424,0.0,-0.0110397915175,0.0,-0.0,-0.0,0.592139422894,-11.0,-110.851251684,99.7524210943,1.04105981986,0.0,-1.04412880738,0.0,1.0471975512,-75.0,-1.0471975512,53.0,11108600.7306,0.0,0.0,0.0,0.0,0.0,0.0
1402758444446548922,3,-21.7965662518,-7.1377884924,6.9583843691,2.38304939926,37.2021616681,-3.84635974695,-0.00723733324578,0.0,0.00830164497505,0.0,0.0505610476233,0.0,3.13062929503,0.0,0.00530163183034,0.0,0.00114628645714,0.0,-0.00249653425974,0.0,0.070069212966,0.0,-0.0105539722351,0.0,-0.0,-0.0,0.592139422894,-11.0,-110.851251684,99.7524210943,1.04105981986,0.0,-1.04412880738,0.0,1.0471975512,-75.0,-1.0471975512,53.0,11108600.7306,0.0,0.0,0.0,0.0,0.0,0.0
1402758444466528277,3,-21.7965662518,-7.1377884924,6.9583843691,2.38304939926,37.2021616681,-3.84635974695,-0.00723733324578,0.0,0.00830164497505,0.0,0.0505610476233,0.0,3.13062929503,0.0,0.00530163183034,0.0,0.00114628645714,0.0,-0.00249653425974,0.0,0.070069212966,0.0,-0.0105539722351,0.0,-0.0,-0.0,0.592139422894,-11.0,-110.851251684,99.7524210943,1.04259428183,-75.0,-1.04412880738,53.0,1.0471975512,-75.0,-1.0471975512,53.0,11108600.7306,0.0,0.0,0.0,0.0,0.0,0.0
1402758444486561710,3,-21.7941101265,-7.1377884924,6.95569964386,2.38304939926,37.1929322965,-3.84635974695,-0.00910028139538,0.0,0.0060927722736,0.0,0.0503284227811,0.0,3.13085542003,0.0,0.00466241813133,0.0,0.000887785194711,0.0,0.0026691913066,0.0,0.0706933478613,0.0,-0.00796142375258,0.0,-0.0,-0.0,0.592139422894,-11.0,-110.851251684,99.7524210943,1.04105981986,-75.0,-1.04412880738,53.0,1.0471975512,-75.0,-1.0471975512,53.0,11108600.7306,0.0,0.0,0.0,0.0,0.0,0.0
1402758444507132928,3,-21.7941101265,-7.1377884924,6.95569964386,2.38304939926,37.1929322965,-3.84635974695,-0.00910028139538,0.0,0.0060927722736,0.0,0.0503284227811,0.0,3.13085542003,0.0,0.00466241813133,0.0,0.000887785194711,0.0,0.0026691913066,0.0,0.0706933478613,0.0,-0.00796142375258,0.0,-0.0,-0.0,0.592139422894,-11.0,-110.851251684,99.7524210943,1.04105981986,-75.0,-1.04412880738,53.0,1.0471975512,-75.0,-1.0471975512,53.0,11108600.7306,0.0,0.0,0.0,0.0,0.0,0.0
1402758444526732167,3,-21.7876631295,-7.1377884924,6.95651647546,2.38304939926,37.1774470898,-3.84635974695,-0.00268256566172,0.0,0.0152287000451,0.0,0.0495047093623,0.0,3.13120356298,0.0,0.00945255521514,0.0,0.0018320041536,0.0,0.00284874514073,0.0,0.0704178587358,0.0,-0.0118152127402,0.0,-0.0,-0.0,0.592139422894,-11.0,-110.851251684,99.7524210943,1.04259428183,-75.0,-1.04412880738,53.0,1.0471975512,-75.0,-1.0471975512,53.0,11108600.7306,0.0,0.0,0.0,0.0,0.0,0.0
1402758444546471056,3,-21.7876631295,-7.1377884924,6.95651647546,2.38304939926,37.1774470898,-3.84635974695,-0.00268256566172,0.0,0.0152287000451,0.0,0.0495047093623,0.0,3.13120356298,0.0,0.00945255521514,0.0,0.0018320041536,0.0,0.00284874514073,0.0,0.0704178587358,0.0,-0.0118152127402,0.0,-0.0,-0.0,0.592139422894,-11.0,-110.851251684,99.7524210943,1.04105981986,-75.0,-1.04259458383,53.0,1.0471975512,-75.0,-1.0471975512,53.0,11108600.7306,0.0,0.0,0.0,0.0,0.0,0.0
1402758444567046027,3,-21.7879824433,-7.1377884924,6.95703474437,2.38304939926,37.1796379974,-3.84635974695,-0.00179939283185,0.0,0.0143571649136,0.0,0.0501765991659,0.0,3.1314715815,0.0,0.00204019213042,0.0,0.00187233601207,0.0,0.00309092910356,0.0,0.0707936714696,0.0,-0.00697040925251,0.0,-0.0,-0.0,0.592139422894,-11.0,-110.851251684,99.7524210943,1.04259428183,-75.0,-1.04412880738,53.0,1.0471975512,-75.0,-1.0471975512,53.0,11108600.7306,0.0,0.0,0.0,0.0,0.0,0.0
1402758444586460252,3,-21.7879824433,-7.1377884924,6.95703474437,2.38304939926,37.1796379974,-3.84635974695,-0.00179939283185,0.0,0.0143571649136,0.0,0.0501765991659,0.0,3.1314715815,0.0,0.00204019213042,0.0,0.00187233601207,0.0,0.00309092910356,0.0,0.0707936714696,0.0,-0.00697040925251,0.0,-0.0,-0.0,0.592139422894,-11.0,-110.851251684,99.7524210943,1.04259428183,-75.0,-1.04412880738,53.0,1.0471975512,-75.0,-1.0471975512,53.0,11108600.7306,0.0,0.0,0.0,0.0,0.0,0.0
1402758444606597342,3,-21.7887490917,-7.1377884924,6.95706177881,2.38304939926,37.1673376184,-3.84635974695,-0.0122382587987,0.0,0.0197118276988,0.0,0.0513831080767,0.0,3.13175922035,0.0,0.00322058672887,0.0,0.00242217444411,0.0,0.0054230753559,0.0,0.0724035060446,0.0,-0.00875647642116,0.0,-0.0,-0.0,0.592139422894,-11.0,-110.851251684,99.7524210943,1.04259428183,-75.0,-1.04259458383,53.0,1.0471975512,-75.0,-1.0471975512,53.0,11108600.7306,0.0,0.0,0.0,0.0,0.0,0.0
1402758444627365563,3,-21.7887490917,-7.1377884924,6.95706177881,2.38304939926,37.1673376184,-3.84635974695,-0.0122382587987,0.0,0.0197118276988,0.0,0.0513831080767,0.0,3.13175922035,0.0,0.00322058672887,0.0,0.00242217444411,0.0,0.0054230753559,0.0,0.0724035060446,0.0,-0.00875647642116,0.0,-0.0,-0.0,0.592139422894,-11.0,-110.851251684,99.7524210943,1.04259428183,-75.0,-1.04259458383,53.0,1.0471975512,-75.0,-1.0471975512,53.0,11108600.7306,0.0,0.0,0.0,0.0,0.0,0.0
1402758444646530061,3,-21.7879043249,-7.1377884924,6.94960895595,2.38304939926,37.1577169356,-3.84635974695,-0.0138463052444,0.0,-0.00133924610571,0.0,0.0516713494954,0.0,3.13177734657,0.0,-0.00270747546924,0.0,-0.000223585605905,0.0,0.0547330226865,0.0,0.0732078443772,0.0,-0.00504857540992,0.0,-0.0,-0.0,0.592139422894,-11.0,-110.851251684,99.7524210943,1.04105981986,-75.0,-1.04412880738,53.0,1.0471975512,-75.0,-1.0471975512,53.0,11108600.7306,0.0,0.0,0.0,0.0,0.0,0.0
1402758444666621886,3,-21.7879043249,-7.1377884924,6.94960895595,2.38304939926,37.1577169356,-3.84635974695,-0.0138463052444,0.0,-0.00133924610571,0.0,0.0516713494954,0.0,3.13177734657,0.0,-0.00270747546924,0.0,-0.000223585605905,0.0,0.0547330226865,0.0,0.0732078443772,0.0,-0.00504857540992,0.0,-0.0,-0.0,0.592139422894,-11.0,-110.851251684,99.7524210943,1.04105981986,-75.0,-1.04259458383,53.0,1.0471975512,-75.0,-1.0471975512,53.0,11108600.7306,0.0,0.0,0.0,0.0,0.0,0.0
1402758444687257137,3,-21.778324478,-7.1377884924,6.94833233053,2.38304939926,37.1352971576,-3.84635974695,0.00404053103942,0.0,0.00474469503473,0.0,0.0528409045227,0.0,3.13157199171,0.0,-0.0411552621684,0.0,0.00202993344036,0.0,-0.145795098957,0.0,0.0714837686556,0.0,-0.0118396308869,0.0,-0.0,-0.0,0.592139422894,-11.0,-110.851251684,99.7524210943,1.04259428183,-75.0,-1.04259458383,53.0,1.0471975512,-75.0,-1.0471975512,53.0,11108600.7306,0.0,0.0,0.0,0.0,0.0,0.0
1402758444706589538,3,-21.778324478,-7.1377884924,6.94833233053,2.38304939926,37.1352971576,-3.84635974695,0.00404053103942,0.0,0.00474469503473,0.0,0.0528409045227,0.0,3.13157199171,0.0,-0.0411552621684,0.0,0.00202993344036,0.0,-0.145795098957,0.0,0.0714837686556,0.0,-0.0118396308869,0.0,-0.0,-0.0,0.592139422894,-11.0,-110.851251684,99.7524210943,1.04259428183,-75.0,-1.04259458383,53.0,1.0471975512,-75.0,-1.0471975512,53.0,11108600.7306,0.0,0.0,0.0,0.0,0.0,0.0
1402758444726731054,3,-21.77725942,-7.1377884924,6.94708277912,2.38304939926,37.1144838325,-3.84635974695,0.0044802653958,0.0,-0.00569091513638,0.0,0.0479197390451,0.0,3.12953444936,0.0,-0.0536599226174,0.0,0.00534790085312,0.0,-0.0238731446064,0.0,0.0725967182866,0.0,0.00311957982283,0.0,-0.0,-0.0,0.592139422894,-11.0,-110.851251684,99.7524210943,1.04105981986,-75.0,-1.04259458383,53.0,1.0471975512,-75.0,-1.0471975512,53.0,11108600.7306,0.0,0.0,0.0,0.0,0.0,0.0
1402758444747776929,3,-21.77725942,-7.1377884924,6.94708277912,2.38304939926,37.1144838325,-3.84635974695,0.0044802653958,0.0,-0.00569091513638,0.0,0.0479197390451,0.0,3.12953444936,0.0,-0.0536599226174,0.0,0.00534790085312,0.0,-0.0238731446064,0.0,0.0725967182866,0.0,0.00311957982283,0.0,-0.0,-0.0,0.592139422894,-11.0,-110.851251684,99.7524210943,1.04105981986,-75.0,-1.04259458383,53.0,1.0471975512,-75.0,-1.0471975512,53.0,11108600.7306,0.0,0.0,0.0,0.0,0.0,0.0
1402758444766563192,3,-21.772247505,-7.1377884924,6.9435428563,2.38304939926,37.0957769714,-3.84635974695,0.0122768201925,0.0,-0.0107466378076,0.0,0.0584680593078,0.0,3.12737016854,0.0,-0.0734773140234,0.0,0.00982184465061,0.0,-0.0662697042364,0.0,0.0722552144521,0.0,0.00569837877563,0.0,-0.0,-0.0,0.592139422894,-11.0,-110.851251684,99.7524210943,1.04105981986,-75.0,-1.04259458383,53.0,1.0471975512,-75.0,-1.0471975512,53.0,11108600.7306,0.0,0.0,0.0,0.0,0.0,0.0
1402758444786503444,3,-21.772247505,-7.1377884924,6.9435428563,2.38304939926,37.0957769714,-3.84635974695,0.0122768201925,0.0,-0.0107466378076,0.0,0.0584680593078,0.0,3.12737016854,0.0,-0.0734773140234,0.0,0.00982184465061,0.0,-0.0662697042364,0.0,0.0722552144521,0.0,0.00569837877563,0.0,-0.0,-0.0,0.592139422894,-11.0,-110.851251684,99.7524210943,1.04105981986,-75.0,-1.04259458383,53.0,1.0471975512,-75.0,-1.0471975512,53.0,11108600.7306,0.0,0.0,0.0,0.0,0.0,0.0
1402758444807370590,3,-21.7692846852,-7.1377884924,6.93891271856,2.38304939926,37.0961745899,-3.84635974695,0.0121542548877,0.0,-0.0205843321976,0.0,0.0642200694146,0.0,3.12225030166,0.0,-0.108988580859,0.0,0.012912944016,0.0,-0.095028661669,0.0,0.07272199513,0.0,0.00849384644182,0.0,-0.0,-0.0,0.592139422894,-11.0,-110.851251684,99.7524210943,1.04105981986,-75.0,-1.04259458383,53.0,1.0471975512,-75.0,-1.0471975512,53.0,11108600.7306,0.0,0.0,0.0,0.0,0.0,0.0
1402758444827084257,3,-21.7692846852,-7.1377884924,6.93891271856,2.38304939926,37.0961745899,-3.84635974695,0.0121542548877,0.0,-0.0205843321976,0.0,0.0642200694146,0.0,3.12225030166,0.0,-0.108988580859,0.0,0.012912944016,0.0,-0.095028661669,0.0,0.07272199513,0.0,0.00849384644182,0.0,-0.0,-0.0,0.592139422894,-11.0,-110.851251684,99.7524210943,1.04105981986,-75.0,-1.04259458383,53.0,1.0471975512,-75.0,-1.0471975512,53.0,11108600.7306,0.0,0.0,0.0,0.0,0.0,0.0
1402758444846719142,3,-21.763206071,-7.1377884924,6.93888667806,2.38304939926,37.0851693997,-3.84635974695,0.0186808703009,0.0,-0.0205225027762,0.0,0.0690479980371,0.0,3.11704634185,0.0,-0.12948749912,0.0,0.0171640348262,0.0,-0.0728672073345,0.0,0.0719369739798,0.0,0.0137106318149,0.0,-0.0,-0.0,0.592139422894,-11.0,-110.851251684,99.7524210943,1.04105981986,-75.0,-1.04259458383,53.0,1.0471975512,-75.0,-1.0471975512,53.0,11108600.7306,0.0,0.0,0.0,0.0,0.0,0.0
1402758444867255454,3,-21.763206071,-7.1377884924,6.93888667806,2.38304939926,37.0851693997,-3.84635974695,0.0186808703009,0.0,-0.0205225027762,0.0,0.0690479980371,0.0,3.11704634185,0.0,-0.12948749912,0.0,0.0171640348262,0.0,-0.0728672073345,0.0,0.0719369739798,0.0,0.0137106318149,0.0,-0.0,-0.0,0.592139422894,-11.0,-110.851251684,99.7524210943,1.04105981986,-75.0,-1.04259458383,53.0,1.0471975512,-75.0,-1.0471975512,53.0,11108600.7306,0.0,0.0,0.0,0.0,0.0,0.0
1402758444886468403,3,-21.762906286,-7.1377884924,6.93863305809,2.38304939926,37.0861017077,-3.84635974695,0.0210794121454,0.0,-0.0265565706135,0.0,0.0646388188007,0.0,3.1143869842,0.0,-0.14701013202,0.0,0.0182282993992,0.0,-0.0358966298122,0.0,0.0715998880304,0.0,0.0198043873017,0.0,-0.0,-0.0,0.592139422894,-11.0,-110.851251684,99.7524210943,1.04105981986,-75.0,-1.04259458383,53.0,1.0471975512,-75.0,-1.0471975512,53.0,11108600.7306,0.0,0.0,0.0,0.0,0.0,0.0
1402758444906593051,3,-21.762906286,-7.1377884924,6.93863305809,2.38304939926,37.0861017077,-3.84635974695,0.0210794121454,0.0,-0.0265565706135,0.0,0.0646388188007,0.0,3.1143869842,0.0,-0.14701013202,0.0,0.0182282993992,0.0,-0.0358966298122,0.0,0.0715998880304,0.0,0.0198043873017,0.0,-0.0,-0.0,0.592139422894,-11.0,-110.851251684,99.7524210943,1.04105981986,-75.0,-1.04259458383,53.0,1.0471975512,-75.0,-1.0471975512,53.0,11108600.7306,0.0,0.0,0.0,0.0,0.0,0.0
1402758444926706885,3,-21.764766516,-7.1377884924,6.92934461142,2.38304939926,37.0756473623,-3.84635974695,0.00626411165995,0.0,-0.0502602571732,0.0,0.062991967691,0.0,3.10564721326,0.0,-0.157726379712,0.0,0.017411873539,0.0,-0.0351622189908,0.0,0.0725667668131,0.0,0.0193649157442,0.0,-0.0,-0.0,0.592139422894,-11.0,-110.851251684,99.7524210943,1.04105981986,-75.0,-1.04259458383,53.0,1.0471975512,-75.0,-1.0471975512,53.0,11108600.7306,0.0,0.0,0.0,0.0,0.0,0.0
1402758444946797155,3,-21.764766516,-7.1377884924,6.92934461142,2.38304939926,37.0756473623,-3.84635974695,0.00626411165995,0.0,-0.0502602571732,0.0,0.062991967691,0.0,3.10564721326,0.0,-0.157726379712,0.0,0.017411873539,0.0,-0.0351622189908,0.0,0.0725667668131,0.0,0.0193649157442,0.0,-0.0,-0.0,0.592139422894,-11.0,-110.851251684,99.7524210943,1.04105981986,-75.0,-1.04259458383,53.0,1.0471975512,-75.0,-1.0471975512,53.0,11108600.7306,0.0,0.0,0.0,0.0,0.0,0.0
1402758444966731497,3,-21.7499132406,-7.1377884924,6.92232370866,2.38304939926,37.0749683909,-3.84635974695,0.0367904901786,0.0,-0.068217110044,0.0,0.0741048947397,0.0,3.10303278877,0.0,-0.167712019785,0.0,0.0170790161199,0.0,0.0107879120579,0.0,0.0688418610044,0.0,0.01452573992,0.0,-0.0,-0.0,0.592139422894,-11.0,-110.851251684,99.7524210943,1.04105981986,-75.0,-1.04259458383,53.0,1.0471975512,-75.0,-1.0471975512,53.0,11108600.7306,0.0,0.0,0.0,0.0,0.0,0.0
1402758444987003764,3,-21.7499132406,-7.1377884924,6.92232370866,2.38304939926,37.0749683909,-3.84635974695,0.0367904901786,0.0,-0.068217110044,0.0,0.0741048947397,0.0,3.10303278877,0.0,-0.167712019785,0.0,0.0170790161199,0.0,0.0107879120579,0.0,0.0688418610044,0.0,0.01452573992,0.0,-0.0,-0.0,0.592139422894,-11.0,-110.851251684,99.7524210943,1.04105981986,-75.0,-1.04259458383,53.0,1.0471975512,-75.0,-1.0471975512,53.0,11108600.7306,0.0,0.0,0.0,0.0,0.0,0.0
1402758445006503350,3,-21.7503509139,-7.1377884924,6.91501616222,2.38304939926,37.045643996,-3.84635974695,0.0294864480004,0.0,-0.0818095746089,0.0,0.067289899802,0.0,3.09396533247,0.0,-0.179763975795,0.0,0.0162445956303,0.0,0.0252135412562,0.0,0.0693796921826,0.0,0.0134530866104,0.0,-0.0,-0.0,0.592139422894,-11.0,-110.851251684,99.7524210943,1.04105981986,-75.0,-1.04259458383,53.0,1.0471975512,-75.0,-1.0471975512,53.0,11108600.7306,0.0,0.0,0.0,0.0,0.0,0.0
1402758445026683315,3,-21.7503509139,-7.1377884924,6.91501616222,2.38304939926,37.045643996,-3.84635974695,0.0294864480004,0.0,-0.0818095746089,0.0,0.067289899802,0.0,3.09396533247,0.0,-0.179763975795,0.0,0.0162445956303,0.0,0.0252135412562,0.0,0.0693796921826,0.0,0.0134530866104,0.0,-0.0,-0.0,0.592139422894,-11.0,-110.851251684,99.7524210943,1.04105981986,-75.0,-1.04259458383,53.0,1.0471975512,-75.0,-1.0471975512,53.0,11108600.7306,0.0,0.0,0.0,0.0,0.0,0.0
1402758445046748718,3,-21.7452188299,-7.1377884924,6.90582977385,2.38304939926,37.0345535489,-3.84635974695,0.0341876443451,0.0,-0.103632073076,0.0,0.0618873318697,0.0,3.08640332435,0.0,-0.195659667009,0.0,0.0134742127336,0.0,0.0324000590161,0.0,0.0683752387553,0.0,0.0147007742208,0.0,-0.0,-0.0,0.592139422894,-11.0,-110.851251684,99.7524210943,1.04105981986,-75.0,-1.04259458383,53.0,1.0471975512,-75.0,-1.0471975512,53.0,11108600.7306,0.0,0.0,0.0,0.0,0.0,0.0
1402758445066645000,3,-21.7452188299,-7.1377884924,6.90582977385,2.38304939926,37.0345535489,-3.84635974695,0.0341876443451,0.0,-0.103632073076,0.0,0.0618873318697,0.0,3.08640332435,0.0,-0.195659667009,0.0,0.0134742127336,0.0,0.0324000590161,0.0,0.0683752387553,0.0,0.0147007742208,0.0,-0.0,-0.0,0.592139422894,-11.0,-110.851251684,99.7524210943,1.04105981986,-75.0,-1.04259458383,53.0,1.0471975512,-75.0,-1.0471975512,53.0,11108600.7306,0.0,0.0,0.0,0.0,0.0,0.0
1402758445086452961,3,-21.7437415617,-7.1377884924,6.90126793362,2.38304939926,37.0371797846,-3.84635974695,0.0376577406131,0.0,-0.117391533997,0.0,0.0613607631169,0.0,3.07840082974,0.0,-0.204959121514,0.0,0.0117130915568,0.0,0.0504800401818,0.0,0.0677823560416,0.0,0.0149680641032,0.0,-0.0,-0.0,0.592139422894,-11.0,-110.851251684,99.7524210943,1.04105981986,-75.0,-1.04259458383,53.0,1.0471975512,-75.0,-1.0471975512,53.0,11108600.7306,0.0,0.0,0.0,0.0,0.0,0.0
1402758445107057168,3,-21.7437415617,-7.1377884924,6.90126793362,2.38304939926,37.0371797846,-3.84635974695,0.0376577406131,0.0,-0.117391533997,0.0,0.0613607631169,0.0,3.07840082974,0.0,-0.204959121514,0.0,0.0117130915568,0.0,0.0504800401818,0.0,0.0677823560416,0.0,0.0149680641032,0.0,-0.0,-0.0,0.592139422894,-11.0,-110.851251684,99.7524210943,1.04105981986,-75.0,-1.04259458383,53.0,1.0471975512,-75.0,-1.0471975512,53.0,11108600.7306,0.0,0.0,0.0,0.0,0.0,0.0
1402758445127532889,3,-21.7387876328,-7.1377884924,6.89263106048,2.38304939926,37.0348053456,-3.84635974695,0.0408244824141,0.0,-0.133447592247,0.0,0.0665007442786,0.0,3.06951977294,0.0,-0.207278842358,0.0,0.00904922099612,0.0,0.0485931409684,0.0,0.0673302245171,0.0,0.00722618187884,0.0,-0.0,-0.0,0.592139422894,-11.0,-110.851251684,99.7524210943,1.04105981986,-75.0,-1.04259458383,53.0,1.0471975512,-75.0,-1.0471975512,53.0,11108600.7306,0.0,0.0,0.0,0.0,0.0,0.0
1402758445146694448,3,-21.7387876328,-7.1377884924,6.89263106048,2.38304939926,37.0348053456,-3.84635974695,0.0408244824141,0.0,-0.133447592247,0.0,0.0665007442786,0.0,3.06951977294,0.0,-0.207278842358,0.0,0.00904922099612,0.0,0.0485931409684,0.0,0.0673302245171,0.0,0.00722618187884,0.0,-0.0,-0.0,0.592139422894,-11.0,-110.851251684,99.7524210943,1.04105981986,-75.0,-1.04259458383,53.0,1.0471975512,-75.0,-1.0471975512,53.0,11108600.7306,0.0,0.0,0.0,0.0,0.0,0.0
1402758445166709980,3,-21.7318655152,-7.1377884924,6.88705302857,2.38304939926,37.0088349066,-3.84635974695,0.0501449906628,0.0,-0.132923918241,0.0,0.0522935620938,0.0,3.06191850651,0.0,-0.218449384987,0.0,0.00840612110627,0.0,0.0419830731391,0.0,0.0662535162688,0.0,0.00455321383536,0.0,-0.0,-0.0,0.592139422894,-11.0,-110.851251684,99.7524210943,1.04105981986,-75.0,-1.04259458383,53.0,1.0471975512,-75.0,-1.0471975512,53.0,11108600.7306,0.0,0.0,0.0,0.0,0.0,0.0
1402758445186674008,3,-21.7318655152,-7.1377884924,6.88705302857,2.38304939926,37.0088349066,-3.84635974695,0.0501449906628,0.0,-0.132923918241,0.0,0.0522935620938,0.0,3.06191850651,0.0,-0.218449384987,0.0,0.00840612110627,0.0,0.0419830731391,0.0,0.0662535162688,0.0,0.00455321383536,0.0,-0.0,-0.0,0.592139422894,-11.0,-110.851251684,99.7524210943,1.04105981986,-75.0,-1.04259458383,53.0,1.0471975512,-75.0,-1.0471975512,53.0,11108600.7306,0.0,0.0,0.0,0.0,0.0,0.0
1402758445206379938,3,-21.7278896307,-7.1377884924,6.88203083625,2.38304939926,37.0108683453,-3.84635974695,0.0518195213772,0.0,-0.137216392563,0.0,0.061192198514,0.0,3.05269625308,0.0,-0.214990813117,0.0,0.00722032751796,0.0,0.0419542930508,0.0,0.0664434911164,0.0,0.00301802345571,0.0,-0.0,-0.0,0.592139422894,-11.0,-110.851251684,99.7524210943,1.04105981986,-75.0,-1.04259458383,53.0,1.0471975512,-75.0,-1.0471975512,53.0,11108600.7306,0.0,0.0,0.0,0.0,0.0,0.0
1402758445227165028,3,-21.7278896307,-7.1377884924,6.88203083625,2.38304939926,37.0108683453,-3.84635974695,0.0518195213772,0.0,-0.137216392563,0.0,0.061192198514,0.0,3.05269625308,0.0,-0.214990813117,0.0,0.00722032751796,0.0,0.0419542930508,0.0,0.0664434911164,0.0,0.00301802345571,0.0,-0.0,-0.0,0.592139422894,-11.0,-110.851251684,99.7524210943,1.04105981986,-75.0,-1.04259458383,53.0,1.0471975512,-75.0,-1.0471975512,53.0,11108600.7306,0.0,0.0,0.0,0.0,0.0,0.0
1402758445246541697,3,-21.7230717506,-7.1377884924,6.8757948391,2.38304939926,37.0098227551,-3.84635974695,0.0553701272927,0.0,-0.142253764348,0.0,0.0719263614431,0.0,3.04350937814,0.0,-0.219338428253,0.0,0.0062045202352,0.0,0.0301142831738,0.0,0.0664310497809,0.0,-0.00332553100881,0.0,-0.0,-0.0,0.592139422894,-11.0,-110.851251684,99.7524210943,1.04105981986,-75.0,-1.04259458383,53.0,1.0471975512,-75.0,-1.0471975512,53.0,11108600.7306,0.0,0.0,0.0,0.0,0.0,0.0
1402758445266528756,3,-21.7230717506,-7.1377884924,6.8757948391,2.38304939926,37.0098227551,-3.84635974695,0.0553701272927,0.0,-0.142253764348,0.0,0.0719263614431,0.0,3.04350937814,0.0,-0.219338428253,0.0,0.0062045202352,0.0,0.0301142831738,0.0,0.0664310497809,0.0,-0.00332553100881,0.0,-0.0,-0.0,0.592139422894,-11.0,-110.851251684,99.7524210943,1.04105981986,-75.0,-1.04259458383,53.0,1.0471975512,-75.0,-1.0471975512,53.0,11108600.7306,0.0,0.0,0.0,0.0,0.0,0.0
1402758445286657085,3,-21.7202946951,-7.1377884924,6.86596088575,2.38304939926,37.0071743712,-3.84635974695,0.0544867067423,0.0,-0.157604674047,0.0,0.0672676006015,0.0,3.03342415216,0.0,-0.233522620799,0.0,0.00441672571161,0.0,0.00964826084995,0.0,0.0668400974456,0.0,-0.00351435174418,0.0,-0.0,-0.0,0.592139422894,-11.0,-110.851251684,99.7524210943,1.04105981986,-75.0,-1.04259458383,53.0,1.0471975512,-75.0,-1.0471975512,53.0,11108600.7306,0.0,0.0,0.0,0.0,0.0,0.0
1402758445306726365,3,-21.7202946951,-7.1377884924,6.86596088575,2.38304939926,37.0071743712,-3.84635974695,0.0544867067423,0.0,-0.157604674047,0.0,0.0672676006015,0.0,3.03342415216,0.0,-0.233522620799,0.0,0.00441672571161,0.0,0.00964826084995,0.0,0.0668400974456,0.0,-0.00351435174418,0.0,-0.0,-0.0,0.592139422894,-11.0,-110.851251684,99.7524210943,1.04105981986,-75.0,-1.04259458383,53.0,1.0471975512,-75.0,-1.0471975512,53.0,11108600.7306,0.0,0.0,0.0,0.0,0.0,0.0
1402758445326559048,3,-21.7178459983,-7.1377884924,6.85955179476,2.38304939926,37.0099462946,-3.84635974695,0.0598868207841,0.0,-0.161630524828,0.0,0.0689283298502,0.0,3.02424321632,0.0,-0.229016343567,0.0,0.0037866151559,0.0,0.00703298628715,0.0,0.0669524980091,0.0,-0.00613509226789,0.0,-0.0,-0.0,0.592139422894,-11.0,-110.851251684,99.7524210943,1.04105981986,-75.0,-1.04259458383,53.0,1.0471975512,-75.0,-1.0471975512,53.0,11108600.7306,0.0,0.0,0.0,0.0,0.0,0.0
1402758445347115044,3,-21.7178459983,-7.1377884924,6.85955179476,2.38304939926,37.0099462946,-3.84635974695,0.0598868207841,0.0,-0.161630524828,0.0,0.0689283298502,0.0,3.02424321632,0.0,-0.229016343567,0.0,0.0037866151559,0.0,0.00703298628715,0.0,0.0669524980091,0.0,-0.00613509226789,0.0,-0.0,-0.0,0.592139422894,-11.0,-110.851251684,99.7524210943,1.03952583472,-75.0,-1.04259458383,53.0,1.0471975512,-75.0,-1.0471975512,53.0,11108600.7306,0.0,0.0,0.0,0.0,0.0,0.0
1402758445369328642,3,-21.7122316056,-7.1377884924,6.84979522561,2.38304939926,36.9688379934,-3.84635974695,0.0720382624489,0.0,-0.166174757885,0.0,0.0650199370019,0.0,3.01573136099,0.0,-0.233781631375,0.0,0.00371808094388,0.0,0.0105936601698,0.0,0.0660025839193,0.0,-0.00398270911857,0.0,-0.0,-0.0,0.592139422894,-11.0,-110.851251684,99.7524210943,1.03952583472,-75.0,-1.04259458383,53.0,1.0471975512,-75.0,-1.0471975512,53.0,11108600.7306,0.0,0.0,0.0,0.0,0.0,0.0
1402758445386497978,3,-21.7122316056,-7.1377884924,6.84979522561,2.38304939926,36.9688379934,-3.84635974695,0.0720382624489,0.0,-0.166174757885,0.0,0.0650199370019,0.0,3.01573136099,0.0,-0.233781631375,0.0,0.00371808094388,0.0,0.0105936601698,0.0,0.0660025839193,0.0,-0.00398270911857,0.0,-0.0,-0.0,0.592139422894,-11.0,-110.851251684,99.7524210943,1.03952583472,-75.0,-1.04259458383,53.0,1.0471975512,-75.0,-1.0471975512,53.0,11108600.7306,0.0,0.0,0.0,0.0,0.0,0.0
1402758445406619335,3,-21.70382646,-7.1377884924,6.83876949267,2.38304939926,36.9652890417,-3.84635974695,0.0867949684181,0.0,-0.181424989975,0.0,0.0670848671995,0.0,3.00698001738,0.0,-0.242080052203,0.0,0.0025405530834,0.0,0.00864053087598,0.0,0.0646357288701,0.0,-0.00500716119791,0.0,-0.0,-0.0,0.592139422894,-11.0,-110.851251684,99.7524210943,1.03952583472,-75.0,-1.04259458383,53.0,1.0471975512,-75.0,-1.0471975512,53.0,11108600.7306,0.0,0.0,0.0,0.0,0.0,0.0
1402758445427224945,3,-21.70382646,-7.1377884924,6.83876949267,2.38304939926,36.9652890417,-3.84635974695,0.0867949684181,0.0,-0.181424989975,0.0,0.0670848671995,0.0,3.00698001738,0.0,-0.242080052203,0.0,0.0025405530834,0.0,0.00864053087598,0.0,0.0646357288701,0.0,-0.00500716119791,0.0,-0.0,-0.0,0.592139422894,-11.0,-110.851251684,99.7524210943,1.03952583472,-75.0,-1.04259458383,53.0,1.0471975512,-75.0,-1.0471975512,53.0,11108600.7306,0.0,0.0,0.0,0.0,0.0,0.0
1402758445446805645,3,-21.7052349989,-7.1377884924,6.83124318666,2.38304939926,36.9591610948,-3.84635974695,0.0744259873527,0.0,-0.184321751707,0.0,0.0650867092535,0.0,2.9959498797,0.0,-0.248554058173,0.0,0.00253587940264,0.0,-0.00156705412906,0.0,0.0666954304586,0.0,0.0069780846177,0.0,-0.0,-0.0,0.592139422894,-11.0,-110.851251684,99.7524210943,1.04105981986,-75.0,-1.04259458383,53.0,1.0471975512,-75.0,-1.0471975512,53.0,11108600.7306,0.0,0.0,0.0,0.0,0.0,0.0
1402758445466549490,3,-21.7052349989,-7.1377884924,6.83124318666,2.38304939926,36.9591610948,-3.84635974695,0.0744259873527,0.0,-0.184321751707,0.0,0.0650867092535,0.0,2.9959498797,0.0,-0.248554058173,0.0,0.00253587940264,0.0,-0.00156705412906,0.0,0.0666954304586,0.0,0.0069780846177,0.0,-0.0,-0.0,0.592139422894,-11.0,-110.851251684,99.7524210943,1.04105981986,-75.0,-1.04259458383,53.0,1.0471975512,-75.0,-1.0471975512,53.0,11108600.7306,0.0,0.0,0.0,0.0,0.0,0.0
1402758445487130971,3,-21.6994804568,-7.1377884924,6.820187624,2.38304939926,36.9759322648,-3.84635974695,0.0740620762587,0.0,-0.196049598671,0.0,0.0623072749297,0.0,2.98312753033,0.0,-0.249806134817,0.0,0.00202429416371,0.0,-0.0047992939583,0.0,0.0669814076151,0.0,0.0097798627769,0.0,-0.0,-0.0,0.592139422894,-11.0,-110.851251684,99.7524210943,1.03952583472,-75.0,-1.04259458383,53.0,1.0471975512,-75.0,-1.0471975512,53.0,11108600.7306,0.0,0.0,0.0,0.0,0.0,0.0
1402758445506614104,3,-21.6994804568,-7.1377884924,6.820187624,2.38304939926,36.9759322648,-3.84635974695,0.0740620762587,0.0,-0.196049598671,0.0,0.0623072749297,0.0,2.98312753033,0.0,-0.249806134817,0.0,0.00202429416371,0.0,-0.0047992939583,0.0,0.0669814076151,0.0,0.0097798627769,0.0,-0.0,-0.0,0.592139422894,-11.0,-110.851251684,99.7524210943,1.03952583472,-75.0,-1.04259458383,53.0,1.0471975512,-75.0,-1.0471975512,53.0,11108600.7306,0.0,0.0,0.0,0.0,0.0,0.0
1402758445526550169,3,-21.6972545216,-7.1377884924,6.81410360667,2.38304939926,36.9781743108,-3.84635974695,0.0753157931908,0.0,-0.20399097701,0.0,0.0702518955712,0.0,2.97572515956,0.0,-0.251371861963,0.0,0.00218130355095,0.0,0.00239559442419,0.0,0.0668616386083,0.0,-0.00373998649574,0.0,-0.0,-0.0,0.592139422894,-11.0,-110.851251684,99.7524210943,1.03952583472,-75.0,-1.04259458383,53.0,1.0471975512,-75.0,-1.0471975512,53.0,11108600.7306,0.0,0.0,0.0,0.0,0.0,0.0
1402758445547271517,3,-21.6956291641,-7.1377884924,6.80995955844,2.38304939926,36.9794969716,-3.84635974695,0.0766844410588,0.0,-0.207419269931,0.0,0.0622285415916,0.0,2.97076166648,0.0,-0.254945890625,0.0,0.00221968698921,0.0,-0.00409579855454,0.0,0.0667125274559,0.0,0.00833204880484,0.0,-0.0,-0.0,0.592139422894,-11.0,-110.851251684,99.7524210943,1.04105981986,-75.0,-1.04259458383,53.0,1.0471975512,-75.0,-1.0471975512,53.0,11108600.7306,0.0,0.0,0.0,0.0,0.0,0.0
1402758445566581032,3,-21.6956291641,-7.1377884924,6.80995955844,2.38304939926,36.9794969716,-3.84635974695,0.0766844410588,0.0,-0.207419269931,0.0,0.0622285415916,0.0,2.97076166648,0.0,-0.254945890625,0.0,0.00221968698921,0.0,-0.00409579855454,0.0,0.0667125274559,0.0,0.00833204880484,0.0,-0.0,-0.0,0.592139422894,-11.0,-110.851251684,99.7524210943,1.03952583472,-75.0,-1.04259458383,53.0,1.0471975512,-75.0,-1.0471975512,53.0,11108600.7306,0.0,0.0,0.0,0.0,0.0,0.0
1402758445586768112,3,-21.6939420823,-7.1377884924,6.80585314073,2.38304939926,36.9806936705,-3.84635974695,0.0777745143789,0.0,-0.21116664791,0.0,0.0607871694062,0.0,2.96575745064,0.0,-0.249701305038,0.0,0.00228339664757,0.0,0.00126529967739,0.0,0.0665505794452,0.0,0.0145817793716,0.0,-0.0,-0.0,0.592139422894,-11.0,-110.851251684,99.7524210943,1.04105981986,-75.0,-1.04259458383,53.0,1.0471975512,-75.0,-1.0471975512,53.0,11108600.7306,0.0,0.0,0.0,0.0,0.0,0.0
1402758445606550445,3,-21.6939420823,-7.1377884924,6.80585314073,2.38304939926,36.9806936705,-3.84635974695,0.0777745143789,0.0,-0.21116664791,0.0,0.0607871694062,0.0,2.96575745064,0.0,-0.249701305038,0.0,0.00228339664757,0.0,0.00126529967739,0.0,0.0665505794452,0.0,0.0145817793716,0.0,-0.0,-0.0,0.592139422894,-11.0,-110.851251684,99.7524210943,1.03952583472,-75.0,-1.04259458383,53.0,1.0471975512,-75.0,-1.0471975512,53.0,11108600.7306,0.0,0.0,0.0,0.0,0.0,0.0
1402758445627418053,3,-21.6934026669,-7.1377884924,6.80002939105,2.38304939926,36.9739237359,-3.84635974695,0.06533318451,0.0,-0.206715150636,0.0,0.0571225063611,0.0,2.95521965068,0.0,-0.251968077439,0.0,0.00391320250454,0.0,-0.0112259613462,0.0,0.0679662410065,0.0,0.017657254323,0.0,-0.0,-0.0,0.592139422894,-11.0,-110.851251684,99.7524210943,1.03952583472,-75.0,-1.04259458383,53.0,1.0471975512,-75.0,-1.0471975512,53.0,11108600.7306,0.0,0.0,0.0,0.0,0.0,0.0
1402758445646729514,3,-21.6934026669,-7.1377884924,6.80002939105,2.38304939926,36.9739237359,-3.84635974695,0.06533318451,0.0,-0.206715150636,0.0,0.0571225063611,0.0,2.95521965068,0.0,-0.251968077439,0.0,0.00391320250454,0.0,-0.0112259613462,0.0,0.0679662410065,0.0,0.017657254323,0.0,-0.0,-0.0,0.592139422894,-11.0,-110.851251684,99.7524210943,1.03952583472,-75.0,-1.04259458383,53.0,1.0471975512,-75.0,-1.0471975512,53.0,11108600.7306,0.0,0.0,0.0,0.0,0.0,0.0
1402758445666600799,3,-21.6863701937,-7.1377884924,6.78407046641,2.38304939926,36.9422877688,-3.84635974695,0.0741170245201,0.0,-0.227216473337,0.0,0.0471595984185,0.0,2.94544309328,0.0,-0.253755731138,0.0,0.00298052007474,0.0,-0.00565759285215,0.0,0.0663373324651,0.0,0.0100563130311,0.0,-0.0,-0.0,0.592139422894,-11.0,-110.851251684,99.7524210943,1.03952583472,-75.0,-1.04259458383,53.0,1.0471975512,-75.0,-1.0471975512,53.0,11108600.7306,0.0,0.0,0.0,0.0,0.0,0.0
1402758445687369409,3,-21.6863701937,-7.1377884924,6.78407046641,2.38304939926,36.9422877688,-3.84635974695,0.0741170245201,0.0,-0.227216473337,0.0,0.0471595984185,0.0,2.94544309328,0.0,-0.253755731138,0.0,0.00298052007474,0.0,-0.00565759285215,0.0,0.0663373324651,0.0,0.0100563130311,0.0,-0.0,-0.0,0.592139422894,-11.0,-110.851251684,99.7524210943,1.03952583472,-75.0,-1.04259458383,53.0,1.0471975512,-75.0,-1.0471975512,53.0,11108600.7306,0.0,0.0,0.0,0.0,0.0,0.0
1402758445706682540,3,-21.6724840418,-7.1377884924,6.76498895197,2.38304939926,36.9194736026,-3.84635974695,0.0966946610259,0.0,-0.254133976961,0.0,0.030177775044,0.0,2.93594303125,0.0,-0.249862478693,0.0,0.00182114547094,0.0,0.000112584772316,0.0,0.0627781197232,0.0,0.00878067081003,0.0,-0.0,-0.0,0.592139422894,-11.0,-110.851251684,99.7524210943,1.03952583472,-75.0,-1.04259458383,53.0,1.0471975512,-75.0,-1.0471975512,53.0,11108600.7306,0.0,0.0,0.0,0.0,0.0,0.0
1402758445726555271,3,-21.6724840418,-7.1377884924,6.76498895197,2.38304939926,36.9194736026,-3.84635974695,0.0966946610259,0.0,-0.254133976961,0.0,0.030177775044,0.0,2.93594303125,0.0,-0.249862478693,0.0,0.00182114547094,0.0,0.000112584772316,0.0,0.0627781197232,0.0,0.00878067081003,0.0,-0.0,-0.0,0.592139422894,-11.0,-110.851251684,99.7524210943,1.03952583472,-75.0,-1.04259458383,53.0,1.0471975512,-75.0,-1.0471975512,53.0,11108600.7306,0.0,0.0,0.0,0.0,0.0,0.0
1402758445747453509,3,-21.6691567559,-7.1377884924,6.75157592037,2.38304939926,36.9137920867,-3.84635974695,0.0879415786154,0.0,-0.264086450028,0.0,0.0338566215463,0.0,2.92584744722,0.0,-0.24213603379,0.0,0.00163473601034,0.0,-0.00823850720028,0.0,0.0635423863083,0.0,0.0187180066463,0.0,-0.0,-0.0,0.592139422894,-11.0,-110.851251684,99.7524210943,1.03952583472,-75.0,-1.04259458383,53.0,1.0471975512,-75.0,-1.0471975512,53.0,11108600.7306,0.0,0.0,0.0,0.0,0.0,0.0
1402758445767171434,3,-21.6691567559,-7.1377884924,6.75157592037,2.38304939926,36.9137920867,-3.84635974695,0.0879415786154,0.0,-0.264086450028,0.0,0.0338566215463,0.0,2.92584744722,0.0,-0.24213603379,0.0,0.00163473601034,0.0,-0.00823850720028,0.0,0.0635423863083,0.0,0.0187180066463,0.0,-0.0,-0.0,0.592139422894,-11.0,-110.851251684,99.7524210943,1.03952583472,-75.0,-1.04259458383,53.0,1.0471975512,-75.0,-1.0471975512,53.0,11108600.7306,0.0,0.0,0.0,0.0,0.0,0.0
1402758445786746378,3,-21.6644719827,-7.1377884924,6.74583082771,2.38304939926,36.907047422,-3.84635974695,0.0841414179746,0.0,-0.252891062784,0.0,0.0425186706644,0.0,2.91597301075,0.0,-0.240427472507,0.0,0.00427434313067,0.0,-0.00987149175928,0.0,0.0642281081697,0.0,0.00667201847194,0.0,-0.0,-0.0,0.592139422894,-11.0,-110.851251684,99.7524210943,1.03952583472,-75.0,-1.04259458383,53.0,1.0471975512,-75.0,-1.0471975512,53.0,11108600.7306,0.0,0.0,0.0,0.0,0.0,0.0
1402758445807166524,3,-21.6644719827,-7.1377884924,6.74583082771,2.38304939926,36.907047422,-3.84635974695,0.0841414179746,0.0,-0.252891062784,0.0,0.0425186706644,0.0,2.91597301075,0.0,-0.240427472507,0.0,0.00427434313067,0.0,-0.00987149175928,0.0,0.0642281081697,0.0,0.00667201847194,0.0,-0.0,-0.0,0.592139422894,-11.0,-110.851251684,99.7524210943,1.03952583472,-75.0,-1.04259458383,53.0,1.0471975512,-75.0,-1.0471975512,53.0,11108600.7306,0.0,0.0,0.0,0.0,0.0,0.0
1402758445826866904,3,-21.6623003788,-7.1377884924,6.73236844156,2.38304939926,36.8889065867,-3.84635974695,0.0755068987722,0.0,-0.261942945401,0.0,0.034495111698,0.0,2.90625272228,0.0,-0.238203003218,0.0,0.00463103194463,0.0,-0.00843562419015,0.0,0.0648109025115,0.0,0.00965537242767,0.0,-0.0,-0.0,0.592139422894,-11.0,-110.851251684,99.7524210943,1.03952583472,-75.0,-1.04259458383,53.0,1.0471975512,-75.0,-1.0471975512,53.0,11108600.7306,0.0,0.0,0.0,0.0,0.0,0.0
1402758445847136388,3,-21.6623003788,-7.1377884924,6.73236844156,2.38304939926,36.8889065867,-3.84635974695,0.0755068987722,0.0,-0.261942945401,0.0,0.034495111698,0.0,2.90625272228,0.0,-0.238203003218,0.0,0.00463103194463,0.0,-0.00843562419015,0.0,0.0648109025115,0.0,0.00965537242767,0.0,-0.0,-0.0,0.592139422894,-11.0,-110.851251684,99.7524210943,1.03952583472,-75.0,-1.04259458383,53.0,1.0471975512,-75.0,-1.0471975512,53.0,11108600.7306,0.0,0.0,0.0,0.0,0.0,0.0
1402758445866967593,3,-21.6539482942,-7.1377884924,6.71463289534,2.38304939926,36.8800604146,-3.84635974695,0.0817325356358,0.0,-0.283857909539,0.0,0.0399913220211,0.0,2.89693604012,0.0,-0.23289111912,0.0,0.00348654961377,0.0,-0.0110798568671,0.0,0.0632527200849,0.0,0.00946322224544,0.0,-0.0,-0.0,0.592139422894,-11.0,-110.851251684,99.7524210943,1.04105981986,-75.0,-1.04259458383,53.0,1.0471975512,-75.0,-1.0471975512,53.0,11108600.7306,0.0,0.0,0.0,0.0,0.0,0.0
1402758445886535093,3,-21.6539482942,-7.1377884924,6.71463289534,2.38304939926,36.8800604146,-3.84635974695,0.0817325356358,0.0,-0.283857909539,0.0,0.0399913220211,0.0,2.89693604012,0.0,-0.23289111912,0.0,0.00348654961377,0.0,-0.0110798568671,0.0,0.0632527200849,0.0,0.00946322224544,0.0,-0.0,-0.0,0.592139422894,-11.0,-110.851251684,99.7524210943,1.03952583472,-75.0,-1.04259458383,53.0,1.0471975512,-75.0,-1.0471975512,53.0,11108600.7306,0.0,0.0,0.0,0.0,0.0,0.0
1402758445906765936,3,-21.6470983086,-7.1377884924,6.7025194028,2.38304939926,36.8760807329,-3.84635974695,0.0839361988944,0.0,-0.290853453844,0.0,0.0361872965648,0.0,2.88738359706,0.0,-0.2288652601,0.0,0.00453616371916,0.0,-0.00994449552589,0.0,0.0628366615225,0.0,0.00529849380834,0.0,-0.0,-0.0,0.592139422894,-11.0,-110.851251684,99.7524210943,1.03952583472,-75.0,-1.04259458383,53.0,1.0471975512,-75.0,-1.0471975512,53.0,11108600.7306,0.0,0.0,0.0,0.0,0.0,0.0
1402758445927861436,3,-21.6470983086,-7.1377884924,6.7025194028,2.38304939926,36.8760807329,-3.84635974695,0.0839361988944,0.0,-0.290853453844,0.0,0.0361872965648,0.0,2.88738359706,0.0,-0.2288652601,0.0,0.00453616371916,0.0,-0.00994449552589,0.0,0.0628366615225,0.0,0.00529849380834,0.0,-0.0,-0.0,0.592139422894,-11.0,-110.851251684,99.7524210943,1.03952583472,-75.0,-1.04259458383,53.0,1.0471975512,-75.0,-1.0471975512,53.0,11108600.7306,0.0,0.0,0.0,0.0,0.0,0.0
1402758445946866407,3,-21.6436564928,-7.1377884924,6.69069878684,2.38304939926,36.8774876276,-3.84635974695,0.0846661184992,0.0,-0.301149391345,0.0,0.0378771132088,0.0,2.87810118252,0.0,-0.234671937166,0.0,0.00504441683004,0.0,-0.0121060576079,0.0,0.0626771166391,0.0,0.00698170256249,0.0,-0.0,-0.0,0.592139422894,-11.0,-110.851251684,99.7524210943,1.03952583472,-75.0,-1.04259458383,53.0,1.0471975512,-75.0,-1.0471975512,53.0,11108600.7306,0.0,0.0,0.0,0.0,0.0,0.0
1402758445966519347,3,-21.6436564928,-7.1377884924,6.69069878684,2.38304939926,36.8774876276,-3.84635974695,0.0846661184992,0.0,-0.301149391345,0.0,0.0378771132088,0.0,2.87810118252,0.0,-0.234671937166,0.0,0.00504441683004,0.0,-0.0121060576079,0.0,0.0626771166391,0.0,0.00698170256249,0.0,-0.0,-0.0,0.592139422894,-11.0,-110.851251684,99.7524210943,1.03952583472,-75.0,-1.04106012185,53.0,1.0471975512,-75.0,-1.0471975512,53.0,11108600.7306,0.0,0.0,0.0,0.0,0.0,0.0
1402758445987293974,3,-21.6396365611,-7.1377884924,6.67982102953,2.38304939926,36.8793683231,-3.84635974695,0.0828694725746,0.0,-0.29970981797,0.0,0.0487434029291,0.0,2.86878501734,0.0,-0.229001603764,0.0,0.00659052801811,0.0,-0.0254088147785,0.0,0.0629423506958,0.0,0.00476921925357,0.0,-0.0,-0.0,0.592139422894,-11.0,-110.851251684,99.7524210943,1.04105981986,-75.0,-1.04259458383,53.0,1.0471975512,-75.0,-1.0471975512,53.0,11108600.7306,0.0,0.0,0.0,0.0,0.0,0.0
1402758446006668119,3,-21.6396365611,-7.1377884924,6.67982102953,2.38304939926,36.8793683231,-3.84635974695,0.0828694725746,0.0,-0.29970981797,0.0,0.0487434029291,0.0,2.86878501734,0.0,-0.229001603764,0.0,0.00659052801811,0.0,-0.0254088147785,0.0,0.0629423506958,0.0,0.00476921925357,0.0,-0.0,-0.0,0.592139422894,-11.0,-110.851251684,99.7524210943,1.04105981986,-75.0,-1.04259458383,53.0,1.0471975512,-75.0,-1.0471975512,53.0,11108600.7306,0.0,0.0,0.0,0.0,0.0,0.0
1402758446026581215,3,-21.6365105136,-7.1377884924,6.67040004964,2.38304939926,36.9010968964,-3.84635974695,0.0742930877709,0.0,-0.303905887212,0.0,0.0636701022906,0.0,2.85973572572,0.0,-0.231837649075,0.0,0.00782036883652,0.0,-0.0129485869431,0.0,0.0640544796951,0.0,0.0045336525072,0.0,-0.0,-0.0,0.592139422894,-11.0,-110.851251684,99.7524210943,1.03952583472,-75.0,-1.04259458383,53.0,1.0471975512,-75.0,-1.0471975512,53.0,11108600.7306,0.0,0.0,0.0,0.0,0.0,0.0
1402758446047186159,3,-21.6365105136,-7.1377884924,6.67040004964,2.38304939926,36.9010968964,-3.84635974695,0.0742930877709,0.0,-0.303905887212,0.0,0.0636701022906,0.0,2.85973572572,0.0,-0.231837649075,0.0,0.00782036883652,0.0,-0.0129485869431,0.0,0.0640544796951,0.0,0.0045336525072,0.0,-0.0,-0.0,0.592139422894,-11.0,-110.851251684,99.7524210943,1.03952583472,-75.0,-1.04259458383,53.0,1.0471975512,-75.0,-1.0471975512,53.0,11108600.7306,0.0,0.0,0.0,0.0,0.0,0.0
1402758446066634544,3,-21.6287406039,-7.1377884924,6.65273528441,2.38304939926,36.8705490803,-3.84635974695,0.0833711720926,0.0,-0.320476305692,0.0,0.0608449655544,0.0,2.85036155861,0.0,-0.22267509571,0.0,0.00780867388157,0.0,-0.0118254324973,0.0,0.0622476491719,0.0,0.00129397837679,0.0,-0.0,-0.0,0.592139422894,-11.0,-110.851251684,99.7524210943,1.03952583472,-75.0,-1.04106012185,53.0,1.0471975512,-75.0,-1.0471975512,53.0,11108600.7306,0.0,0.0,0.0,0.0,0.0,0.0
1402758446086626619,3,-21.6287406039,-7.1377884924,6.65273528441,2.38304939926,36.8705490803,-3.84635974695,0.0833711720926,0.0,-0.320476305692,0.0,0.0608449655544,0.0,2.85036155861,0.0,-0.22267509571,0.0,0.00780867388157,0.0,-0.0118254324973,0.0,0.0622476491719,0.0,0.00129397837679,0.0,-0.0,-0.0,0.592139422894,-11.0,-110.851251684,99.7524210943,1.03952583472,-75.0,-1.04259458383,53.0,1.0471975512,-75.0,-1.0471975512,53.0,11108600.7306,0.0,0.0,0.0,0.0,0.0,0.0
1402758446107142268,3,-21.6261006312,-7.1377884924,6.64207496339,2.38304939926,36.8689141526,-3.84635974695,0.0792894681161,0.0,-0.320375097896,0.0,0.0555044923633,0.0,2.84146953552,0.0,-0.224839146324,0.0,0.00909353094756,0.0,-0.00601538789773,0.0,0.063190462325,0.0,0.00286752197965,0.0,-0.0,-0.0,0.592139422894,-11.0,-110.851251684,99.7524210943,1.03952583472,-75.0,-1.04259458383,53.0,1.0471975512,-75.0,-1.0471975512,53.0,11108600.7306,0.0,0.0,0.0,0.0,0.0,0.0
1402758446126741889,3,-21.6261006312,-7.1377884924,6.64207496339,2.38304939926,36.8689141526,-3.84635974695,0.0792894681161,0.0,-0.320375097896,0.0,0.0555044923633,0.0,2.84146953552,0.0,-0.224839146324,0.0,0.00909353094756,0.0,-0.00601538789773,0.0,0.063190462325,0.0,0.00286752197965,0.0,-0.0,-0.0,0.592139422894,-11.0,-110.851251684,99.7524210943,1.03952583472,-75.0,-1.04259458383,53.0,1.0471975512,-75.0,-1.0471975512,53.0,11108600.7306,0.0,0.0,0.0,0.0,0.0,0.0
1402758446146832827,3,-21.6229108716,-7.1377884924,6.62905504043,2.38304939926,36.8712737178,-3.84635974695,0.0794162827777,0.0,-0.327740506897,0.0,0.0504235419243,0.0,2.83263704571,0.0,-0.222325668592,0.0,0.00915660587362,0.0,-0.00358005449301,0.0,0.063335677029,0.0,-0.00294322190995,0.0,-0.0,-0.0,0.592139422894,-11.0,-110.851251684,99.7524210943,1.03952583472,-75.0,-1.04259458383,53.0,1.0471975512,-75.0,-1.0471975512,53.0,11108600.7306,0.0,0.0,0.0,0.0,0.0,0.0
1402758446167104830,3,-21.6229108716,-7.1377884924,6.62905504043,2.38304939926,36.8712737178,-3.84635974695,0.0794162827777,0.0,-0.327740506897,0.0,0.0504235419243,0.0,2.83263704571,0.0,-0.222325668592,0.0,0.00915660587362,0.0,-0.00358005449301,0.0,0.063335677029,0.0,-0.00294322190995,0.0,-0.0,-0.0,0.592139422894,-11.0,-110.851251684,99.7524210943,1.03952583472,-75.0,-1.04259458383,53.0,1.0471975512,-75.0,-1.0471975512,53.0,11108600.7306,0.0,0.0,0.0,0.0,0.0,0.0
1402758446186555779,3,-21.6233890065,-7.1377884924,6.61913565465,2.38304939926,36.8632530867,-3.84635974695,0.065727793566,0.0,-0.323613819515,0.0,0.0520615439437,0.0,2.82377618978,0.0,-0.218598816948,0.0,0.0100831963286,0.0,0.00878258848151,0.0,0.0653461776391,0.0,-0.0115920723707,0.0,-0.0,-0.0,0.592139422894,-11.0,-110.851251684,99.7524210943,1.03952583472,-75.0,-1.04259458383,53.0,1.0471975512,-75.0,-1.0471975512,53.0,11108600.7306,0.0,0.0,0.0,0.0,0.0,0.0
1402758446206499258,3,-21.6233890065,-7.1377884924,6.61913565465,2.38304939926,36.8632530867,-3.84635974695,0.065727793566,0.0,-0.323613819515,0.0,0.0520615439437,0.0,2.82377618978,0.0,-0.218598816948,0.0,0.0100831963286,0.0,0.00878258848151,0.0,0.0653461776391,0.0,-0.0115920723707,0.0,-0.0,-0.0,0.592139422894,-11.0,-110.851251684,99.7524210943,1.03952583472,-75.0,-1.04259458383,53.0,1.0471975512,-75.0,-1.0471975512,53.0,11108600.7306,0.0,0.0,0.0,0.0,0.0,0.0
1402758446226977846,3,-21.6180846533,-7.1377884924,6.60685174524,2.38304939926,36.8593967331,-3.84635974695,0.0666659882806,0.0,-0.328497727748,0.0,0.0531239630329,0.0,2.81460504441,0.0,-0.215916572797,0.0,0.0102539961485,0.0,0.0181499236287,0.0,0.0653754842252,0.0,-0.0231857349418,0.0,-0.0,-0.0,0.592139422894,-11.0,-110.851251684,99.7524210943,1.03952583472,-75.0,-1.04106012185,53.0,1.0471975512,-75.0,-1.0471975512,53.0,11108600.7306,0.0,0.0,0.0,0.0,0.0,0.0
1402758446246923745,3,-21.6180846533,-7.1377884924,6.60685174524,2.38304939926,36.8593967331,-3.84635974695,0.0666659882806,0.0,-0.328497727748,0.0,0.0531239630329,0.0,2.81460504441,0.0,-0.215916572797,0.0,0.0102539961485,0.0,0.0181499236287,0.0,0.0653754842252,0.0,-0.0231857349418,0.0,-0.0,-0.0,0.592139422894,-11.0,-110.851251684,99.7524210943,1.03952583472,-75.0,-1.04259458383,53.0,1.0471975512,-75.0,-1.0471975512,53.0,11108600.7306,0.0,0.0,0.0,0.0,0.0,0.0
1402758446266542901,3,-21.6179604367,-7.1377884924,6.59616459658,2.38304939926,36.8540101138,-3.84635974695,0.0574574747127,0.0,-0.324982242468,0.0,0.0415604263127,0.0,2.80605984925,0.0,-0.217285711874,0.0,0.0105676601128,0.0,0.00286105131308,0.0,0.0671271349344,0.0,-0.00820812097285,0.0,-0.0,-0.0,0.592139422894,-11.0,-110.851251684,99.7524210943,1.03952583472,-75.0,-1.04259458383,53.0,1.0471975512,-75.0,-1.0471975512,53.0,11108600.7306,0.0,0.0,0.0,0.0,0.0,0.0
1402758446286571102,3,-21.6179604367,-7.1377884924,6.59616459658,2.38304939926,36.8540101138,-3.84635974695,0.0574574747127,0.0,-0.324982242468,0.0,0.0415604263127,0.0,2.80605984925,0.0,-0.217285711874,0.0,0.0105676601128,0.0,0.00286105131308,0.0,0.0671271349344,0.0,-0.00820812097285,0.0,-0.0,-0.0,0.592139422894,-11.0,-110.851251684,99.7524210943,1.03952583472,-75.0,-1.04259458383,53.0,1.0471975512,-75.0,-1.0471975512,53.0,11108600.7306,0.0,0.0,0.0,0.0,0.0,0.0
1402758446307296406,3,-21.6147307269,-7.1377884924,6.57985646389,2.38304939926,36.8456809319,-3.84635974695,0.0571230418992,0.0,-0.337491492214,0.0,0.0456722981539,0.0,2.7974540703,0.0,-0.210924226061,0.0,0.00939078306169,0.0,0.00806367401288,0.0,0.0671612867979,0.0,-0.0175368167792,0.0,-0.0,-0.0,0.592139422894,-11.0,-110.851251684,99.7524210943,1.03952583472,-75.0,-1.04259458383,53.0,1.0471975512,-75.0,-1.0471975512,53.0,11108600.7306,0.0,0.0,0.0,0.0,0.0,0.0
1402758446326528834,3,-21.6147307269,-7.1377884924,6.57985646389,2.38304939926,36.8456809319,-3.84635974695,0.0571230418992,0.0,-0.337491492214,0.0,0.0456722981539,0.0,2.7974540703,0.0,-0.210924226061,0.0,0.00939078306169,0.0,0.00806367401288,0.0,0.0671612867979,0.0,-0.0175368167792,0.0,-0.0,-0.0,0.592139422894,-11.0,-110.851251684,99.7524210943,1.03952583472,-75.0,-1.04259458383,53.0,1.0471975512,-75.0,-1.0471975512,53.0,11108600.7306,0.0,0.0,0.0,0.0,0.0,0.0
1402758446346576363,3,-21.6124666603,-7.1377884924,6.56577438501,2.38304939926,36.8479693134,-3.84635974695,0.0549096009219,0.0,-0.344287539398,0.0,0.053888139285,0.0,2.78891272495,0.0,-0.211045402953,0.0,0.00892434457006,0.0,0.00934788762269,0.0,0.0677494346822,0.0,-0.0147337329732,0.0,-0.0,-0.0,0.592139422894,-11.0,-110.851251684,99.7524210943,1.03952583472,-75.0,-1.04106012185,53.0,1.0471975512,-75.0,-1.0471975512,53.0,11108600.7306,0.0,0.0,0.0,0.0,0.0,0.0
1402758446367036863,3,-21.6124666603,-7.1377884924,6.56577438501,2.38304939926,36.8479693134,-3.84635974695,0.0549096009219,0.0,-0.344287539398,0.0,0.053888139285,0.0,2.78891272495,0.0,-0.211045402953,0.0,0.00892434457006,0.0,0.00934788762269,0.0,0.0677494346822,0.0,-0.0147337329732,0.0,-0.0,-0.0,0.592139422894,-11.0,-110.851251684,99.7524210943,1.03952583472,-75.0,-1.04259458383,53.0,1.0471975512,-75.0,-1.0471975512,53.0,11108600.7306,0.0,0.0,0.0,0.0,0.0,0.0
1402758446387022495,3,-21.603279258,-7.1377884924,6.55075166923,2.38304939926,36.8566519694,-3.84635974695,0.0633445410076,0.0,-0.345452595848,0.0,0.0546438690788,0.0,2.77785487207,0.0,-0.203098805356,0.0,0.00929693103642,0.0,0.00394994395842,0.0,0.0672953268677,0.0,-0.0100080253181,0.0,-0.0,-0.0,0.592139422894,-11.0,-110.851251684,99.7524210943,1.03952583472,-75.0,-1.04106012185,53.0,1.0471975512,-75.0,-1.0471975512,53.0,11108600.7306,0.0,0.0,0.0,0.0,0.0,0.0
1402758446406719494,3,-21.603279258,-7.1377884924,6.55075166923,2.38304939926,36.8566519694,-3.84635974695,0.0633445410076,0.0,-0.345452595848,0.0,0.0546438690788,0.0,2.77785487207,0.0,-0.203098805356,0.0,0.00929693103642,0.0,0.00394994395842,0.0,0.0672953268677,0.0,-0.0100080253181,0.0,-0.0,-0.0,0.592139422894,-11.0,-110.851251684,99.7524210943,1.03952583472,-75.0,-1.04259458383,53.0,1.0471975512,-75.0,-1.0471975512,53.0,11108600.7306,0.0,0.0,0.0,0.0,0.0,0.0
