rosbagTimestamp,control_method,x_current,x_desired,y_current,y_desired,z_current,z_desired,x_velocity_current,x_velocity_desired,y_velocity_current,y_velocity_desired,z_velocity_current,z_velocity_desired,yaw_current,yaw_desired,yaw_velocity_current,yaw_velocity_desired,roll_current,roll_desired,roll_velocity_current,roll_velocity_desired,pitch_current,pitch_desired,pitch_velocity_current,pitch_velocity_desired,required_force_x,required_force_y,required_moment_z,resultant_force_x,resultant_force_y,resultant_moment_z,current_port_servo_angle,current_port_thruster_force,current_starboard_servo_angle,current_starboard_thruster_force,estimated_port_servo_angle,estimated_port_thruster_force,estimated_starboard_servo_angle,estimated_starboard_thruster_force,cost_value,step,user_defined_1,user_defined_2,user_defined_3,user_defined_4,user_defined_5
1402752588725923168,3,-7.08298042589,-0.00591572024346,9.15069916907,-0.122189614607,-0.269818460167,0.10862951003,0.00118930531668,0.0,-0.015869526271,0.0,0.0744515468971,0.0,-1.4277512684,0.0,-0.00931545053983,0.0,-0.00142529815747,0.0,-0.0110511634239,0.0,0.0726435619845,0.0,-0.00648081957026,0.0,0.0,0.0,0.0,75.0,-0.0,-22.86,0.00230154196664,0.0,0.000767318410122,0.0,-0.0,75.0,-0.0,0.0,570664.8,0.0,0.0,0.0,0.0,0.0,0.0
1402752588745531537,3,-7.08298042589,-0.00591572024346,9.15069916907,-0.122189614607,-0.269818460167,0.10862951003,0.00118930531668,0.0,-0.015869526271,0.0,0.0744515468971,0.0,-1.4277512684,0.0,-0.00931545053983,0.0,-0.00142529815747,0.0,-0.0110511634239,0.0,0.0726435619845,0.0,-0.00648081957026,0.0,0.0,0.0,0.0,75.0,-0.0,-22.86,0.00230154196664,0.0,0.000767318410122,0.0,-0.0,75.0,-0.0,0.0,570664.8,0.0,0.0,0.0,0.0,0.0,0.0
1402752588765897498,3,-7.07772073281,-0.00591572024346,9.14803475041,-0.122189614607,-0.277660725731,0.10862951003,0.00924918099555,0.0,-0.0192579055758,0.0,0.0696840592974,0.0,-1.42826981039,0.0,-0.00842828854851,0.0,-0.00214694159742,0.0,-0.0125659810601,0.0,0.0725115506756,0.0,-0.00530299629418,0.0,0.0,0.0,0.0,75.0,-0.0,-22.86,0.000767318410122,0.0,0.000767318410122,0.0,-0.0,75.0,-0.0,0.0,570664.8,0.0,0.0,0.0,0.0,0.0,0.0
1402752588785404492,3,-7.07772073281,-0.00591572024346,9.14803475041,-0.122189614607,-0.277660725731,0.10862951003,0.00924918099555,0.0,-0.0192579055758,0.0,0.0696840592974,0.0,-1.42826981039,0.0,-0.00842828854851,0.0,-0.00214694159742,0.0,-0.0125659810601,0.0,0.0725115506756,0.0,-0.00530299629418,0.0,0.0,0.0,0.0,75.0,-0.0,-22.86,0.00230154196664,0.0,0.000767318410122,0.0,-0.0,75.0,-0.0,0.0,570664.8,0.0,0.0,0.0,0.0,0.0,0.0
1402752588806787128,3,-7.07982764746,-0.00591572024346,9.14452480994,-0.122189614607,-0.271487152163,0.10862951003,-0.00390928373893,0.0,-0.0211908577277,0.0,0.070328696078,0.0,-1.42879454258,0.0,-0.0130543352539,0.0,-0.00041670093652,0.0,-0.0106803669328,0.0,0.0718837297274,0.0,-0.0074931289511,0.0,0.0,0.0,0.0,75.0,-0.0,-22.86,0.00230154196664,0.0,0.000767318410122,0.0,-0.0,75.0,-0.0,0.0,570664.8,0.0,0.0,0.0,0.0,0.0,0.0
1402752588825240106,3,-7.07982764746,-0.00591572024346,9.14452480994,-0.122189614607,-0.271487152163,0.10862951003,-0.00390928373893,0.0,-0.0211908577277,0.0,0.070328696078,0.0,-1.42879454258,0.0,-0.0130543352539,0.0,-0.00041670093652,0.0,-0.0106803669328,0.0,0.0718837297274,0.0,-0.0074931289511,0.0,0.0,0.0,0.0,75.0,-0.0,-22.86,0.00230154196664,0.0,0.000767318410122,0.0,-0.0,75.0,-0.0,0.0,570664.8,0.0,0.0,0.0,0.0,0.0,0.0
1402752588845660710,3,-7.07652869679,-0.00591572024346,9.14151443113,-0.122189614607,-0.277980074132,0.10862951003,-0.00168710452979,0.0,-0.0255189111653,0.0,0.0663709943832,0.0,-1.42936726752,0.0,-0.00880267586642,0.0,-0.00049126128173,0.0,-0.00607921694611,0.0,0.0720001796917,0.0,-0.0123962019794,0.0,0.0,0.0,0.0,75.0,-0.0,-22.86,0.00230154196664,0.0,0.000767318410122,0.0,-0.0,75.0,-0.0,0.0,570664.8,0.0,0.0,0.0,0.0,0.0,0.0
1402752588865938590,3,-7.07652869679,-0.00591572024346,9.14151443113,-0.122189614607,-0.277980074132,0.10862951003,-0.00168710452979,0.0,-0.0255189111653,0.0,0.0663709943832,0.0,-1.42936726752,0.0,-0.00880267586642,0.0,-0.00049126128173,0.0,-0.00607921694611,0.0,0.0720001796917,0.0,-0.0123962019794,0.0,0.0,0.0,0.0,75.0,-0.0,-22.86,0.00230154196664,0.0,0.000767318410122,0.0,-0.0,75.0,-0.0,0.0,570664.8,0.0,0.0,0.0,0.0,0.0,0.0
1402752588885702263,3,-7.06977046497,-0.00591572024346,9.13600637806,-0.122189614607,-0.27277155787,0.10862951003,0.00805159992946,0.0,-0.0329804444345,0.0,0.0664868026157,0.0,-1.42994631321,0.0,-0.0114778291153,0.0,-0.00109894430098,0.0,-0.00474489807477,0.0,0.0725221024908,0.0,-0.00931677813976,0.0,0.0,0.0,0.0,75.0,-0.0,-22.86,0.00230154196664,0.0,0.000767318410122,0.0,-0.0,75.0,-0.0,0.0,570664.8,0.0,0.0,0.0,0.0,0.0,0.0
1402752588905363827,3,-7.06977046497,-0.00591572024346,9.13600637806,-0.122189614607,-0.27277155787,0.10862951003,0.00805159992946,0.0,-0.0329804444345,0.0,0.0664868026157,0.0,-1.42994631321,0.0,-0.0114778291153,0.0,-0.00109894430098,0.0,-0.00474489807477,0.0,0.0725221024908,0.0,-0.00931677813976,0.0,0.0,0.0,0.0,75.0,-0.0,-22.86,0.00230154196664,0.0,0.000767318410122,0.0,-0.0,75.0,-0.0,0.0,570664.8,0.0,0.0,0.0,0.0,0.0,0.0
1402752588926291694,3,-7.069458956,-0.00591572024346,9.13468696955,-0.122189614607,-0.270229433054,0.10862951003,0.00946461505349,0.0,-0.0348750320646,0.0,0.0669627863569,0.0,-1.43028187828,0.0,-0.00356687078762,0.0,-0.00107271490458,0.0,0.00392951198457,0.0,0.072498054808,0.0,0.00352235828052,0.0,0.0,0.0,0.0,75.0,-0.0,-22.86,0.00230154196664,0.0,0.000767318410122,0.0,-0.0,75.0,-0.0,0.0,570664.8,0.0,0.0,0.0,0.0,0.0,0.0
1402752588945460361,3,-7.069458956,-0.00591572024346,9.13468696955,-0.122189614607,-0.270229433054,0.10862951003,0.00946461505349,0.0,-0.0348750320646,0.0,0.0669627863569,0.0,-1.43028187828,0.0,-0.00356687078762,0.0,-0.00107271490458,0.0,0.00392951198457,0.0,0.072498054808,0.0,0.00352235828052,0.0,0.0,0.0,0.0,75.0,-0.0,-22.86,0.00230154196664,0.0,0.000767318410122,0.0,-0.0,75.0,-0.0,0.0,570664.8,0.0,0.0,0.0,0.0,0.0,0.0
1402752588966037297,3,-7.07078832741,-0.00591572024346,9.1366483103,-0.122189614607,-0.275435647584,0.10862951003,0.0024726511395,0.0,-0.0258214473216,0.0,0.0626212409824,0.0,-1.43070163468,0.0,-0.00591884237502,0.0,-0.000205113287356,0.0,0.000920515499275,0.0,0.0714270717579,0.0,-0.000429017200211,0.0,0.0,0.0,0.0,75.0,-0.0,-22.86,0.00230154196664,0.0,0.000767318410122,0.0,-0.0,75.0,-0.0,0.0,570664.8,0.0,0.0,0.0,0.0,0.0,0.0
1402752588986022731,3,-7.07078832741,-0.00591572024346,9.1366483103,-0.122189614607,-0.275435647584,0.10862951003,0.0024726511395,0.0,-0.0258214473216,0.0,0.0626212409824,0.0,-1.43070163468,0.0,-0.00591884237502,0.0,-0.000205113287356,0.0,0.000920515499275,0.0,0.0714270717579,0.0,-0.000429017200211,0.0,0.0,0.0,0.0,75.0,-0.0,-22.86,0.00230154196664,0.0,0.000767318410122,0.0,-0.0,75.0,-0.0,0.0,570664.8,0.0,0.0,0.0,0.0,0.0,0.0
1402752589005425952,3,-7.07092062431,-0.00591572024346,9.13298403911,-0.122189614607,-0.273984985985,0.10862951003,-0.00411313636075,0.0,-0.0293831971759,0.0,0.0620617953026,0.0,-1.43090805577,0.0,-5.47121606548e-05,0.0,0.000652331072431,0.0,0.00268396248954,0.0,0.0717311199412,0.0,-0.00026991494674,0.0,0.0,0.0,0.0,75.0,-0.0,-22.86,0.00230154196664,0.0,0.000767318410122,0.0,-0.0,75.0,-0.0,0.0,570664.8,0.0,0.0,0.0,0.0,0.0,0.0
1402752589025350057,3,-7.07092062431,-0.00591572024346,9.13298403911,-0.122189614607,-0.273984985985,0.10862951003,-0.00411313636075,0.0,-0.0293831971759,0.0,0.0620617953026,0.0,-1.43090805577,0.0,-5.47121606548e-05,0.0,0.000652331072431,0.0,0.00268396248954,0.0,0.0717311199412,0.0,-0.00026991494674,0.0,0.0,0.0,0.0,75.0,-0.0,-22.86,0.00230154196664,0.0,0.000767318410122,0.0,-0.0,75.0,-0.0,0.0,570664.8,0.0,0.0,0.0,0.0,0.0,0.0
1402752589045596393,3,-7.06742026347,-0.00591572024346,9.13851842958,-0.122189614607,-0.278371258091,0.10862951003,0.00057736678649,0.0,-0.0148153914424,0.0,0.0595238340251,0.0,-1.43138606239,0.0,-0.00690841075091,0.0,-1.17567403611e-05,0.0,0.00364230561561,0.0,0.0704045782436,0.0,-0.00154878045634,0.0,0.0,0.0,0.0,75.0,-0.0,-22.86,0.00230154196664,0.0,0.000767318410122,0.0,-0.0,75.0,-0.0,0.0,570664.8,0.0,0.0,0.0,0.0,0.0,0.0
1402752589065410653,3,-7.06742026347,-0.00591572024346,9.13851842958,-0.122189614607,-0.278371258091,0.10862951003,0.00057736678649,0.0,-0.0148153914424,0.0,0.0595238340251,0.0,-1.43138606239,0.0,-0.00690841075091,0.0,-1.17567403611e-05,0.0,0.00364230561561,0.0,0.0704045782436,0.0,-0.00154878045634,0.0,0.0,0.0,0.0,75.0,-0.0,-22.86,0.00230154196664,0.0,0.000767318410122,0.0,-0.0,75.0,-0.0,0.0,570664.8,0.0,0.0,0.0,0.0,0.0,0.0
1402752589085441510,3,-7.06478814143,-0.00591572024346,9.1384392507,-0.122189614607,-0.276374485982,0.10862951003,0.000844513969844,0.0,-0.0107355283016,0.0,0.0598626208398,0.0,-1.43174546867,0.0,-0.00569193238119,0.0,-6.37656078903e-05,0.0,0.00277062819398,0.0,0.07016567619,0.0,0.00148222584713,0.0,0.0,0.0,0.0,75.0,-0.0,-22.86,0.00230154196664,0.0,0.000767318410122,0.0,-0.0,75.0,-0.0,0.0,570664.8,0.0,0.0,0.0,0.0,0.0,0.0
1402752589105827625,3,-7.06478814143,-0.00591572024346,9.1384392507,-0.122189614607,-0.276374485982,0.10862951003,0.000844513969844,0.0,-0.0107355283016,0.0,0.0598626208398,0.0,-1.43174546867,0.0,-0.00569193238119,0.0,-6.37656078903e-05,0.0,0.00277062819398,0.0,0.07016567619,0.0,0.00148222584713,0.0,0.0,0.0,0.0,75.0,-0.0,-22.86,0.00230154196664,0.0,0.000767318410122,0.0,-0.0,75.0,-0.0,0.0,570664.8,0.0,0.0,0.0,0.0,0.0,0.0
1402752589125290047,3,-7.06615500783,-0.00591572024346,9.13429505474,-0.122189614607,-0.269585061462,0.10862951003,-0.00959398138324,0.0,-0.0144751268499,0.0,0.06179242502,0.0,-1.43196475174,0.0,-0.0032118366395,0.0,0.00112337834239,0.0,0.0021538783344,0.0,0.0706265976136,0.0,0.00513259972764,0.0,0.0,0.0,0.0,75.0,-0.0,-22.86,0.00230154196664,0.0,0.000767318410122,0.0,-0.0,75.0,-0.0,0.0,570664.8,0.0,0.0,0.0,0.0,0.0,0.0
1402752589145579719,3,-7.06615500783,-0.00591572024346,9.13429505474,-0.122189614607,-0.269585061462,0.10862951003,-0.00959398138324,0.0,-0.0144751268499,0.0,0.06179242502,0.0,-1.43196475174,0.0,-0.0032118366395,0.0,0.00112337834239,0.0,0.0021538783344,0.0,0.0706265976136,0.0,0.00513259972764,0.0,0.0,0.0,0.0,75.0,-0.0,-22.86,0.00230154196664,0.0,0.000767318410122,0.0,-0.0,75.0,-0.0,0.0,570664.8,0.0,0.0,0.0,0.0,0.0,0.0
1402752589165378492,3,-7.06663310978,-0.00591572024346,9.13374789906,-0.122189614607,-0.267105964675,0.10862951003,-0.0108575509183,0.0,-0.0148044015339,0.0,0.0638562273993,0.0,-1.43218740421,0.0,-0.00393304029568,0.0,0.00119544756706,0.0,0.0081698397844,0.0,0.0709361835035,0.0,-0.00280802817197,0.0,0.0,0.0,0.0,75.0,-0.0,-22.86,0.00230154196664,0.0,0.000767318410122,0.0,-0.0,75.0,-0.0,0.0,570664.8,0.0,0.0,0.0,0.0,0.0,0.0
1402752589185400307,3,-7.06663310978,-0.00591572024346,9.13374789906,-0.122189614607,-0.267105964675,0.10862951003,-0.0108575509183,0.0,-0.0148044015339,0.0,0.0638562273993,0.0,-1.43218740421,0.0,-0.00393304029568,0.0,0.00119544756706,0.0,0.0081698397844,0.0,0.0709361835035,0.0,-0.00280802817197,0.0,0.0,0.0,0.0,75.0,-0.0,-22.86,0.00230154196664,0.0,0.000767318410122,0.0,-0.0,75.0,-0.0,0.0,570664.8,0.0,0.0,0.0,0.0,0.0,0.0
1402752589205439910,3,-7.06078546031,-0.00591572024346,9.12863372689,-0.122189614607,-0.268851464238,0.10862951003,-0.000951463960235,0.0,-0.0218314311172,0.0,0.0626779747901,0.0,-1.43263577871,0.0,-0.00979840432046,0.0,0.000112332378303,0.0,0.0026786904872,0.0,0.0720366259124,0.0,-0.000235875012326,0.0,0.0,0.0,0.0,75.0,-0.0,-22.86,0.00230154196664,0.0,0.000767318410122,0.0,-0.0,75.0,-0.0,0.0,570664.8,0.0,0.0,0.0,0.0,0.0,0.0
1402752589225383686,3,-7.06078546031,-0.00591572024346,9.12863372689,-0.122189614607,-0.268851464238,0.10862951003,-0.000951463960235,0.0,-0.0218314311172,0.0,0.0626779747901,0.0,-1.43263577871,0.0,-0.00979840432046,0.0,0.000112332378303,0.0,0.0026786904872,0.0,0.0720366259124,0.0,-0.000235875012326,0.0,0.0,0.0,0.0,75.0,-0.0,-22.86,0.00230154196664,0.0,0.000767318410122,0.0,-0.0,75.0,-0.0,0.0,570664.8,0.0,0.0,0.0,0.0,0.0,0.0
1402752589245606318,3,-7.05957966912,-0.00591572024346,9.13179636913,-0.122189614607,-0.271149924944,0.10862951003,-0.00475187990593,0.0,-0.00972789438086,0.0,0.061692328477,0.0,-1.43305786261,0.0,-0.00430542148896,0.0,0.000619421714446,0.0,-0.00393306741915,0.0,0.070856984254,0.0,-0.00804228869159,0.0,0.0,0.0,0.0,75.0,-0.0,-22.86,0.00230154196664,0.0,0.000767318410122,0.0,-0.0,75.0,-0.0,0.0,570664.8,0.0,0.0,0.0,0.0,0.0,0.0
1402752589265432680,3,-7.05957966912,-0.00591572024346,9.13179636913,-0.122189614607,-0.271149924944,0.10862951003,-0.00475187990593,0.0,-0.00972789438086,0.0,0.061692328477,0.0,-1.43305786261,0.0,-0.00430542148896,0.0,0.000619421714446,0.0,-0.00393306741915,0.0,0.070856984254,0.0,-0.00804228869159,0.0,0.0,0.0,0.0,75.0,-0.0,-22.86,0.00230154196664,0.0,0.000767318410122,0.0,-0.0,75.0,-0.0,0.0,570664.8,0.0,0.0,0.0,0.0,0.0,0.0
1402752589285485784,3,-7.05694772769,-0.00591572024346,9.12280969133,-0.122189614607,-0.270016325546,0.10862951003,-0.00414058877277,0.0,-0.0273221315689,0.0,0.0628811780139,0.0,-1.43336492684,0.0,-0.00791541147761,0.0,0.000980614186093,0.0,-0.00316633775458,0.0,0.0727612223892,0.0,-0.00710299709207,0.0,0.0,0.0,0.0,75.0,-0.0,-22.86,0.00230154196664,0.0,0.000767318410122,0.0,-0.0,75.0,-0.0,0.0,570664.8,0.0,0.0,0.0,0.0,0.0,0.0
1402752589305666852,3,-7.05694772769,-0.00591572024346,9.12280969133,-0.122189614607,-0.270016325546,0.10862951003,-0.00414058877277,0.0,-0.0273221315689,0.0,0.0628811780139,0.0,-1.43336492684,0.0,-0.00791541147761,0.0,0.000980614186093,0.0,-0.00316633775458,0.0,0.0727612223892,0.0,-0.00710299709207,0.0,0.0,0.0,0.0,75.0,-0.0,-22.86,0.00230154196664,0.0,0.000767318410122,0.0,-0.0,75.0,-0.0,0.0,570664.8,0.0,0.0,0.0,0.0,0.0,0.0
1402752589325755631,3,-7.05718851668,-0.00591572024346,9.12154836325,-0.122189614607,-0.267199476076,0.10862951003,-0.005011991341,0.0,-0.0262825605449,0.0,0.0636376160332,0.0,-1.43384820697,0.0,-0.0135309192443,0.0,0.00126046823927,0.0,-0.00710514515271,0.0,0.0725492384364,0.0,-0.0132698553516,0.0,0.0,0.0,0.0,75.0,-0.0,-22.86,0.00230154196664,75.0,0.000767318410122,0.0,-0.0,75.0,-0.0,0.0,570664.8,0.0,0.0,0.0,0.0,0.0,0.0
1402752589346008811,3,-7.05718851668,-0.00591572024346,9.12154836325,-0.122189614607,-0.267199476076,0.10862951003,-0.005011991341,0.0,-0.0262825605449,0.0,0.0636376160332,0.0,-1.43384820697,0.0,-0.0135309192443,0.0,0.00126046823927,0.0,-0.00710514515271,0.0,0.0725492384364,0.0,-0.0132698553516,0.0,0.0,0.0,0.0,75.0,-0.0,-22.86,0.00230154196664,75.0,0.000767318410122,0.0,-0.0,75.0,-0.0,0.0,570664.8,0.0,0.0,0.0,0.0,0.0,0.0
1402752589365295074,3,-7.05367397811,-0.00591572024346,9.12926538002,-0.122189614607,-0.268095216694,0.10862951003,-0.00187790715703,0.0,-0.00598292550296,0.0,0.0640448570293,0.0,-1.43439530154,0.0,-0.0116860379913,0.0,0.000840123562883,0.0,-0.0073737007509,0.0,0.0703694465931,0.0,-4.91566820823e-05,0.0,0.0,0.0,0.0,75.0,-0.0,-22.86,0.00230154196664,75.0,0.000767318410122,0.0,-0.0,75.0,-0.0,0.0,570664.8,0.0,0.0,0.0,0.0,0.0,0.0
1402752589385291857,3,-7.05367397811,-0.00591572024346,9.12926538002,-0.122189614607,-0.268095216694,0.10862951003,-0.00187790715703,0.0,-0.00598292550296,0.0,0.0640448570293,0.0,-1.43439530154,0.0,-0.0116860379913,0.0,0.000840123562883,0.0,-0.0073737007509,0.0,0.0703694465931,0.0,-4.91566820823e-05,0.0,0.0,0.0,0.0,75.0,-0.0,-22.86,0.00230154196664,75.0,0.000767318410122,0.0,-0.0,75.0,-0.0,0.0,570664.8,0.0,0.0,0.0,0.0,0.0,0.0
1402752589405447375,3,-7.04858045542,-0.00591572024346,9.12115193885,-0.122189614607,-0.269442868953,0.10862951003,0.00395322743232,0.0,-0.022350890657,0.0,0.0624196979872,0.0,-1.43485155761,0.0,-0.00707893452505,0.0,0.000225206873573,0.0,-0.0108030627474,0.0,0.0719267855701,0.0,-0.00273086365588,0.0,0.0,0.0,0.0,75.0,-0.0,-22.86,0.00230154196664,75.0,0.000767318410122,0.0,-0.0,75.0,-0.0,0.0,570664.8,0.0,0.0,0.0,0.0,0.0,0.0
1402752589425829714,3,-7.04858045542,-0.00591572024346,9.12115193885,-0.122189614607,-0.269442868953,0.10862951003,0.00395322743232,0.0,-0.022350890657,0.0,0.0624196979872,0.0,-1.43485155761,0.0,-0.00707893452505,0.0,0.000225206873573,0.0,-0.0108030627474,0.0,0.0719267855701,0.0,-0.00273086365588,0.0,0.0,0.0,0.0,75.0,-0.0,-22.86,0.00230154196664,75.0,-0.000767381983555,0.0,-0.0,75.0,-0.0,0.0,570664.8,0.0,0.0,0.0,0.0,0.0,0.0
1402752589445408373,3,-7.04691881332,-0.00591572024346,9.1219565859,-0.122189614607,-0.268682506791,0.10862951003,0.00177791450942,0.0,-0.0180535254588,0.0,0.0631851613874,0.0,-1.43530333551,0.0,-0.0125423881997,0.0,0.000551543465236,0.0,-0.0107411622605,0.0,0.0710972836527,0.0,-0.004789261177,0.0,0.0,0.0,0.0,75.0,-0.0,-22.86,0.00230154196664,75.0,-0.00230160554007,0.0,-0.0,75.0,-0.0,0.0,570664.8,0.0,0.0,0.0,0.0,0.0,0.0
1402752589465204461,3,-7.04691881332,-0.00591572024346,9.1219565859,-0.122189614607,-0.268682506791,0.10862951003,0.00177791450942,0.0,-0.0180535254588,0.0,0.0631851613874,0.0,-1.43530333551,0.0,-0.0125423881997,0.0,0.000551543465236,0.0,-0.0107411622605,0.0,0.0710972836527,0.0,-0.004789261177,0.0,0.0,0.0,0.0,75.0,-0.0,-22.86,0.00230154196664,75.0,-0.000767381983555,0.0,-0.0,75.0,-0.0,0.0,570664.8,0.0,0.0,0.0,0.0,0.0,0.0
1402752589485299888,3,-7.04160941079,-0.00591572024346,9.12322924221,-0.122189614607,-0.27207344606,0.10862951003,0.00979728413471,0.0,-0.017604655549,0.0,0.0625206173978,0.0,-1.43594902325,0.0,-0.00895632889511,0.0,-0.000445809968636,0.0,-0.00749921801181,0.0,0.070448660086,0.0,0.00243494295476,0.0,0.0,0.0,0.0,75.0,-0.0,-22.86,0.00230154196664,75.0,0.000767318410122,0.0,-0.0,75.0,-0.0,0.0,570664.8,0.0,0.0,0.0,0.0,0.0,0.0
1402752589505322011,3,-7.04160941079,-0.00591572024346,9.12322924221,-0.122189614607,-0.27207344606,0.10862951003,0.00979728413471,0.0,-0.017604655549,0.0,0.0625206173978,0.0,-1.43594902325,0.0,-0.00895632889511,0.0,-0.000445809968636,0.0,-0.00749921801181,0.0,0.070448660086,0.0,0.00243494295476,0.0,0.0,0.0,0.0,75.0,-0.0,-22.86,0.00230154196664,75.0,0.000767318410122,0.0,-0.0,75.0,-0.0,0.0,570664.8,0.0,0.0,0.0,0.0,0.0,0.0
1402752589525926182,3,-7.04124779052,-0.00591572024346,9.12212868109,-0.122189614607,-0.269660523717,0.10862951003,0.0068795308588,0.0,-0.0411618465655,0.0,0.0649364807719,0.0,-1.43693714743,0.0,-0.0331051794988,0.0,-0.000125130904341,0.0,-0.0234971913905,0.0,0.0699017511745,0.0,-0.00784249551349,0.0,0.0,0.0,0.0,75.0,-0.0,-22.86,0.00230154196664,75.0,0.00230154196664,0.0,-0.0,75.0,-0.0,0.0,570664.8,0.0,0.0,0.0,0.0,0.0,0.0
1402752589545742241,3,-7.04124779052,-0.00591572024346,9.12212868109,-0.122189614607,-0.269660523717,0.10862951003,0.0068795308588,0.0,-0.0411618465655,0.0,0.0649364807719,0.0,-1.43693714743,0.0,-0.0331051794988,0.0,-0.000125130904341,0.0,-0.0234971913905,0.0,0.0699017511745,0.0,-0.00784249551349,0.0,0.0,0.0,0.0,75.0,-0.0,-22.86,0.00230154196664,75.0,0.000767318410122,0.0,-0.0,75.0,-0.0,0.0,570664.8,0.0,0.0,0.0,0.0,0.0,0.0
1402752589565422517,3,-7.03993844816,-0.00591572024346,9.12374110736,-0.122189614607,-0.263108981652,0.10862951003,0.00281661386669,0.0,-0.0553079178857,0.0,0.0780098049456,0.0,-1.43888887516,0.0,-0.0610897678683,0.0,-0.000618834250867,0.0,-0.0315144901286,0.0,0.0673181502373,0.0,-0.0090507845495,0.0,0.0,0.0,0.0,75.0,-0.0,-22.86,0.00230154196664,75.0,0.000767318410122,0.0,-0.0,75.0,-0.0,0.0,570664.8,0.0,0.0,0.0,0.0,0.0,0.0
1402752589585321146,3,-7.03993844816,-0.00591572024346,9.12374110736,-0.122189614607,-0.263108981652,0.10862951003,0.00281661386669,0.0,-0.0553079178857,0.0,0.0780098049456,0.0,-1.43888887516,0.0,-0.0610897678683,0.0,-0.000618834250867,0.0,-0.0315144901286,0.0,0.0673181502373,0.0,-0.0090507845495,0.0,0.0,0.0,0.0,75.0,-0.0,-22.86,0.00230154196664,75.0,0.000767318410122,0.0,-0.0,75.0,-0.0,0.0,570664.8,0.0,0.0,0.0,0.0,0.0,0.0
1402752589605571301,3,-7.03797944476,-0.00591572024346,9.11461275003,-0.122189614607,-0.267485425768,0.10862951003,0.00349427603466,0.0,-0.0976956115157,0.0,0.0758035842416,0.0,-1.44235345282,0.0,-0.080941539736,0.0,-0.00125117373526,0.0,-0.0490494321122,0.0,0.0672596996626,0.0,0.0191630880034,0.0,0.0,0.0,0.0,75.0,-0.0,-22.86,0.00230154196664,75.0,0.000767318410122,0.0,-0.0,75.0,-0.0,0.0,570664.8,0.0,0.0,0.0,0.0,0.0,0.0
1402752589625328091,3,-7.03797944476,-0.00591572024346,9.11461275003,-0.122189614607,-0.267485425768,0.10862951003,0.00349427603466,0.0,-0.0976956115157,0.0,0.0758035842416,0.0,-1.44235345282,0.0,-0.080941539736,0.0,-0.00125117373526,0.0,-0.0490494321122,0.0,0.0672596996626,0.0,0.0191630880034,0.0,0.0,0.0,0.0,75.0,-0.0,-22.86,0.00230154196664,75.0,0.000767318410122,0.0,-0.0,75.0,-0.0,0.0,570664.8,0.0,0.0,0.0,0.0,0.0,0.0
1402752589645974065,3,-7.03109349691,-0.00591572024346,9.1166724299,-0.122189614607,-0.267684297415,0.10862951003,0.0125499165225,0.0,-0.108913977543,0.0,0.0771761396095,0.0,-1.44496806064,0.0,-0.109474071351,0.0,-0.00332391494639,0.0,-0.064939377269,0.0,0.0634745130603,0.0,0.0234744485662,0.0,0.0,0.0,0.0,75.0,-0.0,-22.86,0.00230154196664,75.0,0.000767318410122,0.0,-0.0,75.0,-0.0,0.0,570664.8,0.0,0.0,0.0,0.0,0.0,0.0
1402752589665183926,3,-7.03109349691,-0.00591572024346,9.1166724299,-0.122189614607,-0.267684297415,0.10862951003,0.0125499165225,0.0,-0.108913977543,0.0,0.0771761396095,0.0,-1.44496806064,0.0,-0.109474071351,0.0,-0.00332391494639,0.0,-0.064939377269,0.0,0.0634745130603,0.0,0.0234744485662,0.0,0.0,0.0,0.0,75.0,-0.0,-22.86,0.00230154196664,75.0,0.000767318410122,0.0,-0.0,75.0,-0.0,0.0,570664.8,0.0,0.0,0.0,0.0,0.0,0.0
1402752589685285302,3,-7.03495882185,-0.00591572024346,9.10905734891,-0.122189614607,-0.268670799121,0.10862951003,-0.00383766378379,0.0,-0.142165823019,0.0,0.0753450814612,0.0,-1.45172590942,0.0,-0.131492462078,0.0,-0.00262429734902,0.0,-0.0572635066739,0.0,0.061430852412,0.0,-0.000579150073497,0.0,0.0,0.0,0.0,75.0,-0.0,-22.86,0.000767318410122,75.0,0.000767318410122,0.0,-0.0,75.0,-0.0,0.0,570664.8,0.0,0.0,0.0,0.0,0.0,0.0
1402752589705858539,3,-7.03495882185,-0.00591572024346,9.10905734891,-0.122189614607,-0.268670799121,0.10862951003,-0.00383766378379,0.0,-0.142165823019,0.0,0.0753450814612,0.0,-1.45172590942,0.0,-0.131492462078,0.0,-0.00262429734902,0.0,-0.0572635066739,0.0,0.061430852412,0.0,-0.000579150073497,0.0,0.0,0.0,0.0,75.0,-0.0,-22.86,0.00230154196664,75.0,0.000767318410122,0.0,-0.0,75.0,-0.0,0.0,570664.8,0.0,0.0,0.0,0.0,0.0,0.0
1402752589725366241,3,-7.03033174619,-0.00591572024346,9.10306309147,-0.122189614607,-0.273406895422,0.10862951003,0.00197257623505,0.0,-0.169811157373,0.0,0.0723846716998,0.0,-1.45676682775,0.0,-0.148107109674,0.0,-0.00432939486749,0.0,-0.0533220484203,0.0,0.0592571547911,0.0,-0.00915707182324,0.0,0.0,0.0,0.0,75.0,-0.0,-22.86,0.00230154196664,75.0,0.000767318410122,0.0,-0.0,75.0,-0.0,0.0,570664.8,0.0,0.0,0.0,0.0,0.0,0.0
1402752589745810501,3,-7.03033174619,-0.00591572024346,9.10306309147,-0.122189614607,-0.273406895422,0.10862951003,0.00197257623505,0.0,-0.169811157373,0.0,0.0723846716998,0.0,-1.45676682775,0.0,-0.148107109674,0.0,-0.00432939486749,0.0,-0.0533220484203,0.0,0.0592571547911,0.0,-0.00915707182324,0.0,0.0,0.0,0.0,75.0,-0.0,-22.86,0.00230154196664,75.0,0.000767318410122,0.0,-0.0,75.0,-0.0,0.0,570664.8,0.0,0.0,0.0,0.0,0.0,0.0
1402752589765733915,3,-7.03020262115,-0.00591572024346,9.09549384508,-0.122189614607,-0.270445651373,0.10862951003,0.00293913458737,0.0,-0.197854690861,0.0,0.0720614696064,0.0,-1.46354376567,0.0,-0.172696306224,0.0,-0.00510863114873,0.0,-0.042434105743,0.0,0.0572358037258,0.0,0.0171997709618,0.0,0.0,0.0,0.0,75.0,-0.0,-22.86,0.00230154196664,75.0,0.000767318410122,0.0,-0.0,75.0,-0.0,0.0,570664.8,0.0,0.0,0.0,0.0,0.0,0.0
1402752589785275800,3,-7.03020262115,-0.00591572024346,9.09549384508,-0.122189614607,-0.270445651373,0.10862951003,0.00293913458737,0.0,-0.197854690861,0.0,0.0720614696064,0.0,-1.46354376567,0.0,-0.172696306224,0.0,-0.00510863114873,0.0,-0.042434105743,0.0,0.0572358037258,0.0,0.0171997709618,0.0,0.0,0.0,0.0,75.0,-0.0,-22.86,0.00230154196664,75.0,0.000767318410122,0.0,-0.0,75.0,-0.0,0.0,570664.8,0.0,0.0,0.0,0.0,0.0,0.0
1402752589805534164,3,-7.02701457438,-0.00591572024346,9.0859633729,-0.122189614607,-0.262051378327,0.10862951003,-0.00315536617124,0.0,-0.225609937595,0.0,0.0694775575818,0.0,-1.47240376508,0.0,-0.190985149817,0.0,-0.00531749824077,0.0,-0.0211220479303,0.0,0.0550866191036,0.0,-0.00915390500859,0.0,0.0,0.0,0.0,75.0,-0.0,-22.86,0.00230154196664,75.0,0.000767318410122,0.0,-0.0,75.0,-0.0,0.0,570664.8,0.0,0.0,0.0,0.0,0.0,0.0
1402752589825596982,3,-7.02701457438,-0.00591572024346,9.0859633729,-0.122189614607,-0.262051378327,0.10862951003,-0.00315536617124,0.0,-0.225609937595,0.0,0.0694775575818,0.0,-1.47240376508,0.0,-0.190985149817,0.0,-0.00531749824077,0.0,-0.0211220479303,0.0,0.0550866191036,0.0,-0.00915390500859,0.0,0.0,0.0,0.0,75.0,-0.0,-22.86,0.00230154196664,75.0,-0.000767381983555,0.0,-0.0,75.0,-0.0,0.0,570664.8,0.0,0.0,0.0,0.0,0.0,0.0
1402752589845917191,3,-7.02727610742,-0.00591572024346,9.07361129788,-0.122189614607,-0.258715675811,0.10862951003,-0.00702933101802,0.0,-0.259038573728,0.0,0.0645410018606,0.0,-1.48306682144,0.0,-0.21563511734,0.0,-0.00516175362795,0.0,0.00589285045672,0.0,0.0549355128317,0.0,-0.00565591355224,0.0,0.0,0.0,0.0,75.0,-0.0,-22.86,0.00230154196664,75.0,0.000767318410122,0.0,-0.0,75.0,-0.0,0.0,570664.8,0.0,0.0,0.0,0.0,0.0,0.0
1402752589865209376,3,-7.02727610742,-0.00591572024346,9.07361129788,-0.122189614607,-0.258715675811,0.10862951003,-0.00702933101802,0.0,-0.259038573728,0.0,0.0645410018606,0.0,-1.48306682144,0.0,-0.21563511734,0.0,-0.00516175362795,0.0,0.00589285045672,0.0,0.0549355128317,0.0,-0.00565591355224,0.0,0.0,0.0,0.0,75.0,-0.0,-22.86,0.00230154196664,75.0,0.000767318410122,0.0,-0.0,75.0,-0.0,0.0,570664.8,0.0,0.0,0.0,0.0,0.0,0.0
1402752589885195445,3,-7.03100538488,-0.00591572024346,9.06665961342,-0.122189614607,-0.2547205129,0.10862951003,-0.0194343178606,0.0,-0.274038396755,0.0,0.0630213764665,0.0,-1.48934185226,0.0,-0.22649537202,0.0,-0.00386751865789,0.0,0.0170630115779,0.0,0.0552415050029,0.0,-0.0124343744766,0.0,0.0,0.0,0.0,75.0,-0.0,-22.86,0.00230154196664,75.0,0.000767318410122,0.0,-0.0,75.0,-0.0,0.0,570664.8,0.0,0.0,0.0,0.0,0.0,0.0
1402752589905737864,3,-7.03100538488,-0.00591572024346,9.06665961342,-0.122189614607,-0.2547205129,0.10862951003,-0.0194343178606,0.0,-0.274038396755,0.0,0.0630213764665,0.0,-1.48934185226,0.0,-0.22649537202,0.0,-0.00386751865789,0.0,0.0170630115779,0.0,0.0552415050029,0.0,-0.0124343744766,0.0,0.0,0.0,0.0,75.0,-0.0,-22.86,0.00230154196664,75.0,0.000767318410122,0.0,-0.0,75.0,-0.0,0.0,570664.8,0.0,0.0,0.0,0.0,0.0,0.0
1402752589925276243,3,-7.02331419946,-0.00591572024346,9.05701790412,-0.122189614607,-0.250214471276,0.10862951003,-0.00638515030814,0.0,-0.294855589975,0.0,0.0594246800989,0.0,-1.49605673554,0.0,-0.245274873703,0.0,-0.00529070074313,0.0,0.0275492581634,0.0,0.0560427022595,0.0,-0.00552543458882,0.0,0.0,0.0,0.0,75.0,-0.0,-22.86,0.00230154196664,75.0,0.000767318410122,0.0,-0.0,75.0,-0.0,0.0,570664.8,0.0,0.0,0.0,0.0,0.0,0.0
1402752589945835425,3,-7.02331419946,-0.00591572024346,9.05701790412,-0.122189614607,-0.250214471276,0.10862951003,-0.00638515030814,0.0,-0.294855589975,0.0,0.0594246800989,0.0,-1.49605673554,0.0,-0.245274873703,0.0,-0.00529070074313,0.0,0.0275492581634,0.0,0.0560427022595,0.0,-0.00552543458882,0.0,0.0,0.0,0.0,75.0,-0.0,-22.86,0.00230154196664,75.0,0.000767318410122,0.0,-0.0,75.0,-0.0,0.0,570664.8,0.0,0.0,0.0,0.0,0.0,0.0
1402752589965967317,3,-7.02369281151,-0.00591572024346,9.04475425912,-0.122189614607,-0.248033543796,0.10862951003,-0.0121475899396,0.0,-0.317335347009,0.0,0.0534138761899,0.0,-1.50623630318,0.0,-0.258484086224,0.0,-0.0049696972332,0.0,0.0407411865976,0.0,0.0574850161447,0.0,-0.011926240737,0.0,0.0,0.0,0.0,75.0,-0.0,-22.86,0.00230154196664,75.0,0.000767318410122,0.0,-0.0,75.0,-0.0,0.0,570664.8,0.0,0.0,0.0,0.0,0.0,0.0
1402752589985259245,3,-7.02369281151,-0.00591572024346,9.04475425912,-0.122189614607,-0.248033543796,0.10862951003,-0.0121475899396,0.0,-0.317335347009,0.0,0.0534138761899,0.0,-1.50623630318,0.0,-0.258484086224,0.0,-0.0049696972332,0.0,0.0407411865976,0.0,0.0574850161447,0.0,-0.011926240737,0.0,0.0,0.0,0.0,75.0,-0.0,-22.86,0.00230154196664,75.0,0.000767318410122,0.0,-0.0,75.0,-0.0,0.0,570664.8,0.0,0.0,0.0,0.0,0.0,0.0
1402752590006948752,3,-7.03259917827,-0.00591572024346,9.03070802135,-0.122189614607,-0.246657645666,0.10862951003,-0.0321036525704,0.0,-0.338338248689,0.0,0.0531414902177,0.0,-1.5208023496,0.0,-0.278502272877,0.0,-0.00286109161728,0.0,0.0497206053189,0.0,0.0589393029373,0.0,-0.00463331826289,0.0,0.0,0.0,0.0,75.0,-0.0,-22.86,0.00230154196664,75.0,0.000767318410122,0.0,-0.0,75.0,-0.0,0.0,570664.8,0.0,0.0,0.0,0.0,0.0,0.0
1402752590025304300,3,-7.03259917827,-0.00591572024346,9.03070802135,-0.122189614607,-0.246657645666,0.10862951003,-0.0321036525704,0.0,-0.338338248689,0.0,0.0531414902177,0.0,-1.5208023496,0.0,-0.278502272877,0.0,-0.00286109161728,0.0,0.0497206053189,0.0,0.0589393029373,0.0,-0.00463331826289,0.0,0.0,0.0,0.0,75.0,-0.0,-22.86,0.00230154196664,75.0,0.000767318410122,0.0,-0.0,75.0,-0.0,0.0,570664.8,0.0,0.0,0.0,0.0,0.0,0.0
1402752590045394948,3,-7.03390780517,-0.00591572024346,9.00826519885,-0.122189614607,-0.254678366116,0.10862951003,-0.0325003186375,0.0,-0.38000056521,0.0,0.0496767783602,0.0,-1.53338288014,0.0,-0.289508862894,0.0,-0.00321893896716,0.0,0.0478580442458,0.0,0.0628867240122,0.0,0.0185043149089,0.0,0.0,0.0,0.0,75.0,-0.0,-22.86,0.00230154196664,75.0,0.000767318410122,0.0,-0.0,75.0,-0.0,0.0,570664.8,0.0,0.0,0.0,0.0,0.0,0.0
1402752590065984720,3,-7.03390780517,-0.00591572024346,9.00826519885,-0.122189614607,-0.254678366116,0.10862951003,-0.0325003186375,0.0,-0.38000056521,0.0,0.0496767783602,0.0,-1.53338288014,0.0,-0.289508862894,0.0,-0.00321893896716,0.0,0.0478580442458,0.0,0.0628867240122,0.0,0.0185043149089,0.0,0.0,0.0,0.0,75.0,-0.0,-22.86,0.00230154196664,75.0,0.000767318410122,0.0,-0.0,75.0,-0.0,0.0,570664.8,0.0,0.0,0.0,0.0,0.0,0.0
1402752590085318808,3,-7.04238987753,-0.00591572024346,8.98816862615,-0.122189614607,-0.271412607334,0.10862951003,-0.0513654962016,0.0,-0.412267781637,0.0,0.0391511757746,0.0,-1.54883207941,0.0,-0.304579810962,0.0,-0.00201058239316,0.0,0.0469388814235,0.0,0.0659696258863,0.0,0.00158038347259,0.0,0.0,0.0,0.0,75.0,-0.0,-22.86,0.00230154196664,75.0,0.000767318410122,0.0,-0.0,75.0,-0.0,0.0,570664.8,0.0,0.0,0.0,0.0,0.0,0.0
1402752590105374262,3,-7.04238987753,-0.00591572024346,8.98816862615,-0.122189614607,-0.271412607334,0.10862951003,-0.0513654962016,0.0,-0.412267781637,0.0,0.0391511757746,0.0,-1.54883207941,0.0,-0.304579810962,0.0,-0.00201058239316,0.0,0.0469388814235,0.0,0.0659696258863,0.0,0.00158038347259,0.0,0.0,0.0,0.0,75.0,-0.0,-22.86,0.00230154196664,75.0,0.000767318410122,0.0,-0.0,75.0,-0.0,0.0,570664.8,0.0,0.0,0.0,0.0,0.0,0.0
1402752590125277366,3,-7.03619118378,-0.00591572024346,8.96877271362,-0.122189614607,-0.237998121398,0.10862951003,-0.046738992134,0.0,-0.430128028043,0.0,0.053824337077,0.0,-1.55966050361,0.0,-0.314129491451,0.0,-0.00306882198641,0.0,0.0346381022646,0.0,0.0671314588745,0.0,-0.00559585156662,0.0,0.0,0.0,0.0,75.0,-0.0,-22.86,0.00230154196664,75.0,0.000767318410122,0.0,-0.0,75.0,-0.0,0.0,570664.8,0.0,0.0,0.0,0.0,0.0,0.0
1402752590145390418,3,-7.03619118378,-0.00591572024346,8.96877271362,-0.122189614607,-0.237998121398,0.10862951003,-0.046738992134,0.0,-0.430128028043,0.0,0.053824337077,0.0,-1.55966050361,0.0,-0.314129491451,0.0,-0.00306882198641,0.0,0.0346381022646,0.0,0.0671314588745,0.0,-0.00559585156662,0.0,0.0,0.0,0.0,75.0,-0.0,-22.86,0.00230154196664,75.0,0.000767318410122,0.0,-0.0,75.0,-0.0,0.0,570664.8,0.0,0.0,0.0,0.0,0.0,0.0
1402752590165359478,3,-7.03810158965,-0.00591572024346,8.95079219631,-0.122189614607,-0.235593406009,0.10862951003,-0.0488094952573,0.0,-0.450634893512,0.0,0.0607626014604,0.0,-1.57316598796,0.0,-0.335737705736,0.0,-0.00347060482786,0.0,0.0271073462593,0.0,0.0683716633176,0.0,0.0117650903428,0.0,0.0,0.0,0.0,75.0,-0.0,-22.86,0.00230154196664,75.0,0.000767318410122,0.0,-0.0,75.0,-0.0,0.0,570664.8,0.0,0.0,0.0,0.0,0.0,0.0
1402752590185802949,3,-7.03810158965,-0.00591572024346,8.95079219631,-0.122189614607,-0.235593406009,0.10862951003,-0.0488094952573,0.0,-0.450634893512,0.0,0.0607626014604,0.0,-1.57316598796,0.0,-0.335737705736,0.0,-0.00347060482786,0.0,0.0271073462593,0.0,0.0683716633176,0.0,0.0117650903428,0.0,0.0,0.0,0.0,75.0,-0.0,-22.86,0.00230154196664,75.0,0.000767318410122,0.0,-0.0,75.0,-0.0,0.0,570664.8,0.0,0.0,0.0,0.0,0.0,0.0
1402752590205257246,3,-7.04647047872,-0.00591572024346,8.93378815583,-0.122189614607,-0.234858181383,0.10862951003,-0.0724372435962,0.0,-0.457688428487,0.0,0.0621487477883,0.0,-1.59240224444,0.0,-0.346916981909,0.0,-0.00208090866115,0.0,0.0128524654923,0.0,0.0679498616549,0.0,0.00076671538507,0.0,0.0,0.0,0.0,75.0,-0.0,-22.86,0.00230154196664,75.0,0.000767318410122,0.0,-0.0,75.0,-0.0,0.0,570664.8,0.0,0.0,0.0,0.0,0.0,0.0
1402752590225335701,3,-7.04647047872,-0.00591572024346,8.93378815583,-0.122189614607,-0.234858181383,0.10862951003,-0.0724372435962,0.0,-0.457688428487,0.0,0.0621487477883,0.0,-1.59240224444,0.0,-0.346916981909,0.0,-0.00208090866115,0.0,0.0128524654923,0.0,0.0679498616549,0.0,0.00076671538507,0.0,0.0,0.0,0.0,75.0,-0.0,-22.86,0.00230154196664,75.0,0.000767318410122,0.0,-0.0,75.0,-0.0,0.0,570664.8,0.0,0.0,0.0,0.0,0.0,0.0
1402752590245594829,3,-7.04885811458,-0.00591572024346,8.91935086768,-0.122189614607,-0.232754954329,0.10862951003,-0.0781522686535,0.0,-0.472147976762,0.0,0.06688335308,0.0,-1.60331967883,0.0,-0.349758347235,0.0,-0.00225820146112,0.0,0.0075739355904,0.0,0.0682799008006,0.0,-0.00354476952454,0.0,0.0,0.0,0.0,75.0,-0.0,-22.86,0.00230154196664,75.0,0.000767318410122,0.0,-0.0,75.0,-0.0,0.0,570664.8,0.0,0.0,0.0,0.0,0.0,0.0
1402752590265557118,3,-7.04985297668,-0.00591572024346,8.8974864847,-0.122189614607,-0.25193687083,0.10862951003,-0.0776831075867,0.0,-0.51190902209,0.0,0.0586761397104,0.0,-1.61079780268,0.0,-0.350717323795,0.0,-0.00341974847176,0.0,0.00554875442434,0.0,0.0716403415285,0.0,0.00913820541691,0.0,0.0,0.0,0.0,75.0,-0.0,-22.86,0.00230154196664,75.0,0.000767318410122,0.0,-0.0,75.0,-0.0,0.0,570664.8,0.0,0.0,0.0,0.0,0.0,0.0
1402752590285435994,3,-7.04985297668,-0.00591572024346,8.8974864847,-0.122189614607,-0.25193687083,0.10862951003,-0.0776831075867,0.0,-0.51190902209,0.0,0.0586761397104,0.0,-1.61079780268,0.0,-0.350717323795,0.0,-0.00341974847176,0.0,0.00554875442434,0.0,0.0716403415285,0.0,0.00913820541691,0.0,0.0,0.0,0.0,75.0,-0.0,-22.86,0.00230154196664,75.0,0.000767318410122,0.0,-0.0,75.0,-0.0,0.0,570664.8,0.0,0.0,0.0,0.0,0.0,0.0
1402752590305963363,3,-7.05141891821,-0.00591572024346,8.88726997062,-0.122189614607,-0.250875932769,0.10862951003,-0.0796086275665,0.0,-0.521065627893,0.0,0.0640689372725,0.0,-1.61802977273,0.0,-0.362388679535,0.0,-0.00366309977431,0.0,0.000485414117522,0.0,0.0716129968471,0.0,0.00385011101364,0.0,0.0,0.0,0.0,75.0,-0.0,-22.86,0.00230154196664,75.0,0.000767318410122,0.0,-0.0,75.0,-0.0,0.0,570664.8,0.0,0.0,0.0,0.0,0.0,0.0
1402752590325242456,3,-7.05141891821,-0.00591572024346,8.88726997062,-0.122189614607,-0.250875932769,0.10862951003,-0.0796086275665,0.0,-0.521065627893,0.0,0.0640689372725,0.0,-1.61802977273,0.0,-0.362388679535,0.0,-0.00366309977431,0.0,0.000485414117522,0.0,0.0716129968471,0.0,0.00385011101364,0.0,0.0,0.0,0.0,75.0,-0.0,-22.86,0.00230154196664,75.0,0.00230154196664,0.0,-0.0,75.0,-0.0,0.0,570664.8,0.0,0.0,0.0,0.0,0.0,0.0
1402752590345413715,3,-7.05601289923,-0.00591572024346,8.87165358232,-0.122189614607,-0.247711008146,0.10862951003,-0.0924283819478,0.0,-0.524274181158,0.0,0.0665787928268,0.0,-1.63341132911,0.0,-0.364509768712,0.0,-0.00341826655738,0.0,-0.00507245144162,0.0,0.0699557074619,0.0,0.0189389564272,0.0,0.0,0.0,0.0,75.0,-0.0,-22.86,0.00230154196664,75.0,0.000767318410122,0.0,-0.0,75.0,-0.0,0.0,570664.8,0.0,0.0,0.0,0.0,0.0,0.0
1402752590365499762,3,-7.05601289923,-0.00591572024346,8.87165358232,-0.122189614607,-0.247711008146,0.10862951003,-0.0924283819478,0.0,-0.524274181158,0.0,0.0665787928268,0.0,-1.63341132911,0.0,-0.364509768712,0.0,-0.00341826655738,0.0,-0.00507245144162,0.0,0.0699557074619,0.0,0.0189389564272,0.0,0.0,0.0,0.0,75.0,-0.0,-22.86,0.00230154196664,75.0,0.00230154196664,0.0,-0.0,75.0,-0.0,0.0,570664.8,0.0,0.0,0.0,0.0,0.0,0.0
1402752590387437868,3,-7.06376173026,-0.00591572024346,8.84855720751,-0.122189614607,-0.236239997671,0.10862951003,-0.111445708574,0.0,-0.540013702772,0.0,0.073560236941,0.0,-1.65021544641,0.0,-0.370262440807,0.0,-0.0026990918696,0.0,-0.00571554160817,0.0,0.069282775985,0.0,0.0191392513275,0.0,0.0,0.0,0.0,75.0,-0.0,-22.86,0.00230154196664,75.0,0.00230154196664,0.0,-0.0,75.0,-0.0,0.0,570664.8,0.0,0.0,0.0,0.0,0.0,0.0
1402752590405381766,3,-7.06376173026,-0.00591572024346,8.84855720751,-0.122189614607,-0.236239997671,0.10862951003,-0.111445708574,0.0,-0.540013702772,0.0,0.073560236941,0.0,-1.65021544641,0.0,-0.370262440807,0.0,-0.0026990918696,0.0,-0.00571554160817,0.0,0.069282775985,0.0,0.0191392513275,0.0,0.0,0.0,0.0,75.0,-0.0,-22.86,0.00230154196664,75.0,0.00230154196664,0.0,-0.0,75.0,-0.0,0.0,570664.8,0.0,0.0,0.0,0.0,0.0,0.0
1402752590425515617,3,-7.06863320811,-0.00591572024346,8.82610014184,-0.122189614607,-0.233130223437,0.10862951003,-0.122972046771,0.0,-0.556919946634,0.0,0.0767859907355,0.0,-1.66577425754,0.0,-0.376785991459,0.0,-0.00305870286465,0.0,-0.0165045205585,0.0,0.0686110592882,0.0,0.00691416184912,0.0,0.0,0.0,0.0,75.0,-0.0,-22.86,0.00230154196664,75.0,0.00230154196664,0.0,-0.0,75.0,-0.0,0.0,570664.8,0.0,0.0,0.0,0.0,0.0,0.0
1402752590445170643,3,-7.06863320811,-0.00591572024346,8.82610014184,-0.122189614607,-0.233130223437,0.10862951003,-0.122972046771,0.0,-0.556919946634,0.0,0.0767859907355,0.0,-1.66577425754,0.0,-0.376785991459,0.0,-0.00305870286465,0.0,-0.0165045205585,0.0,0.0686110592882,0.0,0.00691416184912,0.0,0.0,0.0,0.0,75.0,-0.0,-22.86,0.00230154196664,75.0,0.00230154196664,0.0,-0.0,75.0,-0.0,0.0,570664.8,0.0,0.0,0.0,0.0,0.0,0.0
1402752590465376239,3,-7.0824118008,-0.00591572024346,8.7983233029,-0.122189614607,-0.238657812209,0.10862951003,-0.150712613763,0.0,-0.581435119307,0.0,0.0704645873047,0.0,-1.68460396522,0.0,-0.388170537848,0.0,-0.00170693475955,0.0,-0.022746487762,0.0,0.0687304184179,0.0,0.0181446326359,0.0,0.0,0.0,0.0,75.0,-0.0,-22.86,0.00230154196664,75.0,0.00230154196664,0.0,-0.0,75.0,-0.0,0.0,570664.8,0.0,0.0,0.0,0.0,0.0,0.0
1402752590485287790,3,-7.0824118008,-0.00591572024346,8.7983233029,-0.122189614607,-0.238657812209,0.10862951003,-0.150712613763,0.0,-0.581435119307,0.0,0.0704645873047,0.0,-1.68460396522,0.0,-0.388170537848,0.0,-0.00170693475955,0.0,-0.022746487762,0.0,0.0687304184179,0.0,0.0181446326359,0.0,0.0,0.0,0.0,75.0,-0.0,-22.86,0.00230154196664,75.0,0.00230154196664,0.0,-0.0,75.0,-0.0,0.0,570664.8,0.0,0.0,0.0,0.0,0.0,0.0
1402752590506200593,3,-7.08922765036,-0.00591572024346,8.77240573157,-0.122189614607,-0.244409916459,0.10862951003,-0.16467993929,0.0,-0.60334363782,0.0,0.0664926167042,0.0,-1.70025893575,0.0,-0.394731515115,0.0,-0.00259634498236,0.0,-0.0112988574991,0.0,0.0686085183383,0.0,0.0086325345947,0.0,0.0,0.0,0.0,75.0,-0.0,-22.86,0.00230154196664,75.0,0.00230154196664,0.0,-0.0,75.0,-0.0,0.0,570664.8,0.0,0.0,0.0,0.0,0.0,0.0
1402752590525461648,3,-7.08922765036,-0.00591572024346,8.77240573157,-0.122189614607,-0.244409916459,0.10862951003,-0.16467993929,0.0,-0.60334363782,0.0,0.0664926167042,0.0,-1.70025893575,0.0,-0.394731515115,0.0,-0.00259634498236,0.0,-0.0112988574991,0.0,0.0686085183383,0.0,0.0086325345947,0.0,0.0,0.0,0.0,75.0,-0.0,-22.86,0.00230154196664,75.0,0.00230154196664,0.0,-0.0,75.0,-0.0,0.0,570664.8,0.0,0.0,0.0,0.0,0.0,0.0
1402752590545420567,3,-7.09617528833,-0.00591572024346,8.74723877421,-0.122189614607,-0.241502161833,0.10862951003,-0.178629100756,0.0,-0.620883359146,0.0,0.0662280204693,0.0,-1.71671478816,0.0,-0.403264317473,0.0,-0.00315400614787,0.0,-0.0083724265755,0.0,0.0678651994683,0.0,-0.00170833671051,0.0,0.0,0.0,0.0,75.0,-0.0,-22.86,0.00230154196664,75.0,0.00230154196664,0.0,-0.0,75.0,-0.0,0.0,570664.8,0.0,0.0,0.0,0.0,0.0,0.0
1402752590565331781,3,-7.09617528833,-0.00591572024346,8.74723877421,-0.122189614607,-0.241502161833,0.10862951003,-0.178629100756,0.0,-0.620883359146,0.0,0.0662280204693,0.0,-1.71671478816,0.0,-0.403264317473,0.0,-0.00315400614787,0.0,-0.0083724265755,0.0,0.0678651994683,0.0,-0.00170833671051,0.0,0.0,0.0,0.0,75.0,-0.0,-22.86,0.00230154196664,75.0,0.00230154196664,0.0,-0.0,75.0,-0.0,0.0,570664.8,0.0,0.0,0.0,0.0,0.0,0.0
1402752590585404012,3,-7.10076940725,-0.00591572024346,8.73690148709,-0.122189614607,-0.224131109984,0.10862951003,-0.186172142018,0.0,-0.59972880136,0.0,0.0740537027978,0.0,-1.73375824658,0.0,-0.404025257261,0.0,-0.00362849678443,0.0,-0.00962722854597,0.0,0.0637250417544,0.0,0.0351289280823,0.0,0.0,0.0,0.0,75.0,-0.0,-22.86,0.00230154196664,75.0,0.00230154196664,0.0,-0.0,75.0,-0.0,0.0,570664.8,0.0,0.0,0.0,0.0,0.0,0.0
1402752590605348782,3,-7.10076940725,-0.00591572024346,8.73690148709,-0.122189614607,-0.224131109984,0.10862951003,-0.186172142018,0.0,-0.59972880136,0.0,0.0740537027978,0.0,-1.73375824658,0.0,-0.404025257261,0.0,-0.00362849678443,0.0,-0.00962722854597,0.0,0.0637250417544,0.0,0.0351289280823,0.0,0.0,0.0,0.0,75.0,-0.0,-22.86,0.00230154196664,75.0,0.00230154196664,0.0,-0.0,75.0,-0.0,0.0,570664.8,0.0,0.0,0.0,0.0,0.0,0.0
1402752590625467193,3,-7.11262377112,-0.00591572024346,8.72480100625,-0.122189614607,-0.217400055485,0.10862951003,-0.211601855651,0.0,-0.584182435118,0.0,0.0741010684605,0.0,-1.75298186632,0.0,-0.408064878401,0.0,-0.00266837032924,0.0,0.00220756148819,0.0,0.0609430960803,0.0,0.0352783052491,0.0,0.0,0.0,0.0,75.0,-0.0,-22.86,0.00230154196664,75.0,0.00230154196664,0.0,-0.0,75.0,-0.0,0.0,570664.8,0.0,0.0,0.0,0.0,0.0,0.0
1402752590645320282,3,-7.11262377112,-0.00591572024346,8.72480100625,-0.122189614607,-0.217400055485,0.10862951003,-0.211601855651,0.0,-0.584182435118,0.0,0.0741010684605,0.0,-1.75298186632,0.0,-0.408064878401,0.0,-0.00266837032924,0.0,0.00220756148819,0.0,0.0609430960803,0.0,0.0352783052491,0.0,0.0,0.0,0.0,75.0,-0.0,-22.86,0.00230154196664,75.0,0.00230154196664,0.0,-0.0,75.0,-0.0,0.0,570664.8,0.0,0.0,0.0,0.0,0.0,0.0
1402752590665913080,3,-7.11673053662,-0.00591572024346,8.67847907713,-0.122189614607,-0.219516398864,0.10862951003,-0.21576830067,0.0,-0.645421078125,0.0,0.0669473978748,0.0,-1.76594901954,0.0,-0.42403060835,0.0,-0.00516882349649,0.0,0.00114885362366,0.0,0.0652526440923,0.0,0.0104329073927,0.0,0.0,0.0,0.0,75.0,-0.0,-22.86,0.00230154196664,75.0,0.00230154196664,0.0,-0.0,75.0,-0.0,0.0,570664.8,0.0,0.0,0.0,0.0,0.0,0.0
1402752590685259456,3,-7.11673053662,-0.00591572024346,8.67847907713,-0.122189614607,-0.219516398864,0.10862951003,-0.21576830067,0.0,-0.645421078125,0.0,0.0669473978748,0.0,-1.76594901954,0.0,-0.42403060835,0.0,-0.00516882349649,0.0,0.00114885362366,0.0,0.0652526440923,0.0,0.0104329073927,0.0,0.0,0.0,0.0,75.0,-0.0,-22.86,0.00230154196664,75.0,0.00230154196664,0.0,-0.0,75.0,-0.0,0.0,570664.8,0.0,0.0,0.0,0.0,0.0,0.0
1402752590705379401,3,-7.12517854738,-0.00591572024346,8.65743593241,-0.122189614607,-0.220760681613,0.10862951003,-0.224368352191,0.0,-0.637078734689,0.0,0.0735275645884,0.0,-1.78808097704,0.0,-0.417559321755,0.0,-0.00650728442996,0.0,0.0101073560748,0.0,0.0626953850331,0.0,0.023723759457,0.0,0.0,0.0,0.0,75.0,-0.0,-22.86,0.00230154196664,75.0,0.00230154196664,0.0,-0.0,75.0,-0.0,0.0,570664.8,0.0,0.0,0.0,0.0,0.0,0.0
1402752590725311588,3,-7.12517854738,-0.00591572024346,8.65743593241,-0.122189614607,-0.220760681613,0.10862951003,-0.224368352191,0.0,-0.637078734689,0.0,0.0735275645884,0.0,-1.78808097704,0.0,-0.417559321755,0.0,-0.00650728442996,0.0,0.0101073560748,0.0,0.0626953850331,0.0,0.023723759457,0.0,0.0,0.0,0.0,75.0,-0.0,-22.86,0.00230154196664,75.0,0.00230154196664,0.0,-0.0,75.0,-0.0,0.0,570664.8,0.0,0.0,0.0,0.0,0.0,0.0
1402752590745990492,3,-7.13983082349,-0.00591572024346,8.6291622156,-0.122189614607,-0.225187120901,0.10862951003,-0.242478123797,0.0,-0.64456235672,0.0,0.0750106892082,0.0,-1.81027831732,0.0,-0.412916591629,0.0,-0.00647278262877,0.0,-0.00128207675776,0.0,0.0620446617704,0.0,0.0196731613398,0.0,0.0,0.0,0.0,75.0,-0.0,-22.86,0.00230154196664,75.0,0.00230154196664,0.0,-0.0,75.0,-0.0,0.0,570664.8,0.0,0.0,0.0,0.0,0.0,0.0
1402752590766195484,3,-7.13983082349,-0.00591572024346,8.6291622156,-0.122189614607,-0.225187120901,0.10862951003,-0.242478123797,0.0,-0.64456235672,0.0,0.0750106892082,0.0,-1.81027831732,0.0,-0.412916591629,0.0,-0.00647278262877,0.0,-0.00128207675776,0.0,0.0620446617704,0.0,0.0196731613398,0.0,0.0,0.0,0.0,75.0,-0.0,-22.86,0.00230154196664,75.0,0.00230154196664,0.0,-0.0,75.0,-0.0,0.0,570664.8,0.0,0.0,0.0,0.0,0.0,0.0
1402752590785343953,3,-7.14723738005,-0.00591572024346,8.60199840629,-0.122189614607,-0.230235800719,0.10862951003,-0.25476654226,0.0,-0.682314323619,0.0,0.0675871605192,0.0,-1.81652754732,0.0,-0.421338677975,0.0,-0.00683134729936,0.0,0.00376904646519,0.0,0.0653545022888,0.0,0.0174589112371,0.0,0.0,0.0,0.0,75.0,-0.0,-22.86,0.00230154196664,75.0,0.00230154196664,0.0,-0.0,75.0,-0.0,0.0,570664.8,0.0,0.0,0.0,0.0,0.0,0.0
1402752590805783083,3,-7.14723738005,-0.00591572024346,8.60199840629,-0.122189614607,-0.230235800719,0.10862951003,-0.25476654226,0.0,-0.682314323619,0.0,0.0675871605192,0.0,-1.81652754732,0.0,-0.421338677975,0.0,-0.00683134729936,0.0,0.00376904646519,0.0,0.0653545022888,0.0,0.0174589112371,0.0,0.0,0.0,0.0,75.0,-0.0,-22.86,0.00230154196664,75.0,0.00230154196664,0.0,-0.0,75.0,-0.0,0.0,570664.8,0.0,0.0,0.0,0.0,0.0,0.0
1402752590826369104,3,-7.16271079963,-0.00591572024346,8.58210838984,-0.122189614607,-0.223803739239,0.10862951003,-0.278949928351,0.0,-0.670990980612,0.0,0.0740280209578,0.0,-1.83701102831,0.0,-0.421224281071,0.0,-0.00512982492748,0.0,0.00514568687423,0.0,0.0635029752693,0.0,-0.0148064018726,0.0,0.0,0.0,0.0,75.0,-0.0,-22.86,0.00230154196664,75.0,0.00230154196664,0.0,-0.0,75.0,-0.0,0.0,570664.8,0.0,0.0,0.0,0.0,0.0,0.0
1402752590846394544,3,-7.16271079963,-0.00591572024346,8.58210838984,-0.122189614607,-0.223803739239,0.10862951003,-0.278949928351,0.0,-0.670990980612,0.0,0.0740280209578,0.0,-1.83701102831,0.0,-0.421224281071,0.0,-0.00512982492748,0.0,0.00514568687423,0.0,0.0635029752693,0.0,-0.0148064018726,0.0,0.0,0.0,0.0,75.0,-0.0,-22.86,0.00230154196664,75.0,0.00230154196664,0.0,-0.0,75.0,-0.0,0.0,570664.8,0.0,0.0,0.0,0.0,0.0,0.0
1402752590865393055,3,-7.1744604266,-0.00591572024346,8.55445086687,-0.122189614607,-0.2207167188,0.10862951003,-0.294035480784,0.0,-0.678458933971,0.0,0.075931796966,0.0,-1.8541588515,0.0,-0.417753455496,0.0,-0.00498544107064,0.0,-0.000393923871085,0.0,0.0637584721623,0.0,-0.0183137305991,0.0,0.0,0.0,0.0,75.0,-0.0,-22.86,0.000767318410122,75.0,0.00230154196664,0.0,-0.0,75.0,-0.0,0.0,570664.8,0.0,0.0,0.0,0.0,0.0,0.0
1402752590885440256,3,-7.1744604266,-0.00591572024346,8.55445086687,-0.122189614607,-0.2207167188,0.10862951003,-0.294035480784,0.0,-0.678458933971,0.0,0.075931796966,0.0,-1.8541588515,0.0,-0.417753455496,0.0,-0.00498544107064,0.0,-0.000393923871085,0.0,0.0637584721623,0.0,-0.0183137305991,0.0,0.0,0.0,0.0,75.0,-0.0,-22.86,0.00230154196664,75.0,0.00230154196664,0.0,-0.0,75.0,-0.0,0.0,570664.8,0.0,0.0,0.0,0.0,0.0,0.0
1402752590905439187,3,-7.19232882643,-0.00591572024346,8.52174679245,-0.122189614607,-0.227946660502,0.10862951003,-0.313895545897,0.0,-0.700373096423,0.0,0.0773871834068,0.0,-1.87064580464,0.0,-0.425632136826,0.0,-0.00426380931931,0.0,0.00993800560517,0.0,0.0655476226063,0.0,0.0163381918316,0.0,0.0,0.0,0.0,75.0,-0.0,-22.86,0.00230154196664,75.0,0.00230154196664,0.0,-0.0,75.0,-0.0,0.0,570664.8,0.0,0.0,0.0,0.0,0.0,0.0
1402752590925388433,3,-7.19232882643,-0.00591572024346,8.52174679245,-0.122189614607,-0.227946660502,0.10862951003,-0.313895545897,0.0,-0.700373096423,0.0,0.0773871834068,0.0,-1.87064580464,0.0,-0.425632136826,0.0,-0.00426380931931,0.0,0.00993800560517,0.0,0.0655476226063,0.0,0.0163381918316,0.0,0.0,0.0,0.0,75.0,-0.0,-22.86,0.00230154196664,75.0,0.00230154196664,0.0,-0.0,75.0,-0.0,0.0,570664.8,0.0,0.0,0.0,0.0,0.0,0.0
1402752590945387624,3,-7.20265603552,-0.00591572024346,8.49343308945,-0.122189614607,-0.239059718766,0.10862951003,-0.32069805948,0.0,-0.7116654697,0.0,0.0741967567545,0.0,-1.88672262833,0.0,-0.419200588705,0.0,-0.00544364085469,0.0,0.0105082877764,0.0,0.0658377060156,0.0,0.0147127358719,0.0,0.0,0.0,0.0,75.0,-0.0,-22.86,0.00230154196664,75.0,0.00230154196664,0.0,-0.0,75.0,-0.0,0.0,570664.8,0.0,0.0,0.0,0.0,0.0,0.0
1402752590965988142,3,-7.20265603552,-0.00591572024346,8.49343308945,-0.122189614607,-0.239059718766,0.10862951003,-0.32069805948,0.0,-0.7116654697,0.0,0.0741967567545,0.0,-1.88672262833,0.0,-0.419200588705,0.0,-0.00544364085469,0.0,0.0105082877764,0.0,0.0658377060156,0.0,0.0147127358719,0.0,0.0,0.0,0.0,75.0,-0.0,-22.86,0.00230154196664,75.0,0.00230154196664,0.0,-0.0,75.0,-0.0,0.0,570664.8,0.0,0.0,0.0,0.0,0.0,0.0
1402752590985299446,3,-7.22203279885,-0.00591572024346,8.46231197916,-0.122189614607,-0.230664311691,0.10862951003,-0.341909836103,0.0,-0.705498778272,0.0,0.0877877511019,0.0,-1.91094444556,0.0,-0.421311613775,0.0,-0.00432920319415,0.0,-0.00229116915594,0.0,0.0644034789415,0.0,-0.00721590741802,0.0,0.0,0.0,0.0,75.0,-0.0,-22.86,0.00230154196664,75.0,0.00230154196664,0.0,-0.0,75.0,-0.0,0.0,570664.8,0.0,0.0,0.0,0.0,0.0,0.0
1402752591005372906,3,-7.22203279885,-0.00591572024346,8.46231197916,-0.122189614607,-0.230664311691,0.10862951003,-0.341909836103,0.0,-0.705498778272,0.0,0.0877877511019,0.0,-1.91094444556,0.0,-0.421311613775,0.0,-0.00432920319415,0.0,-0.00229116915594,0.0,0.0644034789415,0.0,-0.00721590741802,0.0,0.0,0.0,0.0,75.0,-0.0,-22.86,0.00230154196664,75.0,0.00230154196664,0.0,-0.0,75.0,-0.0,0.0,570664.8,0.0,0.0,0.0,0.0,0.0,0.0
1402752591025392216,3,-7.22951514253,-0.00591572024346,8.43468870148,-0.122189614607,-0.23088946189,0.10862951003,-0.3471703196,0.0,-0.726854425841,0.0,0.0833742040963,0.0,-1.92140764758,0.0,-0.418798587154,0.0,-0.00555891315326,0.0,-0.00277148749941,0.0,0.0659303717905,0.0,-0.0171420428916,0.0,0.0,0.0,0.0,75.0,-0.0,-22.86,0.00230154196664,75.0,0.00230154196664,0.0,-0.0,75.0,-0.0,0.0,570664.8,0.0,0.0,0.0,0.0,0.0,0.0
1402752591045380890,3,-7.23680347311,-0.00591572024346,8.41940660444,-0.122189614607,-0.229054006865,0.10862951003,-0.351550115808,0.0,-0.730493580197,0.0,0.092152527414,0.0,-1.93018279877,0.0,-0.414274431273,0.0,-0.00581341220083,0.0,-0.00117021395182,0.0,0.0659910886436,0.0,0.0047534361785,0.0,0.0,0.0,0.0,75.0,-0.0,-22.86,0.00230154196664,75.0,0.00230154196664,0.0,-0.0,75.0,-0.0,0.0,570664.8,0.0,0.0,0.0,0.0,0.0,0.0
1402752591065360321,3,-7.23680347311,-0.00591572024346,8.41940660444,-0.122189614607,-0.229054006865,0.10862951003,-0.351550115808,0.0,-0.730493580197,0.0,0.092152527414,0.0,-1.93018279877,0.0,-0.414274431273,0.0,-0.00581341220083,0.0,-0.00117021395182,0.0,0.0659910886436,0.0,0.0047534361785,0.0,0.0,0.0,0.0,75.0,-0.0,-22.86,0.00230154196664,75.0,0.00230154196664,0.0,-0.0,75.0,-0.0,0.0,570664.8,0.0,0.0,0.0,0.0,0.0,0.0
1402752591087080214,3,-7.2499942988,-0.00591572024346,8.40933313407,-0.122189614607,-0.22815433454,0.10862951003,-0.375579088661,0.0,-0.720751023852,0.0,0.0877626033697,0.0,-1.94057553722,0.0,-0.412158401788,0.0,-0.00365483821052,0.0,0.000644244787335,0.0,0.0651491318248,0.0,-0.0136555448313,0.0,0.0,0.0,0.0,75.0,-0.0,-22.86,0.00230154196664,75.0,0.00230154196664,0.0,-0.0,75.0,-0.0,0.0,570664.8,0.0,0.0,0.0,0.0,0.0,0.0
1402752591105443537,3,-7.2499942988,-0.00591572024346,8.40933313407,-0.122189614607,-0.22815433454,0.10862951003,-0.375579088661,0.0,-0.720751023852,0.0,0.0877626033697,0.0,-1.94057553722,0.0,-0.412158401788,0.0,-0.00365483821052,0.0,0.000644244787335,0.0,0.0651491318248,0.0,-0.0136555448313,0.0,0.0,0.0,0.0,75.0,-0.0,-22.86,0.000767318410122,75.0,0.00230154196664,0.0,-0.0,75.0,-0.0,0.0,570664.8,0.0,0.0,0.0,0.0,0.0,0.0
1402752591125377739,3,-7.26565896983,-0.00591572024346,8.3796862916,-0.122189614607,-0.224527610138,0.10862951003,-0.388743616589,0.0,-0.725492479359,0.0,0.0888336180423,0.0,-1.95747727733,0.0,-0.406862261516,0.0,-0.00380116196164,0.0,0.00495143235103,0.0,0.0652408668706,0.0,0.00960981957513,0.0,0.0,0.0,0.0,75.0,-0.0,-22.86,0.00230154196664,75.0,0.00230154196664,0.0,-0.0,75.0,-0.0,0.0,570664.8,0.0,0.0,0.0,0.0,0.0,0.0
1402752591146094375,3,-7.26565896983,-0.00591572024346,8.3796862916,-0.122189614607,-0.224527610138,0.10862951003,-0.388743616589,0.0,-0.725492479359,0.0,0.0888336180423,0.0,-1.95747727733,0.0,-0.406862261516,0.0,-0.00380116196164,0.0,0.00495143235103,0.0,0.0652408668706,0.0,0.00960981957513,0.0,0.0,0.0,0.0,75.0,-0.0,-22.86,0.00230154196664,75.0,0.00230154196664,0.0,-0.0,75.0,-0.0,0.0,570664.8,0.0,0.0,0.0,0.0,0.0,0.0
1402752591165329351,3,-7.2835952099,-0.00591572024346,8.35797991696,-0.122189614607,-0.216777069326,0.10862951003,-0.406905737784,0.0,-0.705724287923,0.0,0.0909058160897,0.0,-1.97840775201,0.0,-0.411866367836,0.0,-0.00251742937435,0.0,0.0104971378793,0.0,0.0631023910319,0.0,0.0158720811391,0.0,0.0,0.0,0.0,75.0,-0.0,-22.86,0.00230154196664,75.0,0.00230154196664,0.0,-0.0,75.0,-0.0,0.0,570664.8,0.0,0.0,0.0,0.0,0.0,0.0
1402752591185408144,3,-7.2835952099,-0.00591572024346,8.35797991696,-0.122189614607,-0.216777069326,0.10862951003,-0.406905737784,0.0,-0.705724287923,0.0,0.0909058160897,0.0,-1.97840775201,0.0,-0.411866367836,0.0,-0.00251742937435,0.0,0.0104971378793,0.0,0.0631023910319,0.0,0.0158720811391,0.0,0.0,0.0,0.0,75.0,-0.0,-22.86,0.00230154196664,75.0,0.00230154196664,0.0,-0.0,75.0,-0.0,0.0,570664.8,0.0,0.0,0.0,0.0,0.0,0.0
1402752591205942520,3,-7.30201071099,-0.00591572024346,8.31749417501,-0.122189614607,-0.216796656196,0.10862951003,-0.429874258871,0.0,-0.739663910326,0.0,0.0889387983941,0.0,-1.99023827249,0.0,-0.408634378396,0.0,-0.00362252242884,0.0,-0.00720814478718,0.0,0.0662795318299,0.0,-0.00161482493989,0.0,0.0,0.0,0.0,75.0,-0.0,-22.86,0.00230154196664,75.0,0.00230154196664,0.0,-0.0,75.0,-0.0,0.0,570664.8,0.0,0.0,0.0,0.0,0.0,0.0
1402752591225304599,3,-7.30201071099,-0.00591572024346,8.31749417501,-0.122189614607,-0.216796656196,0.10862951003,-0.429874258871,0.0,-0.739663910326,0.0,0.0889387983941,0.0,-1.99023827249,0.0,-0.408634378396,0.0,-0.00362252242884,0.0,-0.00720814478718,0.0,0.0662795318299,0.0,-0.00161482493989,0.0,0.0,0.0,0.0,75.0,-0.0,-22.86,0.00230154196664,75.0,0.00230154196664,0.0,-0.0,75.0,-0.0,0.0,570664.8,0.0,0.0,0.0,0.0,0.0,0.0
1402752591245762670,3,-7.31948863899,-0.00591572024346,8.29855337385,-0.122189614607,-0.216027852831,0.10862951003,-0.442155841034,0.0,-0.71402079667,0.0,0.0902695527067,0.0,-2.01162436451,0.0,-0.404967755319,0.0,-0.00328641359471,0.0,-0.00537286873002,0.0,0.0631151566975,0.0,-0.00353729752004,0.0,0.0,0.0,0.0,75.0,-0.0,-22.86,0.00230154196664,75.0,0.00230154196664,0.0,-0.0,75.0,-0.0,0.0,570664.8,0.0,0.0,0.0,0.0,0.0,0.0
1402752591265352014,3,-7.31948863899,-0.00591572024346,8.29855337385,-0.122189614607,-0.216027852831,0.10862951003,-0.442155841034,0.0,-0.71402079667,0.0,0.0902695527067,0.0,-2.01162436451,0.0,-0.404967755319,0.0,-0.00328641359471,0.0,-0.00537286873002,0.0,0.0631151566975,0.0,-0.00353729752004,0.0,0.0,0.0,0.0,75.0,-0.0,-22.86,0.00230154196664,75.0,0.00230154196664,0.0,-0.0,75.0,-0.0,0.0,570664.8,0.0,0.0,0.0,0.0,0.0,0.0
1402752591285574945,3,-7.3507302003,-0.00591572024346,8.25497956035,-0.122189614607,-0.222134957335,0.10862951003,-0.480194739771,0.0,-0.738286842883,0.0,0.0861923001817,0.0,-2.02844999698,0.0,-0.407442054369,0.0,-0.0030331700142,0.0,0.00624832276465,0.0,0.0659677556453,0.0,0.0178087771421,0.0,0.0,0.0,0.0,75.0,-0.0,-22.86,0.00230154196664,75.0,0.00230154196664,0.0,-0.0,75.0,-0.0,0.0,570664.8,0.0,0.0,0.0,0.0,0.0,0.0
1402752591305341138,3,-7.3507302003,-0.00591572024346,8.25497956035,-0.122189614607,-0.222134957335,0.10862951003,-0.480194739771,0.0,-0.738286842883,0.0,0.0861923001817,0.0,-2.02844999698,0.0,-0.407442054369,0.0,-0.0030331700142,0.0,0.00624832276465,0.0,0.0659677556453,0.0,0.0178087771421,0.0,0.0,0.0,0.0,75.0,-0.0,-22.86,0.00230154196664,75.0,0.00230154196664,0.0,-0.0,75.0,-0.0,0.0,570664.8,0.0,0.0,0.0,0.0,0.0,0.0
1402752591326472477,3,-7.37092746865,-0.00591572024346,8.22172666955,-0.122189614607,-0.217528921601,0.10862951003,-0.486335985187,0.0,-0.730485398773,0.0,0.0890751322433,0.0,-2.05206825561,0.0,-0.408449493165,0.0,-0.00466706049917,0.0,0.0101932652548,0.0,0.0639583014014,0.0,0.0213303545603,0.0,0.0,0.0,0.0,75.0,-0.0,-22.86,0.00230154196664,75.0,0.00230154196664,0.0,-0.0,75.0,-0.0,0.0,570664.8,0.0,0.0,0.0,0.0,0.0,0.0
1402752591345847321,3,-7.37092746865,-0.00591572024346,8.22172666955,-0.122189614607,-0.217528921601,0.10862951003,-0.486335985187,0.0,-0.730485398773,0.0,0.0890751322433,0.0,-2.05206825561,0.0,-0.408449493165,0.0,-0.00466706049917,0.0,0.0101932652548,0.0,0.0639583014014,0.0,0.0213303545603,0.0,0.0,0.0,0.0,75.0,-0.0,-22.86,0.00230154196664,75.0,0.00230154196664,0.0,-0.0,75.0,-0.0,0.0,570664.8,0.0,0.0,0.0,0.0,0.0,0.0
1402752591365378921,3,-7.3807156618,-0.00591572024346,8.20710895736,-0.122189614607,-0.215694820233,0.10862951003,-0.496895825581,0.0,-0.730612598187,0.0,0.0876434227302,0.0,-2.06006604818,0.0,-0.399042433797,0.0,-0.00474024138084,0.0,0.00172448850568,0.0,0.0637886432354,0.0,0.00427484364474,0.0,0.0,0.0,0.0,75.0,-0.0,-22.86,0.00230154196664,75.0,0.00230154196664,0.0,-0.0,75.0,-0.0,0.0,570664.8,0.0,0.0,0.0,0.0,0.0,0.0
1402752591385207665,3,-7.3807156618,-0.00591572024346,8.20710895736,-0.122189614607,-0.215694820233,0.10862951003,-0.496895825581,0.0,-0.730612598187,0.0,0.0876434227302,0.0,-2.06006604818,0.0,-0.399042433797,0.0,-0.00474024138084,0.0,0.00172448850568,0.0,0.0637886432354,0.0,0.00427484364474,0.0,0.0,0.0,0.0,75.0,-0.0,-22.86,0.00230154196664,75.0,0.00230154196664,0.0,-0.0,75.0,-0.0,0.0,570664.8,0.0,0.0,0.0,0.0,0.0,0.0
1402752591405374616,3,-7.40235782549,-0.00591572024346,8.18383989117,-0.122189614607,-0.202644045631,0.10862951003,-0.517527374544,0.0,-0.710238192098,0.0,0.0905567388579,0.0,-2.07961741891,0.0,-0.396473295555,0.0,-0.00353479217167,0.0,0.00314514994559,0.0,0.0616396786707,0.0,-0.000712071112462,0.0,0.0,0.0,0.0,75.0,-0.0,-22.86,0.00230154196664,75.0,0.00230154196664,0.0,-0.0,75.0,-0.0,0.0,570664.8,0.0,0.0,0.0,0.0,0.0,0.0
1402752591425334575,3,-7.40235782549,-0.00591572024346,8.18383989117,-0.122189614607,-0.202644045631,0.10862951003,-0.517527374544,0.0,-0.710238192098,0.0,0.0905567388579,0.0,-2.07961741891,0.0,-0.396473295555,0.0,-0.00353479217167,0.0,0.00314514994559,0.0,0.0616396786707,0.0,-0.000712071112462,0.0,0.0,0.0,0.0,75.0,-0.0,-22.86,0.00230154196664,75.0,0.00230154196664,0.0,-0.0,75.0,-0.0,0.0,570664.8,0.0,0.0,0.0,0.0,0.0,0.0
1402752591445462413,3,-7.42252523761,-0.00591572024346,8.14803364038,-0.122189614607,-0.214416411191,0.10862951003,-0.529984787329,0.0,-0.733447435155,0.0,0.0840334023552,0.0,-2.09228066006,0.0,-0.392350404114,0.0,-0.00627837581811,0.0,-0.00568808499798,0.0,0.0638303108883,0.0,-0.00468287780471,0.0,0.0,0.0,0.0,75.0,-0.0,-22.86,0.00230154196664,75.0,0.00230154196664,0.0,-0.0,75.0,-0.0,0.0,570664.8,0.0,0.0,0.0,0.0,0.0,0.0
1402752591465879122,3,-7.42252523761,-0.00591572024346,8.14803364038,-0.122189614607,-0.214416411191,0.10862951003,-0.529984787329,0.0,-0.733447435155,0.0,0.0840334023552,0.0,-2.09228066006,0.0,-0.392350404114,0.0,-0.00627837581811,0.0,-0.00568808499798,0.0,0.0638303108883,0.0,-0.00468287780471,0.0,0.0,0.0,0.0,75.0,-0.0,-22.86,0.00230154196664,75.0,0.00230154196664,0.0,-0.0,75.0,-0.0,0.0,570664.8,0.0,0.0,0.0,0.0,0.0,0.0
1402752591485758101,3,-7.44915458778,-0.00591572024346,8.12541075296,-0.122189614607,-0.219445568259,0.10862951003,-0.550066552017,0.0,-0.717622648269,0.0,0.0872843559353,0.0,-2.11066735423,0.0,-0.397984509315,0.0,-0.00493158182178,0.0,-0.00807017034646,0.0,0.0622059150721,0.0,0.0116875053383,0.0,0.0,0.0,0.0,75.0,-0.0,-22.86,0.00230154196664,75.0,0.00230154196664,0.0,-0.0,75.0,-0.0,0.0,570664.8,0.0,0.0,0.0,0.0,0.0,0.0
