rosbagTimestamp,control_method,x_current,x_desired,y_current,y_desired,x_velocity_current,x_velocity_desired,y_velocity_current,y_velocity_desired,yaw_current,yaw_desired,required_force_x,required_force_y,required_moment_z,resultant_force_x,resultant_force_y,resultant_moment_z,current_port_servo_angle,current_port_thruster_force,current_starboard_servo_angle,current_starboard_thruster_force,estimated_port_servo_angle,estimated_port_thruster_force,estimated_starboard_servo_angle,estimated_starboard_thruster_force,cost_value,step,user_defined_1,user_defined_2,user_defined_3,user_defined_4,user_defined_5
1402602652369212954,3,-20.0776921438,-0.114322152727,-94.357412208,0.043815185726,0.433059188786,0.0,-0.552939779943,0.0,-2.13633859226,0.0,0.0,0.0,0.0,11.7005402906,-167.325521719,154.247264303,1.03185400168,-100.0,-0.919846208888,100.0,1.06465084372,-100.0,-0.925024503557,100.0,26001869.5138,0.0,0.0,0.0,0.0,0.0,0.0
1402602652389481413,3,-20.0776921438,-0.114322152727,-94.357412208,0.043815185726,0.433059188786,0.0,-0.552939779943,0.0,-2.13633859226,0.0,0.0,0.0,0.0,11.7005402906,-167.325521719,154.247264303,1.03338846366,-100.0,-0.919846208888,100.0,1.06465084372,-100.0,-0.925024503557,100.0,26001869.5138,0.0,0.0,0.0,0.0,0.0,0.0
1402602652408895505,3,-20.0650396274,-0.114322152727,-94.3695448459,0.043815185726,0.439909901779,0.0,-0.556687584319,0.0,-2.13631632467,0.0,0.0,0.0,0.0,11.7005402906,-167.325521719,154.247264303,1.03185400168,-100.0,-0.919846208888,100.0,1.06465084372,-100.0,-0.925024503557,100.0,26001869.5138,0.0,0.0,0.0,0.0,0.0,0.0
1402602652429365131,3,-20.0650396274,-0.114322152727,-94.3695448459,0.043815185726,0.439909901779,0.0,-0.556687584319,0.0,-2.13631632467,0.0,0.0,0.0,0.0,11.7005402906,-167.325521719,154.247264303,1.03185400168,-100.0,-0.918311746913,100.0,1.06465084372,-100.0,-0.925024503557,100.0,26001869.5138,0.0,0.0,0.0,0.0,0.0,0.0
1402602652448819384,3,-20.0417113296,-0.114322152727,-94.3926466223,0.043815185726,0.446811119276,0.0,-0.555578107862,0.0,-2.13630761159,0.0,0.0,0.0,0.0,11.7005402906,-167.325521719,154.247264303,1.03185400168,-100.0,-0.918311746913,100.0,1.06465084372,-100.0,-0.925024503557,100.0,26001869.5138,0.0,0.0,0.0,0.0,0.0,0.0
1402602652469348777,3,-20.0417113296,-0.114322152727,-94.3926466223,0.043815185726,0.446811119276,0.0,-0.555578107862,0.0,-2.13630761159,0.0,0.0,0.0,0.0,11.7005402906,-167.325521719,154.247264303,1.03185400168,-100.0,-0.919846208888,100.0,1.06465084372,-100.0,-0.925024503557,100.0,26001869.5138,0.0,0.0,0.0,0.0,0.0,0.0
1402602652488894920,3,-20.0279886771,-0.114322152727,-94.4129694131,0.043815185726,0.438834415413,0.0,-0.54830614725,0.0,-2.13632183642,0.0,0.0,0.0,0.0,11.7005402906,-167.325521719,154.247264303,1.03185400168,-100.0,-0.919846208888,100.0,1.06465084372,-100.0,-0.925024503557,100.0,26001869.5138,0.0,0.0,0.0,0.0,0.0,0.0
1402602652509392915,3,-20.0279886771,-0.114322152727,-94.4129694131,0.043815185726,0.438834415413,0.0,-0.54830614725,0.0,-2.13632183642,0.0,0.0,0.0,0.0,11.7005402906,-167.325521719,154.247264303,1.03185400168,-100.0,-0.919846208888,100.0,1.06465084372,-100.0,-0.925024503557,100.0,26001869.5138,0.0,0.0,0.0,0.0,0.0,0.0
1402602652528885595,3,-20.0103440317,-0.114322152727,-94.4358020434,0.043815185726,0.441183313568,0.0,-0.549361349727,0.0,-2.13607579061,0.0,0.0,0.0,0.0,11.7005402906,-167.325521719,154.247264303,1.03185400168,-100.0,-0.919846208888,100.0,1.06465084372,-100.0,-0.925024503557,100.0,26001869.5138,0.0,0.0,0.0,0.0,0.0,0.0
1402602652549452827,3,-20.0103440317,-0.114322152727,-94.4358020434,0.043815185726,0.441183313568,0.0,-0.549361349727,0.0,-2.13607579061,0.0,0.0,0.0,0.0,11.7005402906,-167.325521719,154.247264303,1.03185400168,-100.0,-0.919846208888,100.0,1.06465084372,-100.0,-0.925024503557,100.0,26001869.5138,0.0,0.0,0.0,0.0,0.0,0.0
1402602652569004913,3,-19.987063165,-0.114322152727,-94.4643865149,0.043815185726,0.443396489395,0.0,-0.553838284153,0.0,-2.13569349125,0.0,0.0,0.0,0.0,11.7005402906,-167.325521719,154.247264303,1.03185400168,-100.0,-0.918311746913,100.0,1.06465084372,-100.0,-0.925024503557,100.0,26001869.5138,0.0,0.0,0.0,0.0,0.0,0.0
1402602652589410680,3,-19.987063165,-0.114322152727,-94.4643865149,0.043815185726,0.443396489395,0.0,-0.553838284153,0.0,-2.13569349125,0.0,0.0,0.0,0.0,11.7005402906,-167.325521719,154.247264303,1.03185400168,-100.0,-0.919846208888,100.0,1.06465084372,-100.0,-0.925024503557,100.0,26001869.5138,0.0,0.0,0.0,0.0,0.0,0.0
1402602652608674225,3,-19.9672171361,-0.114322152727,-94.4800739599,0.043815185726,0.468888731807,0.0,-0.551156352057,0.0,-2.13537109341,0.0,0.0,0.0,0.0,11.7005402906,-167.325521719,154.247264303,1.03185400168,-100.0,-0.919846208888,100.0,1.06465084372,-100.0,-0.925024503557,100.0,26001869.5138,0.0,0.0,0.0,0.0,0.0,0.0
1402602652629204731,3,-19.9580262843,-0.114322152727,-94.4910989642,0.043815185726,0.46667180753,0.0,-0.551035099233,0.0,-2.13500617377,0.0,0.0,0.0,0.0,11.7005402906,-167.325521719,154.247264303,1.03338846366,-100.0,-0.918311746913,100.0,1.06465084372,-100.0,-0.925024503557,100.0,26001869.5138,0.0,0.0,0.0,0.0,0.0,0.0
1402602652649388238,3,-19.9580262843,-0.114322152727,-94.4910989642,0.043815185726,0.46667180753,0.0,-0.551035099233,0.0,-2.13500617377,0.0,0.0,0.0,0.0,11.7005402906,-167.325521719,154.247264303,1.03185400168,-100.0,-0.918311746913,100.0,1.06465084372,-100.0,-0.925024503557,100.0,26001869.5138,0.0,0.0,0.0,0.0,0.0,0.0
1402602652670035372,3,-19.9476261368,-0.114322152727,-94.5041021249,0.043815185726,0.476310399145,0.0,-0.55916047058,0.0,-2.13470638436,0.0,0.0,0.0,0.0,11.7005402906,-167.325521719,154.247264303,1.03185400168,-100.0,-0.919846208888,100.0,1.06465084372,-100.0,-0.925024503557,100.0,26001869.5138,0.0,0.0,0.0,0.0,0.0,0.0
1402602652688703446,3,-19.9476261368,-0.114322152727,-94.5041021249,0.043815185726,0.476310399145,0.0,-0.55916047058,0.0,-2.13470638436,0.0,0.0,0.0,0.0,11.7005402906,-167.325521719,154.247264303,1.03185400168,-100.0,-0.919846208888,100.0,1.06465084372,-100.0,-0.925024503557,100.0,26001869.5138,0.0,0.0,0.0,0.0,0.0,0.0
1402602652709324702,3,-19.930203117,-0.114322152727,-94.5281624291,0.043815185726,0.472357050032,0.0,-0.564728385468,0.0,-2.13381521816,0.0,0.0,0.0,0.0,11.7005402906,-167.325521719,154.247264303,1.03185400168,-100.0,-0.919846208888,100.0,1.06465084372,-100.0,-0.925024503557,100.0,26001869.5138,0.0,0.0,0.0,0.0,0.0,0.0
1402602652728721142,3,-19.930203117,-0.114322152727,-94.5281624291,0.043815185726,0.472357050032,0.0,-0.564728385468,0.0,-2.13381521816,0.0,0.0,0.0,0.0,11.7005402906,-167.325521719,154.247264303,1.03185400168,-100.0,-0.918311746913,100.0,1.06465084372,-100.0,-0.925024503557,100.0,26001869.5138,0.0,0.0,0.0,0.0,0.0,0.0
1402602652749367406,3,-19.9086399051,-0.114322152727,-94.5512412207,0.043815185726,0.485478917283,0.0,-0.564352462693,0.0,-2.13272657796,0.0,0.0,0.0,0.0,11.7005402906,-167.325521719,154.247264303,1.03185400168,-100.0,-0.918311746913,100.0,1.06465084372,-100.0,-0.925024503557,100.0,26001869.5138,0.0,0.0,0.0,0.0,0.0,0.0
1402602652768810931,3,-19.9086399051,-0.114322152727,-94.5512412207,0.043815185726,0.485478917283,0.0,-0.564352462693,0.0,-2.13272657796,0.0,0.0,0.0,0.0,11.7005402906,-167.325521719,154.247264303,1.03185400168,-100.0,-0.919846208888,100.0,1.06465084372,-100.0,-0.925024503557,100.0,26001869.5138,0.0,0.0,0.0,0.0,0.0,0.0
1402602652789102494,3,-19.8896811085,-0.114322152727,-94.5761435461,0.043815185726,0.476911033789,0.0,-0.556603479985,0.0,-2.13099981791,0.0,0.0,0.0,0.0,11.7005402906,-167.325521719,154.247264303,1.03185400168,-100.0,-0.918311746913,100.0,1.06465084372,-100.0,-0.925024503557,100.0,26001869.5138,0.0,0.0,0.0,0.0,0.0,0.0
1402602652808751018,3,-19.8896811085,-0.114322152727,-94.5761435461,0.043815185726,0.476911033789,0.0,-0.556603479985,0.0,-2.13099981791,0.0,0.0,0.0,0.0,11.7005402906,-167.325521719,154.247264303,1.03185400168,-100.0,-0.919846208888,100.0,1.06465084372,-100.0,-0.925024503557,100.0,26001869.5138,0.0,0.0,0.0,0.0,0.0,0.0
1402602652829124286,3,-19.8615771531,-0.114322152727,-94.6087271117,0.043815185726,0.494341940498,0.0,-0.574700088793,0.0,-2.12938715674,0.0,0.0,0.0,0.0,11.7005402906,-167.325521719,154.247264303,1.03185400168,-100.0,-0.918311746913,100.0,1.06465084372,-100.0,-0.925024503557,100.0,26001869.5138,0.0,0.0,0.0,0.0,0.0,0.0
1402602652848756020,3,-19.8615771531,-0.114322152727,-94.6087271117,0.043815185726,0.494341940498,0.0,-0.574700088793,0.0,-2.12938715674,0.0,0.0,0.0,0.0,11.7005402906,-167.325521719,154.247264303,1.03338846366,-100.0,-0.918311746913,100.0,1.06465084372,-100.0,-0.925024503557,100.0,26001869.5138,0.0,0.0,0.0,0.0,0.0,0.0
1402602652869320734,3,-19.8516749955,-0.114322152727,-94.6185408497,0.043815185726,0.496691510377,0.0,-0.562633658598,0.0,-2.12836776843,0.0,0.0,0.0,0.0,11.7005402906,-167.325521719,154.247264303,1.03185400168,-100.0,-0.918311746913,100.0,1.06465084372,-100.0,-0.925024503557,100.0,26001869.5138,0.0,0.0,0.0,0.0,0.0,0.0
1402602652888753022,3,-19.8516749955,-0.114322152727,-94.6185408497,0.043815185726,0.496691510377,0.0,-0.562633658598,0.0,-2.12836776843,0.0,0.0,0.0,0.0,11.7005402906,-167.325521719,154.247264303,1.03185400168,-100.0,-0.919846208888,100.0,1.06465084372,-100.0,-0.925024503557,100.0,26001869.5138,0.0,0.0,0.0,0.0,0.0,0.0
1402602652909397089,3,-19.8347645883,-0.114322152727,-94.64051827,0.043815185726,0.483354625548,0.0,-0.560151788471,0.0,-2.1267032626,0.0,0.0,0.0,0.0,11.7005402906,-167.325521719,154.247264303,1.03185400168,-100.0,-0.918311746913,100.0,1.06465084372,-100.0,-0.925024503557,100.0,26001869.5138,0.0,0.0,0.0,0.0,0.0,0.0
1402602652928858158,3,-19.8347645883,-0.114322152727,-94.64051827,0.043815185726,0.483354625548,0.0,-0.560151788471,0.0,-2.1267032626,0.0,0.0,0.0,0.0,11.7005402906,-167.325521719,154.247264303,1.03185400168,-100.0,-0.919846208888,100.0,1.06465084372,-100.0,-0.925024503557,100.0,26001869.5138,0.0,0.0,0.0,0.0,0.0,0.0
1402602652949345196,3,-19.8187321673,-0.114322152727,-94.662961452,0.043815185726,0.459007020245,0.0,-0.549083425687,0.0,-2.12517805455,0.0,0.0,0.0,0.0,11.7005402906,-167.325521719,154.247264303,1.03185400168,-100.0,-0.919846208888,100.0,1.06465084372,-100.0,-0.925024503557,100.0,26001869.5138,0.0,0.0,0.0,0.0,0.0,0.0
1402602652968792145,3,-19.8187321673,-0.114322152727,-94.662961452,0.043815185726,0.459007020245,0.0,-0.549083425687,0.0,-2.12517805455,0.0,0.0,0.0,0.0,11.7005402906,-167.325521719,154.247264303,1.03185400168,-100.0,-0.919846208888,100.0,1.06465084372,-100.0,-0.925024503557,100.0,26001869.5138,0.0,0.0,0.0,0.0,0.0,0.0
1402602652989384987,3,-19.8000509436,-0.114322152727,-94.6853602143,0.043815185726,0.446766683783,0.0,-0.542931145858,0.0,-2.12400800347,0.0,0.0,0.0,0.0,11.7005402906,-167.325521719,154.247264303,1.03185400168,-100.0,-0.919846208888,100.0,1.06465084372,-100.0,-0.925024503557,100.0,26001869.5138,0.0,0.0,0.0,0.0,0.0,0.0
1402602653008857358,3,-19.8000509436,-0.114322152727,-94.6853602143,0.043815185726,0.446766683783,0.0,-0.542931145858,0.0,-2.12400800347,0.0,0.0,0.0,0.0,11.7005402906,-167.325521719,154.247264303,1.03185400168,-100.0,-0.919846208888,100.0,1.06465084372,-100.0,-0.925024503557,100.0,26001869.5138,0.0,0.0,0.0,0.0,0.0,0.0
1402602653029441281,3,-19.7751130356,-0.114322152727,-94.7145851662,0.043815185726,0.452025198574,0.0,-0.545573543948,0.0,-2.12311057925,0.0,0.0,0.0,0.0,11.7005402906,-167.325521719,154.247264303,1.03185400168,-100.0,-0.918311746913,100.0,1.06465084372,-100.0,-0.925024503557,100.0,26001869.5138,0.0,0.0,0.0,0.0,0.0,0.0
1402602653048919913,3,-19.7751130356,-0.114322152727,-94.7145851662,0.043815185726,0.452025198574,0.0,-0.545573543948,0.0,-2.12311057925,0.0,0.0,0.0,0.0,11.7005402906,-167.325521719,154.247264303,1.03185400168,-100.0,-0.919846208888,100.0,1.06465084372,-100.0,-0.925024503557,100.0,26001869.5138,0.0,0.0,0.0,0.0,0.0,0.0
1402602653069466959,3,-19.7534240713,-0.114322152727,-94.7410480594,0.043815185726,0.441667303498,0.0,-0.536004365729,0.0,-2.12261193878,0.0,0.0,0.0,0.0,11.7005402906,-167.325521719,154.247264303,1.03185400168,-100.0,-0.918311746913,100.0,1.06465084372,-100.0,-0.925024503557,100.0,26001869.5138,0.0,0.0,0.0,0.0,0.0,0.0
1402602653088763584,3,-19.7534240713,-0.114322152727,-94.7410480594,0.043815185726,0.441667303498,0.0,-0.536004365729,0.0,-2.12261193878,0.0,0.0,0.0,0.0,11.7005402906,-167.325521719,154.247264303,1.03185400168,-100.0,-0.918311746913,100.0,1.06465084372,-100.0,-0.925024503557,100.0,26001869.5138,0.0,0.0,0.0,0.0,0.0,0.0
1402602653109454617,3,-19.7438274631,-0.114322152727,-94.752309094,0.043815185726,0.437348510968,0.0,-0.539612548461,0.0,-2.12254670045,0.0,0.0,0.0,0.0,11.7005402906,-167.325521719,154.247264303,1.03185400168,-100.0,-0.919846208888,100.0,1.06465084372,-100.0,-0.925024503557,100.0,26001869.5138,0.0,0.0,0.0,0.0,0.0,0.0
1402602653128683019,3,-19.7438274631,-0.114322152727,-94.752309094,0.043815185726,0.437348510968,0.0,-0.539612548461,0.0,-2.12254670045,0.0,0.0,0.0,0.0,11.7005402906,-167.325521719,154.247264303,1.03185400168,-100.0,-0.919846208888,100.0,1.06465084372,-100.0,-0.925024503557,100.0,26001869.5138,0.0,0.0,0.0,0.0,0.0,0.0
1402602653149400968,3,-19.7283149212,-0.114322152727,-94.77176417,0.043815185726,0.440415637129,0.0,-0.538816277733,0.0,-2.12256173924,0.0,0.0,0.0,0.0,11.7005402906,-167.325521719,154.247264303,1.03185400168,-100.0,-0.919846208888,100.0,1.06465084372,-100.0,-0.925024503557,100.0,26001869.5138,0.0,0.0,0.0,0.0,0.0,0.0
1402602653168817937,3,-19.7283149212,-0.114322152727,-94.77176417,0.043815185726,0.440415637129,0.0,-0.538816277733,0.0,-2.12256173924,0.0,0.0,0.0,0.0,11.7005402906,-167.325521719,154.247264303,1.03185400168,-100.0,-0.919846208888,100.0,1.06465084372,-100.0,-0.925024503557,100.0,26001869.5138,0.0,0.0,0.0,0.0,0.0,0.0
1402602653189389748,3,-19.707963619,-0.114322152727,-94.7940983471,0.043815185726,0.441571949822,0.0,-0.543216285985,0.0,-2.12275454688,0.0,0.0,0.0,0.0,11.7005402906,-167.325521719,154.247264303,1.03185400168,-100.0,-0.919846208888,100.0,1.06465084372,-100.0,-0.925024503557,100.0,26001869.5138,0.0,0.0,0.0,0.0,0.0,0.0
1402602653208791621,3,-19.707963619,-0.114322152727,-94.7940983471,0.043815185726,0.441571949822,0.0,-0.543216285985,0.0,-2.12275454688,0.0,0.0,0.0,0.0,11.7005402906,-167.325521719,154.247264303,1.03185400168,-100.0,-0.919846208888,100.0,1.06465084372,-100.0,-0.925024503557,100.0,26001869.5138,0.0,0.0,0.0,0.0,0.0,0.0
1402602653229476327,3,-19.6899022927,-0.114322152727,-94.8162771164,0.043815185726,0.446023363751,0.0,-0.542461710773,0.0,-2.1232544329,0.0,0.0,0.0,0.0,11.7005402906,-167.325521719,154.247264303,1.03338846366,-100.0,-0.919846208888,100.0,1.06465084372,-100.0,-0.925024503557,100.0,26001869.5138,0.0,0.0,0.0,0.0,0.0,0.0
1402602653248791696,3,-19.6899022927,-0.114322152727,-94.8162771164,0.043815185726,0.446023363751,0.0,-0.542461710773,0.0,-2.1232544329,0.0,0.0,0.0,0.0,11.7005402906,-167.325521719,154.247264303,1.03185400168,-100.0,-0.918311746913,100.0,1.06465084372,-100.0,-0.925024503557,100.0,26001869.5138,0.0,0.0,0.0,0.0,0.0,0.0
1402602653269369931,3,-19.6673932755,-0.114322152727,-94.8383538563,0.043815185726,0.458035403289,0.0,-0.547854104627,0.0,-2.1237107544,0.0,0.0,0.0,0.0,11.7005402906,-167.325521719,154.247264303,1.03185400168,-100.0,-0.918311746913,100.0,1.06465084372,-100.0,-0.925024503557,100.0,26001869.5138,0.0,0.0,0.0,0.0,0.0,0.0
1402602653288770406,3,-19.6673932755,-0.114322152727,-94.8383538563,0.043815185726,0.458035403289,0.0,-0.547854104627,0.0,-2.1237107544,0.0,0.0,0.0,0.0,11.7005402906,-167.325521719,154.247264303,1.03185400168,-100.0,-0.919846208888,100.0,1.06465084372,-100.0,-0.925024503557,100.0,26001869.5138,0.0,0.0,0.0,0.0,0.0,0.0
1402602653309436912,3,-19.6461606085,-0.114322152727,-94.8648676054,0.043815185726,0.449689570552,0.0,-0.56194486673,0.0,-2.12431391283,0.0,0.0,0.0,0.0,11.7005402906,-167.325521719,154.247264303,1.03185400168,-100.0,-0.918311746913,100.0,1.06465084372,-100.0,-0.925024503557,100.0,26001869.5138,0.0,0.0,0.0,0.0,0.0,0.0
1402602653328825078,3,-19.6461606085,-0.114322152727,-94.8648676054,0.043815185726,0.449689570552,0.0,-0.56194486673,0.0,-2.12431391283,0.0,0.0,0.0,0.0,11.7005402906,-167.325521719,154.247264303,1.03185400168,-100.0,-0.918311746913,100.0,1.06465084372,-100.0,-0.925024503557,100.0,26001869.5138,0.0,0.0,0.0,0.0,0.0,0.0
1402602653349413495,3,-19.6325172851,-0.114322152727,-94.8833188131,0.043815185726,0.45130596731,0.0,-0.565241124862,0.0,-2.12448252934,0.0,0.0,0.0,0.0,11.7005402906,-167.325521719,154.247264303,1.03185400168,-100.0,-0.919846208888,100.0,1.06465084372,-100.0,-0.925024503557,100.0,26001869.5138,0.0,0.0,0.0,0.0,0.0,0.0
1402602653368785284,3,-19.62292322,-0.114322152727,-94.8952162302,0.043815185726,0.454981355849,0.0,-0.570423416484,0.0,-2.12462953456,0.0,0.0,0.0,0.0,11.7005402906,-167.325521719,154.247264303,1.03185400168,-100.0,-0.918311746913,100.0,1.06465084372,-100.0,-0.925024503557,100.0,26001869.5138,0.0,0.0,0.0,0.0,0.0,0.0
1402602653389327493,3,-19.62292322,-0.114322152727,-94.8952162302,0.043815185726,0.454981355849,0.0,-0.570423416484,0.0,-2.12462953456,0.0,0.0,0.0,0.0,11.7005402906,-167.325521719,154.247264303,1.03185400168,-100.0,-0.919846208888,100.0,1.06465084372,-100.0,-0.925024503557,100.0,26001869.5138,0.0,0.0,0.0,0.0,0.0,0.0
1402602653408765365,3,-19.6132201969,-0.114322152727,-94.9047740267,0.043815185726,0.451413603766,0.0,-0.559457185884,0.0,-2.12471435789,0.0,0.0,0.0,0.0,11.7005402906,-167.325521719,154.247264303,1.03185400168,-100.0,-0.919846208888,100.0,1.06465084372,-100.0,-0.925024503557,100.0,26001869.5138,0.0,0.0,0.0,0.0,0.0,0.0
1402602653429429734,3,-19.6132201969,-0.114322152727,-94.9047740267,0.043815185726,0.451413603766,0.0,-0.559457185884,0.0,-2.12471435789,0.0,0.0,0.0,0.0,11.7005402906,-167.325521719,154.247264303,1.03185400168,-100.0,-0.919846208888,100.0,1.06465084372,-100.0,-0.925024503557,100.0,26001869.5138,0.0,0.0,0.0,0.0,0.0,0.0
1402602653448820515,3,-19.5895105682,-0.114322152727,-94.9293068273,0.043815185726,0.468865478969,0.0,-0.569426784816,0.0,-2.12507150479,0.0,0.0,0.0,0.0,11.7005402906,-167.325521719,154.247264303,1.03185400168,-100.0,-0.918311746913,100.0,1.06465084372,-100.0,-0.925024503557,100.0,26001869.5138,0.0,0.0,0.0,0.0,0.0,0.0
1402602653469359025,3,-19.5895105682,-0.114322152727,-94.9293068273,0.043815185726,0.468865478969,0.0,-0.569426784816,0.0,-2.12507150479,0.0,0.0,0.0,0.0,11.7005402906,-167.325521719,154.247264303,1.03185400168,-100.0,-0.918311746913,100.0,1.06465084372,-100.0,-0.925024503557,100.0,26001869.5138,0.0,0.0,0.0,0.0,0.0,0.0
1402602653488810090,3,-19.5704088802,-0.114322152727,-94.9523941042,0.043815185726,0.466863991871,0.0,-0.569556405647,0.0,-2.12531027507,0.0,0.0,0.0,0.0,11.7005402906,-167.325521719,154.247264303,1.03185400168,-100.0,-0.918311746913,100.0,1.06465084372,-100.0,-0.925024503557,100.0,26001869.5138,0.0,0.0,0.0,0.0,0.0,0.0
1402602653509276251,3,-19.5704088802,-0.114322152727,-94.9523941042,0.043815185726,0.466863991871,0.0,-0.569556405647,0.0,-2.12531027507,0.0,0.0,0.0,0.0,11.7005402906,-167.325521719,154.247264303,1.03185400168,-100.0,-0.918311746913,100.0,1.06465084372,-100.0,-0.925024503557,100.0,26001869.5138,0.0,0.0,0.0,0.0,0.0,0.0
1402602653528688612,3,-19.547157045,-0.114322152727,-94.9749569397,0.043815185726,0.479949882094,0.0,-0.558177513578,0.0,-2.12534086864,0.0,0.0,0.0,0.0,11.7005402906,-167.325521719,154.247264303,1.03185400168,-100.0,-0.918311746913,100.0,1.06465084372,-100.0,-0.925024503557,100.0,26001869.5138,0.0,0.0,0.0,0.0,0.0,0.0
1402602653548997297,3,-19.547157045,-0.114322152727,-94.9749569397,0.043815185726,0.479949882094,0.0,-0.558177513578,0.0,-2.12534086864,0.0,0.0,0.0,0.0,11.7005402906,-167.325521719,154.247264303,1.03185400168,-100.0,-0.919846208888,100.0,1.06465084372,-100.0,-0.925024503557,100.0,26001869.5138,0.0,0.0,0.0,0.0,0.0,0.0
1402602653568693617,3,-19.5225744328,-0.114322152727,-95.0041560587,0.043815185726,0.466434646427,0.0,-0.558237069398,0.0,-2.12493822304,0.0,0.0,0.0,0.0,11.7005402906,-167.325521719,154.247264303,1.03185400168,-100.0,-0.919846208888,100.0,1.06465084372,-100.0,-0.925024503557,100.0,26001869.5138,0.0,0.0,0.0,0.0,0.0,0.0
1402602653589285665,3,-19.5225744328,-0.114322152727,-95.0041560587,0.043815185726,0.466434646427,0.0,-0.558237069398,0.0,-2.12493822304,0.0,0.0,0.0,0.0,11.7005402906,-167.325521719,154.247264303,1.03185400168,-100.0,-0.919846208888,100.0,1.06465084372,-100.0,-0.925024503557,100.0,26001869.5138,0.0,0.0,0.0,0.0,0.0,0.0
1402602653608866815,3,-19.5054082046,-0.114322152727,-95.0330758735,0.043815185726,0.45749272556,0.0,-0.546866204136,0.0,-2.1237265866,0.0,0.0,0.0,0.0,11.7005402906,-167.325521719,154.247264303,1.03185400168,-100.0,-0.918311746913,100.0,1.06465084372,-100.0,-0.925024503557,100.0,26001869.5138,0.0,0.0,0.0,0.0,0.0,0.0
1402602653629221446,3,-19.5054082046,-0.114322152727,-95.0330758735,0.043815185726,0.45749272556,0.0,-0.546866204136,0.0,-2.1237265866,0.0,0.0,0.0,0.0,11.7005402906,-167.325521719,154.247264303,1.03185400168,-100.0,-0.919846208888,100.0,1.06465084372,-100.0,-0.925024503557,100.0,26001869.5138,0.0,0.0,0.0,0.0,0.0,0.0
1402602653648741450,3,-19.4943861644,-0.114322152727,-95.0361819149,0.043815185726,0.453253393737,0.0,-0.525406567898,0.0,-2.12343085425,0.0,0.0,0.0,0.0,11.7005402906,-167.325521719,154.247264303,1.03185400168,-100.0,-0.919846208888,100.0,1.06465084372,-100.0,-0.925024503557,100.0,26001869.5138,0.0,0.0,0.0,0.0,0.0,0.0
1402602653669126226,3,-19.4943861644,-0.114322152727,-95.0361819149,0.043815185726,0.453253393737,0.0,-0.525406567898,0.0,-2.12343085425,0.0,0.0,0.0,0.0,11.7005402906,-167.325521719,154.247264303,1.03338846366,-100.0,-0.918311746913,100.0,1.06465084372,-100.0,-0.925024503557,100.0,26001869.5138,0.0,0.0,0.0,0.0,0.0,0.0
1402602653688644995,3,-19.474158339,-0.114322152727,-95.0572083216,0.043815185726,0.463734541478,0.0,-0.532358434662,0.0,-2.12262634564,0.0,0.0,0.0,0.0,11.7005402906,-167.325521719,154.247264303,1.03185400168,-100.0,-0.918311746913,100.0,1.06465084372,-100.0,-0.925024503557,100.0,26001869.5138,0.0,0.0,0.0,0.0,0.0,0.0
1402602653709295339,3,-19.474158339,-0.114322152727,-95.0572083216,0.043815185726,0.463734541478,0.0,-0.532358434662,0.0,-2.12262634564,0.0,0.0,0.0,0.0,11.7005402906,-167.325521719,154.247264303,1.03185400168,-100.0,-0.918311746913,100.0,1.06465084372,-100.0,-0.925024503557,100.0,26001869.5138,0.0,0.0,0.0,0.0,0.0,0.0
1402602653728762684,3,-19.4556311912,-0.114322152727,-95.0765705967,0.043815185726,0.46695299384,0.0,-0.533908162974,0.0,-2.12146648509,0.0,0.0,0.0,0.0,11.7005402906,-167.325521719,154.247264303,1.03185400168,-100.0,-0.918311746913,100.0,1.06465084372,-100.0,-0.925024503557,100.0,26001869.5138,0.0,0.0,0.0,0.0,0.0,0.0
1402602653749439697,3,-19.4556311912,-0.114322152727,-95.0765705967,0.043815185726,0.46695299384,0.0,-0.533908162974,0.0,-2.12146648509,0.0,0.0,0.0,0.0,11.7005402906,-167.325521719,154.247264303,1.03185400168,-100.0,-0.919846208888,100.0,1.06465084372,-100.0,-0.925024503557,100.0,26001869.5138,0.0,0.0,0.0,0.0,0.0,0.0
1402602653768781717,3,-19.4347271256,-0.114322152727,-95.1014059979,0.043815185726,0.460645234969,0.0,-0.518315690233,0.0,-2.11969402434,0.0,0.0,0.0,0.0,11.7005402906,-167.325521719,154.247264303,1.03185400168,-100.0,-0.919846208888,100.0,1.06465084372,-100.0,-0.925024503557,100.0,26001869.5138,0.0,0.0,0.0,0.0,0.0,0.0
1402602653789108885,3,-19.4347271256,-0.114322152727,-95.1014059979,0.043815185726,0.460645234969,0.0,-0.518315690233,0.0,-2.11969402434,0.0,0.0,0.0,0.0,11.7005402906,-167.325521719,154.247264303,1.03185400168,-100.0,-0.919846208888,100.0,1.06465084372,-100.0,-0.925024503557,100.0,26001869.5138,0.0,0.0,0.0,0.0,0.0,0.0
1402602653808667583,3,-19.4224730245,-0.114322152727,-95.1166993532,0.043815185726,0.463837574107,0.0,-0.52269298281,0.0,-2.11879275761,0.0,0.0,0.0,0.0,11.7005402906,-167.325521719,154.247264303,1.03185400168,-100.0,-0.919846208888,100.0,1.06465084372,-100.0,-0.925024503557,100.0,26001869.5138,0.0,0.0,0.0,0.0,0.0,0.0
1402602653829242470,3,-19.413067877,-0.114322152727,-95.1276355524,0.043815185726,0.460844340409,0.0,-0.523756441929,0.0,-2.11824058865,0.0,0.0,0.0,0.0,11.7005402906,-167.325521719,154.247264303,1.03185400168,-100.0,-0.919846208888,100.0,1.06465084372,-100.0,-0.925024503557,100.0,26001869.5138,0.0,0.0,0.0,0.0,0.0,0.0
1402602653848686436,3,-19.413067877,-0.114322152727,-95.1276355524,0.043815185726,0.460844340409,0.0,-0.523756441929,0.0,-2.11824058865,0.0,0.0,0.0,0.0,11.7005402906,-167.325521719,154.247264303,1.03185400168,-100.0,-0.919846208888,100.0,1.06465084372,-100.0,-0.925024503557,100.0,26001869.5138,0.0,0.0,0.0,0.0,0.0,0.0
1402602653869275812,3,-19.3991283309,-0.114322152727,-95.1403284936,0.043815185726,0.477266592257,0.0,-0.527210453488,0.0,-2.11837487371,0.0,0.0,0.0,0.0,11.7005402906,-167.325521719,154.247264303,1.03185400168,-100.0,-0.919846208888,100.0,1.06465084372,-100.0,-0.925024503557,100.0,26001869.5138,0.0,0.0,0.0,0.0,0.0,0.0
1402602653888669278,3,-19.3991283309,-0.114322152727,-95.1403284936,0.043815185726,0.477266592257,0.0,-0.527210453488,0.0,-2.11837487371,0.0,0.0,0.0,0.0,11.7005402906,-167.325521719,154.247264303,1.03185400168,-100.0,-0.919846208888,100.0,1.06465084372,-100.0,-0.925024503557,100.0,26001869.5138,0.0,0.0,0.0,0.0,0.0,0.0
1402602653909306620,3,-19.3808633526,-0.114322152727,-95.1629228387,0.043815185726,0.469919094482,0.0,-0.530042099233,0.0,-2.11757678953,0.0,0.0,0.0,0.0,11.7005402906,-167.325521719,154.247264303,1.03185400168,-100.0,-0.918311746913,100.0,1.06465084372,-100.0,-0.925024503557,100.0,26001869.5138,0.0,0.0,0.0,0.0,0.0,0.0
1402602653928764993,3,-19.3808633526,-0.114322152727,-95.1629228387,0.043815185726,0.469919094482,0.0,-0.530042099233,0.0,-2.11757678953,0.0,0.0,0.0,0.0,11.7005402906,-167.325521719,154.247264303,1.03338846366,-100.0,-0.918311746913,100.0,1.06465084372,-100.0,-0.925024503557,100.0,26001869.5138,0.0,0.0,0.0,0.0,0.0,0.0
1402602653948518632,3,-19.3613368353,-0.114322152727,-95.1847736683,0.043815185726,0.473454591234,0.0,-0.530951432876,0.0,-2.11712400253,0.0,0.0,0.0,0.0,11.7005402906,-167.325521719,154.247264303,1.03338846366,-100.0,-0.918311746913,100.0,1.06465084372,-100.0,-0.925024503557,100.0,26001869.5138,0.0,0.0,0.0,0.0,0.0,0.0
1402602653969177647,3,-19.3613368353,-0.114322152727,-95.1847736683,0.043815185726,0.473454591234,0.0,-0.530951432876,0.0,-2.11712400253,0.0,0.0,0.0,0.0,11.7005402906,-167.325521719,154.247264303,1.03185400168,-100.0,-0.919846208888,100.0,1.06465084372,-100.0,-0.925024503557,100.0,26001869.5138,0.0,0.0,0.0,0.0,0.0,0.0
1402602653988667981,3,-19.3464369601,-0.114322152727,-95.2085533564,0.043815185726,0.458214963591,0.0,-0.53506263923,0.0,-2.11671997272,0.0,0.0,0.0,0.0,11.7005402906,-167.325521719,154.247264303,1.03185400168,-100.0,-0.919846208888,100.0,1.06465084372,-100.0,-0.925024503557,100.0,26001869.5138,0.0,0.0,0.0,0.0,0.0,0.0
1402602654008590410,3,-19.3464369601,-0.114322152727,-95.2085533564,0.043815185726,0.458214963591,0.0,-0.53506263923,0.0,-2.11671997272,0.0,0.0,0.0,0.0,11.7005402906,-167.325521719,154.247264303,1.03185400168,-100.0,-0.919846208888,100.0,1.06465084372,-100.0,-0.925024503557,100.0,26001869.5138,0.0,0.0,0.0,0.0,0.0,0.0
1402602654028772911,3,-19.3193199214,-0.114322152727,-95.2343090202,0.043815185726,0.46146977485,0.0,-0.527782107121,0.0,-2.11677721553,0.0,0.0,0.0,0.0,11.7005402906,-167.325521719,154.247264303,1.03185400168,-100.0,-0.918311746913,100.0,1.06465084372,-100.0,-0.925024503557,100.0,26001869.5138,0.0,0.0,0.0,0.0,0.0,0.0
1402602654048717093,3,-19.3193199214,-0.114322152727,-95.2343090202,0.043815185726,0.46146977485,0.0,-0.527782107121,0.0,-2.11677721553,0.0,0.0,0.0,0.0,11.7005402906,-167.325521719,154.247264303,1.03185400168,-100.0,-0.919846208888,100.0,1.06465084372,-100.0,-0.925024503557,100.0,26001869.5138,0.0,0.0,0.0,0.0,0.0,0.0
1402602654068765944,3,-19.2970399181,-0.114322152727,-95.2609352407,0.043815185726,0.448029199004,0.0,-0.534136588651,0.0,-2.11700709264,0.0,0.0,0.0,0.0,11.7005402906,-167.325521719,154.247264303,1.03185400168,-100.0,-0.919846208888,100.0,1.06465084372,-100.0,-0.925024503557,100.0,26001869.5138,0.0,0.0,0.0,0.0,0.0,0.0
1402602654089235607,3,-19.2970399181,-0.114322152727,-95.2609352407,0.043815185726,0.448029199004,0.0,-0.534136588651,0.0,-2.11700709264,0.0,0.0,0.0,0.0,11.7005402906,-167.325521719,154.247264303,1.03185400168,-100.0,-0.918311746913,100.0,1.06465084372,-100.0,-0.925024503557,100.0,26001869.5138,0.0,0.0,0.0,0.0,0.0,0.0
1402602654108843507,3,-19.2885992631,-0.114322152727,-95.2686212126,0.043815185726,0.452677549836,0.0,-0.532421669763,0.0,-2.11710511691,0.0,0.0,0.0,0.0,11.7005402906,-167.325521719,154.247264303,1.03185400168,-100.0,-0.919846208888,100.0,1.06465084372,-100.0,-0.925024503557,100.0,26001869.5138,0.0,0.0,0.0,0.0,0.0,0.0
1402602654129286942,3,-19.2885992631,-0.114322152727,-95.2686212126,0.043815185726,0.452677549836,0.0,-0.532421669763,0.0,-2.11710511691,0.0,0.0,0.0,0.0,11.7005402906,-167.325521719,154.247264303,1.03185400168,-100.0,-0.918311746913,100.0,1.06465084372,-100.0,-0.925024503557,100.0,26001869.5138,0.0,0.0,0.0,0.0,0.0,0.0
1402602654148895407,3,-19.2677434291,-0.114322152727,-95.2918239933,0.043815185726,0.460270487379,0.0,-0.536499377252,0.0,-2.11755115358,0.0,0.0,0.0,0.0,11.7005402906,-167.325521719,154.247264303,1.03185400168,-100.0,-0.918311746913,100.0,1.06465084372,-100.0,-0.925024503557,100.0,26001869.5138,0.0,0.0,0.0,0.0,0.0,0.0
1402602654168725482,3,-19.2677434291,-0.114322152727,-95.2918239933,0.043815185726,0.460270487379,0.0,-0.536499377252,0.0,-2.11755115358,0.0,0.0,0.0,0.0,11.7005402906,-167.325521719,154.247264303,1.03185400168,-100.0,-0.919846208888,100.0,1.06465084372,-100.0,-0.925024503557,100.0,26001869.5138,0.0,0.0,0.0,0.0,0.0,0.0
1402602654189505075,3,-19.2489643853,-0.114322152727,-95.3136478292,0.043815185726,0.468336165857,0.0,-0.536759614182,0.0,-2.11788801146,0.0,0.0,0.0,0.0,11.7005402906,-167.325521719,154.247264303,1.03185400168,-100.0,-0.919846208888,100.0,1.06465084372,-100.0,-0.925024503557,100.0,26001869.5138,0.0,0.0,0.0,0.0,0.0,0.0
1402602654208834597,3,-19.2489643853,-0.114322152727,-95.3136478292,0.043815185726,0.468336165857,0.0,-0.536759614182,0.0,-2.11788801146,0.0,0.0,0.0,0.0,11.7005402906,-167.325521719,154.247264303,1.03185400168,-100.0,-0.919846208888,100.0,1.06465084372,-100.0,-0.925024503557,100.0,26001869.5138,0.0,0.0,0.0,0.0,0.0,0.0
1402602654228821260,3,-19.2292420509,-0.114322152727,-95.3336783757,0.043815185726,0.473237546257,0.0,-0.534897208686,0.0,-2.11789835414,0.0,0.0,0.0,0.0,11.7005402906,-167.325521719,154.247264303,1.03185400168,-100.0,-0.919846208888,100.0,1.06465084372,-100.0,-0.925024503557,100.0,26001869.5138,0.0,0.0,0.0,0.0,0.0,0.0
1402602654249438888,3,-19.2292420509,-0.114322152727,-95.3336783757,0.043815185726,0.473237546257,0.0,-0.534897208686,0.0,-2.11789835414,0.0,0.0,0.0,0.0,11.7005402906,-167.325521719,154.247264303,1.03185400168,-100.0,-0.919846208888,100.0,1.06465084372,-100.0,-0.925024503557,100.0,26001869.5138,0.0,0.0,0.0,0.0,0.0,0.0
1402602654268764428,3,-19.2122233143,-0.114322152727,-95.3566062577,0.043815185726,0.460948109707,0.0,-0.544058074641,0.0,-2.11853778405,0.0,0.0,0.0,0.0,11.7005402906,-167.325521719,154.247264303,1.03185400168,-100.0,-0.918311746913,100.0,1.06465084372,-100.0,-0.925024503557,100.0,26001869.5138,0.0,0.0,0.0,0.0,0.0,0.0
1402602654288777908,3,-19.2122233143,-0.114322152727,-95.3566062577,0.043815185726,0.460948109707,0.0,-0.544058074641,0.0,-2.11853778405,0.0,0.0,0.0,0.0,11.7005402906,-167.325521719,154.247264303,1.03185400168,-100.0,-0.918311746913,100.0,1.06465084372,-100.0,-0.925024503557,100.0,26001869.5138,0.0,0.0,0.0,0.0,0.0,0.0
1402602654309360272,3,-19.1904921328,-0.114322152727,-95.3831305706,0.043815185726,0.464974673277,0.0,-0.550311669242,0.0,-2.11872639065,0.0,0.0,0.0,0.0,11.7005402906,-167.325521719,154.247264303,1.03185400168,-100.0,-0.918311746913,100.0,1.06465084372,-100.0,-0.925024503557,100.0,26001869.5138,0.0,0.0,0.0,0.0,0.0,0.0
1402602654328920876,3,-19.1904921328,-0.114322152727,-95.3831305706,0.043815185726,0.464974673277,0.0,-0.550311669242,0.0,-2.11872639065,0.0,0.0,0.0,0.0,11.7005402906,-167.325521719,154.247264303,1.03185400168,-100.0,-0.919846208888,100.0,1.06465084372,-100.0,-0.925024503557,100.0,26001869.5138,0.0,0.0,0.0,0.0,0.0,0.0
1402602654349606190,3,-19.1662734217,-0.114322152727,-95.4136831434,0.043815185726,0.462334961929,0.0,-0.555208038991,0.0,-2.11891855403,0.0,0.0,0.0,0.0,11.7005402906,-167.325521719,154.247264303,1.03185400168,-100.0,-0.919846208888,100.0,1.06465084372,-100.0,-0.925024503557,100.0,26001869.5138,0.0,0.0,0.0,0.0,0.0,0.0
1402602654368763122,3,-19.1662734217,-0.114322152727,-95.4136831434,0.043815185726,0.462334961929,0.0,-0.555208038991,0.0,-2.11891855403,0.0,0.0,0.0,0.0,11.7005402906,-167.325521719,154.247264303,1.03185400168,-100.0,-0.919846208888,100.0,1.06465084372,-100.0,-0.925024503557,100.0,26001869.5138,0.0,0.0,0.0,0.0,0.0,0.0
1402602654389260462,3,-19.1565942578,-0.114322152727,-95.4223301617,0.043815185726,0.46835106164,0.0,-0.553574841208,0.0,-2.11884111937,0.0,0.0,0.0,0.0,11.7005402906,-167.325521719,154.247264303,1.03185400168,-100.0,-0.919846208888,100.0,1.06465084372,-100.0,-0.925024503557,100.0,26001869.5138,0.0,0.0,0.0,0.0,0.0,0.0
1402602654408871676,3,-19.1565942578,-0.114322152727,-95.4223301617,0.043815185726,0.46835106164,0.0,-0.553574841208,0.0,-2.11884111937,0.0,0.0,0.0,0.0,11.7005402906,-167.325521719,154.247264303,1.03185400168,-100.0,-0.919846208888,100.0,1.06465084372,-100.0,-0.925024503557,100.0,26001869.5138,0.0,0.0,0.0,0.0,0.0,0.0
1402602654429452582,3,-19.137812435,-0.114322152727,-95.4444284257,0.043815185726,0.462070891261,0.0,-0.546804574299,0.0,-2.11869383197,0.0,0.0,0.0,0.0,11.7005402906,-167.325521719,154.247264303,1.03185400168,-100.0,-0.918311746913,100.0,1.06465084372,-100.0,-0.925024503557,100.0,26001869.5138,0.0,0.0,0.0,0.0,0.0,0.0
1402602654448876407,3,-19.137812435,-0.114322152727,-95.4444284257,0.043815185726,0.462070891261,0.0,-0.546804574299,0.0,-2.11869383197,0.0,0.0,0.0,0.0,11.7005402906,-167.325521719,154.247264303,1.03185400168,-100.0,-0.918311746913,100.0,1.06465084372,-100.0,-0.925024503557,100.0,26001869.5138,0.0,0.0,0.0,0.0,0.0,0.0
1402602654469331937,3,-19.1176615959,-0.114322152727,-95.4637274437,0.043815185726,0.470286728681,0.0,-0.541055356093,0.0,-2.11848457027,0.0,0.0,0.0,0.0,11.7005402906,-167.325521719,154.247264303,1.03185400168,-100.0,-0.918311746913,100.0,1.06465084372,-100.0,-0.925024503557,100.0,26001869.5138,0.0,0.0,0.0,0.0,0.0,0.0
1402602654488857189,3,-19.1176615959,-0.114322152727,-95.4637274437,0.043815185726,0.470286728681,0.0,-0.541055356093,0.0,-2.11848457027,0.0,0.0,0.0,0.0,11.7005402906,-167.325521719,154.247264303,1.03185400168,-100.0,-0.919846208888,100.0,1.06465084372,-100.0,-0.925024503557,100.0,26001869.5138,0.0,0.0,0.0,0.0,0.0,0.0
1402602654509351168,3,-19.1041100893,-0.114322152727,-95.4860402826,0.043815185726,0.463823820349,0.0,-0.545367068132,0.0,-2.11809687453,0.0,0.0,0.0,0.0,11.7005402906,-167.325521719,154.247264303,1.03185400168,-100.0,-0.919846208888,100.0,1.06465084372,-100.0,-0.925024503557,100.0,26001869.5138,0.0,0.0,0.0,0.0,0.0,0.0
1402602654528750168,3,-19.1041100893,-0.114322152727,-95.4860402826,0.043815185726,0.463823820349,0.0,-0.545367068132,0.0,-2.11809687453,0.0,0.0,0.0,0.0,11.7005402906,-167.325521719,154.247264303,1.03185400168,-100.0,-0.919846208888,100.0,1.06465084372,-100.0,-0.925024503557,100.0,26001869.5138,0.0,0.0,0.0,0.0,0.0,0.0
1402602654549269719,3,-19.0846396644,-0.114322152727,-95.5087121043,0.043815185726,0.451485650629,0.0,-0.538127408111,0.0,-2.11745997891,0.0,0.0,0.0,0.0,11.7005402906,-167.325521719,154.247264303,1.03185400168,-100.0,-0.919846208888,100.0,1.06465084372,-100.0,-0.925024503557,100.0,26001869.5138,0.0,0.0,0.0,0.0,0.0,0.0
1402602654568837429,3,-19.0846396644,-0.114322152727,-95.5087121043,0.043815185726,0.451485650629,0.0,-0.538127408111,0.0,-2.11745997891,0.0,0.0,0.0,0.0,11.7005402906,-167.325521719,154.247264303,1.03185400168,-100.0,-0.919846208888,100.0,1.06465084372,-100.0,-0.925024503557,100.0,26001869.5138,0.0,0.0,0.0,0.0,0.0,0.0
1402602654589323511,3,-19.0595112734,-0.114322152727,-95.5335866948,0.043815185726,0.45906326522,0.0,-0.537852185541,0.0,-2.11673882993,0.0,0.0,0.0,0.0,11.7005402906,-167.325521719,154.247264303,1.03338846366,-100.0,-0.919846208888,100.0,1.06465084372,-100.0,-0.925024503557,100.0,26001869.5138,0.0,0.0,0.0,0.0,0.0,0.0
1402602654608803856,3,-19.0595112734,-0.114322152727,-95.5335866948,0.043815185726,0.45906326522,0.0,-0.537852185541,0.0,-2.11673882993,0.0,0.0,0.0,0.0,11.7005402906,-167.325521719,154.247264303,1.03185400168,-100.0,-0.919846208888,100.0,1.06465084372,-100.0,-0.925024503557,100.0,26001869.5138,0.0,0.0,0.0,0.0,0.0,0.0
1402602654629273037,3,-19.0459203024,-0.114322152727,-95.5526732672,0.043815185726,0.452422573371,0.0,-0.547001620267,0.0,-2.11583317024,0.0,0.0,0.0,0.0,11.7005402906,-167.325521719,154.247264303,1.03185400168,-100.0,-0.919846208888,100.0,1.06465084372,-100.0,-0.925024503557,100.0,26001869.5138,0.0,0.0,0.0,0.0,0.0,0.0
1402602654649419590,3,-19.0366345149,-0.114322152727,-95.5641008643,0.043815185726,0.447234655854,0.0,-0.540787838268,0.0,-2.11534924543,0.0,0.0,0.0,0.0,11.7005402906,-167.325521719,154.247264303,1.03185400168,-100.0,-0.919846208888,100.0,1.06465084372,-100.0,-0.925024503557,100.0,26001869.5138,0.0,0.0,0.0,0.0,0.0,0.0
1402602654669992156,3,-19.0366345149,-0.114322152727,-95.5641008643,0.043815185726,0.447234655854,0.0,-0.540787838268,0.0,-2.11534924543,0.0,0.0,0.0,0.0,11.7005402906,-167.325521719,154.247264303,1.03185400168,-100.0,-0.919846208888,100.0,1.06465084372,-100.0,-0.925024503557,100.0,26001869.5138,0.0,0.0,0.0,0.0,0.0,0.0
1402602654689002090,3,-19.0323743655,-0.114322152727,-95.5714287218,0.043815185726,0.432077657329,0.0,-0.530029865955,0.0,-2.11501229034,0.0,0.0,0.0,0.0,11.7005402906,-167.325521719,154.247264303,1.03185400168,-100.0,-0.918311746913,100.0,1.06465084372,-100.0,-0.925024503557,100.0,26001869.5138,0.0,0.0,0.0,0.0,0.0,0.0
1402602654709320614,3,-19.0323743655,-0.114322152727,-95.5714287218,0.043815185726,0.432077657329,0.0,-0.530029865955,0.0,-2.11501229034,0.0,0.0,0.0,0.0,11.7005402906,-167.325521719,154.247264303,1.03185400168,-100.0,-0.918311746913,100.0,1.06465084372,-100.0,-0.925024503557,100.0,26001869.5138,0.0,0.0,0.0,0.0,0.0,0.0
1402602654728850640,3,-19.0095459603,-0.114322152727,-95.5912768207,0.043815185726,0.434359103398,0.0,-0.518839008717,0.0,-2.11458638954,0.0,0.0,0.0,0.0,11.7005402906,-167.325521719,154.247264303,1.03185400168,-100.0,-0.919846208888,100.0,1.06465084372,-100.0,-0.925024503557,100.0,26001869.5138,0.0,0.0,0.0,0.0,0.0,0.0
1402602654749533394,3,-19.0095459603,-0.114322152727,-95.5912768207,0.043815185726,0.434359103398,0.0,-0.518839008717,0.0,-2.11458638954,0.0,0.0,0.0,0.0,11.7005402906,-167.325521719,154.247264303,1.03185400168,-100.0,-0.919846208888,100.0,1.06465084372,-100.0,-0.925024503557,100.0,26001869.5138,0.0,0.0,0.0,0.0,0.0,0.0
1402602654768871833,3,-18.9912317516,-0.114322152727,-95.6138833526,0.043815185726,0.441465766938,0.0,-0.528835964089,0.0,-2.11392802839,0.0,0.0,0.0,0.0,11.7005402906,-167.325521719,154.247264303,1.03185400168,-100.0,-0.919846208888,100.0,1.06465084372,-100.0,-0.925024503557,100.0,26001869.5138,0.0,0.0,0.0,0.0,0.0,0.0
1402602654789339682,3,-18.9912317516,-0.114322152727,-95.6138833526,0.043815185726,0.441465766938,0.0,-0.528835964089,0.0,-2.11392802839,0.0,0.0,0.0,0.0,11.7005402906,-167.325521719,154.247264303,1.03185400168,-100.0,-0.919846208888,100.0,1.06465084372,-100.0,-0.925024503557,100.0,26001869.5138,0.0,0.0,0.0,0.0,0.0,0.0
1402602654808970898,3,-18.9652435285,-0.114322152727,-95.6388558703,0.043815185726,0.437347010176,0.0,-0.51393058217,0.0,-2.11358648492,0.0,0.0,0.0,0.0,11.7005402906,-167.325521719,154.247264303,1.03185400168,-100.0,-0.919846208888,100.0,1.06465084372,-100.0,-0.925024503557,100.0,26001869.5138,0.0,0.0,0.0,0.0,0.0,0.0
1402602654829486614,3,-18.9652435285,-0.114322152727,-95.6388558703,0.043815185726,0.437347010176,0.0,-0.51393058217,0.0,-2.11358648492,0.0,0.0,0.0,0.0,11.7005402906,-167.325521719,154.247264303,1.03185400168,-100.0,-0.919846208888,100.0,1.06465084372,-100.0,-0.925024503557,100.0,26001869.5138,0.0,0.0,0.0,0.0,0.0,0.0
1402602654848888684,3,-18.9367990711,-0.114322152727,-95.6651780231,0.043815185726,0.45986242326,0.0,-0.523750138076,0.0,-2.11346281759,0.0,0.0,0.0,0.0,11.7005402906,-167.325521719,154.247264303,1.03185400168,-100.0,-0.919846208888,100.0,1.06465084372,-100.0,-0.925024503557,100.0,26001869.5138,0.0,0.0,0.0,0.0,0.0,0.0
1402602654869452790,3,-18.9367990711,-0.114322152727,-95.6651780231,0.043815185726,0.45986242326,0.0,-0.523750138076,0.0,-2.11346281759,0.0,0.0,0.0,0.0,11.7005402906,-167.325521719,154.247264303,1.03185400168,-100.0,-0.918311746913,100.0,1.06465084372,-100.0,-0.925024503557,100.0,26001869.5138,0.0,0.0,0.0,0.0,0.0,0.0
1402602654889178118,3,-18.9273013712,-0.114322152727,-95.6761234286,0.043815185726,0.459634929435,0.0,-0.523462367498,0.0,-2.11348857839,0.0,0.0,0.0,0.0,11.7005402906,-167.325521719,154.247264303,1.03185400168,-100.0,-0.919846208888,100.0,1.06465084372,-100.0,-0.925024503557,100.0,26001869.5138,0.0,0.0,0.0,0.0,0.0,0.0
1402602654909409295,3,-18.9273013712,-0.114322152727,-95.6761234286,0.043815185726,0.459634929435,0.0,-0.523462367498,0.0,-2.11348857839,0.0,0.0,0.0,0.0,11.7005402906,-167.325521719,154.247264303,1.03185400168,-100.0,-0.919846208888,100.0,1.06465084372,-100.0,-0.925024503557,100.0,26001869.5138,0.0,0.0,0.0,0.0,0.0,0.0
1402602654928792356,3,-18.9104163981,-0.114322152727,-95.6933592102,0.043815185726,0.454823610091,0.0,-0.514222608064,0.0,-2.11349939595,0.0,0.0,0.0,0.0,11.7005402906,-167.325521719,154.247264303,1.03185400168,-100.0,-0.919846208888,100.0,1.06465084372,-100.0,-0.925024503557,100.0,26001869.5138,0.0,0.0,0.0,0.0,0.0,0.0
1402602654949305262,3,-18.9104163981,-0.114322152727,-95.6933592102,0.043815185726,0.454823610091,0.0,-0.514222608064,0.0,-2.11349939595,0.0,0.0,0.0,0.0,11.7005402906,-167.325521719,154.247264303,1.03185400168,-100.0,-0.919846208888,100.0,1.06465084372,-100.0,-0.925024503557,100.0,26001869.5138,0.0,0.0,0.0,0.0,0.0,0.0
1402602654968805751,3,-18.8945849263,-0.114322152727,-95.7207332277,0.043815185726,0.457003635063,0.0,-0.538414084753,0.0,-2.11390974346,0.0,0.0,0.0,0.0,11.7005402906,-167.325521719,154.247264303,1.03185400168,-100.0,-0.919846208888,100.0,1.06465084372,-100.0,-0.925024503557,100.0,26001869.5138,0.0,0.0,0.0,0.0,0.0,0.0
1402602654989329526,3,-18.8945849263,-0.114322152727,-95.7207332277,0.043815185726,0.457003635063,0.0,-0.538414084753,0.0,-2.11390974346,0.0,0.0,0.0,0.0,11.7005402906,-167.325521719,154.247264303,1.03338846366,-100.0,-0.919846208888,100.0,1.06465084372,-100.0,-0.925024503557,100.0,26001869.5138,0.0,0.0,0.0,0.0,0.0,0.0
1402602655008822749,3,-18.8733270076,-0.114322152727,-95.7413042998,0.043815185726,0.466417840373,0.0,-0.53863960736,0.0,-2.11410660648,0.0,0.0,0.0,0.0,11.7005402906,-167.325521719,154.247264303,1.03338846366,-100.0,-0.919846208888,100.0,1.06465084372,-100.0,-0.925024503557,100.0,26001869.5138,0.0,0.0,0.0,0.0,0.0,0.0
1402602655028774403,3,-18.8733270076,-0.114322152727,-95.7413042998,0.043815185726,0.466417840373,0.0,-0.53863960736,0.0,-2.11410660648,0.0,0.0,0.0,0.0,11.7005402906,-167.325521719,154.247264303,1.03185400168,-100.0,-0.919846208888,100.0,1.06465084372,-100.0,-0.925024503557,100.0,26001869.5138,0.0,0.0,0.0,0.0,0.0,0.0
1402602655049564244,3,-18.8548495148,-0.114322152727,-95.7624112605,0.043815185726,0.467398042155,0.0,-0.535531272688,0.0,-2.11419875132,0.0,0.0,0.0,0.0,11.7005402906,-167.325521719,154.247264303,1.03185400168,-100.0,-0.919846208888,100.0,1.06465084372,-100.0,-0.925024503557,100.0,26001869.5138,0.0,0.0,0.0,0.0,0.0,0.0
1402602655068779475,3,-18.8548495148,-0.114322152727,-95.7624112605,0.043815185726,0.467398042155,0.0,-0.535531272688,0.0,-2.11419875132,0.0,0.0,0.0,0.0,11.7005402906,-167.325521719,154.247264303,1.03185400168,-100.0,-0.919846208888,100.0,1.06465084372,-100.0,-0.925024503557,100.0,26001869.5138,0.0,0.0,0.0,0.0,0.0,0.0
1402602655089437387,3,-18.8303898892,-0.114322152727,-95.7843704244,0.043815185726,0.459520777808,0.0,-0.526048795473,0.0,-2.11387114988,0.0,0.0,0.0,0.0,11.7005402906,-167.325521719,154.247264303,1.03185400168,-100.0,-0.918311746913,100.0,1.06465084372,-100.0,-0.925024503557,100.0,26001869.5138,0.0,0.0,0.0,0.0,0.0,0.0
1402602655108770180,3,-18.8303898892,-0.114322152727,-95.7843704244,0.043815185726,0.459520777808,0.0,-0.526048795473,0.0,-2.11387114988,0.0,0.0,0.0,0.0,11.7005402906,-167.325521719,154.247264303,1.03185400168,-100.0,-0.918311746913,100.0,1.06465084372,-100.0,-0.925024503557,100.0,26001869.5138,0.0,0.0,0.0,0.0,0.0,0.0
1402602655129507938,3,-18.8160675198,-0.114322152727,-95.800668781,0.043815185726,0.454763386098,0.0,-0.524576515972,0.0,-2.1135692753,0.0,0.0,0.0,0.0,11.7005402906,-167.325521719,154.247264303,1.03185400168,-100.0,-0.918311746913,100.0,1.06465084372,-100.0,-0.925024503557,100.0,26001869.5138,0.0,0.0,0.0,0.0,0.0,0.0
1402602655148804751,3,-18.8037618479,-0.114322152727,-95.8112924307,0.043815185726,0.459090709615,0.0,-0.524500453327,0.0,-2.11344633837,0.0,0.0,0.0,0.0,11.7005402906,-167.325521719,154.247264303,1.03185400168,-100.0,-0.918311746913,100.0,1.06465084372,-100.0,-0.925024503557,100.0,26001869.5138,0.0,0.0,0.0,0.0,0.0,0.0
1402602655169712059,3,-18.8037618479,-0.114322152727,-95.8112924307,0.043815185726,0.459090709615,0.0,-0.524500453327,0.0,-2.11344633837,0.0,0.0,0.0,0.0,11.7005402906,-167.325521719,154.247264303,1.03185400168,-100.0,-0.919846208888,100.0,1.06465084372,-100.0,-0.925024503557,100.0,26001869.5138,0.0,0.0,0.0,0.0,0.0,0.0
1402602655188488390,3,-18.7945781338,-0.114322152727,-95.8218998384,0.043815185726,0.460025651522,0.0,-0.528586465564,0.0,-2.11324284921,0.0,0.0,0.0,0.0,11.7005402906,-167.325521719,154.247264303,1.03185400168,-100.0,-0.919846208888,100.0,1.06465084372,-100.0,-0.925024503557,100.0,26001869.5138,0.0,0.0,0.0,0.0,0.0,0.0
1402602655208653268,3,-18.7945781338,-0.114322152727,-95.8218998384,0.043815185726,0.460025651522,0.0,-0.528586465564,0.0,-2.11324284921,0.0,0.0,0.0,0.0,11.7005402906,-167.325521719,154.247264303,1.03185400168,-100.0,-0.919846208888,100.0,1.06465084372,-100.0,-0.925024503557,100.0,26001869.5138,0.0,0.0,0.0,0.0,0.0,0.0
1402602655229328121,3,-18.7745135562,-0.114322152727,-95.8426272574,0.043815185726,0.459991839568,0.0,-0.519634623026,0.0,-2.11290087576,0.0,0.0,0.0,0.0,11.7005402906,-167.325521719,154.247264303,1.03185400168,-100.0,-0.919846208888,100.0,1.06465084372,-100.0,-0.925024503557,100.0,26001869.5138,0.0,0.0,0.0,0.0,0.0,0.0
1402602655248619080,3,-18.7745135562,-0.114322152727,-95.8426272574,0.043815185726,0.459991839568,0.0,-0.519634623026,0.0,-2.11290087576,0.0,0.0,0.0,0.0,11.7005402906,-167.325521719,154.247264303,1.03338846366,-100.0,-0.919846208888,100.0,1.06465084372,-100.0,-0.925024503557,100.0,26001869.5138,0.0,0.0,0.0,0.0,0.0,0.0
1402602655269286840,3,-18.7625961001,-0.114322152727,-95.8640162836,0.043815185726,0.445532603056,0.0,-0.519575455522,0.0,-2.11197951278,0.0,0.0,0.0,0.0,11.7005402906,-167.325521719,154.247264303,1.03338846366,-100.0,-0.918311746913,100.0,1.06465084372,-100.0,-0.925024503557,100.0,26001869.5138,0.0,0.0,0.0,0.0,0.0,0.0
1402602655289361245,3,-18.7625961001,-0.114322152727,-95.8640162836,0.043815185726,0.445532603056,0.0,-0.519575455522,0.0,-2.11197951278,0.0,0.0,0.0,0.0,11.7005402906,-167.325521719,154.247264303,1.03185400168,-100.0,-0.918311746913,100.0,1.06465084372,-100.0,-0.925024503557,100.0,26001869.5138,0.0,0.0,0.0,0.0,0.0,0.0
1402602655308934848,3,-18.7410458274,-0.114322152727,-95.8873797607,0.043815185726,0.454577183885,0.0,-0.522434115804,0.0,-2.11158185314,0.0,0.0,0.0,0.0,11.7005402906,-167.325521719,154.247264303,1.03185400168,-100.0,-0.918311746913,100.0,1.06465084372,-100.0,-0.925024503557,100.0,26001869.5138,0.0,0.0,0.0,0.0,0.0,0.0
1402602655329421148,3,-18.7410458274,-0.114322152727,-95.8873797607,0.043815185726,0.454577183885,0.0,-0.522434115804,0.0,-2.11158185314,0.0,0.0,0.0,0.0,11.7005402906,-167.325521719,154.247264303,1.03185400168,-100.0,-0.919846208888,100.0,1.06465084372,-100.0,-0.925024503557,100.0,26001869.5138,0.0,0.0,0.0,0.0,0.0,0.0
1402602655348792657,3,-18.7181628536,-0.114322152727,-95.9124328581,0.043815185726,0.447780737718,0.0,-0.517194841941,0.0,-2.11096489507,0.0,0.0,0.0,0.0,11.7005402906,-167.325521719,154.247264303,1.03185400168,-100.0,-0.919846208888,100.0,1.06465084372,-100.0,-0.925024503557,100.0,26001869.5138,0.0,0.0,0.0,0.0,0.0,0.0
1402602655369328143,3,-18.7181628536,-0.114322152727,-95.9124328581,0.043815185726,0.447780737718,0.0,-0.517194841941,0.0,-2.11096489507,0.0,0.0,0.0,0.0,11.7005402906,-167.325521719,154.247264303,1.03185400168,-100.0,-0.919846208888,100.0,1.06465084372,-100.0,-0.925024503557,100.0,26001869.5138,0.0,0.0,0.0,0.0,0.0,0.0
1402602655388845777,3,-18.6899798889,-0.114322152727,-95.938851672,0.043815185726,0.459219234186,0.0,-0.517041992401,0.0,-2.11068956598,0.0,0.0,0.0,0.0,11.7005402906,-167.325521719,154.247264303,1.03185400168,-100.0,-0.919846208888,100.0,1.06465084372,-100.0,-0.925024503557,100.0,26001869.5138,0.0,0.0,0.0,0.0,0.0,0.0
1402602655409434559,3,-18.6899798889,-0.114322152727,-95.938851672,0.043815185726,0.459219234186,0.0,-0.517041992401,0.0,-2.11068956598,0.0,0.0,0.0,0.0,11.7005402906,-167.325521719,154.247264303,1.03185400168,-100.0,-0.919846208888,100.0,1.06465084372,-100.0,-0.925024503557,100.0,26001869.5138,0.0,0.0,0.0,0.0,0.0,0.0
1402602655428821991,3,-18.6810665417,-0.114322152727,-95.9494225088,0.043815185726,0.456686386171,0.0,-0.52060124151,0.0,-2.11049979377,0.0,0.0,0.0,0.0,11.7005402906,-167.325521719,154.247264303,1.03338846366,-100.0,-0.919846208888,100.0,1.06465084372,-100.0,-0.925024503557,100.0,26001869.5138,0.0,0.0,0.0,0.0,0.0,0.0
1402602655449371753,3,-18.6810665417,-0.114322152727,-95.9494225088,0.043815185726,0.456686386171,0.0,-0.52060124151,0.0,-2.11049979377,0.0,0.0,0.0,0.0,11.7005402906,-167.325521719,154.247264303,1.03185400168,-100.0,-0.919846208888,100.0,1.06465084372,-100.0,-0.925024503557,100.0,26001869.5138,0.0,0.0,0.0,0.0,0.0,0.0
1402602655468821913,3,-18.6609133308,-0.114322152727,-95.9687470466,0.043815185726,0.460359548247,0.0,-0.509707780661,0.0,-2.11007321834,0.0,0.0,0.0,0.0,11.7005402906,-167.325521719,154.247264303,1.03338846366,-100.0,-0.918311746913,100.0,1.06465084372,-100.0,-0.925024503557,100.0,26001869.5138,0.0,0.0,0.0,0.0,0.0,0.0
1402602655489369478,3,-18.6609133308,-0.114322152727,-95.9687470466,0.043815185726,0.460359548247,0.0,-0.509707780661,0.0,-2.11007321834,0.0,0.0,0.0,0.0,11.7005402906,-167.325521719,154.247264303,1.03185400168,-100.0,-0.918311746913,100.0,1.06465084372,-100.0,-0.925024503557,100.0,26001869.5138,0.0,0.0,0.0,0.0,0.0,0.0
1402602655508769832,3,-18.6344929506,-0.114322152727,-95.9855775398,0.043815185726,0.475738568479,0.0,-0.501933927457,0.0,-2.11037618411,0.0,0.0,0.0,0.0,11.7005402906,-167.325521719,154.247264303,1.03185400168,-100.0,-0.918311746913,100.0,1.06465084372,-100.0,-0.925024503557,100.0,26001869.5138,0.0,0.0,0.0,0.0,0.0,0.0
1402602655529567347,3,-18.6344929506,-0.114322152727,-95.9855775398,0.043815185726,0.475738568479,0.0,-0.501933927457,0.0,-2.11037618411,0.0,0.0,0.0,0.0,11.7005402906,-167.325521719,154.247264303,1.03185400168,-100.0,-0.919846208888,100.0,1.06465084372,-100.0,-0.925024503557,100.0,26001869.5138,0.0,0.0,0.0,0.0,0.0,0.0
1402602655550071682,3,-18.6145486751,-0.114322152727,-96.0059566375,0.043815185726,0.48602170913,0.0,-0.503789894299,0.0,-2.11032888937,0.0,0.0,0.0,0.0,11.7005402906,-167.325521719,154.247264303,1.03185400168,-100.0,-0.919846208888,100.0,1.06465084372,-100.0,-0.925024503557,100.0,26001869.5138,0.0,0.0,0.0,0.0,0.0,0.0
1402602655569800005,3,-18.6145486751,-0.114322152727,-96.0059566375,0.043815185726,0.48602170913,0.0,-0.503789894299,0.0,-2.11032888937,0.0,0.0,0.0,0.0,11.7005402906,-167.325521719,154.247264303,1.03185400168,-100.0,-0.919846208888,100.0,1.06465084372,-100.0,-0.925024503557,100.0,26001869.5138,0.0,0.0,0.0,0.0,0.0,0.0
1402602655588930219,3,-18.59782242,-0.114322152727,-96.04001551,0.043815185726,0.471042681247,0.0,-0.529007068097,0.0,-2.1106012716,0.0,0.0,0.0,0.0,11.7005402906,-167.325521719,154.247264303,1.03185400168,-100.0,-0.919846208888,100.0,1.06465084372,-100.0,-0.925024503557,100.0,26001869.5138,0.0,0.0,0.0,0.0,0.0,0.0
1402602655609372922,3,-18.59782242,-0.114322152727,-96.04001551,0.043815185726,0.471042681247,0.0,-0.529007068097,0.0,-2.1106012716,0.0,0.0,0.0,0.0,11.7005402906,-167.325521719,154.247264303,1.03185400168,-100.0,-0.919846208888,100.0,1.06465084372,-100.0,-0.925024503557,100.0,26001869.5138,0.0,0.0,0.0,0.0,0.0,0.0
1402602655628783333,3,-18.5693094231,-0.114322152727,-96.0677788032,0.043815185726,0.483219244816,0.0,-0.522670930834,0.0,-2.11107017225,0.0,0.0,0.0,0.0,11.7005402906,-167.325521719,154.247264303,1.03185400168,-100.0,-0.918311746913,100.0,1.06465084372,-100.0,-0.925024503557,100.0,26001869.5138,0.0,0.0,0.0,0.0,0.0,0.0
1402602655649445488,3,-18.5693094231,-0.114322152727,-96.0677788032,0.043815185726,0.483219244816,0.0,-0.522670930834,0.0,-2.11107017225,0.0,0.0,0.0,0.0,11.7005402906,-167.325521719,154.247264303,1.03185400168,-100.0,-0.919846208888,100.0,1.06465084372,-100.0,-0.925024503557,100.0,26001869.5138,0.0,0.0,0.0,0.0,0.0,0.0
1402602655668853819,3,-18.5594379262,-0.114322152727,-96.0782328119,0.043815185726,0.476851064107,0.0,-0.526137309299,0.0,-2.11113614691,0.0,0.0,0.0,0.0,11.7005402906,-167.325521719,154.247264303,1.03338846366,-100.0,-0.919846208888,100.0,1.06465084372,-100.0,-0.925024503557,100.0,26001869.5138,0.0,0.0,0.0,0.0,0.0,0.0
1402602655689135420,3,-18.5594379262,-0.114322152727,-96.0782328119,0.043815185726,0.476851064107,0.0,-0.526137309299,0.0,-2.11113614691,0.0,0.0,0.0,0.0,11.7005402906,-167.325521719,154.247264303,1.03185400168,-100.0,-0.919846208888,100.0,1.06465084372,-100.0,-0.925024503557,100.0,26001869.5138,0.0,0.0,0.0,0.0,0.0,0.0
1402602655708802016,3,-18.5444111559,-0.114322152727,-96.1005067819,0.043815185726,0.465729395107,0.0,-0.523693302243,0.0,-2.11086836642,0.0,0.0,0.0,0.0,11.7005402906,-167.325521719,154.247264303,1.03338846366,-100.0,-0.919846208888,100.0,1.06465084372,-100.0,-0.925024503557,100.0,26001869.5138,0.0,0.0,0.0,0.0,0.0,0.0
1402602655729385440,3,-18.5444111559,-0.114322152727,-96.1005067819,0.043815185726,0.465729395107,0.0,-0.523693302243,0.0,-2.11086836642,0.0,0.0,0.0,0.0,11.7005402906,-167.325521719,154.247264303,1.03185400168,-100.0,-0.918311746913,100.0,1.06465084372,-100.0,-0.925024503557,100.0,26001869.5138,0.0,0.0,0.0,0.0,0.0,0.0
1402602655748814710,3,-18.527976837,-0.114322152727,-96.1218199703,0.043815185726,0.454294118531,0.0,-0.529302889132,0.0,-2.11056312012,0.0,0.0,0.0,0.0,11.7005402906,-167.325521719,154.247264303,1.03185400168,-100.0,-0.919846208888,100.0,1.06465084372,-100.0,-0.925024503557,100.0,26001869.5138,0.0,0.0,0.0,0.0,0.0,0.0
1402602655769378585,3,-18.527976837,-0.114322152727,-96.1218199703,0.043815185726,0.454294118531,0.0,-0.529302889132,0.0,-2.11056312012,0.0,0.0,0.0,0.0,11.7005402906,-167.325521719,154.247264303,1.03185400168,-100.0,-0.919846208888,100.0,1.06465084372,-100.0,-0.925024503557,100.0,26001869.5138,0.0,0.0,0.0,0.0,0.0,0.0
1402602655788835892,3,-18.4990551429,-0.114322152727,-96.1423767756,0.043815185726,0.474189063764,0.0,-0.531037880794,0.0,-2.11071858271,0.0,0.0,0.0,0.0,11.7005402906,-167.325521719,154.247264303,1.03185400168,-100.0,-0.919846208888,100.0,1.06465084372,-100.0,-0.925024503557,100.0,26001869.5138,0.0,0.0,0.0,0.0,0.0,0.0
1402602655808858416,3,-18.4990551429,-0.114322152727,-96.1423767756,0.043815185726,0.474189063764,0.0,-0.531037880794,0.0,-2.11071858271,0.0,0.0,0.0,0.0,11.7005402906,-167.325521719,154.247264303,1.03185400168,-100.0,-0.919846208888,100.0,1.06465084372,-100.0,-0.925024503557,100.0,26001869.5138,0.0,0.0,0.0,0.0,0.0,0.0
1402602655829430116,3,-18.4835142257,-0.114322152727,-96.1687266468,0.043815185726,0.446642137244,0.0,-0.529344861112,0.0,-2.11054998969,0.0,0.0,0.0,0.0,11.7005402906,-167.325521719,154.247264303,1.03185400168,-100.0,-0.919846208888,100.0,1.06465084372,-100.0,-0.925024503557,100.0,26001869.5138,0.0,0.0,0.0,0.0,0.0,0.0
1402602655848912941,3,-18.4835142257,-0.114322152727,-96.1687266468,0.043815185726,0.446642137244,0.0,-0.529344861112,0.0,-2.11054998969,0.0,0.0,0.0,0.0,11.7005402906,-167.325521719,154.247264303,1.03185400168,-100.0,-0.919846208888,100.0,1.06465084372,-100.0,-0.925024503557,100.0,26001869.5138,0.0,0.0,0.0,0.0,0.0,0.0
1402602655869376639,3,-18.4698746242,-0.114322152727,-96.1852862993,0.043815185726,0.449532542349,0.0,-0.530750648861,0.0,-2.11048339916,0.0,0.0,0.0,0.0,11.7005402906,-167.325521719,154.247264303,1.03185400168,-100.0,-0.919846208888,100.0,1.06465084372,-100.0,-0.925024503557,100.0,26001869.5138,0.0,0.0,0.0,0.0,0.0,0.0
1402602655888947316,3,-18.4580057775,-0.114322152727,-96.1954238227,0.043815185726,0.452664335821,0.0,-0.531119601513,0.0,-2.11042669159,0.0,0.0,0.0,0.0,11.7005402906,-167.325521719,154.247264303,1.03185400168,-100.0,-0.919846208888,100.0,1.06465084372,-100.0,-0.925024503557,100.0,26001869.5138,0.0,0.0,0.0,0.0,0.0,0.0
1402602655909333418,3,-18.4580057775,-0.114322152727,-96.1954238227,0.043815185726,0.452664335821,0.0,-0.531119601513,0.0,-2.11042669159,0.0,0.0,0.0,0.0,11.7005402906,-167.325521719,154.247264303,1.03185400168,-100.0,-0.918311746913,100.0,1.06465084372,-100.0,-0.925024503557,100.0,26001869.5138,0.0,0.0,0.0,0.0,0.0,0.0
1402602655928780334,3,-18.4485363065,-0.114322152727,-96.206540716,0.043815185726,0.455289092101,0.0,-0.531074818247,0.0,-2.11042394319,0.0,0.0,0.0,0.0,11.7005402906,-167.325521719,154.247264303,1.03185400168,-100.0,-0.918311746913,100.0,1.06465084372,-100.0,-0.925024503557,100.0,26001869.5138,0.0,0.0,0.0,0.0,0.0,0.0
1402602655949309716,3,-18.4485363065,-0.114322152727,-96.206540716,0.043815185726,0.455289092101,0.0,-0.531074818247,0.0,-2.11042394319,0.0,0.0,0.0,0.0,11.7005402906,-167.325521719,154.247264303,1.03185400168,-100.0,-0.919846208888,100.0,1.06465084372,-100.0,-0.925024503557,100.0,26001869.5138,0.0,0.0,0.0,0.0,0.0,0.0
1402602655968802819,3,-18.4282255322,-0.114322152727,-96.2238505344,0.043815185726,0.45075048828,0.0,-0.514278851039,0.0,-2.11045671422,0.0,0.0,0.0,0.0,11.7005402906,-167.325521719,154.247264303,1.03185400168,-100.0,-0.919846208888,100.0,1.06465084372,-100.0,-0.925024503557,100.0,26001869.5138,0.0,0.0,0.0,0.0,0.0,0.0
1402602655989445936,3,-18.4282255322,-0.114322152727,-96.2238505344,0.043815185726,0.45075048828,0.0,-0.514278851039,0.0,-2.11045671422,0.0,0.0,0.0,0.0,11.7005402906,-167.325521719,154.247264303,1.03185400168,-100.0,-0.919846208888,100.0,1.06465084372,-100.0,-0.925024503557,100.0,26001869.5138,0.0,0.0,0.0,0.0,0.0,0.0
1402602656008879295,3,-18.4107852492,-0.114322152727,-96.2420546711,0.043815185726,0.445731742576,0.0,-0.508210511349,0.0,-2.11021160293,0.0,0.0,0.0,0.0,11.7005402906,-167.325521719,154.247264303,1.03185400168,-100.0,-0.919846208888,100.0,1.06465084372,-100.0,-0.925024503557,100.0,26001869.5138,0.0,0.0,0.0,0.0,0.0,0.0
1402602656028788541,3,-18.4107852492,-0.114322152727,-96.2420546711,0.043815185726,0.445731742576,0.0,-0.508210511349,0.0,-2.11021160293,0.0,0.0,0.0,0.0,11.7005402906,-167.325521719,154.247264303,1.03185400168,-100.0,-0.919846208888,100.0,1.06465084372,-100.0,-0.925024503557,100.0,26001869.5138,0.0,0.0,0.0,0.0,0.0,0.0
1402602656049569222,3,-18.3893450342,-0.114322152727,-96.2610602798,0.043815185726,0.451332737063,0.0,-0.511846704071,0.0,-2.11006080786,0.0,0.0,0.0,0.0,11.7005402906,-167.325521719,154.247264303,1.03185400168,-100.0,-0.919846208888,100.0,1.06465084372,-100.0,-0.925024503557,100.0,26001869.5138,0.0,0.0,0.0,0.0,0.0,0.0
