rosbagTimestamp,control_method,x_current,x_desired,y_current,y_desired,x_velocity_current,x_velocity_desired,y_velocity_current,y_velocity_desired,yaw_current,yaw_desired,required_force_x,required_force_y,required_moment_z,resultant_force_x,resultant_force_y,resultant_moment_z,current_port_servo_angle,current_port_thruster_force,current_starboard_servo_angle,current_starboard_thruster_force,estimated_port_servo_angle,estimated_port_thruster_force,estimated_starboard_servo_angle,estimated_starboard_thruster_force,cost_value,step,user_defined_1,user_defined_2,user_defined_3,user_defined_4,user_defined_5
1402599490864555678,0,4.11264258666,-0.114322152727,-12.9195195479,0.043815185726,0.383735172948,0.0,-1.19972785204,0.0,-1.33061222196,0.0,0.0,0.0,0.0,200.0,0.0,0.0,0.00690445105478,100.0,0.00230154196664,100.0,0.0,100.0,0.0,100.0,2100000.0,0.0,0.0,0.0,0.0,0.0,0.0
1402599490884777770,0,4.13072585244,-0.114322152727,-12.9727033365,0.043815185726,0.393911919171,0.0,-1.23517582894,0.0,-1.33123518931,0.0,0.0,0.0,0.0,200.0,0.0,0.0,0.00690445105478,100.0,0.000767318410122,100.0,0.0,100.0,0.0,100.0,2100000.0,0.0,0.0,0.0,0.0,0.0,0.0
1402599490904122840,0,4.13072585244,-0.114322152727,-12.9727033365,0.043815185726,0.393911919171,0.0,-1.23517582894,0.0,-1.33123518931,0.0,0.0,0.0,0.0,200.0,0.0,0.0,0.00690445105478,100.0,0.00230154196664,100.0,0.0,100.0,0.0,100.0,2100000.0,0.0,0.0,0.0,0.0,0.0,0.0
1402599490925007087,0,4.15842737084,-0.114322152727,-13.0404062027,0.043815185726,0.41920709316,0.0,-1.27393525344,0.0,-1.33146948138,0.0,0.0,0.0,0.0,200.0,0.0,0.0,0.00690445105478,100.0,0.00230154196664,100.0,0.0,100.0,0.0,100.0,2100000.0,0.0,0.0,0.0,0.0,0.0,0.0
1402599490944294608,0,4.15842737084,-0.114322152727,-13.0404062027,0.043815185726,0.41920709316,0.0,-1.27393525344,0.0,-1.33146948138,0.0,0.0,0.0,0.0,200.0,0.0,0.0,0.00690445105478,100.0,0.000767318410122,100.0,0.0,100.0,0.0,100.0,2100000.0,0.0,0.0,0.0,0.0,0.0,0.0
1402599490964716012,0,4.17313187305,-0.114322152727,-13.1125112721,0.043815185726,0.402483003831,0.0,-1.32067125833,0.0,-1.33273085173,0.0,0.0,0.0,0.0,200.0,0.0,0.0,0.00690445105478,100.0,0.00230154196664,100.0,0.0,100.0,0.0,100.0,2100000.0,0.0,0.0,0.0,0.0,0.0,0.0
1402599490984271330,0,4.17313187305,-0.114322152727,-13.1125112721,0.043815185726,0.402483003831,0.0,-1.32067125833,0.0,-1.33273085173,0.0,0.0,0.0,0.0,200.0,0.0,0.0,0.00690445105478,100.0,0.00230154196664,100.0,0.0,100.0,0.0,100.0,2100000.0,0.0,0.0,0.0,0.0,0.0,0.0
1402599491004831182,0,4.18188106128,-0.114322152727,-13.1404071242,0.043815185726,0.405654658338,0.0,-1.33275943277,0.0,-1.33325472674,0.0,0.0,0.0,0.0,200.0,0.0,0.0,0.00690445105478,100.0,0.000767318410122,100.0,0.0,100.0,0.0,100.0,2100000.0,0.0,0.0,0.0,0.0,0.0,0.0
1402599491024243555,0,4.18188106128,-0.114322152727,-13.1404071242,0.043815185726,0.405654658338,0.0,-1.33275943277,0.0,-1.33325472674,0.0,0.0,0.0,0.0,200.0,0.0,0.0,0.00690445105478,100.0,0.00230154196664,100.0,0.0,100.0,0.0,100.0,2100000.0,0.0,0.0,0.0,0.0,0.0,0.0
1402599491044850549,0,4.18722789066,-0.114322152727,-13.1974643284,0.043815185726,0.379918356302,0.0,-1.35550004346,0.0,-1.33502512781,0.0,0.0,0.0,0.0,200.0,0.0,0.0,0.00690445105478,100.0,0.00230154196664,100.0,0.0,100.0,0.0,100.0,2100000.0,0.0,0.0,0.0,0.0,0.0,0.0
1402599491064227037,0,4.18722789066,-0.114322152727,-13.1974643284,0.043815185726,0.379918356302,0.0,-1.35550004346,0.0,-1.33502512781,0.0,0.0,0.0,0.0,200.0,0.0,0.0,0.00690445105478,100.0,0.00230154196664,100.0,0.0,100.0,0.0,100.0,2100000.0,0.0,0.0,0.0,0.0,0.0,0.0
1402599491084796537,0,4.20622349011,-0.114322152727,-13.2530948723,0.043815185726,0.392457380302,0.0,-1.3735788402,0.0,-1.33611446141,0.0,0.0,0.0,0.0,200.0,0.0,0.0,0.00690445105478,100.0,0.000767318410122,100.0,0.0,100.0,0.0,100.0,2100000.0,0.0,0.0,0.0,0.0,0.0,0.0
1402599491104229430,0,4.20622349011,-0.114322152727,-13.2530948723,0.043815185726,0.392457380302,0.0,-1.3735788402,0.0,-1.33611446141,0.0,0.0,0.0,0.0,200.0,0.0,0.0,0.00690445105478,100.0,0.00230154196664,100.0,0.0,100.0,0.0,100.0,2100000.0,0.0,0.0,0.0,0.0,0.0,0.0
1402599491124661933,0,4.22891572314,-0.114322152727,-13.3264831878,0.043815185726,0.402242650507,0.0,-1.39930432872,0.0,-1.33740186283,0.0,0.0,0.0,0.0,200.0,0.0,0.0,0.00690445105478,100.0,0.000767318410122,100.0,0.0,100.0,0.0,100.0,2100000.0,0.0,0.0,0.0,0.0,0.0,0.0
1402599491144233060,0,4.22891572314,-0.114322152727,-13.3264831878,0.043815185726,0.402242650507,0.0,-1.39930432872,0.0,-1.33740186283,0.0,0.0,0.0,0.0,200.0,0.0,0.0,0.00690445105478,100.0,0.00230154196664,100.0,0.0,100.0,0.0,100.0,2100000.0,0.0,0.0,0.0,0.0,0.0,0.0
1402599491164898319,0,4.24127966708,-0.114322152727,-13.3701042572,0.043815185726,0.40557073443,0.0,-1.41348657103,0.0,-1.33822721831,0.0,0.0,0.0,0.0,200.0,0.0,0.0,0.00690445105478,100.0,0.00230154196664,100.0,0.0,100.0,0.0,100.0,2100000.0,0.0,0.0,0.0,0.0,0.0,0.0
1402599491184147693,0,4.24993896905,-0.114322152727,-13.4015862073,0.043815185726,0.406542744165,0.0,-1.43005754643,0.0,-1.33832942742,0.0,0.0,0.0,0.0,200.0,0.0,0.0,0.00690445105478,100.0,0.00230154196664,100.0,0.0,100.0,0.0,100.0,2100000.0,0.0,0.0,0.0,0.0,0.0,0.0
1402599491204847815,0,4.24993896905,-0.114322152727,-13.4015862073,0.043815185726,0.406542744165,0.0,-1.43005754643,0.0,-1.33832942742,0.0,0.0,0.0,0.0,200.0,0.0,0.0,0.00690445105478,100.0,0.00230154196664,100.0,0.0,100.0,0.0,100.0,2100000.0,0.0,0.0,0.0,0.0,0.0,0.0
1402599491224472983,0,4.25858783663,-0.114322152727,-13.4316714577,0.043815185726,0.409286255363,0.0,-1.43881159977,0.0,-1.338789223,0.0,0.0,0.0,0.0,200.0,0.0,0.0,0.00690445105478,100.0,0.000767318410122,100.0,0.0,100.0,0.0,100.0,2100000.0,0.0,0.0,0.0,0.0,0.0,0.0
1402599491245510107,0,4.25858783663,-0.114322152727,-13.4316714577,0.043815185726,0.409286255363,0.0,-1.43881159977,0.0,-1.338789223,0.0,0.0,0.0,0.0,200.0,0.0,0.0,0.00690445105478,100.0,0.000767318410122,100.0,0.0,100.0,0.0,100.0,2100000.0,0.0,0.0,0.0,0.0,0.0,0.0
1402599491264193876,0,4.27650529791,-0.114322152727,-13.4915993474,0.043815185726,0.414611489128,0.0,-1.45513888595,0.0,-1.33962665404,0.0,0.0,0.0,0.0,200.0,0.0,0.0,0.00690445105478,100.0,0.000767318410122,100.0,0.0,100.0,0.0,100.0,2100000.0,0.0,0.0,0.0,0.0,0.0,0.0
1402599491284822476,0,4.27650529791,-0.114322152727,-13.4915993474,0.043815185726,0.414611489128,0.0,-1.45513888595,0.0,-1.33962665404,0.0,0.0,0.0,0.0,200.0,0.0,0.0,0.00537022749826,100.0,0.00230154196664,100.0,0.0,100.0,0.0,100.0,2100000.0,0.0,0.0,0.0,0.0,0.0,0.0
1402599491304418481,0,4.28731340609,-0.114322152727,-13.5562018921,0.043815185726,0.393718304852,0.0,-1.48114466547,0.0,-1.33899358019,0.0,0.0,0.0,0.0,200.0,0.0,0.0,0.00690445105478,100.0,0.000767318410122,100.0,0.0,100.0,0.0,100.0,2100000.0,0.0,0.0,0.0,0.0,0.0,0.0
1402599491324312423,0,4.28731340609,-0.114322152727,-13.5562018921,0.043815185726,0.393718304852,0.0,-1.48114466547,0.0,-1.33899358019,0.0,0.0,0.0,0.0,200.0,0.0,0.0,0.00690445105478,100.0,0.00230154196664,100.0,0.0,100.0,0.0,100.0,2100000.0,0.0,0.0,0.0,0.0,0.0,0.0
1402599491344735315,0,4.30122463536,-0.114322152727,-13.61706584,0.043815185726,0.383765302674,0.0,-1.50067233167,0.0,-1.33946915878,0.0,0.0,0.0,0.0,200.0,0.0,0.0,0.00690445105478,100.0,0.00230154196664,100.0,0.0,100.0,0.0,100.0,2100000.0,0.0,0.0,0.0,0.0,0.0,0.0
1402599491364388070,0,4.30122463536,-0.114322152727,-13.61706584,0.043815185726,0.383765302674,0.0,-1.50067233167,0.0,-1.33946915878,0.0,0.0,0.0,0.0,200.0,0.0,0.0,0.00690445105478,100.0,0.00230154196664,100.0,0.0,100.0,0.0,100.0,2100000.0,0.0,0.0,0.0,0.0,0.0,0.0
1402599491384838340,0,4.3167545696,-0.114322152727,-13.695143331,0.043815185726,0.370399469744,0.0,-1.52353776611,0.0,-1.3396336021,0.0,0.0,0.0,0.0,200.0,0.0,0.0,0.00690445105478,100.0,0.00230154196664,100.0,0.0,100.0,0.0,100.0,2100000.0,0.0,0.0,0.0,0.0,0.0,0.0
1402599491404521604,0,4.3167545696,-0.114322152727,-13.695143331,0.043815185726,0.370399469744,0.0,-1.52353776611,0.0,-1.3396336021,0.0,0.0,0.0,0.0,200.0,0.0,0.0,0.00690445105478,100.0,0.00230154196664,100.0,0.0,100.0,0.0,100.0,2100000.0,0.0,0.0,0.0,0.0,0.0,0.0
1402599491424929076,0,4.33773724739,-0.114322152727,-13.7684569138,0.043815185726,0.37419435304,0.0,-1.52239652082,0.0,-1.34323450242,0.0,0.0,0.0,0.0,200.0,0.0,0.0,0.00537022749826,100.0,0.000767318410122,100.0,0.0,100.0,0.0,100.0,2100000.0,0.0,0.0,0.0,0.0,0.0,0.0
1402599491444212235,0,4.33773724739,-0.114322152727,-13.7684569138,0.043815185726,0.37419435304,0.0,-1.52239652082,0.0,-1.34323450242,0.0,0.0,0.0,0.0,200.0,0.0,0.0,0.00690445105478,100.0,0.00230154196664,100.0,0.0,100.0,0.0,100.0,2100000.0,0.0,0.0,0.0,0.0,0.0,0.0
1402599491464854252,0,4.34534148433,-0.114322152727,-13.7987916631,0.043815185726,0.37192749047,0.0,-1.529550605,0.0,-1.3437429006,0.0,0.0,0.0,0.0,200.0,0.0,0.0,0.00690445105478,100.0,0.00230154196664,100.0,0.0,100.0,0.0,100.0,2100000.0,0.0,0.0,0.0,0.0,0.0,0.0
1402599491484278200,0,4.34534148433,-0.114322152727,-13.7987916631,0.043815185726,0.37192749047,0.0,-1.529550605,0.0,-1.3437429006,0.0,0.0,0.0,0.0,200.0,0.0,0.0,0.00690445105478,100.0,0.00230154196664,100.0,0.0,100.0,0.0,100.0,2100000.0,0.0,0.0,0.0,0.0,0.0,0.0
1402599491504766543,0,4.36957343683,-0.114322152727,-13.8601351943,0.043815185726,0.394075564137,0.0,-1.53287895926,0.0,-1.34798239902,0.0,0.0,0.0,0.0,200.0,0.0,0.0,0.00690445105478,100.0,0.00230154196664,100.0,0.0,100.0,0.0,100.0,2100000.0,0.0,0.0,0.0,0.0,0.0,0.0
1402599491524183472,0,4.36957343683,-0.114322152727,-13.8601351943,0.043815185726,0.394075564137,0.0,-1.53287895926,0.0,-1.34798239902,0.0,0.0,0.0,0.0,200.0,0.0,0.0,0.00537022749826,100.0,0.00230154196664,100.0,0.0,100.0,0.0,100.0,2100000.0,0.0,0.0,0.0,0.0,0.0,0.0
1402599491544803612,0,4.38580421488,-0.114322152727,-13.9231913566,0.043815185726,0.396858549545,0.0,-1.54223465555,0.0,-1.34913006659,0.0,0.0,0.0,0.0,200.0,0.0,0.0,0.00690445105478,100.0,0.00230154196664,100.0,0.0,100.0,0.0,100.0,2100000.0,0.0,0.0,0.0,0.0,0.0,0.0
1402599491564200896,0,4.38580421488,-0.114322152727,-13.9231913566,0.043815185726,0.396858549545,0.0,-1.54223465555,0.0,-1.34913006659,0.0,0.0,0.0,0.0,200.0,0.0,0.0,0.00537022749826,100.0,0.000767318410122,100.0,0.0,100.0,0.0,100.0,2100000.0,0.0,0.0,0.0,0.0,0.0,0.0
1402599491584861922,0,4.40242801964,-0.114322152727,-13.9824169674,0.043815185726,0.401553622188,0.0,-1.5379142742,0.0,-1.3514018493,0.0,0.0,0.0,0.0,200.0,0.0,0.0,0.00690445105478,100.0,0.00230154196664,100.0,0.0,100.0,0.0,100.0,2100000.0,0.0,0.0,0.0,0.0,0.0,0.0
1402599491604467053,0,4.40242801964,-0.114322152727,-13.9824169674,0.043815185726,0.401553622188,0.0,-1.5379142742,0.0,-1.3514018493,0.0,0.0,0.0,0.0,200.0,0.0,0.0,0.00690445105478,100.0,0.00230154196664,100.0,0.0,100.0,0.0,100.0,2100000.0,0.0,0.0,0.0,0.0,0.0,0.0
1402599491624129513,0,4.41910351026,-0.114322152727,-14.0455203581,0.043815185726,0.403643565455,0.0,-1.54797254612,0.0,-1.35251146866,0.0,0.0,0.0,0.0,200.0,0.0,0.0,0.00690445105478,100.0,0.00230154196664,100.0,0.0,100.0,0.0,100.0,2100000.0,0.0,0.0,0.0,0.0,0.0,0.0
1402599491644702977,0,4.41910351026,-0.114322152727,-14.0455203581,0.043815185726,0.403643565455,0.0,-1.54797254612,0.0,-1.35251146866,0.0,0.0,0.0,0.0,200.0,0.0,0.0,0.00690445105478,100.0,0.00230154196664,100.0,0.0,100.0,0.0,100.0,2100000.0,0.0,0.0,0.0,0.0,0.0,0.0
1402599491664243284,0,4.4329987944,-0.114322152727,-14.1177810564,0.043815185726,0.394602460706,0.0,-1.58013041715,0.0,-1.35101397922,0.0,0.0,0.0,0.0,200.0,0.0,0.0,0.00690445105478,100.0,0.00230154196664,100.0,0.0,100.0,0.0,100.0,2100000.0,0.0,0.0,0.0,0.0,0.0,0.0
1402599491684709909,0,4.4329987944,-0.114322152727,-14.1177810564,0.043815185726,0.394602460706,0.0,-1.58013041715,0.0,-1.35101397922,0.0,0.0,0.0,0.0,200.0,0.0,0.0,0.00690445105478,100.0,0.00230154196664,100.0,0.0,100.0,0.0,100.0,2100000.0,0.0,0.0,0.0,0.0,0.0,0.0
1402599491704246803,0,4.4465612209,-0.114322152727,-14.1785359326,0.043815185726,0.387912239364,0.0,-1.58444164464,0.0,-1.35172753409,0.0,0.0,0.0,0.0,200.0,0.0,0.0,0.00537022749826,100.0,0.000767318410122,100.0,0.0,100.0,0.0,100.0,2100000.0,0.0,0.0,0.0,0.0,0.0,0.0
1402599491724815369,0,4.4465612209,-0.114322152727,-14.1785359326,0.043815185726,0.387912239364,0.0,-1.58444164464,0.0,-1.35172753409,0.0,0.0,0.0,0.0,200.0,0.0,0.0,0.00537022749826,100.0,0.00230154196664,100.0,0.0,100.0,0.0,100.0,2100000.0,0.0,0.0,0.0,0.0,0.0,0.0
1402599491744480100,0,4.46124581897,-0.114322152727,-14.2415157288,0.043815185726,0.385465868472,0.0,-1.5893165846,0.0,-1.35277980458,0.0,0.0,0.0,0.0,200.0,0.0,0.0,0.00690445105478,100.0,0.000767318410122,100.0,0.0,100.0,0.0,100.0,2100000.0,0.0,0.0,0.0,0.0,0.0,0.0
1402599491764822623,0,4.46124581897,-0.114322152727,-14.2415157288,0.043815185726,0.385465868472,0.0,-1.5893165846,0.0,-1.35277980458,0.0,0.0,0.0,0.0,200.0,0.0,0.0,0.00690445105478,100.0,0.00230154196664,100.0,0.0,100.0,0.0,100.0,2100000.0,0.0,0.0,0.0,0.0,0.0,0.0
1402599491784279619,0,4.47886903706,-0.114322152727,-14.3310999246,0.043815185726,0.377305450615,0.0,-1.62079258143,0.0,-1.35105527696,0.0,0.0,0.0,0.0,200.0,0.0,0.0,0.00690445105478,100.0,0.00230154196664,100.0,0.0,100.0,0.0,100.0,2100000.0,0.0,0.0,0.0,0.0,0.0,0.0
1402599491804839146,0,4.47886903706,-0.114322152727,-14.3310999246,0.043815185726,0.377305450615,0.0,-1.62079258143,0.0,-1.35105527696,0.0,0.0,0.0,0.0,200.0,0.0,0.0,0.00690445105478,100.0,0.00230154196664,100.0,0.0,100.0,0.0,100.0,2100000.0,0.0,0.0,0.0,0.0,0.0,0.0
1402599491824250725,0,4.49095511193,-0.114322152727,-14.3813657882,0.043815185726,0.379786743287,0.0,-1.62712051649,0.0,-1.35185105061,0.0,0.0,0.0,0.0,200.0,0.0,0.0,0.00690445105478,100.0,0.00230154196664,100.0,0.0,100.0,0.0,100.0,2100000.0,0.0,0.0,0.0,0.0,0.0,0.0
1402599491844766647,0,4.49789639609,-0.114322152727,-14.4141266876,0.043815185726,0.375907606378,0.0,-1.63120176907,0.0,-1.35174626085,0.0,0.0,0.0,0.0,200.0,0.0,0.0,0.00690445105478,100.0,0.00230154196664,100.0,0.0,100.0,0.0,100.0,2100000.0,0.0,0.0,0.0,0.0,0.0,0.0
1402599491864157337,0,4.49789639609,-0.114322152727,-14.4141266876,0.043815185726,0.375907606378,0.0,-1.63120176907,0.0,-1.35174626085,0.0,0.0,0.0,0.0,200.0,0.0,0.0,0.00690445105478,100.0,0.00230154196664,100.0,0.0,100.0,0.0,100.0,2100000.0,0.0,0.0,0.0,0.0,0.0,0.0
1402599491884777771,0,4.50536334779,-0.114322152727,-14.4460064314,0.043815185726,0.378892589284,0.0,-1.63569912981,0.0,-1.35213366468,0.0,0.0,0.0,0.0,200.0,0.0,0.0,0.00690445105478,100.0,0.00230154196664,100.0,0.0,100.0,0.0,100.0,2100000.0,0.0,0.0,0.0,0.0,0.0,0.0
1402599491904193490,0,4.50536334779,-0.114322152727,-14.4460064314,0.043815185726,0.378892589284,0.0,-1.63569912981,0.0,-1.35213366468,0.0,0.0,0.0,0.0,200.0,0.0,0.0,0.00537022749826,100.0,0.00230154196664,100.0,0.0,100.0,0.0,100.0,2100000.0,0.0,0.0,0.0,0.0,0.0,0.0
1402599491924796948,0,4.51774068854,-0.114322152727,-14.5130018145,0.043815185726,0.366451062467,0.0,-1.64642653573,0.0,-1.35161993162,0.0,0.0,0.0,0.0,200.0,0.0,0.0,0.00537022749826,100.0,0.00230154196664,100.0,0.0,100.0,0.0,100.0,2100000.0,0.0,0.0,0.0,0.0,0.0,0.0
1402599491944205376,0,4.51774068854,-0.114322152727,-14.5130018145,0.043815185726,0.366451062467,0.0,-1.64642653573,0.0,-1.35161993162,0.0,0.0,0.0,0.0,200.0,0.0,0.0,0.00690445105478,100.0,0.00230154196664,100.0,0.0,100.0,0.0,100.0,2100000.0,0.0,0.0,0.0,0.0,0.0,0.0
1402599491964834337,0,4.53598299165,-0.114322152727,-14.5846736914,0.043815185726,0.372297410945,0.0,-1.66801462202,0.0,-1.35277800831,0.0,0.0,0.0,0.0,200.0,0.0,0.0,0.00690445105478,100.0,0.00230154196664,100.0,0.0,100.0,0.0,100.0,2100000.0,0.0,0.0,0.0,0.0,0.0,0.0
1402599491984208182,0,4.53598299165,-0.114322152727,-14.5846736914,0.043815185726,0.372297410945,0.0,-1.66801462202,0.0,-1.35277800831,0.0,0.0,0.0,0.0,200.0,0.0,0.0,0.00537022749826,100.0,0.00230154196664,100.0,0.0,100.0,0.0,100.0,2100000.0,0.0,0.0,0.0,0.0,0.0,0.0
1402599492004784347,0,4.54452494404,-0.114322152727,-14.6499153783,0.043815185726,0.354433602117,0.0,-1.66573492882,0.0,-1.35151944839,0.0,0.0,0.0,0.0,200.0,0.0,0.0,0.00690445105478,100.0,0.00230154196664,100.0,0.0,100.0,0.0,100.0,2100000.0,0.0,0.0,0.0,0.0,0.0,0.0
1402599492024168019,0,4.54452494404,-0.114322152727,-14.6499153783,0.043815185726,0.354433602117,0.0,-1.66573492882,0.0,-1.35151944839,0.0,0.0,0.0,0.0,200.0,0.0,0.0,0.00690445105478,100.0,0.00230154196664,100.0,0.0,100.0,0.0,100.0,2100000.0,0.0,0.0,0.0,0.0,0.0,0.0
1402599492044856125,0,4.56203038957,-0.114322152727,-14.721869595,0.043815185726,0.362357785257,0.0,-1.68191611556,0.0,-1.35250242746,0.0,0.0,0.0,0.0,200.0,0.0,0.0,0.00537022749826,100.0,0.00230154196664,100.0,0.0,100.0,0.0,100.0,2100000.0,0.0,0.0,0.0,0.0,0.0,0.0
1402599492064174492,0,4.56203038957,-0.114322152727,-14.721869595,0.043815185726,0.362357785257,0.0,-1.68191611556,0.0,-1.35250242746,0.0,0.0,0.0,0.0,200.0,0.0,0.0,0.00690445105478,100.0,0.000767318410122,100.0,0.0,100.0,0.0,100.0,2100000.0,0.0,0.0,0.0,0.0,0.0,0.0
1402599492084750137,0,4.57700191883,-0.114322152727,-14.7909590766,0.043815185726,0.359821393299,0.0,-1.69179953937,0.0,-1.35290373917,0.0,0.0,0.0,0.0,200.0,0.0,0.0,0.00690445105478,100.0,0.000767318410122,100.0,0.0,100.0,0.0,100.0,2100000.0,0.0,0.0,0.0,0.0,0.0,0.0
1402599492104217669,0,4.57700191883,-0.114322152727,-14.7909590766,0.043815185726,0.359821393299,0.0,-1.69179953937,0.0,-1.35290373917,0.0,0.0,0.0,0.0,200.0,0.0,0.0,0.00537022749826,100.0,0.00230154196664,100.0,0.0,100.0,0.0,100.0,2100000.0,0.0,0.0,0.0,0.0,0.0,0.0
1402599492124840612,0,4.59655047496,-0.114322152727,-14.865118436,0.043815185726,0.380427963301,0.0,-1.70248915826,0.0,-1.35386315315,0.0,0.0,0.0,0.0,200.0,0.0,0.0,0.00537022749826,100.0,0.000767318410122,100.0,0.0,100.0,0.0,100.0,2100000.0,0.0,0.0,0.0,0.0,0.0,0.0
1402599492144206522,0,4.59655047496,-0.114322152727,-14.865118436,0.043815185726,0.380427963301,0.0,-1.70248915826,0.0,-1.35386315315,0.0,0.0,0.0,0.0,200.0,0.0,0.0,0.00690445105478,100.0,0.00230154196664,100.0,0.0,100.0,0.0,100.0,2100000.0,0.0,0.0,0.0,0.0,0.0,0.0
1402599492164636347,0,4.61286894756,-0.114322152727,-14.9510216846,0.043815185726,0.369536081485,0.0,-1.70456105889,0.0,-1.35248652368,0.0,0.0,0.0,0.0,200.0,0.0,0.0,0.00537022749826,100.0,0.00230154196664,100.0,0.0,100.0,0.0,100.0,2100000.0,0.0,0.0,0.0,0.0,0.0,0.0
1402599492184092752,0,4.61286894756,-0.114322152727,-14.9510216846,0.043815185726,0.369536081485,0.0,-1.70456105889,0.0,-1.35248652368,0.0,0.0,0.0,0.0,200.0,0.0,0.0,0.00537022749826,100.0,0.00230154196664,100.0,0.0,100.0,0.0,100.0,2100000.0,0.0,0.0,0.0,0.0,0.0,0.0
1402599492204855914,0,4.63894942507,-0.114322152727,-15.0419260921,0.043815185726,0.394235330116,0.0,-1.71368001415,0.0,-1.35319349279,0.0,0.0,0.0,0.0,200.0,0.0,0.0,0.00537022749826,100.0,0.00230154196664,100.0,0.0,100.0,0.0,100.0,2100000.0,0.0,0.0,0.0,0.0,0.0,0.0
1402599492224535136,0,4.63894942507,-0.114322152727,-15.0419260921,0.043815185726,0.394235330116,0.0,-1.71368001415,0.0,-1.35319349279,0.0,0.0,0.0,0.0,200.0,0.0,0.0,0.00690445105478,100.0,0.00230154196664,100.0,0.0,100.0,0.0,100.0,2100000.0,0.0,0.0,0.0,0.0,0.0,0.0
1402599492244852282,0,4.64679298496,-0.114322152727,-15.0798871498,0.043815185726,0.391950003025,0.0,-1.7193595831,0.0,-1.35203394996,0.0,0.0,0.0,0.0,200.0,0.0,0.0,0.00690445105478,100.0,0.00230154196664,100.0,0.0,100.0,0.0,100.0,2100000.0,0.0,0.0,0.0,0.0,0.0,0.0
1402599492264207600,0,4.64679298496,-0.114322152727,-15.0798871498,0.043815185726,0.391950003025,0.0,-1.7193595831,0.0,-1.35203394996,0.0,0.0,0.0,0.0,200.0,0.0,0.0,0.00537022749826,100.0,0.00230154196664,100.0,0.0,100.0,0.0,100.0,2100000.0,0.0,0.0,0.0,0.0,0.0,0.0
1402599492284760082,0,4.66573691769,-0.114322152727,-15.1516957613,0.043815185726,0.400860571647,0.0,-1.72881811842,0.0,-1.35173131387,0.0,0.0,0.0,0.0,200.0,0.0,0.0,0.00537022749826,100.0,0.00230154196664,100.0,0.0,100.0,0.0,100.0,2100000.0,0.0,0.0,0.0,0.0,0.0,0.0
1402599492304179409,0,4.66573691769,-0.114322152727,-15.1516957613,0.043815185726,0.400860571647,0.0,-1.72881811842,0.0,-1.35173131387,0.0,0.0,0.0,0.0,200.0,0.0,0.0,0.00690445105478,100.0,0.00230154196664,100.0,0.0,100.0,0.0,100.0,2100000.0,0.0,0.0,0.0,0.0,0.0,0.0
1402599492326634176,0,4.68233346095,-0.114322152727,-15.2226351099,0.043815185726,0.40384015115,0.0,-1.73344205011,0.0,-1.3505944255,0.0,0.0,0.0,0.0,200.0,0.0,0.0,0.00537022749826,100.0,0.00230154196664,100.0,0.0,100.0,0.0,100.0,2100000.0,0.0,0.0,0.0,0.0,0.0,0.0
1402599492344912044,0,4.68233346095,-0.114322152727,-15.2226351099,0.043815185726,0.40384015115,0.0,-1.73344205011,0.0,-1.3505944255,0.0,0.0,0.0,0.0,200.0,0.0,0.0,0.00537022749826,100.0,0.00230154196664,100.0,0.0,100.0,0.0,100.0,2100000.0,0.0,0.0,0.0,0.0,0.0,0.0
1402599492364226200,0,4.70129844859,-0.114322152727,-15.313604792,0.043815185726,0.394875991184,0.0,-1.7452705403,0.0,-1.34763825006,0.0,0.0,0.0,0.0,200.0,0.0,0.0,0.00690445105478,100.0,0.00230154196664,100.0,0.0,100.0,0.0,100.0,2100000.0,0.0,0.0,0.0,0.0,0.0,0.0
1402599492384277492,0,4.70129844859,-0.114322152727,-15.313604792,0.043815185726,0.394875991184,0.0,-1.7452705403,0.0,-1.34763825006,0.0,0.0,0.0,0.0,200.0,0.0,0.0,0.00537022749826,100.0,0.000767318410122,100.0,0.0,100.0,0.0,100.0,2100000.0,0.0,0.0,0.0,0.0,0.0,0.0
1402599492404248508,0,4.71529127606,-0.114322152727,-15.3856160774,0.043815185726,0.401780886473,0.0,-1.74294170784,0.0,-1.34524043716,0.0,0.0,0.0,0.0,200.0,0.0,0.0,0.00690445105478,100.0,0.00230154196664,100.0,0.0,100.0,0.0,100.0,2100000.0,0.0,0.0,0.0,0.0,0.0,0.0
1402599492424277049,0,4.72628433327,-0.114322152727,-15.4226222841,0.043815185726,0.407489009702,0.0,-1.74481601858,0.0,-1.34528775698,0.0,0.0,0.0,0.0,199.871674852,5.06444095328,-3.70526231106,0.00690445105478,100.0,0.00230154196664,100.0,0.0,100.0,0.0506660838298,100.0,2117123.08591,0.0,0.0,0.0,0.0,0.0,0.0
1402599492444844254,0,4.72628433327,-0.114322152727,-15.4226222841,0.043815185726,0.407489009702,0.0,-1.74481601858,0.0,-1.34528775698,0.0,0.0,0.0,0.0,199.320964357,11.6338316612,-8.62870080342,0.00537022749826,100.0,0.000767318410122,100.0,0.0,100.0,0.116602360143,100.0,2191342.60002,0.0,0.0,0.0,0.0,0.0,0.0
1402599492464241359,0,4.73928742421,-0.114322152727,-15.4783448565,0.043815185726,0.405939780416,0.0,-1.74796428838,0.0,-1.34404301655,0.0,0.0,0.0,0.0,198.338603377,18.1526605725,-13.6471046792,0.00690445105478,100.0,0.00383600394174,100.0,0.0,100.0,0.182538626704,100.0,2324791.35563,0.0,0.0,0.0,0.0,0.0,0.0
1402599492484401031,0,4.73928742421,-0.114322152727,-15.4783448565,0.043815185726,0.405939780416,0.0,-1.74796428838,0.0,-1.34404301655,0.0,0.0,0.0,0.0,197.491050428,22.2597189194,-16.8785383552,0.00537022749826,100.0,0.0145762840931,100.0,0.0,100.0,0.224477692238,100.0,2440325.82187,0.0,0.0,0.0,0.0,0.0,0.0
1402599492504876796,0,4.74985349917,-0.114322152727,-15.5285756671,0.043815185726,0.400740357935,0.0,-1.74505256038,0.0,-1.3422226589,0.0,0.0,0.0,0.0,196.930239703,24.5871639486,-18.7343109208,0.00537022749826,100.0,0.0467978398029,100.0,0.0,100.0,0.248418834244,100.0,2516827.48404,0.0,0.0,0.0,0.0,0.0,0.0
1402599492524315297,0,4.74985349917,-0.114322152727,-15.5285756671,0.043815185726,0.400740357935,0.0,-1.74505256038,0.0,-1.3422226589,0.0,0.0,0.0,0.0,195.463744185,29.7770640974,-22.9382674727,0.00690445105478,100.0,0.0866909901325,100.0,0.0,100.0,0.302356506793,100.0,2716722.59522,0.0,0.0,0.0,0.0,0.0,0.0
1402599492544291291,0,4.76638678495,-0.114322152727,-15.6001233563,0.043815185726,0.401961942344,0.0,-1.75021007068,0.0,-1.34089515028,0.0,0.0,0.0,0.0,190.719466335,42.0711115592,-33.2839843187,0.00537022749826,100.0,0.118912545842,100.0,0.0,100.0,0.434229039915,100.0,3357596.76244,0.0,0.0,0.0,0.0,0.0,0.0
1402599492564719937,0,4.76638678495,-0.114322152727,-15.6001233563,0.043815185726,0.401961942344,0.0,-1.75021007068,0.0,-1.34089515028,0.0,0.0,0.0,0.0,189.950071835,43.6919280516,-34.6918048212,0.00690445105478,100.0,0.149599639577,100.0,0.0,100.0,0.452170891417,100.0,3460304.43928,0.0,0.0,0.0,0.0,0.0,0.0
1402599492584253352,0,4.78508613962,-0.114322152727,-15.6746818653,0.043815185726,0.393198231871,0.0,-1.76048145143,0.0,-1.34015084294,0.0,0.0,0.0,0.0,185.973332132,51.0743199871,-41.2480286049,0.00690445105478,100.0,0.180286733312,100.0,0.0,100.0,0.536049022484,100.0,3984297.02681,0.0,0.0,0.0,0.0,0.0,0.0
1402599492604284420,0,4.78508613962,-0.114322152727,-15.6746818653,0.043815185726,0.393198231871,0.0,-1.76048145143,0.0,-1.34015084294,0.0,0.0,0.0,0.0,181.533746847,57.4703180478,-47.2312771958,0.00690445105478,100.0,0.212508289022,100.0,0.0,100.0,0.613983883057,99.7526407242,4514293.51071,0.0,0.0,0.0,0.0,0.0,0.0
1402599492625007612,0,4.80135229885,-0.114322152727,-15.7467704004,0.043815185726,0.394118880565,0.0,-1.76467514727,0.0,-1.33896799881,0.0,0.0,0.0,0.0,178.255658967,60.2249811462,-50.2245389986,0.00537022749826,100.0,0.247798291845,99.7526407242,0.0,100.0,0.65592294859,98.7471342087,4762285.31694,0.0,0.0,0.0,0.0,0.0,0.0
1402599492644298778,0,4.80135229885,-0.114322152727,-15.7467704004,0.043815185726,0.394118880565,0.0,-1.76467514727,0.0,-1.33896799881,0.0,0.0,0.0,0.0,178.255658967,60.2249811462,-50.2245389986,0.00537022749826,100.0,0.284622995061,98.7471342087,0.0,100.0,0.65592294859,98.7471342087,4762285.31679,0.0,0.0,0.0,0.0,0.0,0.0
1402599492664656923,0,4.81562781654,-0.114322152727,-15.8207994815,0.043815185726,0.386719163496,0.0,-1.76608601765,0.0,-1.33709629205,0.0,0.0,0.0,0.0,178.255658967,60.2249811462,-50.2245389986,0.00537022749826,100.0,0.322981683416,98.7471342087,0.0,100.0,0.65592294859,98.7471342087,4762285.31666,0.0,0.0,0.0,0.0,0.0,0.0
1402599492684037103,0,4.81562781654,-0.114322152727,-15.8207994815,0.043815185726,0.386719163496,0.0,-1.76608601765,0.0,-1.33709629205,0.0,0.0,0.0,0.0,178.255658967,60.2249811462,-50.2245389986,0.00690445105478,100.0,0.359806386632,98.7471342087,0.0,100.0,0.65592294859,98.7471342087,4762285.31654,0.0,0.0,0.0,0.0,0.0,0.0
1402599492704276979,0,4.83206351486,-0.114322152727,-15.8944842157,0.043815185726,0.386430750855,0.0,-1.76781373994,0.0,-1.33583453417,0.0,0.0,0.0,0.0,177.104858309,60.0793034655,-50.4698469661,0.00690445105478,100.0,0.398165074987,98.7471342087,0.0,100.0,0.661922239094,97.7480530739,4744444.03042,0.0,0.0,0.0,0.0,0.0,0.0
1402599492725098025,0,4.83206351486,-0.114322152727,-15.8944842157,0.043815185726,0.386430750855,0.0,-1.76781373994,0.0,-1.33583453417,0.0,0.0,0.0,0.0,177.104858309,60.0793034655,-50.4698469661,0.00537022749826,100.0,0.433455316228,97.7480530739,0.0,100.0,0.661922239094,97.7480530739,4744444.03033,0.0,0.0,0.0,0.0,0.0,0.0
1402599492744284626,0,4.86003514036,-0.114322152727,-15.9842082807,0.043815185726,0.400575524134,0.0,-1.76503288211,0.0,-1.33573934204,0.0,0.0,0.0,0.0,177.104858309,60.0793034655,-50.4698469661,0.00690445105478,100.0,0.467211095494,97.7480530739,0.0,100.0,0.661922239094,97.7480530739,4744444.03026,0.0,0.0,0.0,0.0,0.0,0.0
1402599492764765039,0,4.86003514036,-0.114322152727,-15.9842082807,0.043815185726,0.400575524134,0.0,-1.76503288211,0.0,-1.33573934204,0.0,0.0,0.0,0.0,177.104858309,60.0793034655,-50.4698469661,0.00537022749826,100.0,0.505570022268,97.7480530739,0.0,100.0,0.661922239094,97.7480530739,4744444.03019,0.0,0.0,0.0,0.0,0.0,0.0
1402599492784305578,0,4.88600906886,-0.114322152727,-16.1137519991,0.043815185726,0.378665358225,0.0,-1.76098614467,0.0,-1.33007420401,0.0,0.0,0.0,0.0,177.104858309,60.0793034655,-50.4698469661,0.00537022749826,100.0,0.540860263509,97.7480530739,0.0,100.0,0.661922239094,97.7480530739,4744444.03014,0.0,0.0,0.0,0.0,0.0,0.0
1402599492804195029,0,4.88600906886,-0.114322152727,-16.1137519991,0.043815185726,0.378665358225,0.0,-1.76098614467,0.0,-1.33007420401,0.0,0.0,0.0,0.0,175.492448846,61.0308597854,-51.6501409904,0.00690445105478,100.0,0.571547357244,97.7480530739,0.0,100.0,0.679864090597,97.0766484737,4833250.81379,0.0,0.0,0.0,0.0,0.0,0.0
1402599492824268821,0,4.9010232542,-0.114322152727,-16.1893266302,0.043815185726,0.37539846367,0.0,-1.76776638441,0.0,-1.32512499188,0.0,0.0,0.0,0.0,173.499332301,62.3943664958,-53.2446854211,0.00690445105478,100.0,0.609906284017,97.0766484737,0.0,100.0,0.703861304628,96.4116632938,4965603.70758,0.0,0.0,0.0,0.0,0.0,0.0
1402599492844142484,0,4.9010232542,-0.114322152727,-16.1893266302,0.043815185726,0.37539846367,0.0,-1.76776638441,0.0,-1.32512499188,0.0,0.0,0.0,0.0,173.499332301,62.3943664958,-53.2446854211,0.00690445105478,100.0,0.642127839727,96.4116632938,0.0,100.0,0.703861304628,96.4116632938,4965603.70756,0.0,0.0,0.0,0.0,0.0,0.0
1402599492864800867,0,4.91219804961,-0.114322152727,-16.2624936604,0.043815185726,0.355047431676,0.0,-1.75629457065,0.0,-1.31931536658,0.0,0.0,0.0,0.0,173.499332301,62.3943664958,-53.2446854211,0.00537022749826,100.0,0.678952066106,96.4116632938,0.0,100.0,0.703861304628,96.4116632938,4965603.70754,0.0,0.0,0.0,0.0,0.0,0.0
1402599492884177619,0,4.91219804961,-0.114322152727,-16.2624936604,0.043815185726,0.355047431676,0.0,-1.75629457065,0.0,-1.31931536658,0.0,0.0,0.0,0.0,172.364520066,63.7070251598,-54.5408097971,0.00690445105478,100.0,0.700433103246,96.4116632938,0.0,100.0,0.721859228155,96.4116632938,5098594.92699,0.0,0.0,0.0,0.0,0.0,0.0
1402599492904852714,0,4.92350194982,-0.114322152727,-16.2980566306,0.043815185726,0.363005742599,0.0,-1.74167533267,0.0,-1.31788312958,0.0,0.0,0.0,0.0,172.364520066,63.7070251598,-54.5408097971,0.00537022749826,100.0,0.709639398259,96.4116632938,0.0,100.0,0.721859228155,96.4116632938,5098594.92699,0.0,0.0,0.0,0.0,0.0,0.0
1402599492924306357,0,4.92350194982,-0.114322152727,-16.2980566306,0.043815185726,0.363005742599,0.0,-1.74167533267,0.0,-1.31788312958,0.0,0.0,0.0,0.0,172.364520066,63.7070251598,-54.5408097971,0.00537022749826,100.0,0.714242545766,96.4116632938,0.0,100.0,0.721859228155,96.4116632938,5098594.92699,0.0,0.0,0.0,0.0,0.0,0.0
1402599492944425449,0,4.93455203048,-0.114322152727,-16.3521145417,0.043815185726,0.354967098512,0.0,-1.73283592393,0.0,-1.31265229973,0.0,0.0,0.0,0.0,170.963148119,64.7698275031,-55.7373105827,0.00537022749826,100.0,0.720379678411,96.4116632938,0.0,100.0,0.739801079657,96.0775673389,5208463.56836,0.0,0.0,0.0,0.0,0.0,0.0
1402599492964767615,0,4.93455203048,-0.114322152727,-16.3521145417,0.043815185726,0.354967098512,0.0,-1.73283592393,0.0,-1.31265229973,0.0,0.0,0.0,0.0,170.963148119,64.7698275031,-55.7373105827,0.00537022749826,100.0,0.724983064336,96.0775673389,0.0,100.0,0.739801079657,96.0775673389,5208463.56836,0.0,0.0,0.0,0.0,0.0,0.0
1402599492984229965,0,4.94539364755,-0.114322152727,-16.4061407346,0.043815185726,0.343985999668,0.0,-1.71936959356,0.0,-1.30653196371,0.0,0.0,0.0,0.0,170.963148119,64.7698275031,-55.7373105827,0.00537022749826,100.0,0.729585973424,96.0775673389,0.0,100.0,0.739801079657,96.0775673389,5208463.56836,0.0,0.0,0.0,0.0,0.0,0.0
1402599493004816305,0,4.94539364755,-0.114322152727,-16.4061407346,0.043815185726,0.343985999668,0.0,-1.71936959356,0.0,-1.30653196371,0.0,0.0,0.0,0.0,170.963148119,64.7698275031,-55.7373105827,0.00690445105478,100.0,0.737257806462,96.0775673389,0.0,100.0,0.739801079657,96.0775673389,5208463.56836,0.0,0.0,0.0,0.0,0.0,0.0
1402599493024207756,0,4.95683080127,-0.114322152727,-16.4779179942,0.043815185726,0.332463869199,0.0,-1.69699369482,0.0,-1.29733712996,0.0,0.0,0.0,0.0,170.963148119,64.7698275031,-55.7373105827,0.00537022749826,100.0,0.741860715551,96.0775673389,0.0,100.0,0.739801079657,96.0775673389,5208463.56836,0.0,0.0,0.0,0.0,0.0,0.0
1402599493044730880,0,4.95683080127,-0.114322152727,-16.4779179942,0.043815185726,0.332463869199,0.0,-1.69699369482,0.0,-1.29733712996,0.0,0.0,0.0,0.0,170.963148119,64.7698275031,-55.7373105827,0.00537022749826,100.0,0.744929639501,96.0775673389,0.0,100.0,0.739801079657,96.0775673389,5208463.56836,0.0,0.0,0.0,0.0,0.0,0.0
1402599493064219165,0,4.97375727238,-0.114322152727,-16.5514355826,0.043815185726,0.337230930185,0.0,-1.68047985479,0.0,-1.28702146115,0.0,0.0,0.0,0.0,170.963148119,64.7698275031,-55.7373105827,0.00537022749826,100.0,0.746463863057,96.0775673389,0.0,100.0,0.739801079657,96.0775673389,5208463.56836,0.0,0.0,0.0,0.0,0.0,0.0
1402599493084790663,0,4.97375727238,-0.114322152727,-16.5514355826,0.043815185726,0.337230930185,0.0,-1.68047985479,0.0,-1.28702146115,0.0,0.0,0.0,0.0,170.963148119,64.7698275031,-55.7373105827,0.00537022749826,100.0,0.746463863057,96.0775673389,0.0,100.0,0.739801079657,96.0775673389,5208463.56836,0.0,0.0,0.0,0.0,0.0,0.0
1402599493104204574,0,4.98784187105,-0.114322152727,-16.6219964654,0.043815185726,0.331849093659,0.0,-1.66536207172,0.0,-1.27723044734,0.0,0.0,0.0,0.0,170.963148119,64.7698275031,-55.7373105827,0.00383600394174,100.0,0.746463863057,96.0775673389,0.0,100.0,0.739801079657,96.0775673389,5208463.56836,0.0,0.0,0.0,0.0,0.0,0.0
1402599493124767712,0,4.98784187105,-0.114322152727,-16.6219964654,0.043815185726,0.331849093659,0.0,-1.66536207172,0.0,-1.27723044734,0.0,0.0,0.0,0.0,170.963148119,64.7698275031,-55.7373105827,0.00383600394174,100.0,0.747998325032,96.0775673389,0.0,100.0,0.739801079657,96.0775673389,5208463.56836,0.0,0.0,0.0,0.0,0.0,0.0
1402599493144253958,0,5.00619032475,-0.114322152727,-16.7046879101,0.043815185726,0.339900869466,0.0,-1.62782366713,0.0,-1.26633206573,0.0,0.0,0.0,0.0,170.963148119,64.7698275031,-55.7373105827,0.00383600394174,100.0,0.746463863057,96.0775673389,0.0,100.0,0.739801079657,96.0775673389,5208463.56836,0.0,0.0,0.0,0.0,0.0,0.0
1402599493164849004,0,5.00619032475,-0.114322152727,-16.7046879101,0.043815185726,0.339900869466,0.0,-1.62782366713,0.0,-1.26633206573,0.0,0.0,0.0,0.0,170.963148119,64.7698275031,-55.7373105827,0.00383600394174,100.0,0.746463863057,96.0775673389,0.0,100.0,0.739801079657,96.0775673389,5208463.56836,0.0,0.0,0.0,0.0,0.0,0.0
1402599493184042969,0,5.01350954986,-0.114322152727,-16.7558634595,0.043815185726,0.325323873346,0.0,-1.6240817314,0.0,-1.2569530333,0.0,0.0,0.0,0.0,170.963148119,64.7698275031,-55.7373105827,0.00383600394174,100.0,0.747998325032,96.0775673389,0.0,100.0,0.739801079657,96.0775673389,5208463.56836,0.0,0.0,0.0,0.0,0.0,0.0
1402599493204754484,0,5.02049306595,-0.114322152727,-16.789850118,0.043815185726,0.326672897254,0.0,-1.61469860294,0.0,-1.25170192382,0.0,0.0,0.0,0.0,170.963148119,64.7698275031,-55.7373105827,0.00383600394174,100.0,0.747998325032,96.0775673389,0.0,100.0,0.739801079657,96.0775673389,5208463.56836,0.0,0.0,0.0,0.0,0.0,0.0
1402599493224503247,0,5.02049306595,-0.114322152727,-16.789850118,0.043815185726,0.326672897254,0.0,-1.61469860294,0.0,-1.25170192382,0.0,0.0,0.0,0.0,170.963148119,64.7698275031,-55.7373105827,0.00383600394174,100.0,0.747998325032,96.0775673389,0.0,100.0,0.739801079657,96.0775673389,5208463.56836,0.0,0.0,0.0,0.0,0.0,0.0
1402599493244799406,0,5.02182577605,-0.114322152727,-16.8226738827,0.043815185726,0.308473265457,0.0,-1.60573729833,0.0,-1.24439048211,0.0,0.0,0.0,0.0,170.963148119,64.7698275031,-55.7373105827,0.00230154196664,100.0,0.747998325032,96.0775673389,0.0,100.0,0.739801079657,96.0775673389,5208463.56836,0.0,0.0,0.0,0.0,0.0,0.0
1402599493264213535,0,5.02182577605,-0.114322152727,-16.8226738827,0.043815185726,0.308473265457,0.0,-1.60573729833,0.0,-1.24439048211,0.0,0.0,0.0,0.0,170.963148119,64.7698275031,-55.7373105827,0.00383600394174,100.0,0.747998325032,96.0775673389,0.0,100.0,0.739801079657,96.0775673389,5208463.56836,0.0,0.0,0.0,0.0,0.0,0.0
1402599493284816178,0,5.03826126902,-0.114322152727,-16.8922040344,0.043815185726,0.32166865762,0.0,-1.59673071691,0.0,-1.2353052385,0.0,0.0,0.0,0.0,170.963148119,64.7698275031,-55.7373105827,0.00383600394174,100.0,0.747998325032,96.0775673389,0.0,100.0,0.739801079657,96.0775673389,5208463.56836,0.0,0.0,0.0,0.0,0.0,0.0
1402599493304235406,0,5.03826126902,-0.114322152727,-16.8922040344,0.043815185726,0.32166865762,0.0,-1.59673071691,0.0,-1.2353052385,0.0,0.0,0.0,0.0,170.963148119,64.7698275031,-55.7373105827,0.00383600394174,100.0,0.747998325032,96.0775673389,0.0,100.0,0.739801079657,96.0775673389,5208463.56836,0.0,0.0,0.0,0.0,0.0,0.0
1402599493324297577,0,5.05157990927,-0.114322152727,-16.958202533,0.043815185726,0.324952878041,0.0,-1.58429840097,0.0,-1.22500998121,0.0,0.0,0.0,0.0,170.963148119,64.7698275031,-55.7373105827,0.00230154196664,100.0,0.747998325032,96.0775673389,0.0,100.0,0.739801079657,96.0775673389,5208463.56836,0.0,0.0,0.0,0.0,0.0,0.0
1402599493344865521,0,5.05157990927,-0.114322152727,-16.958202533,0.043815185726,0.324952878041,0.0,-1.58429840097,0.0,-1.22500998121,0.0,0.0,0.0,0.0,170.963148119,64.7698275031,-55.7373105827,0.00230154196664,100.0,0.747998325032,96.0775673389,0.0,100.0,0.739801079657,96.0775673389,5208463.56836,0.0,0.0,0.0,0.0,0.0,0.0
1402599493364307525,0,5.0650966519,-0.114322152727,-17.0214789052,0.043815185726,0.332530153175,0.0,-1.56602052135,0.0,-1.21497613563,0.0,0.0,0.0,0.0,170.963148119,64.7698275031,-55.7373105827,0.00383600394174,100.0,0.747998325032,96.0775673389,0.0,100.0,0.739801079657,96.0775673389,5208463.56836,0.0,0.0,0.0,0.0,0.0,0.0
1402599493384792701,0,5.0650966519,-0.114322152727,-17.0214789052,0.043815185726,0.332530153175,0.0,-1.56602052135,0.0,-1.21497613563,0.0,0.0,0.0,0.0,170.963148119,64.7698275031,-55.7373105827,0.00230154196664,100.0,0.747998325032,96.0775673389,0.0,100.0,0.739801079657,96.0775673389,5208463.56836,0.0,0.0,0.0,0.0,0.0,0.0
1402599493404191962,0,5.0785317316,-0.114322152727,-17.0850788861,0.043815185726,0.330576074985,0.0,-1.54918171082,0.0,-1.20425334333,0.0,0.0,0.0,0.0,170.963148119,64.7698275031,-55.7373105827,0.00230154196664,100.0,0.747998325032,96.0775673389,0.0,100.0,0.739801079657,96.0775673389,5208463.56836,0.0,0.0,0.0,0.0,0.0,0.0
1402599493424984867,0,5.0785317316,-0.114322152727,-17.0850788861,0.043815185726,0.330576074985,0.0,-1.54918171082,0.0,-1.20425334333,0.0,0.0,0.0,0.0,170.963148119,64.7698275031,-55.7373105827,0.00230154196664,100.0,0.747998325032,96.0775673389,0.0,100.0,0.739801079657,96.0775673389,5208463.56836,0.0,0.0,0.0,0.0,0.0,0.0
1402599493444390894,0,5.09200191063,-0.114322152727,-17.147868356,0.043815185726,0.339670167391,0.0,-1.53360039811,0.0,-1.19449191968,0.0,0.0,0.0,0.0,170.963148119,64.7698275031,-55.7373105827,0.00230154196664,100.0,0.746463863057,96.0775673389,0.0,100.0,0.739801079657,96.0775673389,5208463.56836,0.0,0.0,0.0,0.0,0.0,0.0
1402599493464930961,0,5.09200191063,-0.114322152727,-17.147868356,0.043815185726,0.339670167391,0.0,-1.53360039811,0.0,-1.19449191968,0.0,0.0,0.0,0.0,170.963148119,64.7698275031,-55.7373105827,0.000767318410122,100.0,0.747998325032,96.0775673389,0.0,100.0,0.739801079657,96.0775673389,5208463.56836,0.0,0.0,0.0,0.0,0.0,0.0
1402599493484403079,0,5.11054228969,-0.114322152727,-17.2124412643,0.043815185726,0.358631191874,0.0,-1.52264849969,0.0,-1.18671590403,0.0,0.0,0.0,0.0,170.963148119,64.7698275031,-55.7373105827,0.00230154196664,100.0,0.747998325032,96.0775673389,0.0,100.0,0.739801079657,96.0775673389,5208463.56836,0.0,0.0,0.0,0.0,0.0,0.0
1402599493504751626,0,5.11054228969,-0.114322152727,-17.2124412643,0.043815185726,0.358631191874,0.0,-1.52264849969,0.0,-1.18671590403,0.0,0.0,0.0,0.0,170.963148119,64.7698275031,-55.7373105827,0.00230154196664,100.0,0.747998325032,96.0775673389,0.0,100.0,0.739801079657,96.0775673389,5208463.56836,0.0,0.0,0.0,0.0,0.0,0.0
1402599493524472110,0,5.12919392726,-0.114322152727,-17.2914499585,0.043815185726,0.36457260209,0.0,-1.51359329146,0.0,-1.17533588868,0.0,0.0,0.0,0.0,170.963148119,64.7698275031,-55.7373105827,0.00230154196664,100.0,0.747998325032,96.0775673389,0.0,100.0,0.739801079657,96.0775673389,5208463.56836,0.0,0.0,0.0,0.0,0.0,0.0
1402599493544751712,0,5.12919392726,-0.114322152727,-17.2914499585,0.043815185726,0.36457260209,0.0,-1.51359329146,0.0,-1.17533588868,0.0,0.0,0.0,0.0,170.963148119,64.7698275031,-55.7373105827,0.00230154196664,100.0,0.747998325032,96.0775673389,0.0,100.0,0.739801079657,96.0775673389,5208463.56836,0.0,0.0,0.0,0.0,0.0,0.0
1402599493564236804,0,5.14054322417,-0.114322152727,-17.3380683963,0.043815185726,0.371581586362,0.0,-1.50619432951,0.0,-1.16882530166,0.0,0.0,0.0,0.0,170.963148119,64.7698275031,-55.7373105827,0.000767318410122,100.0,0.747998325032,96.0775673389,0.0,100.0,0.739801079657,96.0775673389,5208463.56836,0.0,0.0,0.0,0.0,0.0,0.0
1402599493584860854,0,5.14650836631,-0.114322152727,-17.3720496732,0.043815185726,0.366584666761,0.0,-1.50769224515,0.0,-1.16400271274,0.0,0.0,0.0,0.0,170.963148119,64.7698275031,-55.7373105827,0.00230154196664,100.0,0.747998325032,96.0775673389,0.0,100.0,0.739801079657,96.0775673389,5208463.56836,0.0,0.0,0.0,0.0,0.0,0.0
1402599493604172581,0,5.14650836631,-0.114322152727,-17.3720496732,0.043815185726,0.366584666761,0.0,-1.50769224515,0.0,-1.16400271274,0.0,0.0,0.0,0.0,170.963148119,64.7698275031,-55.7373105827,0.00230154196664,100.0,0.747998325032,96.0775673389,0.0,100.0,0.739801079657,96.0775673389,5208463.56836,0.0,0.0,0.0,0.0,0.0,0.0
1402599493624179574,0,5.15410104866,-0.114322152727,-17.4036002962,0.043815185726,0.374701520084,0.0,-1.50425730829,0.0,-1.15953059823,0.0,0.0,0.0,0.0,170.963148119,64.7698275031,-55.7373105827,0.00230154196664,100.0,0.747998325032,96.0775673389,0.0,100.0,0.739801079657,96.0775673389,5208463.56836,0.0,0.0,0.0,0.0,0.0,0.0
1402599493644871502,0,5.15410104866,-0.114322152727,-17.4036002962,0.043815185726,0.374701520084,0.0,-1.50425730829,0.0,-1.15953059823,0.0,0.0,0.0,0.0,170.963148119,64.7698275031,-55.7373105827,0.00230154196664,100.0,0.747998325032,96.0775673389,0.0,100.0,0.739801079657,96.0775673389,5208463.56836,0.0,0.0,0.0,0.0,0.0,0.0
1402599493664251895,0,5.17240063793,-0.114322152727,-17.4662827659,0.043815185726,0.391218577693,0.0,-1.48977092819,0.0,-1.15099017236,0.0,0.0,0.0,0.0,170.963148119,64.7698275031,-55.7373105827,0.00230154196664,100.0,0.747998325032,96.0775673389,0.0,100.0,0.739801079657,96.0775673389,5208463.56836,0.0,0.0,0.0,0.0,0.0,0.0
1402599493684798303,0,5.17240063793,-0.114322152727,-17.4662827659,0.043815185726,0.391218577693,0.0,-1.48977092819,0.0,-1.15099017236,0.0,0.0,0.0,0.0,170.963148119,64.7698275031,-55.7373105827,0.00230154196664,100.0,0.747998325032,96.0775673389,0.0,100.0,0.739801079657,96.0775673389,5208463.56836,0.0,0.0,0.0,0.0,0.0,0.0
1402599493704110277,0,5.1883455331,-0.114322152727,-17.5247254664,0.043815185726,0.398795507819,0.0,-1.47442548028,0.0,-1.14159125313,0.0,0.0,0.0,0.0,170.963148119,64.7698275031,-55.7373105827,0.00230154196664,100.0,0.747998325032,96.0775673389,0.0,100.0,0.739801079657,96.0775673389,5208463.56836,0.0,0.0,0.0,0.0,0.0,0.0
1402599493724777906,0,5.1883455331,-0.114322152727,-17.5247254664,0.043815185726,0.398795507819,0.0,-1.47442548028,0.0,-1.14159125313,0.0,0.0,0.0,0.0,170.963148119,64.7698275031,-55.7373105827,0.00230154196664,100.0,0.747998325032,96.0775673389,0.0,100.0,0.739801079657,96.0775673389,5208463.56836,0.0,0.0,0.0,0.0,0.0,0.0
1402599493744275663,0,5.20756316601,-0.114322152727,-17.6022985951,0.043815185726,0.405320832604,0.0,-1.4664345959,0.0,-1.12958771373,0.0,0.0,0.0,0.0,170.963148119,64.7698275031,-55.7373105827,0.00230154196664,100.0,0.747998325032,96.0775673389,0.0,100.0,0.739801079657,96.0775673389,5208463.56836,0.0,0.0,0.0,0.0,0.0,0.0
1402599493765320380,0,5.20756316601,-0.114322152727,-17.6022985951,0.043815185726,0.405320832604,0.0,-1.4664345959,0.0,-1.12958771373,0.0,0.0,0.0,0.0,170.963148119,64.7698275031,-55.7373105827,0.00230154196664,100.0,0.747998325032,96.0775673389,0.0,100.0,0.739801079657,96.0775673389,5208463.56836,0.0,0.0,0.0,0.0,0.0,0.0
1402599493784308862,0,5.22972285976,-0.114322152727,-17.6803680232,0.043815185726,0.418714348744,0.0,-1.4677645891,0.0,-1.12017481292,0.0,0.0,0.0,0.0,170.963148119,64.7698275031,-55.7373105827,0.00230154196664,100.0,0.747998325032,96.0775673389,0.0,100.0,0.739801079657,96.0775673389,5208463.56836,0.0,0.0,0.0,0.0,0.0,0.0
1402599493804857246,0,5.22972285976,-0.114322152727,-17.6803680232,0.043815185726,0.418714348744,0.0,-1.4677645891,0.0,-1.12017481292,0.0,0.0,0.0,0.0,170.963148119,64.7698275031,-55.7373105827,0.00230154196664,100.0,0.747998325032,96.0775673389,0.0,100.0,0.739801079657,96.0775673389,5208463.56836,0.0,0.0,0.0,0.0,0.0,0.0
1402599493824543159,0,5.23845074894,-0.114322152727,-17.7110876808,0.043815185726,0.420165374804,0.0,-1.46766648803,0.0,-1.11604797642,0.0,0.0,0.0,0.0,170.963148119,64.7698275031,-55.7373105827,0.00230154196664,100.0,0.747998325032,96.0775673389,0.0,100.0,0.739801079657,96.0775673389,5208463.56836,0.0,0.0,0.0,0.0,0.0,0.0
1402599493844759994,0,5.23845074894,-0.114322152727,-17.7110876808,0.043815185726,0.420165374804,0.0,-1.46766648803,0.0,-1.11604797642,0.0,0.0,0.0,0.0,170.963148119,64.7698275031,-55.7373105827,0.00230154196664,100.0,0.747998325032,96.0775673389,0.0,100.0,0.739801079657,96.0775673389,5208463.56836,0.0,0.0,0.0,0.0,0.0,0.0
1402599493864380302,0,5.25868140678,-0.114322152727,-17.7691716362,0.043815185726,0.43194355333,0.0,-1.45768297912,0.0,-1.10761049023,0.0,0.0,0.0,0.0,170.963148119,64.7698275031,-55.7373105827,-0.00230160554007,100.0,0.747998325032,96.0775673389,0.0,100.0,0.739801079657,96.0775673389,5208463.56836,0.0,0.0,0.0,0.0,0.0,0.0
1402599493884863504,0,5.25868140678,-0.114322152727,-17.7691716362,0.043815185726,0.43194355333,0.0,-1.45768297912,0.0,-1.10761049023,0.0,0.0,0.0,0.0,170.963148119,64.7698275031,-55.7373105827,-0.00383606751517,100.0,0.747998325032,96.0775673389,0.0,100.0,0.739801079657,96.0775673389,5208463.56836,0.0,0.0,0.0,0.0,0.0,0.0
1402599493904245475,0,5.27434052202,-0.114322152727,-17.8279574282,0.043815185726,0.43010362097,0.0,-1.45619625692,0.0,-1.09875113047,0.0,0.0,0.0,0.0,170.963148119,64.7698275031,-55.7373105827,-0.00230160554007,100.0,0.747998325032,96.0775673389,0.0,100.0,0.739801079657,96.0775673389,5208463.56836,0.0,0.0,0.0,0.0,0.0,0.0
1402599493924825946,0,5.27434052202,-0.114322152727,-17.8279574282,0.043815185726,0.43010362097,0.0,-1.45619625692,0.0,-1.09875113047,0.0,0.0,0.0,0.0,170.963148119,64.7698275031,-55.7373105827,-0.00537029107169,100.0,0.747998325032,96.0775673389,0.0,100.0,0.739801079657,96.0775673389,5208463.56836,0.0,0.0,0.0,0.0,0.0,0.0
1402599493944298720,0,5.28953798742,-0.114322152727,-17.8825697995,0.043815185726,0.432467810663,0.0,-1.43727507637,0.0,-1.08886103414,0.0,0.0,0.0,0.0,170.963148119,64.7698275031,-55.7373105827,-0.00537029107169,100.0,0.747998325032,96.0775673389,0.0,100.0,0.739801079657,96.0775673389,5208463.56836,0.0,0.0,0.0,0.0,0.0,0.0
1402599493964904804,0,5.28953798742,-0.114322152727,-17.8825697995,0.043815185726,0.432467810663,0.0,-1.43727507637,0.0,-1.08886103414,0.0,0.0,0.0,0.0,170.963148119,64.7698275031,-55.7373105827,-0.00690451462821,100.0,0.747998325032,96.0775673389,0.0,100.0,0.739801079657,96.0775673389,5208463.56836,0.0,0.0,0.0,0.0,0.0,0.0
1402599493984402196,0,5.31477620403,-0.114322152727,-17.9574995604,0.043815185726,0.451733112443,0.0,-1.43261377431,0.0,-1.0797024027,0.0,0.0,0.0,0.0,170.963148119,64.7698275031,-55.7373105827,-0.00690451462821,100.0,0.747998325032,96.0775673389,0.0,100.0,0.739801079657,96.0775673389,5208463.56836,0.0,0.0,0.0,0.0,0.0,0.0
1402599494004701567,0,5.31477620403,-0.114322152727,-17.9574995604,0.043815185726,0.451733112443,0.0,-1.43261377431,0.0,-1.0797024027,0.0,0.0,0.0,0.0,170.963148119,64.7698275031,-55.7373105827,-0.00690451462821,100.0,0.747998325032,96.0775673389,0.0,100.0,0.739801079657,96.0775673389,5208463.56836,0.0,0.0,0.0,0.0,0.0,0.0
1402599494024472582,0,5.33344256691,-0.114322152727,-18.000380757,0.043815185726,0.475604819575,0.0,-1.42229431165,0.0,-1.07341814105,0.0,0.0,0.0,0.0,170.963148119,64.7698275031,-55.7373105827,-0.00690451462821,100.0,0.747998325032,96.0775673389,0.0,100.0,0.739801079657,96.0775673389,5208463.56836,0.0,0.0,0.0,0.0,0.0,0.0
1402599494044859965,0,5.34382603282,-0.114322152727,-18.0300935792,0.043815185726,0.482136373426,0.0,-1.41699050547,0.0,-1.06924845147,0.0,0.0,0.0,0.0,170.963148119,64.7698275031,-55.7373105827,-0.00690451462821,100.0,0.747998325032,96.0775673389,0.0,100.0,0.739801079657,96.0775673389,5208463.56836,0.0,0.0,0.0,0.0,0.0,0.0
1402599494064260742,0,5.34382603282,-0.114322152727,-18.0300935792,0.043815185726,0.482136373426,0.0,-1.41699050547,0.0,-1.06924845147,0.0,0.0,0.0,0.0,170.963148119,64.7698275031,-55.7373105827,-0.00690451462821,100.0,0.747998325032,96.0775673389,0.0,100.0,0.739801079657,96.0775673389,5208463.56836,0.0,0.0,0.0,0.0,0.0,0.0
1402599494084840996,0,5.35350590895,-0.114322152727,-18.0598146643,0.043815185726,0.484544174881,0.0,-1.413259782,0.0,-1.06514033835,0.0,0.0,0.0,0.0,170.963148119,64.7698275031,-55.7373105827,-0.00690451462821,100.0,0.747998325032,96.0775673389,0.0,100.0,0.739801079657,96.0775673389,5208463.56836,0.0,0.0,0.0,0.0,0.0,0.0
1402599494104288604,0,5.35350590895,-0.114322152727,-18.0598146643,0.043815185726,0.484544174881,0.0,-1.413259782,0.0,-1.06514033835,0.0,0.0,0.0,0.0,170.963148119,64.7698275031,-55.7373105827,-0.00690451462821,100.0,0.747998325032,96.0775673389,0.0,100.0,0.739801079657,96.0775673389,5208463.56836,0.0,0.0,0.0,0.0,0.0,0.0
1402599494124882626,0,5.37682771446,-0.114322152727,-18.1303174266,0.043815185726,0.499390382218,0.0,-1.44093560324,0.0,-1.06040429931,0.0,0.0,0.0,0.0,170.963148119,64.7698275031,-55.7373105827,-0.00690451462821,100.0,0.747998325032,96.0775673389,0.0,100.0,0.739801079657,96.0775673389,5208463.56836,0.0,0.0,0.0,0.0,0.0,0.0
1402599494144253653,0,5.37682771446,-0.114322152727,-18.1303174266,0.043815185726,0.499390382218,0.0,-1.44093560324,0.0,-1.06040429931,0.0,0.0,0.0,0.0,170.963148119,64.7698275031,-55.7373105827,-0.00690451462821,100.0,0.747998325032,96.0775673389,0.0,100.0,0.739801079657,96.0775673389,5208463.56836,0.0,0.0,0.0,0.0,0.0,0.0
1402599494164871271,0,5.39825879212,-0.114322152727,-18.1807324725,0.043815185726,0.504457232074,0.0,-1.41993792555,0.0,-1.05059981505,0.0,0.0,0.0,0.0,170.963148119,64.7698275031,-55.7373105827,-0.00690451462821,100.0,0.749532548589,96.0775673389,0.0,100.0,0.739801079657,96.0775673389,5208463.56836,0.0,0.0,0.0,0.0,0.0,0.0
1402599494184179247,0,5.39825879212,-0.114322152727,-18.1807324725,0.043815185726,0.504457232074,0.0,-1.41993792555,0.0,-1.05059981505,0.0,0.0,0.0,0.0,170.963148119,64.7698275031,-55.7373105827,-0.00690451462821,100.0,0.749532548589,96.0775673389,0.0,100.0,0.739801079657,96.0775673389,5208463.56836,0.0,0.0,0.0,0.0,0.0,0.0
1402599494204907490,0,5.42274422114,-0.114322152727,-18.2503610979,0.043815185726,0.51307283502,0.0,-1.40617966061,0.0,-1.03989089074,0.0,0.0,0.0,0.0,170.963148119,64.7698275031,-55.7373105827,-0.00690451462821,100.0,0.747998325032,96.0775673389,0.0,100.0,0.739801079657,96.0775673389,5208463.56836,0.0,0.0,0.0,0.0,0.0,0.0
1402599494224213553,0,5.42274422114,-0.114322152727,-18.2503610979,0.043815185726,0.51307283502,0.0,-1.40617966061,0.0,-1.03989089074,0.0,0.0,0.0,0.0,170.963148119,64.7698275031,-55.7373105827,-0.00690451462821,100.0,0.749532548589,96.0775673389,0.0,100.0,0.739801079657,96.0775673389,5208463.56836,0.0,0.0,0.0,0.0,0.0,0.0
1402599494244791927,0,5.45884588296,-0.114322152727,-18.328901647,0.043815185726,0.545683012787,0.0,-1.41167309588,0.0,-1.03214632161,0.0,0.0,0.0,0.0,170.963148119,64.7698275031,-55.7373105827,-0.00537029107169,100.0,0.747998325032,96.0775673389,0.0,100.0,0.739801079657,96.0775673389,5208463.56836,0.0,0.0,0.0,0.0,0.0,0.0
1402599494264173556,0,5.45884588296,-0.114322152727,-18.328901647,0.043815185726,0.545683012787,0.0,-1.41167309588,0.0,-1.03214632161,0.0,0.0,0.0,0.0,170.963148119,64.7698275031,-55.7373105827,-0.00690451462821,100.0,0.747998325032,96.0775673389,0.0,100.0,0.739801079657,96.0775673389,5208463.56836,0.0,0.0,0.0,0.0,0.0,0.0
1402599494284811536,0,5.4733898943,-0.114322152727,-18.3563447943,0.043815185726,0.558830425061,0.0,-1.40201021053,0.0,-1.02789586985,0.0,0.0,0.0,0.0,170.963148119,64.7698275031,-55.7373105827,-0.00537029107169,100.0,0.747998325032,96.0775673389,0.0,100.0,0.739801079657,96.0775673389,5208463.56836,0.0,0.0,0.0,0.0,0.0,0.0
1402599494304217292,0,5.4733898943,-0.114322152727,-18.3563447943,0.043815185726,0.558830425061,0.0,-1.40201021053,0.0,-1.02789586985,0.0,0.0,0.0,0.0,170.963148119,64.7698275031,-55.7373105827,-0.00690451462821,100.0,0.747998325032,96.0775673389,0.0,100.0,0.739801079657,96.0775673389,5208463.56836,0.0,0.0,0.0,0.0,0.0,0.0
1402599494324821547,0,5.49895049147,-0.114322152727,-18.4373325348,0.043815185726,0.558802779959,0.0,-1.41533150924,0.0,-1.01939265029,0.0,0.0,0.0,0.0,170.963148119,64.7698275031,-55.7373105827,-0.00537029107169,100.0,0.747998325032,96.0775673389,0.0,100.0,0.739801079657,96.0775673389,5208463.56836,0.0,0.0,0.0,0.0,0.0,0.0
1402599494344479301,0,5.49895049147,-0.114322152727,-18.4373325348,0.043815185726,0.558802779959,0.0,-1.41533150924,0.0,-1.01939265029,0.0,0.0,0.0,0.0,170.963148119,64.7698275031,-55.7373105827,-0.00690451462821,100.0,0.747998325032,96.0775673389,0.0,100.0,0.739801079657,96.0775673389,5208463.56836,0.0,0.0,0.0,0.0,0.0,0.0
1402599494364859852,0,5.51653315977,-0.114322152727,-18.4811360953,0.043815185726,0.567180620574,0.0,-1.41256050117,0.0,-1.01338212285,0.0,0.0,0.0,0.0,170.963148119,64.7698275031,-55.7373105827,-0.00537029107169,100.0,0.749532548589,96.0775673389,0.0,100.0,0.739801079657,96.0775673389,5208463.56836,0.0,0.0,0.0,0.0,0.0,0.0
1402599494384314386,0,5.53615585966,-0.114322152727,-18.5045713329,0.043815185726,0.585894673202,0.0,-1.39406693274,0.0,-1.00828933544,0.0,0.0,0.0,0.0,170.963148119,64.7698275031,-55.7373105827,-0.00537029107169,100.0,0.749532548589,96.0775673389,0.0,100.0,0.739801079657,96.0775673389,5208463.56836,0.0,0.0,0.0,0.0,0.0,0.0
1402599494404794764,0,5.53615585966,-0.114322152727,-18.5045713329,0.043815185726,0.585894673202,0.0,-1.39406693274,0.0,-1.00828933544,0.0,0.0,0.0,0.0,170.963148119,64.7698275031,-55.7373105827,-0.00690451462821,100.0,0.749532548589,96.0775673389,0.0,100.0,0.739801079657,96.0775673389,5208463.56836,0.0,0.0,0.0,0.0,0.0,0.0
1402599494424293808,0,5.5484234401,-0.114322152727,-18.5337316631,0.043815185726,0.592937317625,0.0,-1.39286311998,0.0,-1.0042601092,0.0,0.0,0.0,0.0,170.963148119,64.7698275031,-55.7373105827,-0.00690451462821,100.0,0.749532548589,96.0775673389,0.0,100.0,0.739801079657,96.0775673389,5208463.56836,0.0,0.0,0.0,0.0,0.0,0.0
1402599494444832470,0,5.5484234401,-0.114322152727,-18.5337316631,0.043815185726,0.592937317625,0.0,-1.39286311998,0.0,-1.0042601092,0.0,0.0,0.0,0.0,170.963148119,64.7698275031,-55.7373105827,-0.00690451462821,100.0,0.749532548589,96.0775673389,0.0,100.0,0.739801079657,96.0775673389,5208463.56836,0.0,0.0,0.0,0.0,0.0,0.0
1402599494464300181,0,5.57468828211,-0.114322152727,-18.5921123048,0.043815185726,0.601111349482,0.0,-1.3890427783,0.0,-0.996127736364,0.0,0.0,0.0,0.0,170.963148119,64.7698275031,-55.7373105827,-0.00690451462821,100.0,0.749532548589,96.0775673389,0.0,100.0,0.739801079657,96.0775673389,5208463.56836,0.0,0.0,0.0,0.0,0.0,0.0
1402599494484866911,0,5.57468828211,-0.114322152727,-18.5921123048,0.043815185726,0.601111349482,0.0,-1.3890427783,0.0,-0.996127736364,0.0,0.0,0.0,0.0,170.963148119,64.7698275031,-55.7373105827,-0.00690451462821,100.0,0.749532548589,96.0775673389,0.0,100.0,0.739801079657,96.0775673389,5208463.56836,0.0,0.0,0.0,0.0,0.0,0.0
1402599494504307164,0,5.59680714085,-0.114322152727,-18.644455426,0.043815185726,0.604162676156,0.0,-1.36781296666,0.0,-0.987222507546,0.0,0.0,0.0,0.0,170.963148119,64.7698275031,-55.7373105827,-0.00690451462821,100.0,0.749532548589,96.0775673389,0.0,100.0,0.739801079657,96.0775673389,5208463.56836,0.0,0.0,0.0,0.0,0.0,0.0
1402599494524788847,0,5.59680714085,-0.114322152727,-18.644455426,0.043815185726,0.604162676156,0.0,-1.36781296666,0.0,-0.987222507546,0.0,0.0,0.0,0.0,170.963148119,64.7698275031,-55.7373105827,-0.00690451462821,100.0,0.747998325032,96.0775673389,0.0,100.0,0.739801079657,96.0775673389,5208463.56836,0.0,0.0,0.0,0.0,0.0,0.0
1402599494544234985,0,5.62897648841,-0.114322152727,-18.7168117558,0.043815185726,0.617075995238,0.0,-1.36250110863,0.0,-0.977184611392,0.0,0.0,0.0,0.0,170.963148119,64.7698275031,-55.7373105827,-0.00690451462821,100.0,0.747998325032,96.0775673389,0.0,100.0,0.739801079657,96.0775673389,5208463.56836,0.0,0.0,0.0,0.0,0.0,0.0
1402599494564837282,0,5.62897648841,-0.114322152727,-18.7168117558,0.043815185726,0.617075995238,0.0,-1.36250110863,0.0,-0.977184611392,0.0,0.0,0.0,0.0,170.963148119,64.7698275031,-55.7373105827,-0.00690451462821,100.0,0.747998325032,96.0775673389,0.0,100.0,0.739801079657,96.0775673389,5208463.56836,0.0,0.0,0.0,0.0,0.0,0.0
1402599494584286147,0,5.65771783977,-0.114322152727,-18.7929894362,0.043815185726,0.618032076391,0.0,-1.37342899181,0.0,-0.967415951086,0.0,0.0,0.0,0.0,170.963148119,64.7698275031,-55.7373105827,-0.00690451462821,100.0,0.747998325032,96.0775673389,0.0,100.0,0.739801079657,96.0775673389,5208463.56836,0.0,0.0,0.0,0.0,0.0,0.0
1402599494604647606,0,5.65771783977,-0.114322152727,-18.7929894362,0.043815185726,0.618032076391,0.0,-1.37342899181,0.0,-0.967415951086,0.0,0.0,0.0,0.0,170.963148119,64.7698275031,-55.7373105827,-0.00690451462821,100.0,0.749532548589,96.0775673389,0.0,100.0,0.739801079657,96.0775673389,5208463.56836,0.0,0.0,0.0,0.0,0.0,0.0
1402599494624488671,0,5.67093813053,-0.114322152727,-18.8217787373,0.043815185726,0.624577780294,0.0,-1.37007353071,0.0,-0.963068804785,0.0,0.0,0.0,0.0,170.963148119,64.7698275031,-55.7373105827,-0.00690451462821,100.0,0.749532548589,96.0775673389,0.0,100.0,0.739801079657,96.0775673389,5208463.56836,0.0,0.0,0.0,0.0,0.0,0.0
1402599494644785745,0,5.67093813053,-0.114322152727,-18.8217787373,0.043815185726,0.624577780294,0.0,-1.37007353071,0.0,-0.963068804785,0.0,0.0,0.0,0.0,170.963148119,64.7698275031,-55.7373105827,-0.00690451462821,100.0,0.749532548589,96.0775673389,0.0,100.0,0.739801079657,96.0775673389,5208463.56836,0.0,0.0,0.0,0.0,0.0,0.0
1402599494664263859,0,5.70287225774,-0.114322152727,-18.8796906662,0.043815185726,0.649922353882,0.0,-1.36408193323,0.0,-0.954133621184,0.0,0.0,0.0,0.0,170.963148119,64.7698275031,-55.7373105827,-0.00690451462821,100.0,0.749532548589,96.0775673389,0.0,100.0,0.739801079657,96.0775673389,5208463.56836,0.0,0.0,0.0,0.0,0.0,0.0
1402599494684763514,0,5.70287225774,-0.114322152727,-18.8796906662,0.043815185726,0.649922353882,0.0,-1.36408193323,0.0,-0.954133621184,0.0,0.0,0.0,0.0,170.963148119,64.7698275031,-55.7373105827,-0.00690451462821,100.0,0.749532548589,96.0775673389,0.0,100.0,0.739801079657,96.0775673389,5208463.56836,0.0,0.0,0.0,0.0,0.0,0.0
1402599494704229332,0,5.73858182096,-0.114322152727,-18.9381256641,0.043815185726,0.68022316511,0.0,-1.36562888733,0.0,-0.945228696813,0.0,0.0,0.0,0.0,170.963148119,64.7698275031,-55.7373105827,-0.00690451462821,100.0,0.749532548589,96.0775673389,0.0,100.0,0.739801079657,96.0775673389,5208463.56836,0.0,0.0,0.0,0.0,0.0,0.0
1402599494724762603,0,5.73858182096,-0.114322152727,-18.9381256641,0.043815185726,0.68022316511,0.0,-1.36562888733,0.0,-0.945228696813,0.0,0.0,0.0,0.0,170.963148119,64.7698275031,-55.7373105827,-0.00690451462821,100.0,0.749532548589,96.0775673389,0.0,100.0,0.739801079657,96.0775673389,5208463.56836,0.0,0.0,0.0,0.0,0.0,0.0
1402599494744196547,0,5.76452277707,-0.114322152727,-18.9932177265,0.043815185726,0.685544717579,0.0,-1.35462973956,0.0,-0.9364085393,0.0,0.0,0.0,0.0,170.963148119,64.7698275031,-55.7373105827,-0.00690451462821,100.0,0.747998325032,96.0775673389,0.0,100.0,0.739801079657,96.0775673389,5208463.56836,0.0,0.0,0.0,0.0,0.0,0.0
1402599494764862168,0,5.76452277707,-0.114322152727,-18.9932177265,0.043815185726,0.685544717579,0.0,-1.35462973956,0.0,-0.9364085393,0.0,0.0,0.0,0.0,170.963148119,64.7698275031,-55.7373105827,-0.00690451462821,100.0,0.747998325032,96.0775673389,0.0,100.0,0.739801079657,96.0775673389,5208463.56836,0.0,0.0,0.0,0.0,0.0,0.0
1402599494784141488,0,5.80160303939,-0.114322152727,-19.0641007352,0.043815185726,0.702519882865,0.0,-1.34420913447,0.0,-0.924988837613,0.0,0.0,0.0,0.0,170.963148119,64.7698275031,-55.7373105827,-0.00690451462821,100.0,0.749532548589,96.0775673389,0.0,100.0,0.739801079657,96.0775673389,5208463.56836,0.0,0.0,0.0,0.0,0.0,0.0
