rosbagTimestamp,control_method,x_current,x_desired,y_current,y_desired,z_current,z_desired,x_velocity_current,x_velocity_desired,y_velocity_current,y_velocity_desired,z_velocity_current,z_velocity_desired,yaw_current,yaw_desired,yaw_velocity_current,yaw_velocity_desired,roll_current,roll_desired,roll_velocity_current,roll_velocity_desired,pitch_current,pitch_desired,pitch_velocity_current,pitch_velocity_desired,friction_force_forward,friction_force_lateral,friction_force_rotational,required_force_x,required_force_y,required_moment_z,resultant_force_x,resultant_force_y,resultant_moment_z,current_port_servo_angle,current_port_thruster_force,current_starboard_servo_angle,current_starboard_thruster_force,estimated_port_servo_angle,estimated_port_thruster_force,estimated_starboard_servo_angle,estimated_starboard_thruster_force,cost_value,step,user_defined_1,user_defined_2,user_defined_3,user_defined_4,user_defined_5
1403020930987550819,3,-9.74124647312,-9.56012115774,26.2038262817,12.5835788608,3.84347862582,0.0,0.00490568671327,0.0,0.00466240333814,0.0,-0.0426271584607,0.0,-2.32954585451,0.0,-0.000930998931348,0.0,-0.0100660945953,0.0,0.0148229553896,0.0,0.0583188326894,-0.0,-0.00264285326117,0.0,-0.0171137727183,0.00156908064073,-0.00171227862626,6.66778516031,11.6412490179,-1.03086430711,0.0171137727183,-0.00156908064073,0.00171227862626,0.00383600394174,0.0,-0.00383606751517,0.0,-0.0,75.0,-0.0,-75.0,652926.428793,0.0,0.0,0.0,0.0,0.0,0.0
1403020931007502837,3,-9.72541851193,-9.56012115774,26.2166063317,12.5835788608,3.82536863762,0.0,0.0256900483356,0.0,0.0195183813687,0.0,-0.0460040985405,0.0,-2.32959099385,0.0,0.00033410142629,0.0,-0.0104931452642,0.0,0.00780983954553,0.0,0.0562905840794,-0.0,-0.00813921967662,0.0,-0.116681063222,0.0114265712737,0.000641750135533,6.66778516031,11.6412490179,-1.03086430711,0.116681063222,-0.0114265712737,-0.000641750135533,0.00383600394174,0.0,-0.00383606751517,0.0,-0.0,75.0,-0.0,-75.0,652381.585897,0.0,0.0,0.0,0.0,0.0,0.0
1403020931027359227,3,-9.72541851193,-9.56012115774,26.2166063317,12.5835788608,3.82536863762,0.0,0.0256900483356,0.0,0.0195183813687,0.0,-0.0460040985405,0.0,-2.32959099385,0.0,0.00033410142629,0.0,-0.0104931452642,0.0,0.00780983954553,0.0,0.0562905840794,-0.0,-0.00813921967662,0.0,-0.116681063222,0.0114265712737,0.000641750135533,6.66778516031,11.6412490179,-1.03086430711,0.116681063222,-0.0114265712737,-0.000641750135533,0.00383600394174,0.0,-0.00383606751517,0.0,-0.0,75.0,-0.0,-75.0,652381.585897,0.0,0.0,0.0,0.0,0.0,0.0
1403020931047430185,3,-9.7309937951,-9.56012115774,26.2138949902,12.5835788608,3.82540842751,0.0,0.0119855537732,0.0,0.00806838801165,0.0,-0.0437129282343,0.0,-2.3294428421,0.0,0.00464310337536,0.0,-0.0103199102304,0.0,0.0141883435783,0.0,0.0583888840141,-0.0,-0.00355543050589,0.0,-0.046211784694,0.00721364995688,0.00579125459643,6.66778516031,11.6412490179,-1.03086430711,0.046211784694,-0.00721364995688,-0.00579125459643,0.00383600394174,0.0,-0.00383606751517,0.0,-0.0,75.0,-0.0,-75.0,652791.345628,0.0,0.0,0.0,0.0,0.0,0.0
1403020931067918828,3,-9.7309937951,-9.56012115774,26.2138949902,12.5835788608,3.82540842751,0.0,0.0119855537732,0.0,0.00806838801165,0.0,-0.0437129282343,0.0,-2.3294428421,0.0,0.00464310337536,0.0,-0.0103199102304,0.0,0.0141883435783,0.0,0.0583888840141,-0.0,-0.00355543050589,0.0,-0.046211784694,0.00721364995688,0.00579125459643,6.66778516031,11.6412490179,-1.03086430711,0.046211784694,-0.00721364995688,-0.00579125459643,0.00383600394174,0.0,-0.00383606751517,0.0,-0.0,75.0,-0.0,-75.0,652791.345628,0.0,0.0,0.0,0.0,0.0,0.0
1403020931087396175,3,-9.7251031362,-9.56012115774,26.2167420485,12.5835788608,3.82586820661,0.0,0.0246474461358,0.0,0.0148069976987,0.0,-0.0431760970749,0.0,-2.32954167176,0.0,-0.000282091859741,0.0,-0.0104994197973,0.0,-0.00114045279729,0.0,0.0572500584916,-0.0,-0.00585500568997,0.0,-0.100719975704,0.0163361071694,5.32738402763e-05,6.66778516031,11.6412490179,-1.03086430711,0.100719975704,-0.0163361071694,-5.32738402763e-05,0.00383600394174,0.0,-0.00383606751517,0.0,-0.0,75.0,-0.0,-75.0,652544.103737,0.0,0.0,0.0,0.0,0.0,0.0
1403020931107238724,3,-9.7251031362,-9.56012115774,26.2167420485,12.5835788608,3.82586820661,0.0,0.0246474461358,0.0,0.0148069976987,0.0,-0.0431760970749,0.0,-2.32954167176,0.0,-0.000282091859741,0.0,-0.0104994197973,0.0,-0.00114045279729,0.0,0.0572500584916,-0.0,-0.00585500568997,0.0,-0.100719975704,0.0163361071694,5.32738402763e-05,6.66778516031,11.6412490179,-1.03086430711,0.100719975704,-0.0163361071694,-5.32738402763e-05,0.00383600394174,0.0,-0.00383606751517,0.0,-0.0,75.0,-0.0,-75.0,652544.103737,0.0,0.0,0.0,0.0,0.0,0.0
1403020931127619102,3,-9.72784851306,-9.56012115774,26.220517235,12.5835788608,3.81313512082,0.0,0.0100858495846,0.0,0.0122571146057,0.0,-0.0433628597511,0.0,-2.329240982,0.0,0.0061149457053,0.0,-0.00952983241359,0.0,0.00113006797741,0.0,0.0587508612054,-0.0,-0.00547528240499,0.0,-0.0531497234856,-0.00137508634714,0.00843958631688,6.66778516031,11.6412490179,-1.03086430711,0.0531497234856,0.00137508634714,-0.00843958631688,0.00383600394174,75.0,-0.00383606751517,-75.0,-0.0,75.0,-0.0,-75.0,652642.709707,0.0,0.0,0.0,0.0,0.0,0.0
1403020931147341062,3,-9.72773837544,-9.56012115774,26.220696976,12.5835788608,3.8126108561,0.0,0.010825669668,0.0,0.0112651978184,0.0,-0.0429110930641,0.0,-2.32920746275,0.0,0.000580774747324,0.0,-0.00953542678076,0.0,0.00383363775738,0.0,0.0587976806115,-0.0,-0.00286344894322,0.0,-0.0524046742522,0.00105606749798,0.000788964618524,6.66778516031,11.6412490179,-1.03086430711,0.0524046742522,-0.00105606749798,-0.000788964618524,0.00383600394174,75.0,-0.00383606751517,-75.0,-0.0,75.0,-0.0,-75.0,652683.790944,0.0,0.0,0.0,0.0,0.0,0.0
1403020931167213303,3,-9.72773837544,-9.56012115774,26.220696976,12.5835788608,3.8126108561,0.0,0.010825669668,0.0,0.0112651978184,0.0,-0.0429110930641,0.0,-2.32920746275,0.0,0.000580774747324,0.0,-0.00953542678076,0.0,0.00383363775738,0.0,0.0587976806115,-0.0,-0.00286344894322,0.0,-0.0524046742522,0.00105606749798,0.000788964618524,6.66778516031,11.6412490179,-1.03086430711,0.0524046742522,-0.00105606749798,-0.000788964618524,0.00383600394174,75.0,-0.00383606751517,-75.0,-0.0,75.0,-0.0,-75.0,652683.790944,0.0,0.0,0.0,0.0,0.0,0.0
1403020931187259993,3,-9.71957268144,-9.56012115774,26.22646982,12.5835788608,3.80452186124,0.0,0.0232317991555,0.0,0.0174800414905,0.0,-0.0433551707186,0.0,-2.32903624291,0.0,0.00643115933623,0.0,-0.00991494913711,0.0,0.00302114743461,0.0,0.0575669967565,-0.0,-0.000270545122074,0.0,-0.104449507213,0.0105851839473,0.0084396019576,6.66778516031,11.6412490179,-1.03086430711,0.104449507213,-0.0105851839473,-0.0084396019576,0.00383600394174,75.0,-0.00383606751517,-75.0,-0.0,75.0,-0.0,-75.0,652443.98372,0.0,0.0,0.0,0.0,0.0,0.0
1403020931207256886,3,-9.71957268144,-9.56012115774,26.22646982,12.5835788608,3.80452186124,0.0,0.0232317991555,0.0,0.0174800414905,0.0,-0.0433551707186,0.0,-2.32903624291,0.0,0.00643115933623,0.0,-0.00991494913711,0.0,0.00302114743461,0.0,0.0575669967565,-0.0,-0.000270545122074,0.0,-0.104449507213,0.0105851839473,0.0084396019576,6.66778516031,11.6412490179,-1.03086430711,0.104449507213,-0.0105851839473,-0.0084396019576,0.00383600394174,75.0,-0.00383606751517,-75.0,-0.0,75.0,-0.0,-75.0,652443.98372,0.0,0.0,0.0,0.0,0.0,0.0
1403020931227582438,3,-9.73441207466,-9.56012115774,26.2170855299,12.5835788608,3.82479270604,0.0,0.00614751440195,0.0,0.0113488449021,0.0,-0.0384244387837,0.0,-2.3286965448,0.0,0.00507530866512,0.0,-0.00887945675938,0.0,-0.00564166533133,0.0,0.0590264503564,-0.0,0.000562427653549,0.0,-0.0408241520747,-0.00597819520412,0.00696838182625,6.66778516031,11.6412490179,-1.03086430711,0.0408241520747,0.00597819520412,-0.00696838182625,0.00383600394174,75.0,-0.00383606751517,-75.0,-0.0,75.0,-0.0,-75.0,652672.251094,0.0,0.0,0.0,0.0,0.0,0.0
1403020931247731495,3,-9.73441207466,-9.56012115774,26.2170855299,12.5835788608,3.82479270604,0.0,0.00614751440195,0.0,0.0113488449021,0.0,-0.0384244387837,0.0,-2.3286965448,0.0,0.00507530866512,0.0,-0.00887945675938,0.0,-0.00564166533133,0.0,0.0590264503564,-0.0,0.000562427653549,0.0,-0.0408241520747,-0.00597819520412,0.00696838182625,6.66778516031,11.6412490179,-1.03086430711,0.0408241520747,0.00597819520412,-0.00696838182625,0.00383600394174,75.0,-0.00383606751517,-75.0,-0.0,75.0,-0.0,-75.0,652672.251094,0.0,0.0,0.0,0.0,0.0,0.0
1403020931267284827,3,-9.72718276395,-9.56012115774,26.221929419,12.5835788608,3.81495307452,0.0,0.0151217608843,0.0,0.0142648578316,0.0,-0.039079049268,0.0,-2.3286297216,0.0,-0.00425700893391,0.0,-0.00917805273612,0.0,-0.017301495045,0.0,0.057860322882,-0.0,-0.012935799713,0.0,-0.073914708426,0.00309486182305,-0.00406617744815,6.66778516031,11.6412490179,-1.03086430711,0.073914708426,-0.00309486182305,0.00406617744815,0.00383600394174,75.0,-0.00383606751517,-75.0,-0.0,75.0,-0.0,-75.0,652570.476517,0.0,0.0,0.0,0.0,0.0,0.0
1403020931287241362,3,-9.72718276395,-9.56012115774,26.221929419,12.5835788608,3.81495307452,0.0,0.0151217608843,0.0,0.0142648578316,0.0,-0.039079049268,0.0,-2.3286297216,0.0,-0.00425700893391,0.0,-0.00917805273612,0.0,-0.017301495045,0.0,0.057860322882,-0.0,-0.012935799713,0.0,-0.073914708426,0.00309486182305,-0.00406617744815,6.66778516031,11.6412490179,-1.03086430711,0.073914708426,-0.00309486182305,0.00406617744815,0.00383600394174,75.0,-0.00383606751517,-75.0,-0.0,75.0,-0.0,-75.0,652570.476517,0.0,0.0,0.0,0.0,0.0,0.0
1403020931307268423,3,-9.72215111278,-9.56012115774,26.2252871636,12.5835788608,3.80864764829,0.0,0.0111178248011,0.0,0.01960967243,0.0,-0.0410585248333,0.0,-2.32952655167,0.0,-0.0413887935671,0.0,-0.00864718952919,0.0,-0.0211267151961,0.0,0.0567387647058,-0.0,0.00182853555022,0.0,-0.0781277650661,-0.0101154976396,-0.0542366013096,6.66778516031,11.6412490179,-1.03086430711,0.0781277650661,0.0101154976396,0.0542366013096,0.00383600394174,75.0,-0.00383606751517,-75.0,-0.0,75.0,-0.0,-75.0,652442.147767,0.0,0.0,0.0,0.0,0.0,0.0
1403020931327414854,3,-9.72215111278,-9.56012115774,26.2252871636,12.5835788608,3.80864764829,0.0,0.0111178248011,0.0,0.01960967243,0.0,-0.0410585248333,0.0,-2.32952655167,0.0,-0.0413887935671,0.0,-0.00864718952919,0.0,-0.0211267151961,0.0,0.0567387647058,-0.0,0.00182853555022,0.0,-0.0781277650661,-0.0101154976396,-0.0542366013096,6.66778516031,11.6412490179,-1.03086430711,0.0781277650661,0.0101154976396,0.0542366013096,0.00383600394174,75.0,-0.00383606751517,-75.0,-0.0,75.0,-0.0,-75.0,652442.147767,0.0,0.0,0.0,0.0,0.0,0.0
1403020931347312731,3,-9.72178176855,-9.56012115774,26.2260725842,12.5835788608,3.80702225387,0.0,-0.00032997904561,0.0,0.0203636774873,0.0,-0.037504829423,0.0,-2.33203393569,0.0,-0.0778293594596,0.0,-0.00926718370387,0.0,-0.0282765373806,0.0,0.0560718689366,-0.0,-0.00639094784463,0.0,-0.0496694840255,-0.0278619302995,-0.101905876226,6.66778516031,11.6412490179,-1.03086430711,0.0496694840255,0.0278619302995,0.101905876226,0.00383600394174,75.0,-0.00383606751517,-75.0,-0.0,75.0,-0.0,-75.0,652476.69152,0.0,0.0,0.0,0.0,0.0,0.0
1403020931367304145,3,-9.72178176855,-9.56012115774,26.2260725842,12.5835788608,3.80702225387,0.0,-0.00032997904561,0.0,0.0203636774873,0.0,-0.037504829423,0.0,-2.33203393569,0.0,-0.0778293594596,0.0,-0.00926718370387,0.0,-0.0282765373806,0.0,0.0560718689366,-0.0,-0.00639094784463,0.0,-0.0496694840255,-0.0278619302995,-0.101905876226,6.66778516031,11.6412490179,-1.03086430711,0.0496694840255,0.0278619302995,0.101905876226,0.00537022749826,75.0,-0.00537029107169,-75.0,-0.0,75.0,-0.0,-75.0,652476.69152,0.0,0.0,0.0,0.0,0.0,0.0
1403020931387378019,3,-9.73800047945,-9.56012115774,26.2200875003,12.5835788608,3.81897807446,0.0,-0.0384514725236,0.0,0.0153533636683,0.0,-0.0215391409583,0.0,-2.33806339977,0.0,-0.124864387208,0.0,-0.00849826959745,0.0,-0.00458582004405,0.0,0.0567225667781,-0.0,0.0244700490427,0.0,0.0674332668655,-0.0763180580823,-0.167377747005,6.66778516031,11.6412490179,-1.03086430711,-0.0674332668655,0.0763180580823,0.167377747005,0.00383600394174,75.0,-0.00537029107169,-75.0,-0.0,75.0,-0.0,-75.0,652773.289694,0.0,0.0,0.0,0.0,0.0,0.0
1403020931407190005,3,-9.73800047945,-9.56012115774,26.2200875003,12.5835788608,3.81897807446,0.0,-0.0384514725236,0.0,0.0153533636683,0.0,-0.0215391409583,0.0,-2.33806339977,0.0,-0.124864387208,0.0,-0.00849826959745,0.0,-0.00458582004405,0.0,0.0567225667781,-0.0,0.0244700490427,0.0,0.0674332668655,-0.0763180580823,-0.167377747005,6.66778516031,11.6412490179,-1.03086430711,-0.0674332668655,0.0763180580823,0.167377747005,0.00383600394174,75.0,-0.00537029107169,-75.0,-0.0,75.0,-0.0,-75.0,652773.289694,0.0,0.0,0.0,0.0,0.0,0.0
1403020931427732627,3,-9.73299113848,-9.56012115774,26.2162256368,12.5835788608,3.82971242102,0.0,-0.01999423188,0.0,0.0135689972711,0.0,-0.0181265775206,0.0,-2.338512607,0.0,-0.128860021889,0.0,-0.0105748762682,0.0,-0.0253496214131,0.0,0.0550978245573,-0.0,0.0300963970736,0.0,0.0205324616252,-0.0472381705772,-0.172232748116,6.66778516031,11.6412490179,-1.03086430711,-0.0205324616252,0.0472381705772,0.172232748116,0.00383600394174,75.0,-0.00537029107169,-75.0,-0.0,75.0,-0.0,-75.0,652801.061332,0.0,0.0,0.0,0.0,0.0,0.0
1403020931447275257,3,-9.73299113848,-9.56012115774,26.2162256368,12.5835788608,3.82971242102,0.0,-0.01999423188,0.0,0.0135689972711,0.0,-0.0181265775206,0.0,-2.338512607,0.0,-0.128860021889,0.0,-0.0105748762682,0.0,-0.0253496214131,0.0,0.0550978245573,-0.0,0.0300963970736,0.0,0.0205324616252,-0.0472381705772,-0.172232748116,6.66778516031,11.6412490179,-1.03086430711,-0.0205324616252,0.0472381705772,0.172232748116,0.00383600394174,75.0,-0.00537029107169,-75.0,-0.0,75.0,-0.0,-75.0,652801.061332,0.0,0.0,0.0,0.0,0.0,0.0
1403020931467397798,3,-9.73934753059,-9.56012115774,26.2186597445,12.5835788608,3.82134825156,0.0,-0.0491821731893,0.0,0.0157390771709,0.0,-0.0211260520882,0.0,-2.34899535397,0.0,-0.184374917596,0.0,-0.0110283214636,0.0,-0.0386989891774,0.0,0.0534407409544,-0.0,0.0390034540538,0.0,0.0976338342073,-0.0917071900721,-0.246090854735,6.66778516031,11.6412490179,-1.03086430711,-0.0976338342073,0.0917071900721,0.246090854735,0.00383600394174,75.0,-0.00690451462821,-75.0,-0.0,75.0,-0.0,-75.0,652896.712545,0.0,0.0,0.0,0.0,0.0,0.0
1403020931487263864,3,-9.73934753059,-9.56012115774,26.2186597445,12.5835788608,3.82134825156,0.0,-0.0491821731893,0.0,0.0157390771709,0.0,-0.0211260520882,0.0,-2.34899535397,0.0,-0.184374917596,0.0,-0.0110283214636,0.0,-0.0386989891774,0.0,0.0534407409544,-0.0,0.0390034540538,0.0,0.0976338342073,-0.0917071900721,-0.246090854735,6.66778516031,11.6412490179,-1.03086430711,-0.0976338342073,0.0917071900721,0.246090854735,0.00383600394174,75.0,-0.00537029107169,-75.0,-0.0,75.0,-0.0,-75.0,652896.712545,0.0,0.0,0.0,0.0,0.0,0.0
1403020931507299840,3,-9.7374857646,-9.56012115774,26.2156368318,12.5835788608,3.81934001066,0.0,-0.0476494010257,0.0,0.000640805134328,0.0,-0.0165817748205,0.0,-2.35665781556,0.0,-0.198960010535,0.0,-0.0143961428846,0.0,-0.00663415609053,0.0,0.0516575235275,-0.0,0.0696026598005,0.0,0.136000179223,-0.0678274469387,-0.268748341687,6.66778516031,11.6412490179,-1.03086430711,-0.136000179223,0.0678274469387,0.268748341687,0.00383600394174,75.0,-0.00690451462821,-75.0,-0.0,75.0,-0.0,-75.0,653462.287421,0.0,0.0,0.0,0.0,0.0,0.0
1403020931527716727,3,-9.7374857646,-9.56012115774,26.2156368318,12.5835788608,3.81934001066,0.0,-0.0476494010257,0.0,0.000640805134328,0.0,-0.0165817748205,0.0,-2.35665781556,0.0,-0.198960010535,0.0,-0.0143961428846,0.0,-0.00663415609053,0.0,0.0516575235275,-0.0,0.0696026598005,0.0,0.136000179223,-0.0678274469387,-0.268748341687,6.66778516031,11.6412490179,-1.03086430711,-0.136000179223,0.0678274469387,0.268748341687,0.00383600394174,75.0,-0.00537029107169,-75.0,-0.0,75.0,-0.0,-75.0,653462.287421,0.0,0.0,0.0,0.0,0.0,0.0
1403020931547253206,3,-9.73972699218,-9.56012115774,26.2157097554,12.5835788608,3.81857071051,0.0,-0.0621583179673,0.0,0.00167934133578,0.0,-0.016669006625,0.0,-2.36572224243,0.0,-0.229892181197,0.0,-0.0146405508239,0.0,-0.014347727468,0.0,0.0498372106334,-0.0,0.0542650470712,0.0,0.175197545221,-0.0890270397274,-0.308619860047,6.66778516031,11.6412490179,-1.03086430711,-0.175197545221,0.0890270397274,0.308619860047,0.00537022749826,75.0,-0.00537029107169,-75.0,-0.0,75.0,-0.0,-75.0,653537.231388,0.0,0.0,0.0,0.0,0.0,0.0
1403020931567465179,3,-9.73972699218,-9.56012115774,26.2157097554,12.5835788608,3.81857071051,0.0,-0.0621583179673,0.0,0.00167934133578,0.0,-0.016669006625,0.0,-2.36572224243,0.0,-0.229892181197,0.0,-0.0146405508239,0.0,-0.014347727468,0.0,0.0498372106334,-0.0,0.0542650470712,0.0,0.175197545221,-0.0890270397274,-0.308619860047,6.66778516031,11.6412490179,-1.03086430711,-0.175197545221,0.0890270397274,0.308619860047,0.00383600394174,75.0,-0.00690451462821,-75.0,-0.0,75.0,-0.0,-75.0,653537.231388,0.0,0.0,0.0,0.0,0.0,0.0
1403020931587295711,3,-9.7577313258,-9.56012115774,26.2041434779,12.5835788608,3.84287871114,0.0,-0.0918157982327,0.0,-0.00175650251994,0.0,-0.0173097459476,0.0,-2.37903374242,0.0,-0.258006318621,0.0,-0.014852043529,0.0,-0.0219093864143,0.0,0.0491480241182,-0.0,0.0141487425332,0.0,0.271148910561,-0.123879186564,-0.343342058343,6.66778516031,11.6412490179,-1.03086430711,-0.271148910561,0.123879186564,0.343342058343,0.00383600394174,75.0,-0.00690451462821,-75.0,-0.0,75.0,-0.0,-75.0,653843.528503,0.0,0.0,0.0,0.0,0.0,0.0
1403020931607225118,3,-9.7577313258,-9.56012115774,26.2041434779,12.5835788608,3.84287871114,0.0,-0.0918157982327,0.0,-0.00175650251994,0.0,-0.0173097459476,0.0,-2.37903374242,0.0,-0.258006318621,0.0,-0.014852043529,0.0,-0.0219093864143,0.0,0.0491480241182,-0.0,0.0141487425332,0.0,0.271148910561,-0.123879186564,-0.343342058343,6.66778516031,11.6412490179,-1.03086430711,-0.271148910561,0.123879186564,0.343342058343,0.00383600394174,75.0,-0.00690451462821,-75.0,-0.0,75.0,-0.0,-75.0,653843.528503,0.0,0.0,0.0,0.0,0.0,0.0
1403020931627320451,3,-9.75862684112,-9.56012115774,26.2041315274,12.5835788608,3.84269615561,0.0,-0.097343103229,0.0,0.00179608980449,0.0,-0.0227913411954,0.0,-2.38170037468,0.0,-0.270852015928,0.0,-0.0145469520739,0.0,-0.0378874005488,0.0,0.0489179287284,-0.0,-0.00439140363346,0.0,0.278925556868,-0.136134196542,-0.358790435885,6.66778516031,11.6412490179,-1.03086430711,-0.278925556868,0.136134196542,0.358790435885,0.00383600394174,75.0,-0.00690451462821,-75.0,-0.0,75.0,-0.0,-75.0,653777.798573,0.0,0.0,0.0,0.0,0.0,0.0
1403020931647356344,3,-9.75862684112,-9.56012115774,26.2041315274,12.5835788608,3.84269615561,0.0,-0.097343103229,0.0,0.00179608980449,0.0,-0.0227913411954,0.0,-2.38170037468,0.0,-0.270852015928,0.0,-0.0145469520739,0.0,-0.0378874005488,0.0,0.0489179287284,-0.0,-0.00439140363346,0.0,0.278925556868,-0.136134196542,-0.358790435885,6.66778516031,11.6412490179,-1.03086430711,-0.278925556868,0.136134196542,0.358790435885,0.00383600394174,75.0,-0.00690451462821,-75.0,-0.0,75.0,-0.0,-75.0,653777.798573,0.0,0.0,0.0,0.0,0.0,0.0
1403020931667255178,3,-9.77054240167,-9.56012115774,26.2060796484,12.5835788608,3.84419965527,0.0,-0.126833399628,0.0,0.0139269744913,0.0,-0.0296167227904,0.0,-2.39993889338,0.0,-0.299047291644,0.0,-0.012231610929,0.0,-0.0269017620716,0.0,0.047956751787,-0.0,-0.016116358228,0.0,0.337709981271,-0.19125280537,-0.396013829843,6.66778516031,11.6412490179,-1.03086430711,-0.337709981271,0.19125280537,0.396013829843,0.00383600394174,75.0,-0.00690451462821,-75.0,-0.0,75.0,-0.0,-75.0,653607.678332,0.0,0.0,0.0,0.0,0.0,0.0
1403020931687294199,3,-9.77054240167,-9.56012115774,26.2060796484,12.5835788608,3.84419965527,0.0,-0.126833399628,0.0,0.0139269744913,0.0,-0.0296167227904,0.0,-2.39993889338,0.0,-0.299047291644,0.0,-0.012231610929,0.0,-0.0269017620716,0.0,0.047956751787,-0.0,-0.016116358228,0.0,0.337709981271,-0.19125280537,-0.396013829843,6.66778516031,11.6412490179,-1.03086430711,-0.337709981271,0.19125280537,0.396013829843,0.00383600394174,75.0,-0.00843897660331,-75.0,-0.0,75.0,-0.0,-75.0,653607.678332,0.0,0.0,0.0,0.0,0.0,0.0
1403020931707310715,3,-9.77227947723,-9.56012115774,26.2109454483,12.5835788608,3.83934205734,0.0,-0.13477292943,0.0,0.0262224126924,0.0,-0.0304691138451,0.0,-2.41253907651,0.0,-0.322170677524,0.0,-0.011178181159,0.0,-0.0146747928385,0.0,0.0473549457783,-0.0,-0.0281476854948,0.0,0.333662113884,-0.218069216942,-0.426616227665,6.66778516031,11.6412490179,-1.03086430711,-0.333662113884,0.218069216942,0.426616227665,0.00383600394174,75.0,-0.00843897660331,-75.0,-0.0,75.0,-0.0,-75.0,653316.775104,0.0,0.0,0.0,0.0,0.0,0.0
1403020931727505974,3,-9.77227947723,-9.56012115774,26.2109454483,12.5835788608,3.83934205734,0.0,-0.13477292943,0.0,0.0262224126924,0.0,-0.0304691138451,0.0,-2.41253907651,0.0,-0.322170677524,0.0,-0.011178181159,0.0,-0.0146747928385,0.0,0.0473549457783,-0.0,-0.0281476854948,0.0,0.333662113884,-0.218069216942,-0.426616227665,6.66778516031,11.6412490179,-1.03086430711,-0.333662113884,0.218069216942,0.426616227665,0.00383600394174,75.0,-0.00690451462821,-75.0,-0.0,75.0,-0.0,-75.0,653316.775104,0.0,0.0,0.0,0.0,0.0,0.0
1403020931747307138,3,-9.77375942003,-9.56012115774,26.2111977817,12.5835788608,3.83575458362,0.0,-0.137352845318,0.0,0.0238755974564,0.0,-0.0459276484982,0.0,-2.42497609192,0.0,-0.34805714974,0.0,-0.0111151312824,0.0,-0.0201082494444,0.0,0.04763953914,-0.0,-0.0409821584522,0.0,0.355332936659,-0.215502732339,-0.460161006437,6.66778516031,11.6412490179,-1.03086430711,-0.355332936659,0.215502732339,0.460161006437,0.00383600394174,75.0,-0.00690451462821,-75.0,-0.0,75.0,-0.0,-75.0,653547.511236,0.0,0.0,0.0,0.0,0.0,0.0
1403020931767274210,3,-9.77375942003,-9.56012115774,26.2111977817,12.5835788608,3.83575458362,0.0,-0.137352845318,0.0,0.0238755974564,0.0,-0.0459276484982,0.0,-2.42497609192,0.0,-0.34805714974,0.0,-0.0111151312824,0.0,-0.0201082494444,0.0,0.04763953914,-0.0,-0.0409821584522,0.0,0.355332936659,-0.215502732339,-0.460161006437,6.66778516031,11.6412490179,-1.03086430711,-0.355332936659,0.215502732339,0.460161006437,0.00383600394174,75.0,-0.00690451462821,-75.0,-0.0,75.0,-0.0,-75.0,653547.511236,0.0,0.0,0.0,0.0,0.0,0.0
1403020931787212758,3,-9.77959533975,-9.56012115774,26.2123245193,12.5835788608,3.83335349301,0.0,-0.14829641086,0.0,0.0240567271951,0.0,-0.045570742776,0.0,-2.4397397847,0.0,-0.363838276432,0.0,-0.0100885944786,0.0,0.0123541257704,0.0,0.0487428468181,-0.0,-0.0336467432837,0.0,0.393462713757,-0.22739810181,-0.482818611641,6.66778516031,11.6412490179,-1.03086430711,-0.393462713757,0.22739810181,0.482818611641,0.00383600394174,75.0,-0.00690451462821,-75.0,-0.0,75.0,-0.0,-75.0,653714.225126,0.0,0.0,0.0,0.0,0.0,0.0
1403020931807306073,3,-9.78784557355,-9.56012115774,26.2112627901,12.5835788608,3.83573120343,0.0,-0.159568403664,0.0,0.0267412650599,0.0,-0.0493915324632,0.0,-2.44427621587,0.0,-0.369046430709,0.0,-0.00907410650454,0.0,-0.0119638692405,0.0,0.0496787020294,-0.0,-0.0340593488684,0.0,0.422997061735,-0.245125199951,-0.48870391257,6.66778516031,11.6412490179,-1.03086430711,-0.422997061735,0.245125199951,0.48870391257,0.00383600394174,75.0,-0.00843897660331,-75.0,-0.0,75.0,-0.0,-75.0,653729.959084,0.0,0.0,0.0,0.0,0.0,0.0
1403020931827294166,3,-9.78784557355,-9.56012115774,26.2112627901,12.5835788608,3.83573120343,0.0,-0.159568403664,0.0,0.0267412650599,0.0,-0.0493915324632,0.0,-2.44427621587,0.0,-0.369046430709,0.0,-0.00907410650454,0.0,-0.0119638692405,0.0,0.0496787020294,-0.0,-0.0340593488684,0.0,0.422997061735,-0.245125199951,-0.48870391257,6.66778516031,11.6412490179,-1.03086430711,-0.422997061735,0.245125199951,0.48870391257,0.00383600394174,75.0,-0.00690451462821,-75.0,-0.0,75.0,-0.0,-75.0,653729.959084,0.0,0.0,0.0,0.0,0.0,0.0
1403020931847328349,3,-9.78967193054,-9.56012115774,26.2115297068,12.5835788608,3.83520342065,0.0,-0.161707023258,0.0,0.0239130549476,0.0,-0.045384433043,0.0,-2.4483948485,0.0,-0.381589961941,0.0,-0.00879443927775,0.0,-0.00124697085975,0.0,0.0499916978109,-0.0,-0.0384753803323,0.0,0.437501181507,-0.242739030388,-0.505623564678,6.66778516031,11.6412490179,-1.03086430711,-0.437501181507,0.242739030388,0.505623564678,0.00383600394174,75.0,-0.00843897660331,-75.0,-0.0,75.0,-0.0,-75.0,653885.959457,0.0,0.0,0.0,0.0,0.0,0.0
1403020931867262803,3,-9.78967193054,-9.56012115774,26.2115297068,12.5835788608,3.83520342065,0.0,-0.161707023258,0.0,0.0239130549476,0.0,-0.045384433043,0.0,-2.4483948485,0.0,-0.381589961941,0.0,-0.00879443927775,0.0,-0.00124697085975,0.0,0.0499916978109,-0.0,-0.0384753803323,0.0,0.437501181507,-0.242739030388,-0.505623564678,6.66778516031,11.6412490179,-1.03086430711,-0.437501181507,0.242739030388,0.505623564678,0.00383600394174,75.0,-0.00843897660331,-75.0,-0.0,75.0,-0.0,-75.0,653885.959457,0.0,0.0,0.0,0.0,0.0,0.0
1403020931887365447,3,-9.79993494466,-9.56012115774,26.2131180731,12.5835788608,3.83217156474,0.0,-0.178382059907,0.0,0.0305175861338,0.0,-0.054331946915,0.0,-2.47237615324,0.0,-0.403998997515,0.0,-0.00729248978036,0.0,-0.0180365487234,0.0,0.0518810441519,-0.0,-0.0474295470287,0.0,0.485067078152,-0.268489707938,-0.534166257181,6.66778516031,11.6412490179,-1.03086430711,-0.485067078152,0.268489707938,0.534166257181,0.00383600394174,75.0,-0.00843897660331,-75.0,-0.0,75.0,-0.0,-75.0,653976.135067,0.0,0.0,0.0,0.0,0.0,0.0
1403020931907266193,3,-9.79993494466,-9.56012115774,26.2131180731,12.5835788608,3.83217156474,0.0,-0.178382059907,0.0,0.0305175861338,0.0,-0.054331946915,0.0,-2.47237615324,0.0,-0.403998997515,0.0,-0.00729248978036,0.0,-0.0180365487234,0.0,0.0518810441519,-0.0,-0.0474295470287,0.0,0.485067078152,-0.268489707938,-0.534166257181,6.66778516031,11.6412490179,-1.03086430711,-0.485067078152,0.268489707938,0.534166257181,0.00383600394174,75.0,-0.00843897660331,-75.0,-0.0,75.0,-0.0,-75.0,653976.135067,0.0,0.0,0.0,0.0,0.0,0.0
1403020931927524114,3,-9.80559831813,-9.56012115774,26.2061806797,12.5835788608,3.83847100374,0.0,-0.175128884479,0.0,0.014706297552,0.0,-0.0470191004777,0.0,-2.48777743663,0.0,-0.418553357353,0.0,-0.00928437352386,0.0,0.00203278669097,0.0,0.0534159027659,-0.0,-0.0307143736412,0.0,0.518562701818,-0.235627248445,-0.555205068769,6.66778516031,11.6412490179,-1.03086430711,-0.518562701818,0.235627248445,0.555205068769,0.00383600394174,75.0,-0.00843897660331,-75.0,-0.0,75.0,-0.0,-75.0,654623.709804,0.0,0.0,0.0,0.0,0.0,0.0
1403020931947274125,3,-9.80559831813,-9.56012115774,26.2061806797,12.5835788608,3.83847100374,0.0,-0.175128884479,0.0,0.014706297552,0.0,-0.0470191004777,0.0,-2.48777743663,0.0,-0.418553357353,0.0,-0.00928437352386,0.0,0.00203278669097,0.0,0.0534159027659,-0.0,-0.0307143736412,0.0,0.518562701818,-0.235627248445,-0.555205068769,6.66778516031,11.6412490179,-1.03086430711,-0.518562701818,0.235627248445,0.555205068769,0.00383600394174,75.0,-0.00843897660331,-75.0,-0.0,75.0,-0.0,-75.0,654623.709804,0.0,0.0,0.0,0.0,0.0,0.0
1403020931967339111,3,-9.81419612382,-9.56012115774,26.2086227274,12.5835788608,3.85045636455,0.0,-0.179505502626,0.0,0.0315865566357,0.0,-0.0342611897032,0.0,-2.50575871709,0.0,-0.434277021855,0.0,-0.00748061066402,0.0,0.000703813831577,0.0,0.052953422053,-0.0,-0.0293613186987,0.0,0.499134527237,-0.263606091462,-0.576244400652,6.66778516031,11.6412490179,-1.03086430711,-0.499134527237,0.263606091462,0.576244400652,0.00383600394174,75.0,-0.00843897660331,-75.0,-0.0,75.0,-0.0,-75.0,654199.147384,0.0,0.0,0.0,0.0,0.0,0.0
1403020931987332273,3,-9.81419612382,-9.56012115774,26.2086227274,12.5835788608,3.85045636455,0.0,-0.179505502626,0.0,0.0315865566357,0.0,-0.0342611897032,0.0,-2.50575871709,0.0,-0.434277021855,0.0,-0.00748061066402,0.0,0.000703813831577,0.0,0.052953422053,-0.0,-0.0293613186987,0.0,0.499134527237,-0.263606091462,-0.576244400652,6.66778516031,11.6412490179,-1.03086430711,-0.499134527237,0.263606091462,0.576244400652,0.00537022749826,75.0,-0.00843897660331,-75.0,-0.0,75.0,-0.0,-75.0,654199.147384,0.0,0.0,0.0,0.0,0.0,0.0
1403020932007369130,3,-9.82488149233,-9.56012115774,26.206327904,12.5835788608,3.83918360418,0.0,-0.195070602162,0.0,0.0158158301988,0.0,-0.0386197071625,0.0,-2.52415052955,0.0,-0.449895006244,0.0,-0.00911429968808,0.0,0.015952551693,0.0,0.0559965413309,-0.0,-0.00558805043858,0.0,0.592415533744,-0.251103674995,-0.598901990577,6.66778516031,11.6412490179,-1.03086430711,-0.592415533744,0.251103674995,0.598901990577,0.00383600394174,75.0,-0.00843897660331,-75.0,-0.0,75.0,-0.0,-75.0,655051.031618,0.0,0.0,0.0,0.0,0.0,0.0
1403020932027295480,3,-9.82488149233,-9.56012115774,26.206327904,12.5835788608,3.83918360418,0.0,-0.195070602162,0.0,0.0158158301988,0.0,-0.0386197071625,0.0,-2.52415052955,0.0,-0.449895006244,0.0,-0.00911429968808,0.0,0.015952551693,0.0,0.0559965413309,-0.0,-0.00558805043858,0.0,0.592415533744,-0.251103674995,-0.598901990577,6.66778516031,11.6412490179,-1.03086430711,-0.592415533744,0.251103674995,0.598901990577,0.00383600394174,75.0,-0.00843897660331,-75.0,-0.0,75.0,-0.0,-75.0,655051.031618,0.0,0.0,0.0,0.0,0.0,0.0
1403020932047347986,3,-9.83459851099,-9.56012115774,26.2009811022,12.5835788608,3.85399296398,0.0,-0.189238669227,0.0,0.0141287214017,0.0,-0.0357554571182,0.0,-2.54588715206,0.0,-0.455711300864,0.0,-0.0112385807491,0.0,0.0286158039572,0.0,0.055722311883,-0.0,0.0189318579315,0.0,0.5873137374,-0.23511997433,-0.608612005856,6.66778516031,11.6412490179,-1.03086430711,-0.5873137374,0.23511997433,0.608612005856,0.00383600394174,75.0,-0.00843897660331,-75.0,-0.0,75.0,-0.0,-75.0,655212.061177,0.0,0.0,0.0,0.0,0.0,0.0
1403020932067600056,3,-9.83459851099,-9.56012115774,26.2009811022,12.5835788608,3.85399296398,0.0,-0.189238669227,0.0,0.0141287214017,0.0,-0.0357554571182,0.0,-2.54588715206,0.0,-0.455711300864,0.0,-0.0112385807491,0.0,0.0286158039572,0.0,0.055722311883,-0.0,0.0189318579315,0.0,0.5873137374,-0.23511997433,-0.608612005856,6.66778516031,11.6412490179,-1.03086430711,-0.5873137374,0.23511997433,0.608612005856,0.00383600394174,75.0,-0.00843897660331,-75.0,-0.0,75.0,-0.0,-75.0,655212.061177,0.0,0.0,0.0,0.0,0.0,0.0
1403020932087259779,3,-9.8407042835,-9.56012115774,26.2015949884,12.5835788608,3.85267622329,0.0,-0.196467252108,0.0,0.015177340972,0.0,-0.0331182253033,0.0,-2.56061866683,0.0,-0.460076949972,0.0,-0.0114058911594,0.0,0.0297612531959,0.0,0.0559838537588,-0.0,0.00535114038358,0.0,0.613926954594,-0.240460909748,-0.613761450786,6.66778516031,11.6412490179,-1.03086430711,-0.613926954594,0.240460909748,0.613761450786,0.00383600394174,75.0,-0.00843897660331,-75.0,-0.0,75.0,-0.0,-75.0,655353.047347,0.0,0.0,0.0,0.0,0.0,0.0
1403020932107288750,3,-9.8407042835,-9.56012115774,26.2015949884,12.5835788608,3.85267622329,0.0,-0.196467252108,0.0,0.015177340972,0.0,-0.0331182253033,0.0,-2.56061866683,0.0,-0.460076949972,0.0,-0.0114058911594,0.0,0.0297612531959,0.0,0.0559838537588,-0.0,0.00535114038358,0.0,0.613926954594,-0.240460909748,-0.613761450786,6.66778516031,11.6412490179,-1.03086430711,-0.613926954594,0.240460909748,0.613761450786,0.00383600394174,75.0,-0.00843897660331,-75.0,-0.0,75.0,-0.0,-75.0,655353.047347,0.0,0.0,0.0,0.0,0.0,0.0
1403020932127794899,3,-9.85065032366,-9.56012115774,26.1995437857,12.5835788608,3.85769519956,0.0,-0.198280979969,0.0,0.016356206045,0.0,-0.0404018727742,0.0,-2.57970179321,0.0,-0.472904257639,0.0,-0.0125566755606,0.0,0.0303186588421,0.0,0.0556618132751,-0.0,0.0269135299409,0.0,0.627403866319,-0.238156407885,-0.632005163423,6.66778516031,11.6412490179,-1.03086430711,-0.627403866319,0.238156407885,0.632005163423,0.00383600394174,75.0,-0.00997320015982,-75.0,-0.0,75.0,-0.0,-75.0,655507.719441,0.0,0.0,0.0,0.0,0.0,0.0
1403020932147445360,3,-9.85065032366,-9.56012115774,26.1995437857,12.5835788608,3.85769519956,0.0,-0.198280979969,0.0,0.016356206045,0.0,-0.0404018727742,0.0,-2.57970179321,0.0,-0.472904257639,0.0,-0.0125566755606,0.0,0.0303186588421,0.0,0.0556618132751,-0.0,0.0269135299409,0.0,0.627403866319,-0.238156407885,-0.632005163423,6.66778516031,11.6412490179,-1.03086430711,-0.627403866319,0.238156407885,0.632005163423,0.00383600394174,75.0,-0.00997320015982,-75.0,-0.0,75.0,-0.0,-75.0,655507.719441,0.0,0.0,0.0,0.0,0.0,0.0
1403020932167329793,3,-9.86428787353,-9.56012115774,26.1936585515,12.5835788608,3.86784097716,0.0,-0.206004120653,0.0,0.0132326224404,0.0,-0.0397575047583,0.0,-2.59898756866,0.0,-0.486293733425,0.0,-0.014352521447,0.0,0.0289215545832,0.0,0.0557980950476,-0.0,0.0280670318999,0.0,0.666747973163,-0.234519880429,-0.649807463186,6.66778516031,11.6412490179,-1.03086430711,-0.666747973163,0.234519880429,0.649807463186,0.00537022749826,75.0,-0.00843897660331,-75.0,-0.0,75.0,-0.0,-75.0,655866.75175,0.0,0.0,0.0,0.0,0.0,0.0
1403020932187274995,3,-9.86428787353,-9.56012115774,26.1936585515,12.5835788608,3.86784097716,0.0,-0.206004120653,0.0,0.0132326224404,0.0,-0.0397575047583,0.0,-2.59898756866,0.0,-0.486293733425,0.0,-0.014352521447,0.0,0.0289215545832,0.0,0.0557980950476,-0.0,0.0280670318999,0.0,0.666747973163,-0.234519880429,-0.649807463186,6.66778516031,11.6412490179,-1.03086430711,-0.666747973163,0.234519880429,0.649807463186,0.00537022749826,75.0,-0.00997320015982,-75.0,-0.0,75.0,-0.0,-75.0,655866.75175,0.0,0.0,0.0,0.0,0.0,0.0
1403020932207289410,3,-9.88267997893,-9.56012115774,26.1843391223,12.5835788608,3.88498980371,0.0,-0.220426179328,0.0,0.00878979266807,0.0,-0.0295844847556,0.0,-2.61930788941,0.0,-0.498653878362,0.0,-0.0161674805789,0.0,0.00101870332957,0.0,0.0564449803805,-0.0,0.00312431758874,0.0,0.728475742905,-0.234514912439,-0.66334309054,6.66778516031,11.6412490179,-1.03086430711,-0.728475742905,0.234514912439,0.66334309054,0.00383600394174,75.0,-0.00843897660331,-75.0,-0.0,75.0,-0.0,-75.0,656344.298504,0.0,0.0,0.0,0.0,0.0,0.0
1403020932227459240,3,-9.88267997893,-9.56012115774,26.1843391223,12.5835788608,3.88498980371,0.0,-0.220426179328,0.0,0.00878979266807,0.0,-0.0295844847556,0.0,-2.61930788941,0.0,-0.498653878362,0.0,-0.0161674805789,0.0,0.00101870332957,0.0,0.0564449803805,-0.0,0.00312431758874,0.0,0.728475742905,-0.234514912439,-0.66334309054,6.66778516031,11.6412490179,-1.03086430711,-0.728475742905,0.234514912439,0.66334309054,0.00383600394174,75.0,-0.00997320015982,-75.0,-0.0,75.0,-0.0,-75.0,656344.298504,0.0,0.0,0.0,0.0,0.0,0.0
1403020932247400837,3,-9.89176918333,-9.56012115774,26.1847237774,12.5835788608,3.88367442261,0.0,-0.224002935618,0.0,0.0106374499033,0.0,-0.0267330452616,0.0,-2.63984404383,0.0,-0.50605441794,0.0,-0.0175509472069,0.0,0.023263832097,0.0,0.0560071025282,-0.0,0.0237974496837,0.0,0.745051020469,-0.233528137939,-0.675554649436,6.66778516031,11.6412490179,-1.03086430711,-0.745051020469,0.233528137939,0.675554649436,0.00383600394174,75.0,-0.00997320015982,-75.0,-0.0,75.0,-0.0,-75.0,656499.050787,0.0,0.0,0.0,0.0,0.0,0.0
1403020932267274849,3,-9.90092872212,-9.56012115774,26.1839438031,12.5835788608,3.88930780601,0.0,-0.233008151819,0.0,0.0225185040601,0.0,-0.029642035952,0.0,-2.64587516573,0.0,-0.517714380809,0.0,-0.0165258745339,0.0,-0.00655629790489,0.0,0.0562017688366,-0.0,-0.000744343175866,0.0,0.756714582301,-0.260629279161,-0.688060689595,6.66778516031,11.6412490179,-1.03086430711,-0.756714582301,0.260629279161,0.688060689595,0.00383600394174,75.0,-0.00997320015982,-75.0,-0.0,75.0,-0.0,-75.0,656298.202605,0.0,0.0,0.0,0.0,0.0,0.0
1403020932287294734,3,-9.90092872212,-9.56012115774,26.1839438031,12.5835788608,3.88930780601,0.0,-0.233008151819,0.0,0.0225185040601,0.0,-0.029642035952,0.0,-2.64587516573,0.0,-0.517714380809,0.0,-0.0165258745339,0.0,-0.00655629790489,0.0,0.0562017688366,-0.0,-0.000744343175866,0.0,0.756714582301,-0.260629279161,-0.688060689595,6.66778516031,11.6412490179,-1.03086430711,-0.756714582301,0.260629279161,0.688060689595,0.00383600394174,75.0,-0.00997320015982,-75.0,-0.0,75.0,-0.0,-75.0,656298.202605,0.0,0.0,0.0,0.0,0.0,0.0
1403020932307489396,3,-9.90350107355,-9.56012115774,26.1841616219,12.5835788608,3.88895172341,0.0,-0.232782601824,0.0,0.0210942941408,0.0,-0.0346806013547,0.0,-2.6514906007,0.0,-0.510278893263,0.0,-0.0170388004494,0.0,0.0355535285786,0.0,0.0560732204722,-0.0,0.0323669303811,0.0,0.76221708543,-0.255527440304,-0.682322713314,6.66778516031,11.6412490179,-1.03086430711,-0.76221708543,0.255527440304,0.682322713314,0.00383600394174,75.0,-0.00997320015982,-75.0,-0.0,75.0,-0.0,-75.0,656387.29949,0.0,0.0,0.0,0.0,0.0,0.0
1403020932327495214,3,-9.90845347779,-9.56012115774,26.1844958631,12.5835788608,3.88851552981,0.0,-0.237406791623,0.0,0.0253873117764,0.0,-0.0305401058937,0.0,-2.66234798137,0.0,-0.521445147609,0.0,-0.0177313187988,0.0,0.0272637758744,0.0,0.0560839540843,-0.0,0.0195075134089,0.0,0.774349767391,-0.263268079512,-0.696005557218,6.66778516031,11.6412490179,-1.03086430711,-0.774349767391,0.263268079512,0.696005557218,0.00383600394174,75.0,-0.00997320015982,-75.0,-0.0,75.0,-0.0,-75.0,656412.951022,0.0,0.0,0.0,0.0,0.0,0.0
1403020932347505866,3,-9.91474934997,-9.56012115774,26.1780727461,12.5835788608,3.9107904628,0.0,-0.217130588193,0.0,0.0311173668544,0.0,-0.016068185456,0.0,-2.68227004511,0.0,-0.532011142874,0.0,-0.0202616104556,0.0,0.0136568414166,0.0,0.0533082619928,-0.0,-0.00315659419903,0.0,0.703832522189,-0.247999375546,-0.708069665851,6.66778516031,11.6412490179,-1.03086430711,-0.703832522189,0.247999375546,0.708069665851,0.00383600394174,75.0,-0.00997320015982,-75.0,-0.0,75.0,-0.0,-75.0,656085.388016,0.0,0.0,0.0,0.0,0.0,0.0
1403020932367685538,3,-9.91474934997,-9.56012115774,26.1780727461,12.5835788608,3.9107904628,0.0,-0.217130588193,0.0,0.0311173668544,0.0,-0.016068185456,0.0,-2.68227004511,0.0,-0.532011142874,0.0,-0.0202616104556,0.0,0.0136568414166,0.0,0.0533082619928,-0.0,-0.00315659419903,0.0,0.703832522189,-0.247999375546,-0.708069665851,6.66778516031,11.6412490179,-1.03086430711,-0.703832522189,0.247999375546,0.708069665851,0.00383600394174,75.0,-0.00997320015982,-75.0,-0.0,75.0,-0.0,-75.0,656085.388016,0.0,0.0,0.0,0.0,0.0,0.0
1403020932387291798,3,-9.93729193746,-9.56012115774,26.1698163287,12.5835788608,3.92496821058,0.0,-0.230039747916,0.0,0.0265295533933,0.0,-0.0259944391449,0.0,-2.70357121923,0.0,-0.529846356574,0.0,-0.021799241731,0.0,0.0442868269103,0.0,0.0545452873256,-0.0,0.0272065332829,0.0,0.766328066538,-0.242471031517,-0.708510958234,6.66778516031,11.6412490179,-1.03086430711,-0.766328066538,0.242471031517,0.708510958234,0.00383600394174,75.0,-0.00997320015982,-75.0,-0.0,75.0,-0.0,-75.0,656611.802683,0.0,0.0,0.0,0.0,0.0,0.0
1403020932407680315,3,-9.93729193746,-9.56012115774,26.1698163287,12.5835788608,3.92496821058,0.0,-0.230039747916,0.0,0.0265295533933,0.0,-0.0259944391449,0.0,-2.70357121923,0.0,-0.529846356574,0.0,-0.021799241731,0.0,0.0442868269103,0.0,0.0545452873256,-0.0,0.0272065332829,0.0,0.766328066538,-0.242471031517,-0.708510958234,6.66778516031,11.6412490179,-1.03086430711,-0.766328066538,0.242471031517,0.708510958234,0.00383600394174,75.0,-0.00997320015982,-75.0,-0.0,75.0,-0.0,-75.0,656611.802683,0.0,0.0,0.0,0.0,0.0,0.0
1403020932427304523,3,-9.95547807364,-9.56012115774,26.1597291859,12.5835788608,3.93590125023,0.0,-0.235002455343,0.0,0.0181255118085,0.0,-0.0365909715929,0.0,-2.72450989425,0.0,-0.541669900304,0.0,-0.0245934759278,0.0,0.0308623037337,0.0,0.0551999774452,-0.0,0.0245385796654,0.0,0.807185856402,-0.222238646666,-0.723370441132,6.66778516031,11.6412490179,-1.03086430711,-0.807185856402,0.222238646666,0.723370441132,0.00383600394174,75.0,-0.00997320015982,-75.0,-0.0,75.0,-0.0,-75.0,657173.164555,0.0,0.0,0.0,0.0,0.0,0.0
1403020932447241995,3,-9.95547807364,-9.56012115774,26.1597291859,12.5835788608,3.93590125023,0.0,-0.235002455343,0.0,0.0181255118085,0.0,-0.0365909715929,0.0,-2.72450989425,0.0,-0.541669900304,0.0,-0.0245934759278,0.0,0.0308623037337,0.0,0.0551999774452,-0.0,0.0245385796654,0.0,0.807185856402,-0.222238646666,-0.723370441132,6.66778516031,11.6412490179,-1.03086430711,-0.807185856402,0.222238646666,0.723370441132,0.00383600394174,75.0,-0.00997320015982,-75.0,-0.0,75.0,-0.0,-75.0,657173.164555,0.0,0.0,0.0,0.0,0.0,0.0
1403020932467309391,3,-9.97222288687,-9.56012115774,26.1507772479,12.5835788608,3.96746119892,0.0,-0.230918133891,0.0,0.0353449776051,0.0,-0.0311344325446,0.0,-2.74694319045,0.0,-0.550435060513,0.0,-0.0246427291093,0.0,-0.0186557342604,0.0,0.0537226852315,-0.0,-0.0141885495067,0.0,0.776605921475,-0.241747352758,-0.73013833236,6.66778516031,11.6412490179,-1.03086430711,-0.776605921475,0.241747352758,0.73013833236,0.00383600394174,75.0,-0.00997320015982,-75.0,-0.0,75.0,-0.0,-75.0,656734.363544,0.0,0.0,0.0,0.0,0.0,0.0
1403020932487302498,3,-9.97222288687,-9.56012115774,26.1507772479,12.5835788608,3.96746119892,0.0,-0.230918133891,0.0,0.0353449776051,0.0,-0.0311344325446,0.0,-2.74694319045,0.0,-0.550435060513,0.0,-0.0246427291093,0.0,-0.0186557342604,0.0,0.0537226852315,-0.0,-0.0141885495067,0.0,0.776605921475,-0.241747352758,-0.73013833236,6.66778516031,11.6412490179,-1.03086430711,-0.776605921475,0.241747352758,0.73013833236,0.00383600394174,75.0,-0.00997320015982,-75.0,-0.0,75.0,-0.0,-75.0,656734.363544,0.0,0.0,0.0,0.0,0.0,0.0
1403020932507794780,3,-9.99898737695,-9.56012115774,26.1491252629,12.5835788608,3.9848063496,0.0,-0.248929299331,0.0,0.0550509480575,0.0,-0.0256282904977,0.0,-2.77708999482,0.0,-0.55635820148,0.0,-0.021674740282,0.0,-0.0488237332152,0.0,0.0546536700662,-0.0,-0.0273269800616,0.0,0.8249754681,-0.279676444739,-0.735582392326,6.66778516031,11.6412490179,-1.03086430711,-0.8249754681,0.279676444739,0.735582392326,0.00383600394174,75.0,-0.00997320015982,-75.0,-0.0,75.0,-0.0,-75.0,656673.563556,0.0,0.0,0.0,0.0,0.0,0.0
1403020932527388232,3,-9.99898737695,-9.56012115774,26.1491252629,12.5835788608,3.9848063496,0.0,-0.248929299331,0.0,0.0550509480575,0.0,-0.0256282904977,0.0,-2.77708999482,0.0,-0.55635820148,0.0,-0.021674740282,0.0,-0.0488237332152,0.0,0.0546536700662,-0.0,-0.0273269800616,0.0,0.8249754681,-0.279676444739,-0.735582392326,6.66778516031,11.6412490179,-1.03086430711,-0.8249754681,0.279676444739,0.735582392326,0.00383600394174,75.0,-0.00997320015982,-75.0,-0.0,75.0,-0.0,-75.0,656673.563556,0.0,0.0,0.0,0.0,0.0,0.0
1403020932547432959,3,-10.0014433869,-9.56012115774,26.1496690028,12.5835788608,3.98446448321,0.0,-0.247321446884,0.0,0.0530003872916,0.0,-0.0297158942592,0.0,-2.7825296924,0.0,-0.546787067263,0.0,-0.021691631799,0.0,0.000405510959127,0.0,0.0546193491213,-0.0,0.00384059395367,0.0,0.825703649944,-0.272209678792,-0.727343250159,6.66778516031,11.6412490179,-1.03086430711,-0.825703649944,0.272209678792,0.727343250159,0.00383600394174,75.0,-0.00997320015982,-75.0,-0.0,75.0,-0.0,-75.0,656749.361929,0.0,0.0,0.0,0.0,0.0,0.0
1403020932567389409,3,-10.0014433869,-9.56012115774,26.1496690028,12.5835788608,3.98446448321,0.0,-0.247321446884,0.0,0.0530003872916,0.0,-0.0297158942592,0.0,-2.7825296924,0.0,-0.546787067263,0.0,-0.021691631799,0.0,0.000405510959127,0.0,0.0546193491213,-0.0,0.00384059395367,0.0,0.825703649944,-0.272209678792,-0.727343250159,6.66778516031,11.6412490179,-1.03086430711,-0.825703649944,0.272209678792,0.727343250159,0.00383600394174,75.0,-0.00997320015982,-75.0,-0.0,75.0,-0.0,-75.0,656749.361929,0.0,0.0,0.0,0.0,0.0,0.0
1403020932587431643,3,-10.0358371139,-9.56012115774,26.1392523256,12.5835788608,4.03489582841,0.0,-0.258782964314,0.0,0.0749619547087,0.0,-0.00366233559212,0.0,-2.81882221508,0.0,-0.5697224667,0.0,-0.0173285304621,0.0,-0.0494512864992,0.0,0.0547190548489,-0.0,-0.0242506816973,0.0,0.852533744964,-0.306598651365,-0.753532298166,6.66778516031,11.6412490179,-1.03086430711,-0.852533744964,0.306598651365,0.753532298166,0.00383600394174,75.0,-0.0115079005535,-75.0,-0.0,75.0,-0.0,-75.0,656606.783307,0.0,0.0,0.0,0.0,0.0,0.0
1403020932607342576,3,-10.0358371139,-9.56012115774,26.1392523256,12.5835788608,4.03489582841,0.0,-0.258782964314,0.0,0.0749619547087,0.0,-0.00366233559212,0.0,-2.81882221508,0.0,-0.5697224667,0.0,-0.0173285304621,0.0,-0.0494512864992,0.0,0.0547190548489,-0.0,-0.0242506816973,0.0,0.852533744964,-0.306598651365,-0.753532298166,6.66778516031,11.6412490179,-1.03086430711,-0.852533744964,0.306598651365,0.753532298166,0.00383600394174,75.0,-0.00997320015982,-75.0,-0.0,75.0,-0.0,-75.0,656606.783307,0.0,0.0,0.0,0.0,0.0,0.0
1403020932627373112,3,-10.0501318878,-9.56012115774,26.1322115886,12.5835788608,4.0434446657,0.0,-0.258812462214,0.0,0.0635476289189,0.0,0.00157995847392,0.0,-2.84020742468,0.0,-0.580392682842,0.0,-0.0181041692681,0.0,-0.0531560941826,0.0,0.0549693540588,-0.0,-0.0257225485385,0.0,0.875833882703,-0.275486232882,-0.767361821267,6.66778516031,11.6412490179,-1.03086430711,-0.875833882703,0.275486232882,0.767361821267,0.00383600394174,75.0,-0.00997320015982,-75.0,-0.0,75.0,-0.0,-75.0,657160.18458,0.0,0.0,0.0,0.0,0.0,0.0
1403020932647314581,3,-10.0501318878,-9.56012115774,26.1322115886,12.5835788608,4.0434446657,0.0,-0.258812462214,0.0,0.0635476289189,0.0,0.00157995847392,0.0,-2.84020742468,0.0,-0.580392682842,0.0,-0.0181041692681,0.0,-0.0531560941826,0.0,0.0549693540588,-0.0,-0.0257225485385,0.0,0.875833882703,-0.275486232882,-0.767361821267,6.66778516031,11.6412490179,-1.03086430711,-0.875833882703,0.275486232882,0.767361821267,0.00383600394174,75.0,-0.00997320015982,-75.0,-0.0,75.0,-0.0,-75.0,657160.18458,0.0,0.0,0.0,0.0,0.0,0.0
1403020932667377095,3,-10.0641397407,-9.56012115774,26.1340021539,12.5835788608,4.04540719392,0.0,-0.263263879055,0.0,0.0726926185939,0.0,-0.00628397298067,0.0,-2.86400479051,0.0,-0.581245954876,0.0,-0.0159467486964,0.0,-0.0305417077687,0.0,0.0553102314486,-0.0,-0.00289438064577,0.0,0.895644852391,-0.284282719337,-0.770892897282,6.66778516031,11.6412490179,-1.03086430711,-0.895644852391,0.284282719337,0.770892897282,0.00383600394174,75.0,-0.00997320015982,-75.0,-0.0,75.0,-0.0,-75.0,657216.243044,0.0,0.0,0.0,0.0,0.0,0.0
1403020932687342747,3,-10.0641397407,-9.56012115774,26.1340021539,12.5835788608,4.04540719392,0.0,-0.263263879055,0.0,0.0726926185939,0.0,-0.00628397298067,0.0,-2.86400479051,0.0,-0.581245954876,0.0,-0.0159467486964,0.0,-0.0305417077687,0.0,0.0553102314486,-0.0,-0.00289438064577,0.0,0.895644852391,-0.284282719337,-0.770892897282,6.66778516031,11.6412490179,-1.03086430711,-0.895644852391,0.284282719337,0.770892897282,0.00383600394174,75.0,-0.0115079005535,-75.0,-0.0,75.0,-0.0,-75.0,657216.243044,0.0,0.0,0.0,0.0,0.0,0.0
1403020932707370998,3,-10.0770630966,-9.56012115774,26.1349340707,12.5835788608,4.05228166882,0.0,-0.264440168954,0.0,0.0851615861766,0.0,-0.00452889415076,0.0,-2.88871892665,0.0,-0.588486516622,0.0,-0.0135774290273,0.0,-0.0571491315976,0.0,0.0549284509682,-0.0,-0.0176370061884,0.0,0.900631737979,-0.297425350827,-0.778249300385,6.66778516031,11.6412490179,-1.03086430711,-0.900631737979,0.297425350827,0.778249300385,0.00383600394174,75.0,-0.00997320015982,-75.0,-0.0,75.0,-0.0,-75.0,657118.08089,0.0,0.0,0.0,0.0,0.0,0.0
1403020932727482834,3,-10.0770630966,-9.56012115774,26.1349340707,12.5835788608,4.05228166882,0.0,-0.264440168954,0.0,0.0851615861766,0.0,-0.00452889415076,0.0,-2.88871892665,0.0,-0.588486516622,0.0,-0.0135774290273,0.0,-0.0571491315976,0.0,0.0549284509682,-0.0,-0.0176370061884,0.0,0.900631737979,-0.297425350827,-0.778249300385,6.66778516031,11.6412490179,-1.03086430711,-0.900631737979,0.297425350827,0.778249300385,0.00383600394174,75.0,-0.00997320015982,-75.0,-0.0,75.0,-0.0,-75.0,657118.08089,0.0,0.0,0.0,0.0,0.0,0.0
1403020932747444650,3,-10.0909686666,-9.56012115774,26.1368005865,12.5835788608,4.06382966043,0.0,-0.255946461358,0.0,0.099714069108,0.0,-0.000338986956057,0.0,-2.91970328373,0.0,-0.602624619581,0.0,-0.0106966393801,0.0,-0.0774292582651,0.0,0.0535213467701,-0.0,-0.0124981405283,0.0,0.874247283342,-0.307428482291,-0.796051838077,6.66778516031,11.6412490179,-1.03086430711,-0.874247283342,0.307428482291,0.796051838077,0.00383600394174,75.0,-0.00997320015982,-75.0,-0.0,75.0,-0.0,-75.0,656837.681958,0.0,0.0,0.0,0.0,0.0,0.0
1403020932767254824,3,-10.0909686666,-9.56012115774,26.1368005865,12.5835788608,4.06382966043,0.0,-0.255946461358,0.0,0.099714069108,0.0,-0.000338986956057,0.0,-2.91970328373,0.0,-0.602624619581,0.0,-0.0106966393801,0.0,-0.0774292582651,0.0,0.0535213467701,-0.0,-0.0124981405283,0.0,0.874247283342,-0.307428482291,-0.796051838077,6.66778516031,11.6412490179,-1.03086430711,-0.874247283342,0.307428482291,0.796051838077,0.00383600394174,75.0,-0.00997320015982,-75.0,-0.0,75.0,-0.0,-75.0,656837.681958,0.0,0.0,0.0,0.0,0.0,0.0
1403020932787308605,3,-10.093555881,-9.56012115774,26.137741452,12.5835788608,4.06390240225,0.0,-0.255838289351,0.0,0.0968160531822,0.0,0.00937432973323,0.0,-2.92568489264,0.0,-0.6019212508,0.0,-0.0103096819815,0.0,-0.0367902269382,0.0,0.053562441512,-0.0,-0.0123735681559,0.0,0.877576771991,-0.299185137733,-0.797817363861,6.66778516031,11.6412490179,-1.03086430711,-0.877576771991,0.299185137733,0.797817363861,0.00383600394174,75.0,-0.0115079005535,-75.0,-0.0,75.0,-0.0,-75.0,656959.488202,0.0,0.0,0.0,0.0,0.0,0.0
1403020932807338513,3,-10.093555881,-9.56012115774,26.137741452,12.5835788608,4.06390240225,0.0,-0.255838289351,0.0,0.0968160531822,0.0,0.00937432973323,0.0,-2.92568489264,0.0,-0.6019212508,0.0,-0.0103096819815,0.0,-0.0367902269382,0.0,0.053562441512,-0.0,-0.0123735681559,0.0,0.877576771991,-0.299185137733,-0.797817363861,6.66778516031,11.6412490179,-1.03086430711,-0.877576771991,0.299185137733,0.797817363861,0.00383600394174,75.0,-0.00997320015982,-75.0,-0.0,75.0,-0.0,-75.0,656959.488202,0.0,0.0,0.0,0.0,0.0,0.0
1403020932827444378,3,-10.129828402,-9.56012115774,26.1213014547,12.5835788608,4.12026730212,0.0,-0.257278435686,0.0,0.106278781692,0.0,0.0152550714364,0.0,-2.96286094282,0.0,-0.611888436856,0.0,-0.00859653840608,0.0,-0.0391748868966,0.0,0.0534338186267,-0.0,-0.00759217939548,0.0,0.895206419925,-0.301116199699,-0.811058731202,6.66778516031,11.6412490179,-1.03086430711,-0.895206419925,0.301116199699,0.811058731202,0.00383600394174,75.0,-0.0115079005535,-75.0,-0.0,75.0,-0.0,-75.0,657095.067228,0.0,0.0,0.0,0.0,0.0,0.0
1403020932847349636,3,-10.129828402,-9.56012115774,26.1213014547,12.5835788608,4.12026730212,0.0,-0.257278435686,0.0,0.106278781692,0.0,0.0152550714364,0.0,-2.96286094282,0.0,-0.611888436856,0.0,-0.00859653840608,0.0,-0.0391748868966,0.0,0.0534338186267,-0.0,-0.00759217939548,0.0,0.895206419925,-0.301116199699,-0.811058731202,6.66778516031,11.6412490179,-1.03086430711,-0.895206419925,0.301116199699,0.811058731202,0.00383600394174,75.0,-0.00997320015982,-75.0,-0.0,75.0,-0.0,-75.0,657095.067228,0.0,0.0,0.0,0.0,0.0,0.0
1403020932867408185,3,-10.1404101496,-9.56012115774,26.1255878198,12.5835788608,4.12093413554,0.0,-0.257331558602,0.0,0.108547194343,0.0,0.0208407294431,0.0,-2.98779843666,0.0,-0.611664633274,0.0,-0.00784377215527,0.0,-0.00840874679433,0.0,0.0532876231292,-0.0,-0.00327451818252,0.0,0.906485054007,-0.29388859741,-0.812971375113,6.66778516031,11.6412490179,-1.03086430711,-0.906485054007,0.29388859741,0.812971375113,0.00383600394174,75.0,-0.00997320015982,-75.0,-0.0,75.0,-0.0,-75.0,657265.943907,0.0,0.0,0.0,0.0,0.0,0.0
1403020932887292310,3,-10.1404101496,-9.56012115774,26.1255878198,12.5835788608,4.12093413554,0.0,-0.257331558602,0.0,0.108547194343,0.0,0.0208407294431,0.0,-2.98779843666,0.0,-0.611664633274,0.0,-0.00784377215527,0.0,-0.00840874679433,0.0,0.0532876231292,-0.0,-0.00327451818252,0.0,0.906485054007,-0.29388859741,-0.812971375113,6.66778516031,11.6412490179,-1.03086430711,-0.906485054007,0.29388859741,0.812971375113,0.00383600394174,75.0,-0.0115079005535,-75.0,-0.0,75.0,-0.0,-75.0,657265.943907,0.0,0.0,0.0,0.0,0.0,0.0
1403020932907533852,3,-10.1658622628,-9.56012115774,26.1198945131,12.5835788608,4.13829771729,0.0,-0.269105844186,0.0,0.111189061702,0.0,0.00675631374005,0.0,-3.01194632612,0.0,-0.607904720631,0.0,-0.00774843116201,0.0,0.00532219362109,0.0,0.054453551866,-0.0,0.0104545357842,0.0,0.963025953731,-0.290402497859,-0.809145820341,6.66778516031,11.6412490179,-1.03086430711,-0.963025953731,0.290402497859,0.809145820341,0.00383600394174,75.0,-0.00997320015982,-75.0,-0.0,75.0,-0.0,-75.0,657728.316124,0.0,0.0,0.0,0.0,0.0,0.0
1403020932927434800,3,-10.1658622628,-9.56012115774,26.1198945131,12.5835788608,4.13829771729,0.0,-0.269105844186,0.0,0.111189061702,0.0,0.00675631374005,0.0,-3.01194632612,0.0,-0.607904720631,0.0,-0.00774843116201,0.0,0.00532219362109,0.0,0.054453551866,-0.0,0.0104545357842,0.0,0.963025953731,-0.290402497859,-0.809145820341,6.66778516031,11.6412490179,-1.03086430711,-0.963025953731,0.290402497859,0.809145820341,0.00383600394174,75.0,-0.0115079005535,-75.0,-0.0,75.0,-0.0,-75.0,657728.316124,0.0,0.0,0.0,0.0,0.0,0.0
1403020932947485097,3,-10.1862582039,-9.56012115774,26.1173202747,12.5835788608,4.15590536754,0.0,-0.265868750177,0.0,0.123525466908,0.0,-0.0064747432861,0.0,-3.03675331781,0.0,-0.620179908318,0.0,-0.00746775068177,0.0,-0.00994239847076,0.0,0.0543370632596,-0.0,0.00604574081112,0.0,0.962053173258,-0.301438439927,-0.824299955982,6.66778516031,11.6412490179,-1.03086430711,-0.962053173258,0.301438439927,0.824299955982,0.00383600394174,75.0,-0.00997320015982,-75.0,-0.0,75.0,-0.0,-75.0,657623.685692,0.0,0.0,0.0,0.0,0.0,0.0
1403020932967577684,3,-10.1862582039,-9.56012115774,26.1173202747,12.5835788608,4.15590536754,0.0,-0.265868750177,0.0,0.123525466908,0.0,-0.0064747432861,0.0,-3.03675331781,0.0,-0.620179908318,0.0,-0.00746775068177,0.0,-0.00994239847076,0.0,0.0543370632596,-0.0,0.00604574081112,0.0,0.962053173258,-0.301438439927,-0.824299955982,6.66778516031,11.6412490179,-1.03086430711,-0.962053173258,0.301438439927,0.824299955982,0.00383600394174,75.0,-0.00997320015982,-75.0,-0.0,75.0,-0.0,-75.0,657623.685692,0.0,0.0,0.0,0.0,0.0,0.0
1403020932987312463,3,-10.2133717214,-9.56012115774,26.1072530267,12.5835788608,4.18441618797,0.0,-0.27393798474,0.0,0.121394839055,0.0,-0.00261772727228,0.0,-3.06071058,0.0,-0.619777156436,0.0,-0.00904643194287,0.0,0.0189889027788,0.0,0.0551131297035,-0.0,0.00461899838351,0.0,1.00379631988,-0.286464347403,-0.825771016139,6.66778516031,11.6412490179,-1.03086430711,-1.00379631988,0.286464347403,0.825771016139,0.00383600394174,75.0,-0.00997320015982,-75.0,-0.0,75.0,-0.0,-75.0,658115.696022,0.0,0.0,0.0,0.0,0.0,0.0
1403020933007211153,3,-10.2133717214,-9.56012115774,26.1072530267,12.5835788608,4.18441618797,0.0,-0.27393798474,0.0,0.121394839055,0.0,-0.00261772727228,0.0,-3.06071058,0.0,-0.619777156436,0.0,-0.00904643194287,0.0,0.0189889027788,0.0,0.0551131297035,-0.0,0.00461899838351,0.0,1.00379631988,-0.286464347403,-0.825771016139,6.66778516031,11.6412490179,-1.03086430711,-1.00379631988,0.286464347403,0.825771016139,0.00383600394174,75.0,-0.00997320015982,-75.0,-0.0,75.0,-0.0,-75.0,658115.696022,0.0,0.0,0.0,0.0,0.0,0.0
1403020933027240978,3,-10.2348829504,-9.56012115774,26.0974586483,12.5835788608,4.21525035573,0.0,-0.268173668059,0.0,0.11995243347,0.0,0.00141737974443,0.0,-3.08611386745,0.0,-0.626256791157,0.0,-0.0111338906027,0.0,0.0344339553426,0.0,0.0545575207177,-0.0,0.0114533913929,0.0,0.995348511756,-0.269608273727,-0.835628485126,6.66778516031,11.6412490179,-1.03086430711,-0.995348511756,0.269608273727,0.835628485126,0.00383600394174,75.0,-0.0115079005535,-75.0,-0.0,75.0,-0.0,-75.0,658260.813117,0.0,0.0,0.0,0.0,0.0,0.0
1403020933047760822,3,-10.2348829504,-9.56012115774,26.0974586483,12.5835788608,4.21525035573,0.0,-0.268173668059,0.0,0.11995243347,0.0,0.00141737974443,0.0,-3.08611386745,0.0,-0.626256791157,0.0,-0.0111338906027,0.0,0.0344339553426,0.0,0.0545575207177,-0.0,0.0114533913929,0.0,0.995348511756,-0.269608273727,-0.835628485126,6.66778516031,11.6412490179,-1.03086430711,-0.995348511756,0.269608273727,0.835628485126,0.00383600394174,75.0,-0.00997320015982,-75.0,-0.0,75.0,-0.0,-75.0,658260.813117,0.0,0.0,0.0,0.0,0.0,0.0
1403020933067617173,3,-10.2650766777,-9.56012115774,26.0912909076,12.5835788608,4.25840222111,0.0,-0.271811303913,0.0,0.146730036366,0.0,0.00872615554293,0.0,-3.11305903988,0.0,-0.633527301757,0.0,-0.0100059940122,0.0,0.0142665091872,0.0,0.0553956298486,-0.0,-0.00374803571751,0.0,1.01695546565,-0.309305330601,-0.843573501829,6.66778516031,11.6412490179,-1.03086430711,-1.01695546565,0.309305330601,0.843573501829,0.00383600394174,75.0,-0.00997320015982,-75.0,-0.0,75.0,-0.0,-75.0,657990.85166,0.0,0.0,0.0,0.0,0.0,0.0
1403020933087289931,3,-10.2650766777,-9.56012115774,26.0912909076,12.5835788608,4.25840222111,0.0,-0.271811303913,0.0,0.146730036366,0.0,0.00872615554293,0.0,-3.11305903988,0.0,-0.633527301757,0.0,-0.0100059940122,0.0,0.0142665091872,0.0,0.0553956298486,-0.0,-0.00374803571751,0.0,1.01695546565,-0.309305330601,-0.843573501829,6.66778516031,11.6412490179,-1.03086430711,-1.01695546565,0.309305330601,0.843573501829,0.00383600394174,75.0,-0.00997320015982,-75.0,-0.0,75.0,-0.0,-75.0,657990.85166,0.0,0.0,0.0,0.0,0.0,0.0
1403020933107219538,3,-10.2901773841,-9.56012115774,26.0920020427,12.5835788608,4.25325103872,0.0,-0.289047958009,0.0,0.146894860969,0.0,0.00459476874155,0.0,-3.1366459571,0.0,-0.626883273311,0.0,-0.012286550549,0.0,0.0342840614414,0.0,0.0577214721595,-0.0,-0.0019451272706,0.0,1.09226270425,-0.297144818563,-0.83621662131,6.66778516031,11.6412490179,-1.03086430711,-1.09226270425,0.297144818563,0.83621662131,0.00383600394174,75.0,-0.00997320015982,-75.0,-0.0,75.0,-0.0,-75.0,658696.517069,0.0,0.0,0.0,0.0,0.0,0.0
1403020933127492607,3,-10.2931560045,-9.56012115774,26.0936413949,12.5835788608,4.25305383442,0.0,-0.286411098377,0.0,0.153492513485,0.0,-0.00222026086662,0.0,3.14029548185,0.0,-0.624184078711,0.0,-0.0124805249292,0.0,0.0193626363463,0.0,0.0576378257149,-0.0,0.00843096476036,0.0,1.0875715541,-0.306574650198,-0.831655667361,6.66778516031,11.6412490179,-1.03086430711,-1.0875715541,0.306574650198,0.831655667361,0.00383600394174,75.0,-0.0115079005535,-75.0,-0.0,75.0,-0.0,-75.0,658544.690722,0.0,0.0,0.0,0.0,0.0,0.0
1403020933147213092,3,-10.2931560045,-9.56012115774,26.0936413949,12.5835788608,4.25305383442,0.0,-0.286411098377,0.0,0.153492513485,0.0,-0.00222026086662,0.0,3.14029548185,0.0,-0.624184078711,0.0,-0.0124805249292,0.0,0.0193626363463,0.0,0.0576378257149,-0.0,0.00843096476036,0.0,1.0875715541,-0.306574650198,-0.831655667361,6.66778516031,11.6412490179,-1.03086430711,-1.0875715541,0.306574650198,0.831655667361,0.00383600394174,75.0,-0.00997320015982,-75.0,-0.0,75.0,-0.0,-75.0,658544.690722,0.0,0.0,0.0,0.0,0.0,0.0
1403020933167315655,3,-10.2959900699,-9.56012115774,26.0952231334,12.5835788608,4.25291337696,0.0,-0.287184786553,0.0,0.153330242591,0.0,-0.00364496347482,0.0,3.13404535828,0.0,-0.623822033809,0.0,-0.0129121042062,0.0,0.0431148333736,0.0,0.057651520204,-0.0,-0.0015280098625,0.0,1.09402403102,-0.302626708319,-0.832832684301,6.66778516031,11.6412490179,-1.03086430711,-1.09402403102,0.302626708319,0.832832684301,0.00383600394174,75.0,-0.00997320015982,-75.0,-0.0,75.0,-0.0,-75.0,658641.702139,0.0,0.0,0.0,0.0,0.0,0.0
1403020933187274391,3,-10.2959900699,-9.56012115774,26.0952231334,12.5835788608,4.25291337696,0.0,-0.287184786553,0.0,0.153330242591,0.0,-0.00364496347482,0.0,3.13404535828,0.0,-0.623822033809,0.0,-0.0129121042062,0.0,0.0431148333736,0.0,0.057651520204,-0.0,-0.0015280098625,0.0,1.09402403102,-0.302626708319,-0.832832684301,6.66778516031,11.6412490179,-1.03086430711,-1.09402403102,0.302626708319,0.832832684301,0.00383600394174,75.0,-0.0115079005535,-75.0,-0.0,75.0,-0.0,-75.0,658641.702139,0.0,0.0,0.0,0.0,0.0,0.0
1403020933207302785,3,-10.358229661,-9.56012115774,26.0676031199,12.5835788608,4.35198447034,0.0,-0.304338323014,0.0,0.172851691626,0.0,0.00279429709829,0.0,3.0967781963,0.0,-0.629793661539,0.0,-0.0127104702319,0.0,-0.00670135323925,0.0,0.0594036005777,-0.0,0.00641658812104,0.0,1.17588896631,-0.318603647987,-0.836952003273,6.66778516031,11.6412490179,-1.03086430711,-1.17588896631,0.318603647987,0.836952003273,0.00383600394174,75.0,-0.0115079005535,-75.0,-0.0,75.0,-0.0,-75.0,659107.129873,0.0,0.0,0.0,0.0,0.0,0.0
