rosbagTimestamp,control_method,x_current,x_desired,y_current,y_desired,x_velocity_current,x_velocity_desired,y_velocity_current,y_velocity_desired,yaw_current,yaw_desired,required_force_x,required_force_y,required_moment_z,resultant_force_x,resultant_force_y,resultant_moment_z,current_port_servo_angle,current_port_thruster_force,current_starboard_servo_angle,current_starboard_thruster_force,estimated_port_servo_angle,estimated_port_thruster_force,estimated_starboard_servo_angle,estimated_starboard_thruster_force,cost_value,step,user_defined_1,user_defined_2,user_defined_3,user_defined_4,user_defined_5
1402603291110238733,0,-4.14327571468,9.88567784727,-42.0618152938,10.0438151857,0.199142206935,0.0,0.0507643261087,0.0,0.168358063284,0.0,1011.10499914,2203.10023144,-1.34130416972,-0.0,-0.0,0.0,0.00383600394174,-0.0,-0.00383606751517,-0.0,0.0,-0.0,0.0,-0.0,2477942880.39,0.0,0.0,0.0,0.0,0.0,0.0
1402603291130285233,0,-4.14327571468,9.88567784727,-42.0618152938,10.0438151857,0.199142206935,0.0,0.0507643261087,0.0,0.168358063284,0.0,1011.10499914,2203.10023144,-1.34130416972,-0.0,-0.0,0.0,0.00383600394174,-0.0,-0.00383606751517,-0.0,0.0,-0.0,0.0,-0.0,2477942880.39,0.0,0.0,0.0,0.0,0.0,0.0
1402603291149779953,0,-4.10447392087,9.88567784727,-41.9814481495,10.0438151857,0.194467295587,0.0,0.0388190488967,0.0,0.167976614181,0.0,1011.10499914,2203.10023144,-1.34130416972,-0.0,-0.0,0.0,0.00383600394174,-0.0,-0.00383606751517,-0.0,0.0,-0.0,0.0,-0.0,2477942880.39,0.0,0.0,0.0,0.0,0.0,0.0
1402603291170328311,0,-4.10447392087,9.88567784727,-41.9814481495,10.0438151857,0.194467295587,0.0,0.0388190488967,0.0,0.167976614181,0.0,1011.10499914,2203.10023144,-1.34130416972,-0.0,-0.0,0.0,0.00383600394174,-0.0,-0.00383606751517,-0.0,0.0,-0.0,0.0,-0.0,2477942880.39,0.0,0.0,0.0,0.0,0.0,0.0
1402603291189674681,0,-4.0963800606,9.88567784727,-41.980356132,10.0438151857,0.194022649289,0.0,0.0376325753183,0.0,0.16754995166,0.0,1011.10499914,2203.10023144,-1.34130416972,-0.0,-0.0,0.0,0.00383600394174,-0.0,-0.00383606751517,-0.0,0.0,-0.0,0.0,-0.0,2477942880.39,0.0,0.0,0.0,0.0,0.0,0.0
1402603291210318932,0,-4.0963800606,9.88567784727,-41.980356132,10.0438151857,0.194022649289,0.0,0.0376325753183,0.0,0.16754995166,0.0,1011.10499914,2203.10023144,-1.34130416972,-0.0,-0.0,0.0,0.00383600394174,-0.0,-0.00383606751517,-0.0,0.0,-0.0,0.0,-0.0,2477942880.39,0.0,0.0,0.0,0.0,0.0,0.0
1402603291229638151,0,-4.0061007393,9.88567784727,-41.9860082199,10.0438151857,0.180940204101,0.0,0.0364585631063,0.0,0.166923735003,0.0,1011.10499914,2203.10023144,-1.34130416972,-0.0,-0.0,0.0,0.00383600394174,-0.0,-0.00383606751517,-0.0,0.0,-0.0,0.0,-0.0,2477942880.39,0.0,0.0,0.0,0.0,0.0,0.0
1402603291250060668,0,-4.0061007393,9.88567784727,-41.9860082199,10.0438151857,0.180940204101,0.0,0.0364585631063,0.0,0.166923735003,0.0,1011.10499914,2203.10023144,-1.34130416972,-0.0,-0.0,0.0,0.00383600394174,-0.0,-0.00383606751517,-0.0,0.0,-0.0,0.0,-0.0,2477942880.39,0.0,0.0,0.0,0.0,0.0,0.0
1402603291269799662,0,-4.03143463299,9.88567784727,-42.0522570928,10.0438151857,0.190159257468,0.0,0.050086681551,0.0,0.166072032547,0.0,1011.10499914,2203.10023144,-1.34130416972,-0.0,-0.0,0.0,0.00383600394174,-0.0,-0.00383606751517,-0.0,0.0,-0.0,0.0,-0.0,2477942880.39,0.0,0.0,0.0,0.0,0.0,0.0
1402603291290303596,0,-4.03143463299,9.88567784727,-42.0522570928,10.0438151857,0.190159257468,0.0,0.050086681551,0.0,0.166072032547,0.0,1011.10499914,2203.10023144,-1.34130416972,-0.0,-0.0,0.0,0.00383600394174,-0.0,-0.00383606751517,-0.0,0.0,-0.0,0.0,-0.0,2477942880.39,0.0,0.0,0.0,0.0,0.0,0.0
1402603291309713903,0,-4.02349802529,9.88567784727,-42.0504470221,10.0438151857,0.190526998596,0.0,0.0492540301947,0.0,0.165427268813,0.0,1011.10499914,2203.10023144,-1.34130416972,-0.0,-0.0,0.0,0.00383600394174,-0.0,-0.00383606751517,-0.0,0.0,-0.0,0.0,-0.0,2477942880.39,0.0,0.0,0.0,0.0,0.0,0.0
1402603291329769566,0,-4.02349802529,9.88567784727,-42.0504470221,10.0438151857,0.190526998596,0.0,0.0492540301947,0.0,0.165427268813,0.0,1011.10499914,2203.10023144,-1.34130416972,-0.0,-0.0,0.0,0.00383600394174,-0.0,-0.00383606751517,-0.0,0.0,-0.0,0.0,-0.0,2477942880.39,0.0,0.0,0.0,0.0,0.0,0.0
1402603291350009371,0,-3.93713405606,9.88567784727,-41.9436534187,10.0438151857,0.179868102945,0.0,0.0343053412807,0.0,0.164979882732,0.0,1011.10499914,2203.10023144,-1.34130416972,-0.0,-0.0,0.0,0.00383600394174,-0.0,-0.00383606751517,-0.0,0.0,-0.0,0.0,-0.0,2477942880.39,0.0,0.0,0.0,0.0,0.0,0.0
1402603291369708122,0,-3.93713405606,9.88567784727,-41.9436534187,10.0438151857,0.179868102945,0.0,0.0343053412807,0.0,0.164979882732,0.0,1011.10499914,2203.10023144,-1.34130416972,-0.0,-0.0,0.0,0.00383600394174,-0.0,-0.00383606751517,-0.0,0.0,-0.0,0.0,-0.0,2477942880.39,0.0,0.0,0.0,0.0,0.0,0.0
1402603291389691514,0,-3.94189165592,9.88567784727,-42.0469093195,10.0438151857,0.182248014292,0.0,0.0480848810073,0.0,0.164252370372,0.0,1011.10499914,2203.10023144,-1.34130416972,-0.0,-0.0,0.0,0.00383600394174,-0.0,-0.00383606751517,-0.0,0.0,-0.0,0.0,-0.0,2477942880.39,0.0,0.0,0.0,0.0,0.0,0.0
1402603291410128143,0,-3.94189165592,9.88567784727,-42.0469093195,10.0438151857,0.182248014292,0.0,0.0480848810073,0.0,0.164252370372,0.0,1011.10499914,2203.10023144,-1.34130416972,-0.0,-0.0,0.0,0.00383600394174,-0.0,-0.00383606751517,-0.0,0.0,-0.0,0.0,-0.0,2477942880.39,0.0,0.0,0.0,0.0,0.0,0.0
1402603291429604123,0,-3.93450889035,9.88567784727,-42.0452940606,10.0438151857,0.182150251832,0.0,0.0484676876077,0.0,0.163550014496,0.0,1011.10499914,2203.10023144,-1.34130416972,-0.0,-0.0,0.0,0.00383600394174,-0.0,-0.00383606751517,-0.0,0.0,-0.0,0.0,-0.0,2477942880.39,0.0,0.0,0.0,0.0,0.0,0.0
1402603291449673878,0,-3.93450889035,9.88567784727,-42.0452940606,10.0438151857,0.182150251832,0.0,0.0484676876077,0.0,0.163550014496,0.0,1011.10499914,2203.10023144,-1.34130416972,-0.0,-0.0,0.0,0.00383600394174,-0.0,-0.00383606751517,-0.0,0.0,-0.0,0.0,-0.0,2477942880.39,0.0,0.0,0.0,0.0,0.0,0.0
1402603291469615003,0,-3.92718666787,9.88567784727,-42.043613274,10.0438151857,0.182123920645,0.0,0.0469219733488,0.0,0.162860808548,0.0,1011.10499914,2203.10023144,-1.34130416972,-0.0,-0.0,0.0,0.00383600394174,-0.0,-0.00383606751517,-0.0,0.0,-0.0,0.0,-0.0,2477942880.39,0.0,0.0,0.0,0.0,0.0,0.0
1402603291490252660,0,-3.92718666787,9.88567784727,-42.043613274,10.0438151857,0.182123920645,0.0,0.0469219733488,0.0,0.162860808548,0.0,1011.10499914,2203.10023144,-1.34130416972,-0.0,-0.0,0.0,0.00383600394174,-0.0,-0.00383606751517,-0.0,0.0,-0.0,0.0,-0.0,2477942880.39,0.0,0.0,0.0,0.0,0.0,0.0
1402603291509655131,0,-3.97787563897,9.88567784727,-41.962466376,10.0438151857,0.194254282329,0.0,0.0321982501389,0.0,0.162193067701,0.0,1011.10499914,2203.10023144,-1.34130416972,-0.0,-0.0,0.0,0.00383600394174,-0.0,-0.00383606751517,-0.0,0.0,-0.0,0.0,-0.0,2477942880.39,0.0,0.0,0.0,0.0,0.0,0.0
1402603291529650452,0,-3.97787563897,9.88567784727,-41.962466376,10.0438151857,0.194254282329,0.0,0.0321982501389,0.0,0.162193067701,0.0,1011.10499914,2203.10023144,-1.34130416972,-0.0,-0.0,0.0,0.00383600394174,-0.0,-0.00383606751517,-0.0,0.0,-0.0,0.0,-0.0,2477942880.39,0.0,0.0,0.0,0.0,0.0,0.0
1402603291550410977,0,-3.96815432625,9.88567784727,-41.9612400105,10.0438151857,0.193986781645,0.0,0.0286545685266,0.0,0.161158870787,0.0,1011.10499914,2203.10023144,-1.34130416972,-0.0,-0.0,0.0,0.00383600394174,-0.0,-0.00383606751517,-0.0,0.0,-0.0,0.0,-0.0,2477942880.39,0.0,0.0,0.0,0.0,0.0,0.0
1402603291569644903,0,-3.96815432625,9.88567784727,-41.9612400105,10.0438151857,0.193986781645,0.0,0.0286545685266,0.0,0.161158870787,0.0,1011.10499914,2203.10023144,-1.34130416972,-0.0,-0.0,0.0,0.00383600394174,-0.0,-0.00383606751517,-0.0,0.0,-0.0,0.0,-0.0,2477942880.39,0.0,0.0,0.0,0.0,0.0,0.0
1402603291590342082,0,-3.96618156945,9.88567784727,-42.0979276644,10.0438151857,0.198582738686,0.0,0.0569088696002,0.0,0.160453704308,0.0,1011.10499914,2203.10023144,-1.34130416972,-0.0,-0.0,0.0,0.00383600394174,-0.0,-0.00383606751517,-0.0,0.0,-0.0,0.0,-0.0,2477942880.39,0.0,0.0,0.0,0.0,0.0,0.0
1402603291609889212,0,-3.96229152651,9.88567784727,-42.0970052148,10.0438151857,0.198001452078,0.0,0.0555735713709,0.0,0.160160611088,0.0,1011.10499914,2203.10023144,-1.34130416972,-0.0,-0.0,0.0,0.00383600394174,-0.0,-0.00383606751517,-0.0,0.0,-0.0,0.0,-0.0,2477942880.39,0.0,0.0,0.0,0.0,0.0,0.0
1402603291629867240,0,-3.96229152651,9.88567784727,-42.0970052148,10.0438151857,0.198001452078,0.0,0.0555735713709,0.0,0.160160611088,0.0,1011.10499914,2203.10023144,-1.34130416972,-0.0,-0.0,0.0,0.00383600394174,-0.0,-0.00383606751517,-0.0,0.0,-0.0,0.0,-0.0,2477942880.39,0.0,0.0,0.0,0.0,0.0,0.0
1402603291649688631,0,-3.95821608843,9.88567784727,-42.0958313552,10.0438151857,0.197437817495,0.0,0.0563944290779,0.0,0.15972604317,0.0,1011.10499914,2203.10023144,-1.34130416972,-0.0,-0.0,0.0,0.00383600394174,-0.0,-0.00383606751517,-0.0,0.0,-0.0,0.0,-0.0,2477942880.39,0.0,0.0,0.0,0.0,0.0,0.0
1402603291669799740,0,-3.95821608843,9.88567784727,-42.0958313552,10.0438151857,0.197437817495,0.0,0.0563944290779,0.0,0.15972604317,0.0,1011.10499914,2203.10023144,-1.34130416972,-0.0,-0.0,0.0,0.00383600394174,-0.0,-0.00383606751517,-0.0,0.0,-0.0,0.0,-0.0,2477942880.39,0.0,0.0,0.0,0.0,0.0,0.0
1402603291690281596,0,-3.86579272937,9.88567784727,-42.024204482,10.0438151857,0.177350645447,0.0,0.0363064474928,0.0,0.15961133275,0.0,1011.10499914,2203.10023144,-1.34130416972,-0.0,-0.0,0.0,0.00383600394174,-0.0,-0.00383606751517,-0.0,0.0,-0.0,0.0,-0.0,2477942880.39,0.0,0.0,0.0,0.0,0.0,0.0
1402603291709774824,0,-3.86579272937,9.88567784727,-42.024204482,10.0438151857,0.177350645447,0.0,0.0363064474928,0.0,0.15961133275,0.0,1011.10499914,2203.10023144,-1.34130416972,-0.0,-0.0,0.0,0.00383600394174,-0.0,-0.00383606751517,-0.0,0.0,-0.0,0.0,-0.0,2477942880.39,0.0,0.0,0.0,0.0,0.0,0.0
1402603291730426464,0,-3.97526613651,9.88567784727,-42.1069024538,10.0438151857,0.207712504268,0.0,0.0576729240503,0.0,0.158536314253,0.0,1011.10499914,2203.10023144,-1.34130416972,-0.0,-0.0,0.0,0.00383600394174,-0.0,-0.00383606751517,-0.0,0.0,-0.0,0.0,-0.0,2477942880.39,0.0,0.0,0.0,0.0,0.0,0.0
1402603291749736060,0,-3.97526613651,9.88567784727,-42.1069024538,10.0438151857,0.207712504268,0.0,0.0576729240503,0.0,0.158536314253,0.0,1011.10499914,2203.10023144,-1.34130416972,-0.0,-0.0,0.0,0.00383600394174,-0.0,-0.00383606751517,-0.0,0.0,-0.0,0.0,-0.0,2477942880.39,0.0,0.0,0.0,0.0,0.0,0.0
1402603291769740681,0,-4.03446459127,9.88567784727,-42.1893515373,10.0438151857,0.234913508081,0.0,0.0839877075992,0.0,0.157346250025,0.0,1011.10499914,2203.10023144,-1.34130416972,-0.0,-0.0,0.0,0.00383600394174,-0.0,-0.00383606751517,-0.0,0.0,-0.0,0.0,-0.0,2477942880.39,0.0,0.0,0.0,0.0,0.0,0.0
1402603291790192108,0,-4.03446459127,9.88567784727,-42.1893515373,10.0438151857,0.234913508081,0.0,0.0839877075992,0.0,0.157346250025,0.0,1011.10499914,2203.10023144,-1.34130416972,-0.0,-0.0,0.0,0.00383600394174,-0.0,-0.00383606751517,-0.0,0.0,-0.0,0.0,-0.0,2477942880.39,0.0,0.0,0.0,0.0,0.0,0.0
1402603291809689176,0,-3.96681323261,9.88567784727,-42.1517871912,10.0438151857,0.217091735346,0.0,0.0712407264895,0.0,0.157329895312,0.0,1011.10499914,2203.10023144,-1.34130416972,-0.0,-0.0,0.0,0.00383600394174,-0.0,-0.00383606751517,-0.0,0.0,-0.0,0.0,-0.0,2477942880.39,0.0,0.0,0.0,0.0,0.0,0.0
1402603291829715594,0,-3.96681323261,9.88567784727,-42.1517871912,10.0438151857,0.217091735346,0.0,0.0712407264895,0.0,0.157329895312,0.0,1011.10499914,2203.10023144,-1.34130416972,-0.0,-0.0,0.0,0.00383600394174,-0.0,-0.00383606751517,-0.0,0.0,-0.0,0.0,-0.0,2477942880.39,0.0,0.0,0.0,0.0,0.0,0.0
1402603291850497340,0,-3.96230024292,9.88567784727,-42.1504258696,10.0438151857,0.217527228327,0.0,0.070644934771,0.0,0.157170553855,0.0,1011.10499914,2203.10023144,-1.34130416972,-0.0,-0.0,0.0,0.00383600394174,-0.0,-0.00383606751517,-0.0,0.0,-0.0,0.0,-0.0,2477942880.39,0.0,0.0,0.0,0.0,0.0,0.0
1402603291869728154,0,-3.96230024292,9.88567784727,-42.1504258696,10.0438151857,0.217527228327,0.0,0.070644934771,0.0,0.157170553855,0.0,1011.10499914,2203.10023144,-1.34130416972,-0.0,-0.0,0.0,0.00383600394174,-0.0,-0.00383606751517,-0.0,0.0,-0.0,0.0,-0.0,2477942880.39,0.0,0.0,0.0,0.0,0.0,0.0
1402603291890577800,0,-3.8624620614,9.88567784727,-42.0848777515,10.0438151857,0.189720070227,0.0,0.0479711338222,0.0,0.157160842548,0.0,1011.10499914,2203.10023144,-1.34130416972,-0.0,-0.0,0.0,0.00383600394174,-0.0,-0.00383606751517,-0.0,0.0,-0.0,0.0,-0.0,2477942880.39,0.0,0.0,0.0,0.0,0.0,0.0
1402603291909947960,0,-3.8624620614,9.88567784727,-42.0848777515,10.0438151857,0.189720070227,0.0,0.0479711338222,0.0,0.157160842548,0.0,1011.10499914,2203.10023144,-1.34130416972,-0.0,-0.0,0.0,0.00383600394174,-0.0,-0.00383606751517,-0.0,0.0,-0.0,0.0,-0.0,2477942880.39,0.0,0.0,0.0,0.0,0.0,0.0
1402603291929675806,0,-3.91542068606,9.88567784727,-42.1505818785,10.0438151857,0.210314019003,0.0,0.0679913729461,0.0,0.156419004986,0.0,1011.10499914,2203.10023144,-1.34130416972,-0.0,-0.0,0.0,0.00383600394174,-0.0,-0.00383606751517,-0.0,0.0,-0.0,0.0,-0.0,2477942880.39,0.0,0.0,0.0,0.0,0.0,0.0
1402603291949640905,0,-3.91542068606,9.88567784727,-42.1505818785,10.0438151857,0.210314019003,0.0,0.0679913729461,0.0,0.156419004986,0.0,1011.10499914,2203.10023144,-1.34130416972,-0.0,-0.0,0.0,0.00383600394174,-0.0,-0.00383606751517,-0.0,0.0,-0.0,0.0,-0.0,2477942880.39,0.0,0.0,0.0,0.0,0.0,0.0
1402603291970456089,0,-3.89645314529,9.88567784727,-42.1569346149,10.0438151857,0.209520932875,0.0,0.0708935998315,0.0,0.155815396765,0.0,1011.10499914,2203.10023144,-1.34130416972,-0.0,-0.0,0.0,0.00383600394174,-0.0,-0.00383606751517,-0.0,0.0,-0.0,0.0,-0.0,2477942880.39,0.0,0.0,0.0,0.0,0.0,0.0
1402603291989755497,0,-3.89645314529,9.88567784727,-42.1569346149,10.0438151857,0.209520932875,0.0,0.0708935998315,0.0,0.155815396765,0.0,1011.10499914,2203.10023144,-1.34130416972,-0.0,-0.0,0.0,0.00383600394174,-0.0,-0.00383606751517,-0.0,0.0,-0.0,0.0,-0.0,2477942880.39,0.0,0.0,0.0,0.0,0.0,0.0
1402603292009936589,0,-3.83608836669,9.88567784727,-42.105780979,10.0438151857,0.194648977621,0.0,0.0501531516865,0.0,0.155609963019,0.0,1011.10499914,2203.10023144,-1.34130416972,-0.0,-0.0,0.0,0.00383600394174,-0.0,-0.00383606751517,-0.0,0.0,-0.0,0.0,-0.0,2477942880.39,0.0,0.0,0.0,0.0,0.0,0.0
1402603292030366490,0,-3.83608836669,9.88567784727,-42.105780979,10.0438151857,0.194648977621,0.0,0.0501531516865,0.0,0.155609963019,0.0,1011.10499914,2203.10023144,-1.34130416972,-0.0,-0.0,0.0,0.00383600394174,-0.0,-0.00383606751517,-0.0,0.0,-0.0,0.0,-0.0,2477942880.39,0.0,0.0,0.0,0.0,0.0,0.0
1402603292049772694,0,-3.8280890639,9.88567784727,-42.103649101,10.0438151857,0.19348026401,0.0,0.049487512145,0.0,0.154974688291,0.0,1011.10499914,2203.10023144,-1.34130416972,-0.0,-0.0,0.0,0.00383600394174,-0.0,-0.00383606751517,-0.0,0.0,-0.0,0.0,-0.0,2477942880.39,0.0,0.0,0.0,0.0,0.0,0.0
1402603292069720253,0,-3.8280890639,9.88567784727,-42.103649101,10.0438151857,0.19348026401,0.0,0.049487512145,0.0,0.154974688291,0.0,1011.10499914,2203.10023144,-1.34130416972,-0.0,-0.0,0.0,0.00383600394174,-0.0,-0.00383606751517,-0.0,0.0,-0.0,0.0,-0.0,2477942880.39,0.0,0.0,0.0,0.0,0.0,0.0
1402603292089702492,0,-3.84319390933,9.88567784727,-42.1562133629,10.0438151857,0.201219734825,0.0,0.0680213993165,0.0,0.154135833924,0.0,1011.10499914,2203.10023144,-1.34130416972,-0.0,-0.0,0.0,0.00383600394174,-0.0,-0.00383606751517,-0.0,0.0,-0.0,0.0,-0.0,2477942880.39,0.0,0.0,0.0,0.0,0.0,0.0
1402603292109802374,0,-3.84319390933,9.88567784727,-42.1562133629,10.0438151857,0.201219734825,0.0,0.0680213993165,0.0,0.154135833924,0.0,1011.10499914,2203.10023144,-1.34130416972,-0.0,-0.0,0.0,0.00383600394174,-0.0,-0.00383606751517,-0.0,0.0,-0.0,0.0,-0.0,2477942880.39,0.0,0.0,0.0,0.0,0.0,0.0
1402603292129693735,0,-3.80959102656,9.88567784727,-42.1478568541,10.0438151857,0.191733150007,0.0,0.0626931114017,0.0,0.153719640412,0.0,1011.10499914,2203.10023144,-1.34130416972,-0.0,-0.0,0.0,0.00383600394174,-0.0,-0.00383606751517,-0.0,0.0,-0.0,0.0,-0.0,2477942880.39,0.0,0.0,0.0,0.0,0.0,0.0
1402603292149753438,0,-3.80959102656,9.88567784727,-42.1478568541,10.0438151857,0.191733150007,0.0,0.0626931114017,0.0,0.153719640412,0.0,1011.10499914,2203.10023144,-1.34130416972,-0.0,-0.0,0.0,0.00383600394174,-0.0,-0.00383606751517,-0.0,0.0,-0.0,0.0,-0.0,2477942880.39,0.0,0.0,0.0,0.0,0.0,0.0
1402603292169763132,0,-3.80439598406,9.88567784727,-42.1484057667,10.0438151857,0.193037583935,0.0,0.0577784476845,0.0,0.153267630562,0.0,1011.10499914,2203.10023144,-1.34130416972,-0.0,-0.0,0.0,0.00383600394174,-0.0,-0.00383606751517,-0.0,0.0,-0.0,0.0,-0.0,2477942880.39,0.0,0.0,0.0,0.0,0.0,0.0
1402603292190257294,0,-3.80439598406,9.88567784727,-42.1484057667,10.0438151857,0.193037583935,0.0,0.0577784476845,0.0,0.153267630562,0.0,1011.10499914,2203.10023144,-1.34130416972,-0.0,-0.0,0.0,0.00383600394174,-0.0,-0.00383606751517,-0.0,0.0,-0.0,0.0,-0.0,2477942880.39,0.0,0.0,0.0,0.0,0.0,0.0
1402603292209726987,0,-3.80120864606,9.88567784727,-42.1515005004,10.0438151857,0.196641937858,0.0,0.0562380291301,0.0,0.152649916753,0.0,1011.10499914,2203.10023144,-1.34130416972,-0.0,-0.0,0.0,0.00383600394174,-0.0,-0.00383606751517,-0.0,0.0,-0.0,0.0,-0.0,2477942880.39,0.0,0.0,0.0,0.0,0.0,0.0
1402603292230225439,0,-3.80120864606,9.88567784727,-42.1515005004,10.0438151857,0.196641937858,0.0,0.0562380291301,0.0,0.152649916753,0.0,1011.10499914,2203.10023144,-1.34130416972,-0.0,-0.0,0.0,0.00383600394174,-0.0,-0.00383606751517,-0.0,0.0,-0.0,0.0,-0.0,2477942880.39,0.0,0.0,0.0,0.0,0.0,0.0
1402603292249386239,0,-3.79301790469,9.88567784727,-42.149123268,10.0438151857,0.19707447918,0.0,0.0550404655981,0.0,0.151958469725,0.0,1011.10499914,2203.10023144,-1.34130416972,-0.0,-0.0,0.0,0.00383600394174,-0.0,-0.00383606751517,-0.0,0.0,-0.0,0.0,-0.0,2477942880.39,0.0,0.0,0.0,0.0,0.0,0.0
1402603292270412011,0,-3.79301790469,9.88567784727,-42.149123268,10.0438151857,0.19707447918,0.0,0.0550404655981,0.0,0.151958469725,0.0,1011.10499914,2203.10023144,-1.34130416972,-0.0,-0.0,0.0,0.00383600394174,-0.0,-0.00383606751517,-0.0,0.0,-0.0,0.0,-0.0,2477942880.39,0.0,0.0,0.0,0.0,0.0,0.0
1402603292289729919,0,-3.79111993461,9.88567784727,-42.1652694736,10.0438151857,0.200278380744,0.0,0.058919665472,0.0,0.151354297983,0.0,1011.10499914,2203.10023144,-1.34130416972,-0.0,-0.0,0.0,0.00383600394174,-0.0,-0.00383606751517,-0.0,0.0,-0.0,0.0,-0.0,2477942880.39,0.0,0.0,0.0,0.0,0.0,0.0
1402603292310374281,0,-3.79111993461,9.88567784727,-42.1652694736,10.0438151857,0.200278380744,0.0,0.058919665472,0.0,0.151354297983,0.0,1011.10499914,2203.10023144,-1.34130416972,-0.0,-0.0,0.0,0.00383600394174,-0.0,-0.00383606751517,-0.0,0.0,-0.0,0.0,-0.0,2477942880.39,0.0,0.0,0.0,0.0,0.0,0.0
1402603292329868356,0,-3.76555016537,9.88567784727,-42.1594948839,10.0438151857,0.189339101052,0.0,0.0509509851044,0.0,0.150921261079,0.0,1011.10499914,2203.10023144,-1.34130416972,-0.0,-0.0,0.0,0.00383600394174,-0.0,-0.00383606751517,-0.0,0.0,-0.0,0.0,-0.0,2477942880.39,0.0,0.0,0.0,0.0,0.0,0.0
1402603292349784952,0,-3.76555016537,9.88567784727,-42.1594948839,10.0438151857,0.189339101052,0.0,0.0509509851044,0.0,0.150921261079,0.0,1011.10499914,2203.10023144,-1.34130416972,-0.0,-0.0,0.0,0.00383600394174,-0.0,-0.00383606751517,-0.0,0.0,-0.0,0.0,-0.0,2477942880.39,0.0,0.0,0.0,0.0,0.0,0.0
1402603292370251080,0,-3.78090648699,9.88567784727,-42.1894082124,10.0438151857,0.201429238963,0.0,0.0645429385416,0.0,0.149805644419,0.0,1011.10499914,2203.10023144,-1.34130416972,-0.0,-0.0,0.0,0.00383600394174,-0.0,-0.00383606751517,-0.0,0.0,-0.0,0.0,-0.0,2477942880.39,0.0,0.0,0.0,0.0,0.0,0.0
1402603292389871561,0,-3.78090648699,9.88567784727,-42.1894082124,10.0438151857,0.201429238963,0.0,0.0645429385416,0.0,0.149805644419,0.0,1011.10499914,2203.10023144,-1.34130416972,-0.0,-0.0,0.0,0.00383600394174,-0.0,-0.00383606751517,-0.0,0.0,-0.0,0.0,-0.0,2477942880.39,0.0,0.0,0.0,0.0,0.0,0.0
1402603292410498596,0,-3.75166474916,9.88567784727,-42.1765679827,10.0438151857,0.194107509628,0.0,0.0570147595245,0.0,0.14933944519,0.0,1011.10499914,2203.10023144,-1.34130416972,-0.0,-0.0,0.0,0.00383600394174,-0.0,-0.00383606751517,-0.0,0.0,-0.0,0.0,-0.0,2477942880.39,0.0,0.0,0.0,0.0,0.0,0.0
1402603292429676040,0,-3.75166474916,9.88567784727,-42.1765679827,10.0438151857,0.194107509628,0.0,0.0570147595245,0.0,0.14933944519,0.0,1011.10499914,2203.10023144,-1.34130416972,-0.0,-0.0,0.0,0.00383600394174,-0.0,-0.00383606751517,-0.0,0.0,-0.0,0.0,-0.0,2477942880.39,0.0,0.0,0.0,0.0,0.0,0.0
1402603292450205750,0,-3.74415930222,9.88567784727,-42.1743283431,10.0438151857,0.193477739026,0.0,0.0572534227985,0.0,0.14880410811,0.0,1011.10499914,2203.10023144,-1.34130416972,-0.0,-0.0,0.0,0.00383600394174,-0.0,-0.00383606751517,-0.0,0.0,-0.0,0.0,-0.0,2477942880.39,0.0,0.0,0.0,0.0,0.0,0.0
1402603292469668722,0,-3.74415930222,9.88567784727,-42.1743283431,10.0438151857,0.193477739026,0.0,0.0572534227985,0.0,0.14880410811,0.0,1011.10499914,2203.10023144,-1.34130416972,-0.0,-0.0,0.0,0.00383600394174,-0.0,-0.00383606751517,-0.0,0.0,-0.0,0.0,-0.0,2477942880.39,0.0,0.0,0.0,0.0,0.0,0.0
1402603292490135826,0,-3.71994300422,9.88567784727,-42.1636763929,10.0438151857,0.18113737072,0.0,0.0435604256283,0.0,0.1481275623,0.0,1011.10499914,2203.10023144,-1.34130416972,-0.0,-0.0,0.0,0.00383600394174,-0.0,-0.00383606751517,-0.0,0.0,-0.0,0.0,-0.0,2477942880.39,0.0,0.0,0.0,0.0,0.0,0.0
1402603292510113105,0,-3.71994300422,9.88567784727,-42.1636763929,10.0438151857,0.18113737072,0.0,0.0435604256283,0.0,0.1481275623,0.0,1011.10499914,2203.10023144,-1.34130416972,-0.0,-0.0,0.0,0.00383600394174,-0.0,-0.00383606751517,-0.0,0.0,-0.0,0.0,-0.0,2477942880.39,0.0,0.0,0.0,0.0,0.0,0.0
1402603292530200674,0,-3.71090539009,9.88567784727,-42.1613827485,10.0438151857,0.180736545053,0.0,0.0433171503202,0.0,0.147060777846,0.0,1011.10499914,2203.10023144,-1.34130416972,-0.0,-0.0,0.0,0.00383600394174,-0.0,-0.00383606751517,-0.0,0.0,-0.0,0.0,-0.0,2477942880.39,0.0,0.0,0.0,0.0,0.0,0.0
1402603292549745483,0,-3.71090539009,9.88567784727,-42.1613827485,10.0438151857,0.180736545053,0.0,0.0433171503202,0.0,0.147060777846,0.0,1011.10499914,2203.10023144,-1.34130416972,-0.0,-0.0,0.0,0.00383600394174,-0.0,-0.00383606751517,-0.0,0.0,-0.0,0.0,-0.0,2477942880.39,0.0,0.0,0.0,0.0,0.0,0.0
1402603292569739489,0,-3.7073452049,9.88567784727,-42.160610275,10.0438151857,0.18048770836,0.0,0.0426557982605,0.0,0.146678920975,0.0,1011.10499914,2203.10023144,-1.34130416972,-0.0,-0.0,0.0,0.00383600394174,-0.0,-0.00383606751517,-0.0,0.0,-0.0,0.0,-0.0,2477942880.39,0.0,0.0,0.0,0.0,0.0,0.0
1402603292589744689,0,-3.7073452049,9.88567784727,-42.160610275,10.0438151857,0.18048770836,0.0,0.0426557982605,0.0,0.146678920975,0.0,1011.10499914,2203.10023144,-1.34130416972,-0.0,-0.0,0.0,0.00383600394174,-0.0,-0.00383606751517,-0.0,0.0,-0.0,0.0,-0.0,2477942880.39,0.0,0.0,0.0,0.0,0.0,0.0
1402603292609542675,0,-3.69061680253,9.88567784727,-42.1585011794,10.0438151857,0.16600202896,0.0,0.0432888154297,0.0,0.145986231332,0.0,1011.10499914,2203.10023144,-1.34130416972,-0.0,-0.0,0.0,0.00383600394174,-0.0,-0.00383606751517,-0.0,0.0,-0.0,0.0,-0.0,2477942880.39,0.0,0.0,0.0,0.0,0.0,0.0
1402603292629843989,0,-3.69061680253,9.88567784727,-42.1585011794,10.0438151857,0.16600202896,0.0,0.0432888154297,0.0,0.145986231332,0.0,1011.10499914,2203.10023144,-1.34130416972,-0.0,-0.0,0.0,0.00383600394174,-0.0,-0.00383606751517,-0.0,0.0,-0.0,0.0,-0.0,2477942880.39,0.0,0.0,0.0,0.0,0.0,0.0
1402603292650700467,0,-3.6923017255,9.88567784727,-42.1710006427,10.0438151857,0.168775436222,0.0,0.0482918551431,0.0,0.145210131093,0.0,1011.10499914,2203.10023144,-1.34130416972,-0.0,-0.0,0.0,0.00383600394174,-0.0,-0.00383606751517,-0.0,0.0,-0.0,0.0,-0.0,2477942880.39,0.0,0.0,0.0,0.0,0.0,0.0
1402603292669703589,0,-3.6923017255,9.88567784727,-42.1710006427,10.0438151857,0.168775436222,0.0,0.0482918551431,0.0,0.145210131093,0.0,1011.10499914,2203.10023144,-1.34130416972,-0.0,-0.0,0.0,0.00383600394174,-0.0,-0.00383606751517,-0.0,0.0,-0.0,0.0,-0.0,2477942880.39,0.0,0.0,0.0,0.0,0.0,0.0
1402603292689808695,0,-3.68508619032,9.88567784727,-42.1690256613,10.0438151857,0.168032048861,0.0,0.0488186092553,0.0,0.144550056387,0.0,1011.10499914,2203.10023144,-1.34130416972,-0.0,-0.0,0.0,0.00383600394174,-0.0,-0.00383606751517,-0.0,0.0,-0.0,0.0,-0.0,2477942880.39,0.0,0.0,0.0,0.0,0.0,0.0
1402603292710994774,0,-3.68508619032,9.88567784727,-42.1690256613,10.0438151857,0.168032048861,0.0,0.0488186092553,0.0,0.144550056387,0.0,1011.10499914,2203.10023144,-1.34130416972,-0.0,-0.0,0.0,0.00383600394174,-0.0,-0.00383606751517,-0.0,0.0,-0.0,0.0,-0.0,2477942880.39,0.0,0.0,0.0,0.0,0.0,0.0
1402603292730371733,0,-3.67386415814,9.88567784727,-42.1713423828,10.0438151857,0.155280300605,0.0,0.0490017030671,0.0,0.143844774914,0.0,1011.10499914,2203.10023144,-1.34130416972,-0.0,-0.0,0.0,0.00383600394174,-0.0,-0.00383606751517,-0.0,0.0,-0.0,0.0,-0.0,2477942880.39,0.0,0.0,0.0,0.0,0.0,0.0
1402603292750576094,0,-3.67386415814,9.88567784727,-42.1713423828,10.0438151857,0.155280300605,0.0,0.0490017030671,0.0,0.143844774914,0.0,1011.10499914,2203.10023144,-1.34130416972,-0.0,-0.0,0.0,0.00383600394174,-0.0,-0.00383606751517,-0.0,0.0,-0.0,0.0,-0.0,2477942880.39,0.0,0.0,0.0,0.0,0.0,0.0
1402603292770549202,0,-3.66793553731,9.88567784727,-42.1692647446,10.0438151857,0.153698816213,0.0,0.0502673081428,0.0,0.143176417508,0.0,1011.10499914,2203.10023144,-1.34130416972,-0.0,-0.0,0.0,0.00383600394174,-0.0,-0.00383606751517,-0.0,0.0,-0.0,0.0,-0.0,2477942880.39,0.0,0.0,0.0,0.0,0.0,0.0
1402603292790489475,0,-3.66793553731,9.88567784727,-42.1692647446,10.0438151857,0.153698816213,0.0,0.0502673081428,0.0,0.143176417508,0.0,1011.10499914,2203.10023144,-1.34130416972,-0.0,-0.0,0.0,0.00383600394174,-0.0,-0.00383606751517,-0.0,0.0,-0.0,0.0,-0.0,2477942880.39,0.0,0.0,0.0,0.0,0.0,0.0
1402603292810010307,0,-3.66246555514,9.88567784727,-42.1726982807,10.0438151857,0.154132226594,0.0,0.0609454242171,0.0,0.142373035127,0.0,1011.10499914,2203.10023144,-1.34130416972,-0.0,-0.0,0.0,0.00383600394174,-0.0,-0.00383606751517,-0.0,0.0,-0.0,0.0,-0.0,2477942880.39,0.0,0.0,0.0,0.0,0.0,0.0
1402603292830486735,0,-3.66246555514,9.88567784727,-42.1726982807,10.0438151857,0.154132226594,0.0,0.0609454242171,0.0,0.142373035127,0.0,1011.10499914,2203.10023144,-1.34130416972,-0.0,-0.0,0.0,0.00383600394174,-0.0,-0.00383606751517,-0.0,0.0,-0.0,0.0,-0.0,2477942880.39,0.0,0.0,0.0,0.0,0.0,0.0
1402603292849776401,0,-3.65381276589,9.88567784727,-42.173713378,10.0438151857,0.151247660765,0.0,0.0621565936241,0.0,0.14158995197,0.0,1011.10499914,2203.10023144,-1.34130416972,-0.0,-0.0,0.0,0.00383600394174,-0.0,-0.00383606751517,-0.0,0.0,-0.0,0.0,-0.0,2477942880.39,0.0,0.0,0.0,0.0,0.0,0.0
1402603292869718082,0,-3.65381276589,9.88567784727,-42.173713378,10.0438151857,0.151247660765,0.0,0.0621565936241,0.0,0.14158995197,0.0,1011.10499914,2203.10023144,-1.34130416972,-0.0,-0.0,0.0,0.00383600394174,-0.0,-0.00383606751517,-0.0,0.0,-0.0,0.0,-0.0,2477942880.39,0.0,0.0,0.0,0.0,0.0,0.0
1402603292890439399,0,-3.6441361216,9.88567784727,-42.1792542885,10.0438151857,0.166744988245,0.0,0.0561984748252,0.0,0.140850628157,0.0,1011.10499914,2203.10023144,-1.34130416972,-0.0,-0.0,0.0,0.00383600394174,-0.0,-0.00383606751517,-0.0,0.0,-0.0,0.0,-0.0,2477942880.39,0.0,0.0,0.0,0.0,0.0,0.0
1402603292910422336,0,-3.6441361216,9.88567784727,-42.1792542885,10.0438151857,0.166744988245,0.0,0.0561984748252,0.0,0.140850628157,0.0,1011.10499914,2203.10023144,-1.34130416972,-0.0,-0.0,0.0,0.00383600394174,-0.0,-0.00383606751517,-0.0,0.0,-0.0,0.0,-0.0,2477942880.39,0.0,0.0,0.0,0.0,0.0,0.0
1402603292929678006,0,-3.64088616952,9.88567784727,-42.1779897697,10.0438151857,0.165730638094,0.0,0.0556719943831,0.0,0.140539287729,0.0,1011.10499914,2203.10023144,-1.34130416972,-0.0,-0.0,0.0,0.00383600394174,-0.0,-0.00383606751517,-0.0,0.0,-0.0,0.0,-0.0,2477942880.39,0.0,0.0,0.0,0.0,0.0,0.0
1402603292949788122,0,-3.64088616952,9.88567784727,-42.1779897697,10.0438151857,0.165730638094,0.0,0.0556719943831,0.0,0.140539287729,0.0,1011.10499914,2203.10023144,-1.34130416972,-0.0,-0.0,0.0,0.00383600394174,-0.0,-0.00383606751517,-0.0,0.0,-0.0,0.0,-0.0,2477942880.39,0.0,0.0,0.0,0.0,0.0,0.0
1402603292970151311,0,-3.63410798963,9.88567784727,-42.1759339201,10.0438151857,0.165346829539,0.0,0.0540345313306,0.0,0.140162360356,0.0,1011.10499914,2203.10023144,-1.34130416972,-0.0,-0.0,0.0,0.00383600394174,-0.0,-0.00383606751517,-0.0,0.0,-0.0,0.0,-0.0,2477942880.39,0.0,0.0,0.0,0.0,0.0,0.0
1402603292989954050,0,-3.63410798963,9.88567784727,-42.1759339201,10.0438151857,0.165346829539,0.0,0.0540345313306,0.0,0.140162360356,0.0,1011.10499914,2203.10023144,-1.34130416972,-0.0,-0.0,0.0,0.00383600394174,-0.0,-0.00383606751517,-0.0,0.0,-0.0,0.0,-0.0,2477942880.39,0.0,0.0,0.0,0.0,0.0,0.0
1402603293010267766,0,-3.62737015684,9.88567784727,-42.1778675538,10.0438151857,0.167095784956,0.0,0.057558523079,0.0,0.139641035167,0.0,1011.10499914,2203.10023144,-1.34130416972,-0.0,-0.0,0.0,0.00383600394174,-0.0,-0.00383606751517,-0.0,0.0,-0.0,0.0,-0.0,2477942880.39,0.0,0.0,0.0,0.0,0.0,0.0
1402603293029612902,0,-3.62737015684,9.88567784727,-42.1778675538,10.0438151857,0.167095784956,0.0,0.057558523079,0.0,0.139641035167,0.0,1011.10499914,2203.10023144,-1.34130416972,-0.0,-0.0,0.0,0.00383600394174,-0.0,-0.00383606751517,-0.0,0.0,-0.0,0.0,-0.0,2477942880.39,0.0,0.0,0.0,0.0,0.0,0.0
1402603293050237064,0,-3.62072633439,9.88567784727,-42.1756703423,10.0438151857,0.166376589444,0.0,0.0561765677818,0.0,0.139159749514,0.0,1011.10499914,2203.10023144,-1.34130416972,-0.0,-0.0,0.0,0.00383600394174,-0.0,-0.00383606751517,-0.0,0.0,-0.0,0.0,-0.0,2477942880.39,0.0,0.0,0.0,0.0,0.0,0.0
1402603293069699103,0,-3.62072633439,9.88567784727,-42.1756703423,10.0438151857,0.166376589444,0.0,0.0561765677818,0.0,0.139159749514,0.0,1011.10499914,2203.10023144,-1.34130416972,-0.0,-0.0,0.0,0.00383600394174,-0.0,-0.00383606751517,-0.0,0.0,-0.0,0.0,-0.0,2477942880.39,0.0,0.0,0.0,0.0,0.0,0.0
1402603293090254800,0,-3.61405540646,9.88567784727,-42.1735236995,10.0438151857,0.165991332006,0.0,0.0550743689214,0.0,0.13866659542,0.0,1011.10499914,2203.10023144,-1.34130416972,-0.0,-0.0,0.0,0.00383600394174,-0.0,-0.00383606751517,-0.0,0.0,-0.0,0.0,-0.0,2477942880.39,0.0,0.0,0.0,0.0,0.0,0.0
1402603293109698630,0,-3.61405540646,9.88567784727,-42.1735236995,10.0438151857,0.165991332006,0.0,0.0550743689214,0.0,0.13866659542,0.0,1011.10499914,2203.10023144,-1.34130416972,-0.0,-0.0,0.0,0.00383600394174,-0.0,-0.00383606751517,-0.0,0.0,-0.0,0.0,-0.0,2477942880.39,0.0,0.0,0.0,0.0,0.0,0.0
1402603293130228089,0,-3.60961251979,9.88567784727,-42.1725829118,10.0438151857,0.161020578758,0.0,0.056027378501,0.0,0.138229974187,0.0,1011.10499914,2203.10023144,-1.34130416972,-0.0,-0.0,0.0,0.00383600394174,-0.0,-0.00383606751517,-0.0,0.0,-0.0,0.0,-0.0,2477942880.39,0.0,0.0,0.0,0.0,0.0,0.0
1402603293149732675,0,-3.60961251979,9.88567784727,-42.1725829118,10.0438151857,0.161020578758,0.0,0.056027378501,0.0,0.138229974187,0.0,1011.10499914,2203.10023144,-1.34130416972,-0.0,-0.0,0.0,0.00383600394174,-0.0,-0.00383606751517,-0.0,0.0,-0.0,0.0,-0.0,2477942880.39,0.0,0.0,0.0,0.0,0.0,0.0
1402603293170315427,0,-3.60061578092,9.88567784727,-42.1746719149,10.0438151857,0.159266829004,0.0,0.0344248133798,0.0,0.138128130258,0.0,1011.10499914,2203.10023144,-1.34130416972,-0.0,-0.0,0.0,0.00383600394174,-0.0,-0.00383606751517,-0.0,0.0,-0.0,0.0,-0.0,2477942880.39,0.0,0.0,0.0,0.0,0.0,0.0
1402603293189753594,0,-3.60061578092,9.88567784727,-42.1746719149,10.0438151857,0.159266829004,0.0,0.0344248133798,0.0,0.138128130258,0.0,1011.10499914,2203.10023144,-1.34130416972,-0.0,-0.0,0.0,0.00383600394174,-0.0,-0.00383606751517,-0.0,0.0,-0.0,0.0,-0.0,2477942880.39,0.0,0.0,0.0,0.0,0.0,0.0
1402603293210314847,0,-3.59714887786,9.88567784727,-42.1684548802,10.0438151857,0.154543185442,0.0,0.0443182308703,0.0,0.137423925833,0.0,1011.10499914,2203.10023144,-1.34130416972,-0.0,-0.0,0.0,0.00383600394174,-0.0,-0.00383606751517,-0.0,0.0,-0.0,0.0,-0.0,2477942880.39,0.0,0.0,0.0,0.0,0.0,0.0
1402603293229748948,0,-3.59714887786,9.88567784727,-42.1684548802,10.0438151857,0.154543185442,0.0,0.0443182308703,0.0,0.137423925833,0.0,1011.10499914,2203.10023144,-1.34130416972,-0.0,-0.0,0.0,0.00383600394174,-0.0,-0.00383606751517,-0.0,0.0,-0.0,0.0,-0.0,2477942880.39,0.0,0.0,0.0,0.0,0.0,0.0
1402603293250236247,0,-3.59050368591,9.88567784727,-42.1670452679,10.0438151857,0.155702682644,0.0,0.0381941545866,0.0,0.137003633233,0.0,1011.10499914,2203.10023144,-1.34130416972,-0.0,-0.0,0.0,0.00383600394174,-0.0,-0.00383606751517,-0.0,0.0,-0.0,0.0,-0.0,2477942880.39,0.0,0.0,0.0,0.0,0.0,0.0
1402603293269722277,0,-3.59050368591,9.88567784727,-42.1670452679,10.0438151857,0.155702682644,0.0,0.0381941545866,0.0,0.137003633233,0.0,1011.10499914,2203.10023144,-1.34130416972,-0.0,-0.0,0.0,0.00383600394174,-0.0,-0.00383606751517,-0.0,0.0,-0.0,0.0,-0.0,2477942880.39,0.0,0.0,0.0,0.0,0.0,0.0
1402603293290393127,0,-3.58425899398,9.88567784727,-42.1655494369,10.0438151857,0.154266184908,0.0,0.0376260480291,0.0,0.136474579358,0.0,1011.10499914,2203.10023144,-1.34130416972,-0.0,-0.0,0.0,0.00383600394174,-0.0,-0.00383606751517,-0.0,0.0,-0.0,0.0,-0.0,2477942880.39,0.0,0.0,0.0,0.0,0.0,0.0
1402603293309747457,0,-3.58425899398,9.88567784727,-42.1655494369,10.0438151857,0.154266184908,0.0,0.0376260480291,0.0,0.136474579358,0.0,1011.10499914,2203.10023144,-1.34130416972,-0.0,-0.0,0.0,0.00383600394174,-0.0,-0.00383606751517,-0.0,0.0,-0.0,0.0,-0.0,2477942880.39,0.0,0.0,0.0,0.0,0.0,0.0
1402603293330268245,0,-3.57828037878,9.88567784727,-42.1642359747,10.0438151857,0.153407988175,0.0,0.0356309249722,0.0,0.13592862718,0.0,1011.10499914,2203.10023144,-1.34130416972,-0.0,-0.0,0.0,0.00383600394174,-0.0,-0.00383606751517,-0.0,0.0,-0.0,0.0,-0.0,2477942880.39,0.0,0.0,0.0,0.0,0.0,0.0
1402603293349672238,0,-3.57828037878,9.88567784727,-42.1642359747,10.0438151857,0.153407988175,0.0,0.0356309249722,0.0,0.13592862718,0.0,1011.10499914,2203.10023144,-1.34130416972,-0.0,-0.0,0.0,0.00383600394174,-0.0,-0.00383606751517,-0.0,0.0,-0.0,0.0,-0.0,2477942880.39,0.0,0.0,0.0,0.0,0.0,0.0
1402603293370344246,0,-3.56712500938,9.88567784727,-42.1617866073,10.0438151857,0.161503972255,0.0,0.0286944056742,0.0,0.135462646288,0.0,1011.10499914,2203.10023144,-1.34130416972,-0.0,-0.0,0.0,0.00383600394174,-0.0,-0.00383606751517,-0.0,0.0,-0.0,0.0,-0.0,2477942880.39,0.0,0.0,0.0,0.0,0.0,0.0
1402603293389748205,0,-3.56712500938,9.88567784727,-42.1617866073,10.0438151857,0.161503972255,0.0,0.0286944056742,0.0,0.135462646288,0.0,1011.10499914,2203.10023144,-1.34130416972,-0.0,-0.0,0.0,0.00383600394174,-0.0,-0.00383606751517,-0.0,0.0,-0.0,0.0,-0.0,2477942880.39,0.0,0.0,0.0,0.0,0.0,0.0
1402603293410374237,0,-3.55756048288,9.88567784727,-42.1571589548,10.0438151857,0.162313695984,0.0,0.0306453374353,0.0,0.134959338267,0.0,1011.10499914,2203.10023144,-1.34130416972,-0.0,-0.0,0.0,0.00383600394174,-0.0,-0.00383606751517,-0.0,0.0,-0.0,0.0,-0.0,2477942880.39,0.0,0.0,0.0,0.0,0.0,0.0
1402603293429893645,0,-3.55756048288,9.88567784727,-42.1571589548,10.0438151857,0.162313695984,0.0,0.0306453374353,0.0,0.134959338267,0.0,1011.10499914,2203.10023144,-1.34130416972,-0.0,-0.0,0.0,0.00383600394174,-0.0,-0.00383606751517,-0.0,0.0,-0.0,0.0,-0.0,2477942880.39,0.0,0.0,0.0,0.0,0.0,0.0
1402603293450365027,0,-3.5501973596,9.88567784727,-42.1512225851,10.0438151857,0.154062339413,0.0,0.0272250044261,0.0,0.134534117691,0.0,1011.10499914,2203.10023144,-1.34130416972,-0.0,-0.0,0.0,0.00383600394174,-0.0,-0.00383606751517,-0.0,0.0,-0.0,0.0,-0.0,2477942880.39,0.0,0.0,0.0,0.0,0.0,0.0
1402603293469807965,0,-3.5501973596,9.88567784727,-42.1512225851,10.0438151857,0.154062339413,0.0,0.0272250044261,0.0,0.134534117691,0.0,1011.10499914,2203.10023144,-1.34130416972,-0.0,-0.0,0.0,0.00383600394174,-0.0,-0.00383606751517,-0.0,0.0,-0.0,0.0,-0.0,2477942880.39,0.0,0.0,0.0,0.0,0.0,0.0
1402603293490045821,0,-3.53529227908,9.88567784727,-42.1420693306,10.0438151857,0.164455713,0.0,0.0365306223953,0.0,0.133954635424,0.0,1011.10499914,2203.10023144,-1.34130416972,-0.0,-0.0,0.0,0.00383600394174,-0.0,-0.00383606751517,-0.0,0.0,-0.0,0.0,-0.0,2477942880.39,0.0,0.0,0.0,0.0,0.0,0.0
1402603293509729173,0,-3.53529227908,9.88567784727,-42.1420693306,10.0438151857,0.164455713,0.0,0.0365306223953,0.0,0.133954635424,0.0,1011.10499914,2203.10023144,-1.34130416972,-0.0,-0.0,0.0,0.00383600394174,-0.0,-0.00383606751517,-0.0,0.0,-0.0,0.0,-0.0,2477942880.39,0.0,0.0,0.0,0.0,0.0,0.0
1402603293530136624,0,-3.52893767449,9.88567784727,-42.1402624571,10.0438151857,0.16481398566,0.0,0.036094713834,0.0,0.133423658029,0.0,1011.10499914,2203.10023144,-1.34130416972,-0.0,-0.0,0.0,0.00383600394174,-0.0,-0.00383606751517,-0.0,0.0,-0.0,0.0,-0.0,2477942880.39,0.0,0.0,0.0,0.0,0.0,0.0
1402603293549826004,0,-3.52893767449,9.88567784727,-42.1402624571,10.0438151857,0.16481398566,0.0,0.036094713834,0.0,0.133423658029,0.0,1011.10499914,2203.10023144,-1.34130416972,-0.0,-0.0,0.0,0.00383600394174,-0.0,-0.00383606751517,-0.0,0.0,-0.0,0.0,-0.0,2477942880.39,0.0,0.0,0.0,0.0,0.0,0.0
1402603293570376127,0,-3.52236288905,9.88567784727,-42.1389637641,10.0438151857,0.164019377915,0.0,0.0358929357197,0.0,0.132936174355,0.0,1011.10499914,2203.10023144,-1.34130416972,-0.0,-0.0,0.0,0.00383600394174,-0.0,-0.00383606751517,-0.0,0.0,-0.0,0.0,-0.0,2477942880.39,0.0,0.0,0.0,0.0,0.0,0.0
1402603293589989894,0,-3.52236288905,9.88567784727,-42.1389637641,10.0438151857,0.164019377915,0.0,0.0358929357197,0.0,0.132936174355,0.0,1011.10499914,2203.10023144,-1.34130416972,-0.0,-0.0,0.0,0.00383600394174,-0.0,-0.00383606751517,-0.0,0.0,-0.0,0.0,-0.0,2477942880.39,0.0,0.0,0.0,0.0,0.0,0.0
1402603293610258579,0,-3.51434632797,9.88567784727,-42.1371676851,10.0438151857,0.162830352021,0.0,0.035360662231,0.0,0.132161806845,0.0,1011.10499914,2203.10023144,-1.34130416972,-0.0,-0.0,0.0,0.00383600394174,-0.0,-0.00383606751517,-0.0,0.0,-0.0,0.0,-0.0,2477942880.39,0.0,0.0,0.0,0.0,0.0,0.0
1402603293630774939,0,-3.51434632797,9.88567784727,-42.1371676851,10.0438151857,0.162830352021,0.0,0.035360662231,0.0,0.132161806845,0.0,1011.10499914,2203.10023144,-1.34130416972,-0.0,-0.0,0.0,0.00383600394174,-0.0,-0.00383606751517,-0.0,0.0,-0.0,0.0,-0.0,2477942880.39,0.0,0.0,0.0,0.0,0.0,0.0
1402603293666204388,3,-3.50967105997,9.88567784727,-42.1376879912,10.0438151857,0.149609477256,0.0,0.0224627895234,0.0,0.131876644187,0.0,1011.10499914,2203.10023144,-1.34130416972,0.0,0.0,-60.96,0.00383600394174,-0.0,-0.00383606751517,-0.0,-0.0,100.0,-0.0,-100.0,2479819175.29,0.0,0.0,0.0,0.0,0.0,0.0
1402603293669727421,3,-3.49613520838,9.88567784727,-42.1257174569,10.0438151857,0.159438002768,0.0,0.040649139292,0.0,0.131260798255,0.0,1011.10499914,2203.10023144,-1.34130416972,0.0,0.0,-60.96,0.00383600394174,-0.0,-0.00383606751517,-0.0,-0.0,100.0,-0.0,-100.0,2479819175.29,0.0,0.0,0.0,0.0,0.0,0.0
1402603293689706194,3,-3.49613520838,9.88567784727,-42.1257174569,10.0438151857,0.159438002768,0.0,0.040649139292,0.0,0.131260798255,0.0,1011.10499914,2203.10023144,-1.34130416972,0.0,0.0,-60.96,0.00383600394174,100.0,-0.00383606751517,-100.0,-0.0,100.0,-0.0,-100.0,2479819175.29,0.0,0.0,0.0,0.0,0.0,0.0
1402603293710365638,3,-3.49321921664,9.88567784727,-42.1249701502,10.0438151857,0.15920055831,0.0,0.0396688102911,0.0,0.13107733816,0.0,1011.10499914,2203.10023144,-1.34130416972,0.0,0.0,-60.96,0.00383600394174,100.0,-0.00383606751517,-100.0,-0.0,100.0,-0.0,-100.0,2479819175.29,0.0,0.0,0.0,0.0,0.0,0.0
1402603293729768595,3,-3.49321921664,9.88567784727,-42.1249701502,10.0438151857,0.15920055831,0.0,0.0396688102911,0.0,0.13107733816,0.0,1011.10499914,2203.10023144,-1.34130416972,0.0,0.0,-60.96,0.00383600394174,100.0,-0.00383606751517,-100.0,-0.0,100.0,-0.0,-100.0,2479819175.29,0.0,0.0,0.0,0.0,0.0,0.0
1402603293750372395,3,-3.47974476594,9.88567784727,-42.1191808785,10.0438151857,0.161866730336,0.0,0.0405731889261,0.0,0.130563193458,0.0,1011.10499914,2203.10023144,-1.34130416972,0.0,0.0,-60.96,0.00383600394174,100.0,-0.00383606751517,-100.0,-0.0,100.0,-0.0,-100.0,2479819175.29,0.0,0.0,0.0,0.0,0.0,0.0
1402603293769775910,3,-3.47974476594,9.88567784727,-42.1191808785,10.0438151857,0.161866730336,0.0,0.0405731889261,0.0,0.130563193458,0.0,1011.10499914,2203.10023144,-1.34130416972,0.0,0.0,-60.96,0.00383600394174,100.0,-0.00383606751517,-100.0,-0.0,100.0,-0.0,-100.0,2479819175.29,0.0,0.0,0.0,0.0,0.0,0.0
1402603293790774491,3,-3.46556817848,9.88567784727,-42.1144932795,10.0438151857,0.168037132462,0.0,0.0420217720234,0.0,0.129936219974,0.0,1011.10499914,2203.10023144,-1.34130416972,0.0,0.0,-60.96,0.00383600394174,100.0,-0.00537029107169,-100.0,-0.0,100.0,-0.0,-100.0,2479819175.29,0.0,0.0,0.0,0.0,0.0,0.0
1402603293809747022,3,-3.46556817848,9.88567784727,-42.1144932795,10.0438151857,0.168037132462,0.0,0.0420217720234,0.0,0.129936219974,0.0,1011.10499914,2203.10023144,-1.34130416972,0.0,0.0,-60.96,0.00383600394174,100.0,-0.00537029107169,-100.0,-0.0,100.0,-0.0,-100.0,2479819175.29,0.0,0.0,0.0,0.0,0.0,0.0
1402603293830303218,3,-3.45573243175,9.88567784727,-42.1179598128,10.0438151857,0.161859193181,0.0,0.0280895546043,0.0,0.129402318385,0.0,1011.10499914,2203.10023144,-1.34130416972,0.0,0.0,-60.96,0.00383600394174,100.0,-0.00537029107169,-100.0,-0.0,100.0,-0.0,-100.0,2479819175.29,0.0,0.0,0.0,0.0,0.0,0.0
1402603293849730102,3,-3.45573243175,9.88567784727,-42.1179598128,10.0438151857,0.161859193181,0.0,0.0280895546043,0.0,0.129402318385,0.0,1011.10499914,2203.10023144,-1.34130416972,0.0,0.0,-60.96,0.00383600394174,100.0,-0.00383606751517,-100.0,-0.0,100.0,-0.0,-100.0,2479819175.29,0.0,0.0,0.0,0.0,0.0,0.0
1402603293870384727,3,-3.44606605694,9.88567784727,-42.1173769682,10.0438151857,0.166115686394,0.0,0.025710737766,0.0,0.128716343666,0.0,1011.10499914,2203.10023144,-1.34130416972,0.0,0.0,-60.96,0.00383600394174,100.0,-0.00383606751517,-100.0,-0.0,100.0,-0.0,-100.0,2479819175.29,0.0,0.0,0.0,0.0,0.0,0.0
1402603293889852055,3,-3.44606605694,9.88567784727,-42.1173769682,10.0438151857,0.166115686394,0.0,0.025710737766,0.0,0.128716343666,0.0,1011.10499914,2203.10023144,-1.34130416972,0.0,0.0,-60.96,0.00383600394174,100.0,-0.00537029107169,-100.0,-0.0,100.0,-0.0,-100.0,2479819175.29,0.0,0.0,0.0,0.0,0.0,0.0
1402603293910280370,3,-3.4317863531,9.88567784727,-42.1140474411,10.0438151857,0.185744971416,0.0,0.0255423117882,0.0,0.1263058832,0.0,1011.10499914,2203.10023144,-1.34130416972,0.0,0.0,-60.96,0.00383600394174,100.0,-0.00537029107169,-100.0,-0.0,100.0,-0.0,-100.0,2479819175.29,0.0,0.0,0.0,0.0,0.0,0.0
1402603293929639476,3,-3.4317863531,9.88567784727,-42.1140474411,10.0438151857,0.185744971416,0.0,0.0255423117882,0.0,0.1263058832,0.0,1011.10499914,2203.10023144,-1.34130416972,0.0,0.0,-60.96,0.00537022749826,100.0,-0.00537029107169,-100.0,-0.0,100.0,-0.0,-100.0,2479819175.29,0.0,0.0,0.0,0.0,0.0,0.0
1402603293949696028,3,-3.42073575802,9.88567784727,-42.1126733935,10.0438151857,0.204530264198,0.0,0.02244712384,0.0,0.122507372708,0.0,1011.10499914,2203.10023144,-1.34130416972,0.0,0.0,-60.96,0.00383600394174,100.0,-0.00537029107169,-100.0,-0.0,100.0,-0.0,-100.0,2479819175.29,0.0,0.0,0.0,0.0,0.0,0.0
1402603293970515065,3,-3.42073575802,9.88567784727,-42.1126733935,10.0438151857,0.204530264198,0.0,0.02244712384,0.0,0.122507372708,0.0,1011.10499914,2203.10023144,-1.34130416972,0.0,0.0,-60.96,0.00383600394174,100.0,-0.00537029107169,-100.0,-0.0,100.0,-0.0,-100.0,2479819175.29,0.0,0.0,0.0,0.0,0.0,0.0
1402603293989711841,3,-3.40975314551,9.88567784727,-42.1117531797,10.0438151857,0.21837755244,0.0,0.00658767510059,0.0,0.115065264072,0.0,1011.10499914,2203.10023144,-1.34130416972,0.0,0.0,-60.96,0.00383600394174,100.0,-0.00690451462821,-100.0,-0.0,100.0,-0.0,-100.0,2479819175.29,0.0,0.0,0.0,0.0,0.0,0.0
1402603294009747435,3,-3.40975314551,9.88567784727,-42.1117531797,10.0438151857,0.21837755244,0.0,0.00658767510059,0.0,0.115065264072,0.0,1011.10499914,2203.10023144,-1.34130416972,0.0,0.0,-60.96,0.00383600394174,100.0,-0.00690451462821,-100.0,-0.0,100.0,-0.0,-100.0,2479819175.29,0.0,0.0,0.0,0.0,0.0,0.0
1402603294029559286,3,-3.39427410634,9.88567784727,-42.1135830217,10.0438151857,0.235084890505,0.0,-0.00124021811091,0.0,0.105550732786,0.0,1011.10499914,2203.10023144,-1.34130416972,0.0,0.0,-60.96,0.00383600394174,100.0,-0.00690451462821,-100.0,-0.0,100.0,-0.0,-100.0,2479819175.29,0.0,0.0,0.0,0.0,0.0,0.0
1402603294049910280,3,-3.39427410634,9.88567784727,-42.1135830217,10.0438151857,0.235084890505,0.0,-0.00124021811091,0.0,0.105550732786,0.0,1011.10499914,2203.10023144,-1.34130416972,0.0,0.0,-60.96,0.00383600394174,100.0,-0.00690451462821,-100.0,-0.0,100.0,-0.0,-100.0,2479819175.29,0.0,0.0,0.0,0.0,0.0,0.0
1402603294069725144,3,-3.38966611364,9.88567784727,-42.1136773438,10.0438151857,0.2417411725,0.0,-0.00263130783885,0.0,0.101017628983,0.0,1011.10499914,2203.10023144,-1.34130416972,0.0,0.0,-60.96,0.00383600394174,100.0,-0.00690451462821,-100.0,-0.0,100.0,-0.0,-100.0,2479819175.29,0.0,0.0,0.0,0.0,0.0,0.0
1402603294090428185,3,-3.38966611364,9.88567784727,-42.1136773438,10.0438151857,0.2417411725,0.0,-0.00263130783885,0.0,0.101017628983,0.0,1011.10499914,2203.10023144,-1.34130416972,0.0,0.0,-60.96,0.00383600394174,100.0,-0.00690451462821,-100.0,-0.0,100.0,-0.0,-100.0,2479819175.29,0.0,0.0,0.0,0.0,0.0,0.0
1402603294109796708,3,-3.37946242166,9.88567784727,-42.1141317952,10.0438151857,0.255365394721,0.0,-0.0179062267175,0.0,0.0907872583969,0.0,1011.10499914,2203.10023144,-1.34130416972,0.0,0.0,-60.96,0.00383600394174,100.0,-0.00690451462821,-100.0,-0.0,100.0,-0.0,-100.0,2479819175.29,0.0,0.0,0.0,0.0,0.0,0.0
1402603294129602893,3,-3.37946242166,9.88567784727,-42.1141317952,10.0438151857,0.255365394721,0.0,-0.0179062267175,0.0,0.0907872583969,0.0,1011.10499914,2203.10023144,-1.34130416972,0.0,0.0,-60.96,0.00383600394174,100.0,-0.00690451462821,-100.0,-0.0,100.0,-0.0,-100.0,2479819175.29,0.0,0.0,0.0,0.0,0.0,0.0
1402603294149882420,3,-3.36869594768,9.88567784727,-42.1162737742,10.0438151857,0.261762338796,0.0,-0.0274709428219,0.0,0.0813570927602,0.0,1011.10499914,2203.10023144,-1.34130416972,0.0,0.0,-60.96,0.00383600394174,100.0,-0.00690451462821,-100.0,-0.0,100.0,-0.0,-100.0,2479819175.29,0.0,0.0,0.0,0.0,0.0,0.0
1402603294169871096,3,-3.36869594768,9.88567784727,-42.1162737742,10.0438151857,0.261762338796,0.0,-0.0274709428219,0.0,0.0813570927602,0.0,1011.10499914,2203.10023144,-1.34130416972,0.0,0.0,-60.96,0.00383600394174,100.0,-0.00843897660331,-100.0,-0.0,100.0,-0.0,-100.0,2479819175.29,0.0,0.0,0.0,0.0,0.0,0.0
1402603294189852545,3,-3.35791375644,9.88567784727,-42.1177963739,10.0438151857,0.274091776025,0.0,-0.0461320392046,0.0,0.0692177197003,0.0,1011.10499914,2203.10023144,-1.34130416972,0.0,0.0,-60.96,0.00383600394174,100.0,-0.00843897660331,-100.0,-0.0,100.0,-0.0,-100.0,2479819175.29,0.0,0.0,0.0,0.0,0.0,0.0
1402603294209583818,3,-3.35791375644,9.88567784727,-42.1177963739,10.0438151857,0.274091776025,0.0,-0.0461320392046,0.0,0.0692177197003,0.0,1011.10499914,2203.10023144,-1.34130416972,0.0,0.0,-60.96,0.00383600394174,100.0,-0.00997320015982,-100.0,-0.0,100.0,-0.0,-100.0,2479819175.29,0.0,0.0,0.0,0.0,0.0,0.0
1402603294230245800,3,-3.34650328036,9.88567784727,-42.1197631511,10.0438151857,0.288466684472,0.0,-0.061554542295,0.0,0.0558265600741,0.0,1011.10499914,2203.10023144,-1.34130416972,0.0,0.0,-60.96,0.00383600394174,100.0,-0.00997320015982,-100.0,-0.0,100.0,-0.0,-100.0,2479819175.29,0.0,0.0,0.0,0.0,0.0,0.0
1402603294249781787,3,-3.34650328036,9.88567784727,-42.1197631511,10.0438151857,0.288466684472,0.0,-0.061554542295,0.0,0.0558265600741,0.0,1011.10499914,2203.10023144,-1.34130416972,0.0,0.0,-60.96,0.00383600394174,100.0,-0.00997320015982,-100.0,-0.0,100.0,-0.0,-100.0,2479819175.29,0.0,0.0,0.0,0.0,0.0,0.0
1402603294269731901,3,-3.33066535777,9.88567784727,-42.1111027606,10.0438151857,0.290107657849,0.0,-0.0484326959204,0.0,0.044882606771,0.0,1011.10499914,2203.10023144,-1.34130416972,0.0,0.0,-60.96,0.00383600394174,100.0,-0.00997320015982,-100.0,-0.0,100.0,-0.0,-100.0,2479819175.29,0.0,0.0,0.0,0.0,0.0,0.0
1402603294290478012,3,-3.33066535777,9.88567784727,-42.1111027606,10.0438151857,0.290107657849,0.0,-0.0484326959204,0.0,0.044882606771,0.0,1011.10499914,2203.10023144,-1.34130416972,0.0,0.0,-60.96,0.00383600394174,100.0,-0.00997320015982,-100.0,-0.0,100.0,-0.0,-100.0,2479819175.29,0.0,0.0,0.0,0.0,0.0,0.0
1402603294309672270,3,-3.31451148057,9.88567784727,-42.1241628985,10.0438151857,0.303969397996,0.0,-0.0767549376677,0.0,0.0273444891529,0.0,1011.10499914,2203.10023144,-1.34130416972,0.0,0.0,-60.96,0.00383600394174,100.0,-0.00843897660331,-100.0,-0.0,100.0,-0.0,-100.0,2479819175.29,0.0,0.0,0.0,0.0,0.0,0.0
1402603294329672911,3,-3.31451148057,9.88567784727,-42.1241628985,10.0438151857,0.303969397996,0.0,-0.0767549376677,0.0,0.0273444891529,0.0,1011.10499914,2203.10023144,-1.34130416972,0.0,0.0,-60.96,0.00383600394174,100.0,-0.00997320015982,-100.0,-0.0,100.0,-0.0,-100.0,2479819175.29,0.0,0.0,0.0,0.0,0.0,0.0
1402603294350448216,3,-3.29608823511,9.88567784727,-42.1154454422,10.0438151857,0.316107076007,0.0,-0.0677235608997,0.0,0.0135219955897,0.0,1011.10499914,2203.10023144,-1.34130416972,0.0,0.0,-60.96,0.00383600394174,100.0,-0.00997320015982,-100.0,-0.0,100.0,-0.0,-100.0,2479819175.29,0.0,0.0,0.0,0.0,0.0,0.0
1402603294369822888,3,-3.29608823511,9.88567784727,-42.1154454422,10.0438151857,0.316107076007,0.0,-0.0677235608997,0.0,0.0135219955897,0.0,1011.10499914,2203.10023144,-1.34130416972,0.0,0.0,-60.96,0.00383600394174,100.0,-0.00997320015982,-100.0,-0.0,100.0,-0.0,-100.0,2479819175.29,0.0,0.0,0.0,0.0,0.0,0.0
1402603294390317927,3,-3.28212176231,9.88567784727,-42.120327288,10.0438151857,0.322138359988,0.0,-0.0802038982677,0.0,-0.00762628893429,0.0,1011.10499914,2203.10023144,-1.34130416972,0.0,0.0,-60.96,0.00383600394174,100.0,-0.00997320015982,-100.0,-0.0,100.0,-0.0,-100.0,2479819175.29,0.0,0.0,0.0,0.0,0.0,0.0
1402603294409864877,3,-3.28212176231,9.88567784727,-42.120327288,10.0438151857,0.322138359988,0.0,-0.0802038982677,0.0,-0.00762628893429,0.0,1011.10499914,2203.10023144,-1.34130416972,0.0,0.0,-60.96,0.00383600394174,100.0,-0.00997320015982,-100.0,-0.0,100.0,-0.0,-100.0,2479819175.29,0.0,0.0,0.0,0.0,0.0,0.0
1402603294430250975,3,-3.27231017327,9.88567784727,-42.1231694456,10.0438151857,0.32814053833,0.0,-0.0913578530601,0.0,-0.0214494112174,0.0,1011.10499914,2203.10023144,-1.34130416972,0.0,0.0,-60.96,0.00383600394174,100.0,-0.00997320015982,-100.0,-0.0,100.0,-0.0,-100.0,2479819175.29,0.0,0.0,0.0,0.0,0.0,0.0
1402603294449729386,3,-3.26566902994,9.88567784727,-42.1214304616,10.0438151857,0.322700494071,0.0,-0.0893053990309,0.0,-0.0292016445133,0.0,1011.10499914,2203.10023144,-1.34130416972,0.0,0.0,-60.96,0.00383600394174,100.0,-0.00997320015982,-100.0,-0.0,100.0,-0.0,-100.0,2479819175.29,0.0,0.0,0.0,0.0,0.0,0.0
1402603294470279269,3,-3.26566902994,9.88567784727,-42.1214304616,10.0438151857,0.322700494071,0.0,-0.0893053990309,0.0,-0.0292016445133,0.0,1011.10499914,2203.10023144,-1.34130416972,0.0,0.0,-60.96,0.00383600394174,100.0,-0.00997320015982,-100.0,-0.0,100.0,-0.0,-100.0,2479819175.29,0.0,0.0,0.0,0.0,0.0,0.0
1402603294489764077,3,-3.2593264625,9.88567784727,-42.1231912552,10.0438151857,0.325843609346,0.0,-0.0863009460179,0.0,-0.0386543944532,0.0,1011.10499914,2203.10023144,-1.34130416972,0.0,0.0,-60.96,0.00383600394174,100.0,-0.00997320015982,-100.0,-0.0,100.0,-0.0,-100.0,2479819175.29,0.0,0.0,0.0,0.0,0.0,0.0
1402603294509754288,3,-3.2593264625,9.88567784727,-42.1231912552,10.0438151857,0.325843609346,0.0,-0.0863009460179,0.0,-0.0386543944532,0.0,1011.10499914,2203.10023144,-1.34130416972,0.0,0.0,-60.96,0.00383600394174,100.0,-0.00997320015982,-100.0,-0.0,100.0,-0.0,-100.0,2479819175.29,0.0,0.0,0.0,0.0,0.0,0.0
1402603294529755214,3,-3.24324716803,9.88567784727,-42.1315717518,10.0438151857,0.33339245883,0.0,-0.103095936607,0.0,-0.0594961406041,0.0,1011.10499914,2203.10023144,-1.34130416972,0.0,0.0,-60.96,0.00383600394174,100.0,-0.00997320015982,-100.0,-0.0,100.0,-0.0,-100.0,2479819175.29,0.0,0.0,0.0,0.0,0.0,0.0
1402603294550306142,3,-3.24324716803,9.88567784727,-42.1315717518,10.0438151857,0.33339245883,0.0,-0.103095936607,0.0,-0.0594961406041,0.0,1011.10499914,2203.10023144,-1.34130416972,0.0,0.0,-60.96,0.00383600394174,100.0,-0.00997320015982,-100.0,-0.0,100.0,-0.0,-100.0,2479819175.29,0.0,0.0,0.0,0.0,0.0,0.0
1402603294569817848,3,-3.22950385205,9.88567784727,-42.1360791291,10.0438151857,0.334988552574,0.0,-0.108679036959,0.0,-0.080087764307,0.0,1011.10499914,2203.10023144,-1.34130416972,0.0,0.0,-60.96,0.00383600394174,100.0,-0.0115079005535,-100.0,-0.0,100.0,-0.0,-100.0,2479819175.29,0.0,0.0,0.0,0.0,0.0,0.0
1402603294589867200,3,-3.22950385205,9.88567784727,-42.1360791291,10.0438151857,0.334988552574,0.0,-0.108679036959,0.0,-0.080087764307,0.0,1011.10499914,2203.10023144,-1.34130416972,0.0,0.0,-60.96,0.00383600394174,100.0,-0.0115079005535,-100.0,-0.0,100.0,-0.0,-100.0,2479819175.29,0.0,0.0,0.0,0.0,0.0,0.0
1402603294610380387,3,-3.21517031362,9.88567784727,-42.1485049388,10.0438151857,0.342588521433,0.0,-0.123604493942,0.0,-0.101932265834,0.0,1011.10499914,2203.10023144,-1.34130416972,0.0,0.0,-60.96,0.00383600394174,100.0,-0.0115079005535,-100.0,-0.0,100.0,-0.0,-100.0,2479819175.29,0.0,0.0,0.0,0.0,0.0,0.0
1402603294629825938,3,-3.21517031362,9.88567784727,-42.1485049388,10.0438151857,0.342588521433,0.0,-0.123604493942,0.0,-0.101932265834,0.0,1011.10499914,2203.10023144,-1.34130416972,0.0,0.0,-60.96,0.00383600394174,100.0,-0.0115079005535,-100.0,-0.0,100.0,-0.0,-100.0,2479819175.29,0.0,0.0,0.0,0.0,0.0,0.0
1402603294650222741,3,-3.20099828916,9.88567784727,-42.1540172364,10.0438151857,0.346439461997,0.0,-0.139022604602,0.0,-0.123242905078,0.0,1011.10499914,2203.10023144,-1.34130416972,0.0,0.0,-60.96,0.00383600394174,100.0,-0.0115079005535,-100.0,-0.0,100.0,-0.0,-100.0,2479819175.29,0.0,0.0,0.0,0.0,0.0,0.0
1402603294669912266,3,-3.20099828916,9.88567784727,-42.1540172364,10.0438151857,0.346439461997,0.0,-0.139022604602,0.0,-0.123242905078,0.0,1011.10499914,2203.10023144,-1.34130416972,0.0,0.0,-60.96,0.00383600394174,100.0,-0.0115079005535,-100.0,-0.0,100.0,-0.0,-100.0,2479819175.29,0.0,0.0,0.0,0.0,0.0,0.0
1402603294690467893,3,-3.16533586955,9.88567784727,-42.1657667544,10.0438151857,0.378716696853,0.0,-0.129010151226,0.0,-0.150936926591,0.0,1011.10499914,2203.10023144,-1.34130416972,0.0,0.0,-60.96,0.00383600394174,100.0,-0.0115079005535,-100.0,-0.0,100.0,-0.0,-100.0,2479819175.29,0.0,0.0,0.0,0.0,0.0,0.0
1402603294709767791,3,-3.16533586955,9.88567784727,-42.1657667544,10.0438151857,0.378716696853,0.0,-0.129010151226,0.0,-0.150936926591,0.0,1011.10499914,2203.10023144,-1.34130416972,0.0,0.0,-60.96,0.00383600394174,100.0,-0.0115079005535,-100.0,-0.0,100.0,-0.0,-100.0,2479819175.29,0.0,0.0,0.0,0.0,0.0,0.0
1402603294730379841,3,-3.14470130947,9.88567784727,-42.1733209041,10.0438151857,0.38130725665,0.0,-0.130106552589,0.0,-0.17779207048,0.0,1011.10499914,2203.10023144,-1.34130416972,0.0,0.0,-60.96,0.00383600394174,100.0,-0.01304212411,-100.0,-0.0,100.0,-0.0,-100.0,2479819175.29,0.0,0.0,0.0,0.0,0.0,0.0
1402603294749727579,3,-3.14470130947,9.88567784727,-42.1733209041,10.0438151857,0.38130725665,0.0,-0.130106552589,0.0,-0.17779207048,0.0,1011.10499914,2203.10023144,-1.34130416972,0.0,0.0,-60.96,0.00383600394174,100.0,-0.01304212411,-100.0,-0.0,100.0,-0.0,-100.0,2479819175.29,0.0,0.0,0.0,0.0,0.0,0.0
1402603294770315180,3,-3.13697032331,9.88567784727,-42.1759804369,10.0438151857,0.384009250945,0.0,-0.133762834009,0.0,-0.189002007837,0.0,1011.10499914,2203.10023144,-1.34130416972,0.0,0.0,-60.96,0.00383600394174,100.0,-0.0115079005535,-100.0,-0.0,100.0,-0.0,-100.0,2479819175.29,0.0,0.0,0.0,0.0,0.0,0.0
1402603294789754551,3,-3.13697032331,9.88567784727,-42.1759804369,10.0438151857,0.384009250945,0.0,-0.133762834009,0.0,-0.189002007837,0.0,1011.10499914,2203.10023144,-1.34130416972,0.0,0.0,-60.96,0.00383600394174,100.0,-0.0115079005535,-100.0,-0.0,100.0,-0.0,-100.0,2479819175.29,0.0,0.0,0.0,0.0,0.0,0.0
1402603294810313319,3,-3.13490846057,9.88567784727,-42.1972415857,10.0438151857,0.357490820046,0.0,-0.156185005152,0.0,-0.212914928691,0.0,1011.10499914,2203.10023144,-1.34130416972,0.0,0.0,-60.96,0.00383600394174,100.0,-0.0115079005535,-100.0,-0.0,100.0,-0.0,-100.0,2479819175.29,0.0,0.0,0.0,0.0,0.0,0.0
1402603294829721804,3,-3.13490846057,9.88567784727,-42.1972415857,10.0438151857,0.357490820046,0.0,-0.156185005152,0.0,-0.212914928691,0.0,1011.10499914,2203.10023144,-1.34130416972,0.0,0.0,-60.96,0.00383600394174,100.0,-0.00997320015982,-100.0,-0.0,100.0,-0.0,-100.0,2479819175.29,0.0,0.0,0.0,0.0,0.0,0.0
1402603294850379575,3,-3.11154517206,9.88567784727,-42.2058189085,10.0438151857,0.366519328669,0.0,-0.158146082118,0.0,-0.235302564099,0.0,1011.10499914,2203.10023144,-1.34130416972,0.0,0.0,-60.96,0.00383600394174,100.0,-0.0115079005535,-100.0,-0.0,100.0,-0.0,-100.0,2479819175.29,0.0,0.0,0.0,0.0,0.0,0.0
1402603294870013577,3,-3.11154517206,9.88567784727,-42.2058189085,10.0438151857,0.366519328669,0.0,-0.158146082118,0.0,-0.235302564099,0.0,1011.10499914,2203.10023144,-1.34130416972,0.0,0.0,-60.96,0.00383600394174,100.0,-0.01304212411,-100.0,-0.0,100.0,-0.0,-100.0,2479819175.29,0.0,0.0,0.0,0.0,0.0,0.0
1402603294890580670,3,-3.09621085296,9.88567784727,-42.2125772866,10.0438151857,0.368079713624,0.0,-0.168883448791,0.0,-0.25918945136,0.0,1011.10499914,2203.10023144,-1.34130416972,0.0,0.0,-60.96,0.00383600394174,100.0,-0.01304212411,-100.0,-0.0,100.0,-0.0,-100.0,2479819175.29,0.0,0.0,0.0,0.0,0.0,0.0
1402603294909721323,3,-3.09621085296,9.88567784727,-42.2125772866,10.0438151857,0.368079713624,0.0,-0.168883448791,0.0,-0.25918945136,0.0,1011.10499914,2203.10023144,-1.34130416972,0.0,0.0,-60.96,0.00383600394174,100.0,-0.01304212411,-100.0,-0.0,100.0,-0.0,-100.0,2479819175.29,0.0,0.0,0.0,0.0,0.0,0.0
1402603294930280716,3,-3.07359983996,9.88567784727,-42.2357970949,10.0438151857,0.37269280909,0.0,-0.197554255996,0.0,-0.290138429209,0.0,1011.10499914,2203.10023144,-1.34130416972,0.0,0.0,-60.96,0.00383600394174,100.0,-0.0115079005535,-100.0,-0.0,100.0,-0.0,-100.0,2479819175.29,0.0,0.0,0.0,0.0,0.0,0.0
1402603294949703737,3,-3.07359983996,9.88567784727,-42.2357970949,10.0438151857,0.37269280909,0.0,-0.197554255996,0.0,-0.290138429209,0.0,1011.10499914,2203.10023144,-1.34130416972,0.0,0.0,-60.96,0.00383600394174,100.0,-0.0115079005535,-100.0,-0.0,100.0,-0.0,-100.0,2479819175.29,0.0,0.0,0.0,0.0,0.0,0.0
1402603294970295632,3,-3.05338009383,9.88567784727,-42.2597235526,10.0438151857,0.368991896305,0.0,-0.22618053174,0.0,-0.322868557263,0.0,1011.10499914,2203.10023144,-1.34130416972,0.0,0.0,-60.96,0.00383600394174,100.0,-0.01304212411,-100.0,-0.0,100.0,-0.0,-100.0,2479819175.29,0.0,0.0,0.0,0.0,0.0,0.0
1402603294989726278,3,-3.05338009383,9.88567784727,-42.2597235526,10.0438151857,0.368991896305,0.0,-0.22618053174,0.0,-0.322868557263,0.0,1011.10499914,2203.10023144,-1.34130416972,0.0,0.0,-60.96,0.00383600394174,100.0,-0.01304212411,-100.0,-0.0,100.0,-0.0,-100.0,2479819175.29,0.0,0.0,0.0,0.0,0.0,0.0
1402603295010276157,3,-3.04596586632,9.88567784727,-42.264608109,10.0438151857,0.365236666227,0.0,-0.236155042539,0.0,-0.335730951678,0.0,1011.10499914,2203.10023144,-1.34130416972,0.0,0.0,-60.96,0.00383600394174,100.0,-0.01304212411,-100.0,-0.0,100.0,-0.0,-100.0,2479819175.29,0.0,0.0,0.0,0.0,0.0,0.0
1402603295029595767,3,-3.04596586632,9.88567784727,-42.264608109,10.0438151857,0.365236666227,0.0,-0.236155042539,0.0,-0.335730951678,0.0,1011.10499914,2203.10023144,-1.34130416972,0.0,0.0,-60.96,0.00383600394174,100.0,-0.01304212411,-100.0,-0.0,100.0,-0.0,-100.0,2479819175.29,0.0,0.0,0.0,0.0,0.0,0.0
1402603295050145520,3,-3.01754837914,9.88567784727,-42.2748702302,10.0438151857,0.382617100312,0.0,-0.244683048414,0.0,-0.35932012564,0.0,1011.10499914,2203.10023144,-1.34130416972,0.0,0.0,-60.96,0.00383600394174,100.0,-0.01304212411,-100.0,-0.0,100.0,-0.0,-100.0,2479819175.29,0.0,0.0,0.0,0.0,0.0,0.0
