rosbagTimestamp,header,seq,stamp,secs,nsecs,frame_id,child_frame_id,pose,pose,position,x,y,z,orientation,x,y,z,w,covariance,twist,twist,linear,x,y,z,angular,x,y,z,covariance
1402416354898169455,,189286,,1402416354,896635055,/enu,/imu,,,,7.2872176209,19.9828710539,-19.2125317179,,0.455962235151,0.889890564155,-0.00263544309939,0.0136483839047,"[0.02795255341066339, -0.00614386676934413, -0.0015185599269515971, 2.056725143612251e-06, -7.121467753101516e-07, -6.58383216092575e-05, -0.00614386676934413, 0.033477998835289506, 0.005163744601124694, -6.238804786139821e-07, -1.491961672925262e-06, -3.3889302369948e-05, -0.0015185599269515971, 0.005163744601124694, 0.21446170424121136, 2.141979863166796e-06, -1.242045482309347e-06, 4.1481385581310754e-06, 2.056725143612251e-06, -6.238804786139821e-07, 2.141979863166796e-06, 4.084615324742705e-06, 2.570973552389791e-07, -1.2009143529168248e-06, -7.121467753101516e-07, -1.491961672925262e-06, -1.242045482309347e-06, 2.570973552389791e-07, 4.2021183296190674e-06, 1.7527351832370235e-06, -6.58383216092575e-05, -3.3889302369948e-05, 4.1481385581310754e-06, -1.2009143529168248e-06, 1.7527351832370235e-06, 0.00012220693608703365]",,,,0.364297978302,-0.4516939111,-0.0147728781646,,0.0243376292039,-0.0161187951692,0.323038068399,"[0.00031873626041425176, 1.2570549602460991e-05, 3.381389575586681e-05, 3.3218979149110675e-09, -9.109814762958952e-09, -5.221892424113216e-08, 1.2570549602460991e-05, 0.00016040860251202022, 5.12901387837091e-06, 7.497063613279943e-09, 3.675314010390989e-09, -1.8963493712274446e-08, 3.381389575586681e-05, 5.12901387837091e-06, 0.0001673568417821023, 1.386432452165982e-09, -1.0525860922409846e-09, 4.673507045940405e-10, 3.3218979149110675e-09, 7.497063613279943e-09, 1.386432452165982e-09, 2.1733531659416546e-09, -4.62591884727197e-12, -1.1831299028463506e-11, -9.109814762958952e-09, 3.675314010390989e-09, -1.0525860922409846e-09, -4.62591884727197e-12, 2.150853390366073e-09, -4.63486241207629e-13, -5.221892424113216e-08, -1.8963493712274446e-08, 4.673507045940405e-10, -1.1831299028463506e-11, -4.63486241207629e-13, 2.173243924036838e-09]"
1402416354907607272,,189287,,1402416354,906645059,/enu,/imu,,,,7.28142685185,19.9830975535,-19.2124773127,,0.457403690329,0.889152705619,-0.00259773686309,0.0135122879851,"[0.02795530427845585, -0.006145020682644328, -0.001516096723246562, 2.0908596070439397e-06, -5.256193574758301e-07, -6.612560826582299e-05, -0.006145020682644328, 0.0334800136133328, 0.0051612399685546225, -8.093932825653609e-07, -1.5178253842372803e-06, -3.353798093127977e-05, -0.001516096723246562, 0.0051612399685546225, 0.21447494677249115, 2.1578018962436325e-06, -1.2366375659191855e-06, 4.143364313474603e-06, 2.0908596070439397e-06, -8.093932825653609e-07, 2.1578018962436325e-06, 4.124645058616957e-06, 2.5710191645513643e-07, -1.2007068823677758e-06, -5.256193574758301e-07, -1.5178253842372803e-06, -1.2366375659191855e-06, 2.5710191645513643e-07, 4.242128607766825e-06, 1.751181113493821e-06, -6.612560826582299e-05, -3.353798093127977e-05, 4.143364313474603e-06, -1.2007068823677758e-06, 1.751181113493821e-06, 0.00012222522574508937]",,,,0.363866500437,-0.454372889749,-0.0100390017135,,0.010089867736,0.0264035932041,0.323148517995,"[0.00032333938467098453, 1.1965795056453177e-05, 3.370923955540623e-05, 3.384862014950814e-09, -9.317698385677355e-09, -5.228900022018019e-08, 1.1965795056453177e-05, 0.00016390944323752836, 5.277958885159738e-06, 7.680087423785567e-09, 3.7496965589906845e-09, -1.8907261847155637e-08, 3.370923955540623e-05, 5.277958885159738e-06, 0.00016775742313120964, 1.3968605090891108e-09, -1.0414085609613868e-09, 4.5502189221718323e-10, 3.384862014950814e-09, 7.680087423785567e-09, 1.3968605090891108e-09, 2.1733531459336603e-09, -4.625922977999388e-12, -1.1831043973220814e-11, -9.317698385677355e-09, 3.7496965589906845e-09, -1.0414085609613868e-09, -4.625922977999388e-12, 2.150853346652986e-09, -4.630803080877797e-13, -5.228900022018019e-08, -1.8907261847155637e-08, 4.5502189221718323e-10, -1.1831043973220814e-11, -4.630803080877797e-13, 2.1732377640508484e-09]"
1402416354918803344,,189288,,1402416354,917633056,/enu,/imu,,,,7.27486753952,19.9834894637,-19.2124853106,,0.458984063838,0.888339743418,-0.00260661105032,0.0133916013063,"[0.027958308635120756, -0.006146288416442242, -0.0015133890669861477, 2.1286482928927254e-06, -3.16215955456595e-07, -6.644218908417674e-05, -0.006146288416442242, 0.033482294547177084, 0.005158472781983623, -1.0176404108791605e-06, -1.5465788054446182e-06, -3.315336066906831e-05, -0.0015133890669861477, 0.005158472781983623, 0.21448954462236328, 2.1752588846683637e-06, -1.2306498214399886e-06, 4.138149489522916e-06, 2.1286482928927254e-06, -1.0176404108791605e-06, 2.1752588846683637e-06, 4.172892151650909e-06, 2.5710658679887246e-07, -1.2005056493690692e-06, -3.16215955456595e-07, -1.5465788054446182e-06, -1.2306498214399886e-06, 2.5710658679887246e-07, 4.2903561443894325e-06, 1.7496179598030245e-06, -6.644218908417674e-05, -3.315336066906831e-05, 4.138149489522916e-06, -1.2005056493690692e-06, 1.7496179598030245e-06, 0.00012225184766572294]",,,,0.365245781155,-0.454289223937,-0.0145187147358,,0.0158331511637,0.0175677722231,0.322927624797,"[0.000328531460537211, 1.1295458302093139e-05, 3.3578203096637635e-05, 3.4555553461400297e-09, -9.547719545324398e-09, -5.2366919849952325e-08, 1.1295458302093139e-05, 0.00016788527902129516, 5.443080220284566e-06, 7.882956196202822e-09, 3.832894518109531e-09, -1.8845888302912124e-08, 3.3578203096637635e-05, 5.443080220284566e-06, 0.00016823005532328185, 1.4074791372626278e-09, -1.0285004743838477e-09, 4.4772321962751266e-10, 3.4555553461400297e-09, 7.882956196202822e-09, 1.4074791372626278e-09, 2.17335312551676e-09, -4.625927146999581e-12, -1.1830785963274277e-11, -9.547719545324398e-09, 3.832894518109531e-09, -1.0285004743838477e-09, -4.625927146999581e-12, 2.1508533023815494e-09, -4.626727967742138e-13, -5.2366919849952325e-08, -1.8845888302912124e-08, 4.4772321962751266e-10, -1.1830785963274277e-11, -4.626727967742138e-13, 2.1732316021836353e-09]"
1402416354928553333,,189289,,1402416354,927617073,/enu,/imu,,,,7.2690178441,19.9838316868,-19.2124301657,,0.460429583261,0.887592251861,-0.00269733383175,0.0133160686804,"[0.02796111086781309, -0.006147486450177451, -0.001510921463236836, 2.163251008927035e-06, -1.2150802289900787e-07, -6.673016552892667e-05, -0.006147486450177451, 0.033484414773259606, 0.005155909245653689, -1.211132034404329e-06, -1.5729386129162966e-06, -3.280346821022712e-05, -0.001510921463236836, 0.005155909245653689, 0.21450283168645815, 2.191244048833757e-06, -1.2251919668400562e-06, 4.1332647791402984e-06, 2.163251008927035e-06, -1.211132034404329e-06, 2.191244048833757e-06, 4.212710734466023e-06, 2.571111025039251e-07, -1.2002944203912742e-06, -1.2150802289900787e-07, -1.5729386129162966e-06, -1.2251919668400562e-06, 2.571111025039251e-07, 4.330155594355761e-06, 1.7480369961484501e-06, -6.673016552892667e-05, -3.280346821022712e-05, 4.1332647791402984e-06, -1.2002944203912742e-06, 1.7480369961484501e-06, 0.0001222699120554565]",,,,0.366342288016,-0.455481252307,-0.0115523455102,,0.0274301660278,0.00387224975255,0.325357477048,"[0.0003333047783285905, 1.0675804261449257e-05, 3.343439996786524e-05, 3.521419297972019e-09, -9.758757089826752e-09, -5.243762156210693e-08, 1.0675804261449257e-05, 0.000171546092402142, 5.593157310317698e-06, 8.069376742874449e-09, 3.910027249405283e-09, -1.8788016635982192e-08, 3.343439996786524e-05, 5.593157310317698e-06, 0.00016861162673791175, 1.415710552359185e-09, -1.0159073436520208e-09, 4.504714307423348e-10, 3.521419297972019e-09, 8.069376742874449e-09, 1.415710552359185e-09, 2.173353104656903e-09, -4.625931321735594e-12, -1.1830524647379857e-11, -9.758757089826752e-09, 3.910027249405283e-09, -1.0159073436520208e-09, -4.625931321735594e-12, 2.150853257449361e-09, -4.62263481744743e-13, -5.243762156210693e-08, -1.8788016635982192e-08, 4.504714307423348e-10, -1.1830524647379857e-11, -4.62263481744743e-13, 2.1732254378307977e-09]"
1402416354938714343,,189290,,1402416354,937751054,/enu,/imu,,,,7.27550810474,19.9702406357,-19.1848475409,,0.462135750992,0.886719722108,-0.00220429179266,0.0124025472142,"[0.027946223064527237, -0.006146768302940412, -0.0015137370411305645, 1.999315184869605e-06, -1.0095835009980821e-06, -6.66201157648124e-05, -0.006146768302940412, 0.033470443518249855, 0.00516683699842393, -3.967362865509313e-07, -1.4723257048440388e-06, -3.2610905673781875e-05, -0.0015137370411305645, 0.00516683699842393, 0.21444715548061907, 2.083926909661112e-06, -1.1374628764918224e-06, 4.08141547153906e-06, 1.999315184869605e-06, -3.967362865509313e-07, 2.083926909661112e-06, 4.044902014010827e-06, 2.56560219393596e-07, -1.1814275539055152e-06, -1.0095835009980821e-06, -1.4723257048440388e-06, -1.1374628764918224e-06, 2.56560219393596e-07, 4.165950174995117e-06, 1.8253132578055337e-06, -6.66201157648124e-05, -3.2610905673781875e-05, 4.08141547153906e-06, -1.1814275539055152e-06, 1.8253132578055337e-06, 0.00012225706294220938]",,,,0.341338794203,-0.45706113637,-0.0221960350354,,0.0170476266223,0.00475678393225,0.325578657782,"[0.0003128645925138597, 9.356628772392127e-06, 3.4955597002739704e-05, 3.2263734186454965e-09, -8.831883023981562e-09, -5.219131830519756e-08, 9.356628772392127e-06, 0.0001548170073558654, 4.282291070568317e-06, 7.29077868057603e-09, 3.6202322233896104e-09, -1.7506419395428437e-08, 3.4955597002739704e-05, 4.282291070568317e-06, 0.0001672238155000337, 1.3867114334360603e-09, -1.149452804985164e-09, 3.1321147224688345e-10, 3.2263734186454965e-09, 7.29077868057603e-09, 1.3867114334360603e-09, 2.1732961541964464e-09, -4.623184596403933e-12, -1.1836971129246548e-11, -8.831883023981562e-09, 3.6202322233896104e-09, -1.149452804985164e-09, -4.623184596403933e-12, 2.150798977549507e-09, -4.816301184186386e-13, -5.219131830519756e-08, -1.7506419395428437e-08, 3.1321147224688345e-10, -1.1836971129246548e-11, -4.816301184186386e-13, 2.1732109491641543e-09]"
1402416354948584766,,189291,,1402416354,947614908,/enu,/imu,,,,7.2696404555,19.9702622141,-19.1845595908,,0.463578326713,0.885968277652,-0.00223325648914,0.0122620782141,"[0.027948805015195637, -0.006147915079747557, -0.001511256376818429, 2.0324386377375845e-06, -8.299910937162426e-07, -6.689463371157696e-05, -0.006147915079747557, 0.033472411943030286, 0.005164345033040157, -5.753602027164369e-07, -1.4973870912082347e-06, -3.226706444405286e-05, -0.001511256376818429, 0.005164345033040157, 0.214460146692546, 2.099362796341585e-06, -1.1318394159552847e-06, 4.076511207777095e-06, 2.0324386377375845e-06, -5.753602027164369e-07, 2.099362796341585e-06, 4.0837706953485615e-06, 2.5656469982245445e-07, -1.1812223639679705e-06, -8.299910937162426e-07, -1.4973870912082347e-06, -1.1318394159552847e-06, 2.5656469982245445e-07, 4.20479734498411e-06, 1.82375354409354e-06, -6.689463371157696e-05, -3.226706444405286e-05, 4.076511207777095e-06, -1.1812223639679705e-06, 1.82375354409354e-06, 0.0001222741118835528]",,,,0.34236422613,-0.459241221189,-0.0161620432289,,0.0224595665074,0.0213239480654,0.328339858292,"[0.0003172746875213781, 8.746582236240868e-06, 3.4865175596132875e-05, 3.287308787873256e-09, -9.034740044542185e-09, -5.2255336508988505e-08, 8.746582236240868e-06, 0.0001582013038993343, 4.417548198622471e-06, 7.46953041342886e-09, 3.6930568900725674e-09, -1.744981316361545e-08, 3.4865175596132875e-05, 4.417548198622471e-06, 0.00016760733154694827, 1.3960923133959764e-09, -1.1394468556272721e-09, 3.056411116467425e-10, 3.287308787873256e-09, 7.46953041342886e-09, 1.3960923133959764e-09, 2.1732961345371943e-09, -4.623189140268142e-12, -1.1836713833256846e-11, -9.034740044542185e-09, 3.6930568900725674e-09, -1.1394468556272721e-09, -4.623189140268142e-12, 2.1507989340189667e-09, -4.812253965054231e-13, -5.2255336508988505e-08, -1.744981316361545e-08, 3.056411116467425e-10, -1.1836713833256846e-11, -4.812253965054231e-13, 2.1732047725575265e-09]"
1402416354958673166,,189292,,1402416354,957619905,/enu,/imu,,,,7.26407992367,19.970568703,-19.1846214808,,0.46497286348,0.885237219116,-0.00230051624742,0.0122478464928,"[0.027951482378101303, -0.0061490926428569076, -0.0015087951417575578, 2.066302768179154e-06, -6.437817391786654e-07, -6.717421536363364e-05, -0.0061490926428569076, 0.03347441959792314, 0.005161784953465764, -7.605358317884802e-07, -1.5230729594574536e-06, -3.1917797984261703e-05, -0.0015087951417575578, 0.005161784953465764, 0.21447359134589564, 2.1151412659285365e-06, -1.12613107664e-06, 4.0715891753739976e-06, 2.066302768179154e-06, -7.605358317884802e-07, 2.1151412659285365e-06, 4.123760391000239e-06, 2.565691784684759e-07, -1.181016748580812e-06, -6.437817391786654e-07, -1.5230729594574536e-06, -1.12613107664e-06, 2.565691784684759e-07, 4.244765616671583e-06, 1.822182544804779e-06, -6.717421536363364e-05, -3.1917797984261703e-05, 4.0715891753739976e-06, -1.181016748580812e-06, 1.822182544804779e-06, 0.00012229229526189368]",,,,0.342293765719,-0.457304494748,-0.0238499329595,,0.0170476260392,-0.00485217155098,0.314202546386,"[0.0003218466270990957, 8.142263623945405e-06, 3.473285348959582e-05, 3.3495607594384534e-09, -9.242876950168333e-09, -5.231777770806142e-08, 8.142263623945405e-06, 0.0001617206939854542, 4.558893137182717e-06, 7.65287057162636e-09, 3.7669917164847655e-09, -1.7400350061136518e-08, 3.473285348959582e-05, 4.558893137182717e-06, 0.00016798370417187315, 1.4050501827429104e-09, -1.1267357177317787e-09, 3.1071917604254245e-10, 3.3495607594384534e-09, 7.65287057162636e-09, 1.4050501827429104e-09, 2.1732961145348396e-09, -4.62319372133638e-12, -1.1836453462384782e-11, -9.242876950168333e-09, 3.7669917164847655e-09, -1.1267357177317787e-09, -4.62319372133638e-12, 2.1507988899212167e-09, -4.808191371085446e-13, -5.231777770806142e-08, -1.7400350061136518e-08, 3.1071917604254245e-10, -1.1836453462384782e-11, -4.808191371085446e-13, 2.1731985945482832e-09]"
1402416354994839718,,189293,,1402416354,967617988,/enu,/imu,,,,7.25838388323,19.9708410292,-19.1845699537,,0.466389003161,0.884493863188,-0.00227136332806,0.0121138195037,"[0.0279542492883877, -0.00615024780988087, -0.001506338289318738, 2.1004400646741996e-06, -4.535386728012349e-07, -6.745394987554997e-05, -0.00615024780988087, 0.033476528764274635, 0.005159263139087368, -9.495962532211177e-07, -1.5489980101655076e-06, -3.156840420694634e-05, -0.001506338289318738, 0.005159263139087368, 0.2144867424201902, 2.1309890123468443e-06, -1.1204238439624629e-06, 4.06654092337723e-06, 2.1004400646741996e-06, -9.495962532211177e-07, 2.1309890123468443e-06, 4.1636933179033435e-06, 2.5657363546043613e-07, -1.1808095244166212e-06, -4.535386728012349e-07, -1.5489980101655076e-06, -1.1204238439624629e-06, 2.5657363546043613e-07, 4.284677249401117e-06, 1.8205994272673178e-06, -6.745394987554997e-05, -3.156840420694634e-05, 4.06654092337723e-06, -1.1808095244166212e-06, 1.8205994272673178e-06, 0.00012231041691577367]",,,,0.343001050387,-0.460425128583,-0.0164969109159,,0.0111938944808,0.025300067466,0.319504040945,"[0.0003264744690015883, 7.517038869835508e-06, 3.4646501170655154e-05, 3.4129588954518854e-09, -9.452199280028687e-09, -5.2381525762243046e-08, 7.517038869835508e-06, 0.00016531587617939718, 4.702735272122081e-06, 7.837776609691508e-09, 3.842793447740908e-09, -1.7347827179393676e-08, 3.4646501170655154e-05, 4.702735272122081e-06, 0.0001683811545044514, 1.4155001713152408e-09, -1.1165972114687533e-09, 2.990068712573447e-10, 3.4129588954518854e-09, 7.837776609691508e-09, 1.4155001713152408e-09, 2.173296094085791e-09, -4.623198324903489e-12, -1.1836189945739111e-11, -9.452199280028687e-09, 3.842793447740908e-09, -1.1165972114687533e-09, -4.623198324903489e-12, 2.1507988452580764e-09, -4.804113140537239e-13, -5.2381525762243046e-08, -1.7347827179393676e-08, 2.990068712573447e-10, -1.1836189945739111e-11, -4.804113140537239e-13, 2.1731924146059557e-09]"
1402416354994872323,,189294,,1402416354,977673053,/enu,/imu,,,,7.25253662186,19.9709687579,-19.1842920829,,0.467825430941,0.883735378968,-0.00237334347709,0.0120628921168,"[0.027957001134737987, -0.006151481946027621, -0.0015038482852757669, 2.1350476363277707e-06, -2.580895075002984e-07, -6.773504459138534e-05, -0.006151481946027621, 0.033478687597889537, 0.005156662987755004, -1.143753915903082e-06, -1.5753443056458652e-06, -3.121714754898959e-05, -0.0015038482852757669, 0.005156662987755004, 0.21450024258107533, 2.1469771083310488e-06, -1.1146527049769776e-06, 4.061435305668591e-06, 2.1350476363277707e-06, -1.143753915903082e-06, 2.1469771083310488e-06, 4.204082137819227e-06, 2.56578078428412e-07, -1.180601148853083e-06, -2.580895075002984e-07, -1.5753443056458652e-06, -1.1146527049769776e-06, 2.56578078428412e-07, 4.3250448965532585e-06, 1.8190044219742845e-06, -6.773504459138534e-05, -3.121714754898959e-05, 4.061435305668591e-06, -1.180601148853083e-06, 1.8190044219742845e-06, 0.00012232899733470289]",,,,0.342495644259,-0.459669064678,-0.0213926155202,,0.0265461332431,-0.00164918650279,0.322375684765,"[0.0003312306844542114, 6.880737185847319e-06, 3.4514905620144856e-05, 3.4785708383919046e-09, -9.664506405179318e-09, -5.244635628127257e-08, 6.880737185847319e-06, 0.00016901653572293012, 4.8466098797208905e-06, 8.025544753185305e-09, 3.9205298334465764e-09, -1.7293199074385102e-08, 3.4514905620144856e-05, 4.8466098797208905e-06, 0.00016876268320551856, 1.4238124613943544e-09, -1.1044674787509175e-09, 3.0411323940934037e-10, 3.4785708383919046e-09, 8.025544753185305e-09, 1.4238124613943544e-09, 2.1732960732348995e-09, -4.6232029410761025e-12, -1.1835923559848592e-11, -9.664506405179318e-09, 3.9205298334465764e-09, -1.1044674787509175e-09, -4.6232029410761025e-12, 2.1507988000117427e-09, -4.800019329126113e-13, -5.244635628127257e-08, -1.7293199074385102e-08, 3.0411323940934037e-10, -1.1835923559848592e-11, -4.800019329126113e-13, 2.1731862324603242e-09]"
1402416354994892532,,189295,,1402416354,987607002,/enu,/imu,,,,7.24688167917,19.9713123278,-19.1843935859,,0.469230524115,0.882992011949,-0.00231395895897,0.011935982022,"[0.027959809181167236, -0.006152652053315326, -0.0015013899665477278, 2.169487885924066e-06, -6.068635852647975e-08, -6.801223005846657e-05, -0.006152652053315326, 0.03348080871766578, 0.005154141476824318, -1.339752908809705e-06, -1.6016453321163156e-06, -3.086933812925704e-05, -0.0015013899665477278, 0.005154141476824318, 0.21451350762137825, 2.1628315544535317e-06, -1.1089260508624059e-06, 4.056264188555735e-06, 2.169487885924066e-06, -1.339752908809705e-06, 2.1628315544535317e-06, 4.243500538910316e-06, 2.565824842087404e-07, -1.1803902297877012e-06, -6.068635852647975e-08, -1.6016453321163156e-06, -1.1089260508624059e-06, 2.565824842087404e-07, 4.3644422937636765e-06, 1.8173967952639483e-06, -6.801223005846657e-05, -3.086933812925704e-05, 4.056264188555735e-06, -1.1803902297877012e-06, 1.8173967952639483e-06, 0.00012234658839550022]",,,,0.342011080285,-0.461937215115,-0.0220813991273,,0.00522971503497,0.0270672315964,0.319724940218,"[0.0003359849490844574, 6.238171916060518e-06, 3.443170741741314e-05, 3.543996966150201e-09, -9.875730254780253e-09, -5.251022003400622e-08, 6.238171916060518e-06, 0.00017274773928540146, 4.993750219280089e-06, 8.212602835591092e-09, 3.998688466484696e-09, -1.724032857408973e-08, 3.443170741741314e-05, 4.993750219280089e-06, 0.00016915689961146432, 1.4347318209276139e-09, -1.0944476902733968e-09, 2.905407821564145e-10, 3.543996966150201e-09, 8.212602835591092e-09, 1.4347318209276139e-09, 2.1732960520344647e-09, -4.623207572527116e-12, -1.1835654361709818e-11, -9.875730254780253e-09, 3.998688466484696e-09, -1.0944476902733968e-09, -4.623207572527116e-12, 2.1507987541865957e-09, -4.795909917521409e-13, -5.251022003400622e-08, -1.724032857408973e-08, 2.905407821564145e-10, -1.1835654361709818e-11, -4.795909917521409e-13, 2.173180049557938e-09]"
1402416355034876609,,189296,,1402416354,997766971,/enu,/imu,,,,7.24096755858,19.9715578785,-19.1842588156,,0.47062015637,0.882253301755,-0.00225642923679,0.0118612178132,"[0.02796271519633725, -0.0061539389403816504, -0.0014988493474317399, 2.2050131079870003e-06, 1.4552902344739688e-07, -6.829608621781834e-05, -0.0061539389403816504, 0.033483058537545754, 0.005151522621040764, -1.5444050899225952e-06, -1.628838143755421e-06, -3.051448214412795e-05, -0.0014988493474317399, 0.005151522621040764, 0.21452717473753732, 2.1791165802322704e-06, -1.1030181333791568e-06, 4.051203375424914e-06, 2.2050131079870003e-06, -1.5444050899225952e-06, 2.1791165802322704e-06, 4.284735192357277e-06, 2.565868975480527e-07, -1.1801795540977712e-06, 1.4552902344739688e-07, -1.628838143755421e-06, -1.1030181333791568e-06, 2.565868975480527e-07, 4.405656029322013e-06, 1.8157778624543241e-06, -6.829608621781834e-05, -3.051448214412795e-05, 4.051203375424914e-06, -1.1801795540977712e-06, 1.8157778624543241e-06, 0.00012236601938123964]",,,,0.343914840722,-0.462287179948,-0.0214704147887,,0.00059090883738,0.017237380714,0.309342853197,"[0.0003409448625199612, 5.587545874276773e-06, 3.4329664137995795e-05, 3.611465881664916e-09, -1.0093998655905962e-08, -5.257420347999319e-08, 5.587545874276773e-06, 0.0001766574968801252, 5.150189501811788e-06, 8.40603099656359e-09, 4.079066677430714e-09, -1.7191571202116234e-08, 3.4329664137995795e-05, 5.150189501811788e-06, 0.0001695623306539672, 1.4459702184381877e-09, -1.0830382739693816e-09, 2.8107948368236566e-10, 3.611465881664916e-09, 8.40603099656359e-09, 1.4459702184381877e-09, 2.1732960304033538e-09, -4.623212257633123e-12, -1.1835382145960214e-11, -1.0093998655905962e-08, 4.079066677430714e-09, -1.0830382739693816e-09, -4.623212257633123e-12, 2.1507987077785617e-09, -4.791785525023904e-13, -5.257420347999319e-08, -1.7191571202116234e-08, 2.8107948368236566e-10, -1.1835382145960214e-11, -4.791785525023904e-13, 2.1731738637527233e-09]"
1402416355034912169,,189297,,1402416355,7606029,/enu,/imu,,,,7.23534557232,19.9717953638,-19.1840537744,,0.471985730832,0.88152502526,-0.00223715434263,0.0117513774238,"[0.027965592990773502, -0.006155143110440051, -0.0014964171557630063, 2.2396425292453475e-06, 3.492570813485657e-07, -6.857167163583202e-05, -0.006155143110440051, 0.03348527576399802, 0.00514899392244293, -1.7464867344797303e-06, -1.6554329683917117e-06, -3.0172228885864338e-05, -0.0014964171557630063, 0.00514899392244293, 0.21454041350029596, 2.19500573437742e-06, -1.0972164310968051e-06, 4.046309616962884e-06, 2.2396425292453475e-06, -1.7464867344797303e-06, 2.19500573437742e-06, 4.323399646451343e-06, 2.565912462845569e-07, -1.1799647785497384e-06, 3.492570813485657e-07, -1.6554329683917117e-06, -1.0972164310968051e-06, 2.565912462845569e-07, 4.444299796617959e-06, 1.8141453762101237e-06, -6.857167163583202e-05, -3.0172228885864338e-05, 4.046309616962884e-06, -1.1799647785497384e-06, 1.8141453762101237e-06, 0.00012238283669214475]",,,,0.345285066427,-0.46512699883,-0.0130100676518,,0.0107521028036,0.0204403657922,0.314202556387,"[0.0003458151617970665, 4.943536249743271e-06, 3.4235415533776686e-05, 3.678339496272198e-09, -1.0307041304105981e-08, -5.2637003027927505e-08, 4.943536249743271e-06, 0.00018051460049631343, 5.302395781064115e-06, 8.59528075636912e-09, 4.158610240190081e-09, -1.714148276630012e-08, 3.4235415533776686e-05, 5.302395781064115e-06, 0.00016994444288012393, 1.4561985378985143e-09, -1.0727282650281968e-09, 2.719855300611947e-10, 3.678339496272198e-09, 8.59528075636912e-09, 1.4561985378985143e-09, 2.1732960083465885e-09, -4.623216931360693e-12, -1.1835106678396714e-11, -1.0307041304105981e-08, 4.158610240190081e-09, -1.0727282650281968e-09, -4.623216931360693e-12, 2.150798660786229e-09, -4.787645304855927e-13, -5.2637003027927505e-08, -1.714148276630012e-08, 2.719855300611947e-10, -1.1835106678396714e-11, -4.787645304855927e-13, 2.1731676770723165e-09]"
1402416355034937594,,189298,,1402416355,18580913,/enu,/imu,,,,7.22889972818,19.9720699837,-19.1839833553,,0.473497207717,0.880713852713,-0.00226321386544,0.0117635788086,"[0.027968840058360554, -0.006156510247086906, -0.0014936272830624992, 2.278605479289485e-06, 5.813137623573031e-07, -6.888046483605019e-05, -0.006156510247086906, 0.03348781784898807, 0.005146168611262809, -1.9767027379053763e-06, -1.685447456534368e-06, -2.979056863972279e-05, -0.0014936272830624992, 0.005146168611262809, 0.21455518651153407, 2.212812526435957e-06, -1.0907314687770024e-06, 4.040846697419134e-06, 2.278605479289485e-06, -1.9767027379053763e-06, 2.212812526435957e-06, 4.371524411317669e-06, 2.565957181414565e-07, -1.1797573707397334e-06, 5.813137623573031e-07, -1.685447456534368e-06, -1.0907314687770024e-06, 2.565957181414565e-07, 4.4924037441459755e-06, 1.8125046622812405e-06, -6.888046483605019e-05, -2.979056863972279e-05, 4.040846697419134e-06, -1.1797573707397334e-06, 1.8125046622812405e-06, 0.00012240924900516626]",,,,0.343857852807,-0.463704936241,-0.0216892063487,,0.00677598323827,-0.00529396277207,0.312214498261,"[0.00035140870960220143, 4.219846365730984e-06, 3.407948609152949e-05, 3.754635273465023e-09, -1.0546624197540571e-08, -5.270779261437591e-08, 4.219846365730984e-06, 0.00018495945547400693, 5.474627211702967e-06, 8.808117287417062e-09, 4.248792076689397e-09, -1.7087179262433585e-08, 3.407948609152949e-05, 5.474627211702967e-06, 0.00017039828385530302, 1.4668959837740945e-09, -1.0581604041424147e-09, 2.759259160301234e-10, 3.754635273465023e-09, 8.808117287417062e-09, 1.4668959837740945e-09, 2.1732959859074255e-09, -4.623221628752824e-12, -1.1834828187824265e-11, -1.0546624197540571e-08, 4.248792076689397e-09, -1.0581604041424147e-09, -4.623221628752824e-12, 2.1507986132068517e-09, -4.783490337470964e-13, -5.270779261437591e-08, -1.7087179262433585e-08, 2.759259160301234e-10, -1.1834828187824265e-11, -4.783490337470964e-13, 2.1731614878829183e-09]"
1402416355034963400,,189299,,1402416355,29704093,/enu,/imu,,,,7.2226513734,19.9724979752,-19.1839114873,,0.474989043112,0.879912667525,-0.002137801936,0.0115989764645,"[0.027972225415190382, -0.0061579292949472935, -0.0014908127521781741, 2.318430562479138e-06, 8.219516042087025e-07, -6.919369660565594e-05, -0.0061579292949472935, 0.03349046784036383, 0.005143262402904577, -2.215348360339643e-06, -1.716202888284608e-06, -2.940320833714638e-05, -0.0014908127521781741, 0.005143262402904577, 0.21457020294347484, 2.2309476078606995e-06, -1.0841409723971349e-06, 4.035315377713795e-06, 2.318430562479138e-06, -2.215348360339643e-06, 2.2309476078606995e-06, 4.420958872053082e-06, 2.5660018166188396e-07, -1.1795492659226012e-06, 8.219516042087025e-07, -1.716202888284608e-06, -1.0841409723971349e-06, 2.5660018166188396e-07, 4.5418175331424305e-06, 1.8108496112587111e-06, -6.919369660565594e-05, -2.940320833714638e-05, 4.035315377713795e-06, -1.1795492659226012e-06, 1.8108496112587111e-06, 0.00012243698243795438]",,,,0.345338783362,-0.466461461667,-0.0172891998911,,-0.00228073346043,0.0356821568823,0.304151814275,"[0.00035715505783244343, 3.4837273201306974e-06, 3.40029649271254e-05, 3.832052176493816e-09, -1.0791488980197132e-08, -5.2778679575199566e-08, 3.4837273201306974e-06, 0.0001895745859833357, 5.65952814332189e-06, 9.026278617069445e-09, 4.341082332794539e-09, -1.703649695988247e-08, 3.40029649271254e-05, 5.65952814332189e-06, 0.00017089683782276814, 1.4804343700275115e-09, -1.0477726291620746e-09, 2.541654120614192e-10, 3.832052176493816e-09, 9.026278617069445e-09, 1.4804343700275115e-09, 2.1732959629949622e-09, -4.623226339066094e-12, -1.1834546556786227e-11, -1.0791488980197132e-08, 4.341082332794539e-09, -1.0477726291620746e-09, -4.623226339066094e-12, 2.1507985649780323e-09, -4.77931900674568e-13, -5.2778679575199566e-08, -1.703649695988247e-08, 2.541654120614192e-10, -1.1834546556786227e-11, -4.77931900674568e-13, 2.1731552974741516e-09]"
1402416355074854519,,189300,,1402416355,38568973,/enu,/imu,,,,7.222009457,19.981401966,-19.1889177127,,0.476316617584,0.879192118742,-0.00346154300119,0.0114767537324,"[0.027955795368697616, -0.0061567700307118625, -0.0014940095507524566, 2.112695150184878e-06, -3.0102034091235623e-07, -6.888712240856452e-05, -0.0061567700307118625, 0.03347523293543192, 0.005154794762516686, -1.1775562171634787e-06, -1.5952875490224068e-06, -2.9339501640329788e-05, -0.0014940095507524566, 0.005154794762516686, 0.21451196524427735, 2.0904395950999847e-06, -9.81196337561763e-07, 3.980146042430634e-06, 2.112695150184878e-06, -1.1775562171634787e-06, 2.0904395950999847e-06, 4.200341985472042e-06, 2.6033933524543175e-07, -1.1481036543990963e-06, -3.0102034091235623e-07, -1.5952875490224068e-06, -9.81196337561763e-07, 2.6033933524543175e-07, 4.326349425220267e-06, 1.913289684154409e-06, -6.888712240856452e-05, -2.9339501640329788e-05, 3.980146042430634e-06, -1.1481036543990963e-06, 1.913289684154409e-06, 0.00012239797544514683]",,,,0.356199027785,-0.443214229945,-0.0176587519404,,0.0110847909708,-0.0079448136502,0.304151963182,"[0.0003272664372593561, 5.1266111119578515e-06, 3.450873226915673e-05, 3.45493421572404e-09, -9.69566934348972e-09, -5.0927778399375935e-08, 5.1266111119578515e-06, 0.000171277818075177, 3.703310339730749e-06, 8.043255618546964e-09, 4.034503293049491e-09, -1.7928716913119692e-08, 3.450873226915673e-05, 3.703310339730749e-06, 0.00016907551867291585, 1.3463320777654216e-09, -1.1072040758362727e-09, 2.9413491483799075e-10, 3.45493421572404e-09, 8.043255618546964e-09, 1.3463320777654216e-09, 2.1732262963767934e-09, -4.620000454003287e-12, -1.1842637130477114e-11, -9.69566934348972e-09, 4.034503293049491e-09, -1.1072040758362727e-09, -4.620000454003287e-12, 2.150734609614801e-09, -5.043052637875702e-13, -5.0927778399375935e-08, -1.7928716913119692e-08, 2.9413491483799075e-10, -1.1842637130477114e-11, -5.043052637875702e-13, 2.1731364352642293e-09]"
1402416355074889211,,189301,,1402416355,48551082,/enu,/imu,,,,7.21629295399,19.9818782002,-19.1887061902,,0.477625311837,0.878483655901,-0.00332546068587,0.0113784496977,"[0.02795859263561429, -0.0061579816874602795, -0.001491545704305868, 2.1473708926109063e-06, -1.0229812489639353e-07, -6.915805612866567e-05, -0.0061579816874602795, 0.033477491618002855, 0.005152129174699424, -1.3746709475997697e-06, -1.621871092027063e-06, -2.899552763526878e-05, -0.001491545704305868, 0.005152129174699424, 0.21452552108604472, 2.1064226467070896e-06, -9.750137147148784e-07, 3.974828489231133e-06, 2.1473708926109063e-06, -1.3746709475997697e-06, 2.1064226467070896e-06, 4.240144518971502e-06, 2.6034336217392946e-07, -1.147898889306781e-06, -1.0229812489639353e-07, -1.621871092027063e-06, -9.750137147148784e-07, 2.6034336217392946e-07, 4.366128212076738e-06, 1.9116630052231875e-06, -6.915805612866567e-05, -2.899552763526878e-05, 3.974828489231133e-06, -1.147898889306781e-06, 1.9116630052231875e-06, 0.00012241587654987688]",,,,0.357061709633,-0.445141320037,-0.0163347464473,,-0.0110047616263,0.0296074253816,0.297856443308,"[0.00033202766192768024, 4.5031819080834086e-06, 3.442198432437236e-05, 3.518367340338682e-09, -9.908669012336383e-09, -5.0988190141785944e-08, 4.5031819080834086e-06, 0.0001750683737213302, 3.83994763635429e-06, 8.23188510694137e-09, 4.111926394679608e-09, -1.7894698015052403e-08, 3.442198432437236e-05, 3.83994763635429e-06, 0.00016947524317360984, 1.3579254628122343e-09, -1.0965303585072265e-09, 2.769142983718434e-10, 3.518367340338682e-09, 8.23188510694137e-09, 1.3579254628122343e-09, 2.1732262751809338e-09, -4.6200056526883484e-12, -1.1842361975085195e-11, -9.908669012336383e-09, 4.111926394679608e-09, -1.0965303585072265e-09, -4.6200056526883484e-12, 2.15073456323189e-09, -5.038932505259584e-13, -5.0988190141785944e-08, -1.7894698015052403e-08, 2.769142983718434e-10, -1.1842361975085195e-11, -5.038932505259584e-13, 2.1731302303269732e-09]"
1402416355074928904,,189302,,1402416355,58541059,/enu,/imu,,,,7.21057154117,19.9825219988,-19.1887468483,,0.478933519734,0.877771106399,-0.00332919748977,0.0113791427739,"[0.02796147279383091, -0.0061592184417464495, -0.001489082802336528, 2.1823610583265694e-06, 1.0075727807851668e-07, -6.94298815433638e-05, -0.0061592184417464495, 0.033479747499677186, 0.005149564254914924, -1.5759567623548048e-06, -1.648762201667575e-06, -2.8652689967106665e-05, -0.001489082802336528, 0.005149564254914924, 0.21453889839624227, 2.122490634001692e-06, -9.68756284435363e-07, 3.969759404686257e-06, 2.1823610583265694e-06, -1.5759567623548048e-06, 2.122490634001692e-06, 4.280008486860806e-06, 2.6034736393890816e-07, -1.1476927119057232e-06, 1.0075727807851668e-07, -1.648762201667575e-06, -9.68756284435363e-07, 2.6034736393890816e-07, 4.405968552712796e-06, 1.910024201206866e-06, -6.94298815433638e-05, -2.8652689967106665e-05, 3.969759404686257e-06, -1.1476927119057232e-06, 1.910024201206866e-06, 0.00012243383610628607]",,,,0.359070537772,-0.446214775193,-0.0147555165427,,0.00412658158985,-0.00120750024382,0.297745997737,"[0.00033689540145435064, 3.877010340694511e-06, 3.428334804709858e-05, 3.583415625371961e-09, -1.01239283349325e-08, -5.104886092076707e-08, 3.877010340694511e-06, 0.00017894564648622248, 3.977630310885062e-06, 8.42270902323615e-09, 4.190531596480767e-09, -1.786049212972082e-08, 3.428334804709858e-05, 3.977630310885062e-06, 0.00016985341274169073, 1.3672615309365145e-09, -1.0833863412605825e-09, 2.780755405370251e-10, 3.583415625371961e-09, 8.42270902323615e-09, 1.3672615309365145e-09, 2.173226253606892e-09, -4.62001088438991e-12, -1.1842083704986278e-11, -1.01239283349325e-08, 4.190531596480767e-09, -1.0833863412605825e-09, -4.62001088438991e-12, 2.150734516248713e-09, -5.034797640171188e-13, -5.104886092076707e-08, -1.786049212972082e-08, 2.780755405370251e-10, -1.1842083704986278e-11, -5.034797640171188e-13, 2.1731240231131027e-09]"
1402416355074950256,,189303,,1402416355,68547964,/enu,/imu,,,,7.20501393044,19.9831360934,-19.1886307005,,0.480245415856,0.877054394192,-0.0032285052031,0.0113801112868,"[0.02796438771430888, -0.006160507780135707, -0.0014865516773029663, 2.2177023025682795e-06, 3.084946149166725e-07, -6.970313188427585e-05, -0.006160507780135707, 0.03348198357964167, 0.005147006289419395, -1.781832590475679e-06, -1.6759798965292563e-06, -2.83091990278629e-05, -0.0014865516773029663, 0.005147006289419395, 0.21455237918500178, 2.138694062551929e-06, -9.624553236251013e-07, 3.964443572151214e-06, 2.2177023025682795e-06, -1.781832590475679e-06, 2.138694062551929e-06, 4.3200064588839175e-06, 2.603513397482371e-07, -1.1474852329951538e-06, 3.084946149166725e-07, -1.6759798965292563e-06, -9.624553236251013e-07, 2.603513397482371e-07, 4.445943022091875e-06, 1.9083733529464358e-06, -6.970313188427585e-05, -2.83091990278629e-05, 3.964443572151214e-06, -1.1474852329951538e-06, 1.9083733529464358e-06, 0.00012245192778859675]",,,,0.359103219671,-0.446292119634,-0.0207308511579,,-0.0142077471292,0.00873279829749,0.298408687109,"[0.00034184747724842816, 3.232775551458204e-06, 3.415996105478899e-05, 3.649682839842668e-09, -1.0340991005550567e-08, -5.11101442780644e-08, 3.232775551458204e-06, 0.00018291189343336243, 4.120603151666234e-06, 8.615245096716899e-09, 4.270867691683339e-09, -1.7825591985347428e-08, 3.415996105478899e-05, 4.120603151666234e-06, 0.0001702413032778774, 1.3785531959229948e-09, -1.0704204412911528e-09, 2.708804219227971e-10, 3.649682839842668e-09, 8.615245096716899e-09, 1.3785531959229948e-09, 2.1732262315940853e-09, -4.620016140162988e-12, -1.1841802427561294e-11, -1.0340991005550567e-08, 4.270867691683339e-09, -1.0704204412911528e-09, -4.620016140162988e-12, 2.1507344687020998e-09, -5.030648166513824e-13, -5.11101442780644e-08, -1.7825591985347428e-08, 2.708804219227971e-10, -1.1841802427561294e-11, -5.030648166513824e-13, 2.173117814498897e-09]"
1402416355114829099,,189304,,1402416355,78552961,/enu,/imu,,,,7.19931140879,19.9840122477,-19.1889151336,,0.481554394896,0.876337615627,-0.0031520296178,0.0113054368973,"[0.02796733821239632, -0.006161770982072242, -0.0014840233808425304, 2.253294296296521e-06, 5.204911751738095e-07, -6.997830523973902e-05, -0.006161770982072242, 0.033484407110734075, 0.0051443065047758335, -1.991892534537083e-06, -1.7034698435613116e-06, -2.796581356623701e-05, -0.0014840233808425304, 0.0051443065047758335, 0.21456610524585412, 2.155041365084552e-06, -9.561215884130613e-07, 3.9592586215196506e-06, 2.253294296296521e-06, -1.991892534537083e-06, 2.155041365084552e-06, 4.35998764849313e-06, 2.6035528785707017e-07, -1.1472762925335282e-06, 5.204911751738095e-07, -1.7034698435613116e-06, -9.561215884130613e-07, 2.6035528785707017e-07, 4.485900840681592e-06, 1.906710265831977e-06, -6.997830523973902e-05, -2.796581356623701e-05, 3.9592586215196506e-06, -1.1472762925335282e-06, 1.906710265831977e-06, 0.0001224699985039918]",,,,0.362514049512,-0.446258893958,-0.0159720696403,,-0.00272118004003,0.0196671267478,0.298077345464,"[0.00034687372602762396, 2.584023985514134e-06, 3.405384491606451e-05, 3.7169284627480847e-09, -1.055972740398425e-08, -5.1171621379334916e-08, 2.584023985514134e-06, 0.00018696258384042408, 4.26624440894129e-06, 8.809820136813261e-09, 4.3523397960975445e-09, -1.779077944265297e-08, 3.405384491606451e-05, 4.26624440894129e-06, 0.00017063579019607414, 1.389308757077285e-09, -1.059010467542301e-09, 2.601368321406142e-10, 3.7169284627480847e-09, 8.809820136813261e-09, 1.389308757077285e-09, 2.173226209193465e-09, -4.62002141815021e-12, -1.184151817942655e-11, -1.055972740398425e-08, 4.3523397960975445e-09, -1.059010467542301e-09, -4.62002141815021e-12, 2.150734420512641e-09, -5.026483950726777e-13, -5.1171621379334916e-08, -1.779077944265297e-08, 2.601368321406142e-10, -1.184151817942655e-11, -5.026483950726777e-13, 2.1731116040843696e-09]"
1402416355114864682,,189305,,1402416355,88558912,/enu,/imu,,,,7.19510625597,19.9650336196,-19.1817216529,,0.482982457411,0.87556611437,-0.00137198739694,0.0104901311621,"[0.027951389463115546, -0.006160678471775147, -0.0014869935107314747, 2.049254013614041e-06, -5.432806441412316e-07, -6.96801810999504e-05, -0.006160678471775147, 0.03346963482397257, 0.005155471471120542, -1.0127912757161986e-06, -1.5792384890968614e-06, -2.786226714192765e-05, -0.0014869935107314747, 0.005155471471120542, 0.2145094560552887, 2.0187382047734846e-06, -8.643555103903549e-07, 3.902756619494956e-06, 2.049254013614041e-06, -1.0127912757161986e-06, 2.0187382047734846e-06, 4.157355067825842e-06, 2.6280084091867904e-07, -1.1185245912108095e-06, -5.432806441412316e-07, -1.5792384890968614e-06, -8.643555103903549e-07, 2.6280084091867904e-07, 4.288112026544532e-06, 2.012731815961456e-06, -6.96801810999504e-05, -2.786226714192765e-05, 3.902756619494956e-06, -1.1185245912108095e-06, 2.012731815961456e-06, 0.00012243545605089592]",,,,0.334306288135,-0.468039763857,-0.0107202419362,,-0.0137675362499,0.0296084774721,0.2910088862,"[0.0003262440489891977, 1.7500023364286327e-06, 3.592877734074095e-05, 3.3666067242994976e-09, -9.439333861289167e-09, -5.1944587156382317e-08, 1.7500023364286327e-06, 0.0001670002937290099, 3.1072711960165095e-06, 7.879064380401578e-09, 3.996189237534272e-09, -1.6226358644647697e-08, 3.592877734074095e-05, 3.1072711960165095e-06, 0.00016937149230873255, 1.4158053581507822e-09, -1.2056542200764377e-09, 2.3844243448073752e-11, 3.3666067242994976e-09, 7.879064380401578e-09, 1.4158053581507822e-09, 2.173159421888635e-09, -4.6166951414488325e-12, -1.1851256238790363e-11, -9.439333861289167e-09, 3.996189237534272e-09, -1.2056542200764377e-09, -4.6166951414488325e-12, 2.1506725518229034e-09, -5.291168499366212e-13, -5.1944587156382317e-08, -1.6226358644647697e-08, 2.3844243448073752e-11, -1.1851256238790363e-11, -5.291168499366212e-13, 2.1730916437011918e-09]"
1402416355114890996,,189306,,1402416355,99539995,/enu,/imu,,,,7.1887914684,19.9656553199,-19.182186901,,0.484368896993,0.874798586538,-0.00129557400754,0.0106078322574,"[0.027954527099283786, -0.006162058261379888, -0.0014842240781058505, 2.0871335940535037e-06, -3.2866666653650333e-07, -6.997333191480771e-05, -0.006162058261379888, 0.03347199110767358, 0.005152729617628681, -1.2256702739100526e-06, -1.6083067391937271e-06, -2.7491688820177876e-05, -0.0014842240781058505, 0.005152729617628681, 0.21452405329478139, 2.036380177346272e-06, -8.570975406935895e-07, 3.897096848122061e-06, 2.0871335940535037e-06, -1.2256702739100526e-06, 2.036380177346272e-06, 4.205540555200483e-06, 2.6280473644293605e-07, -1.1183352028286993e-06, -3.2866666653650333e-07, -1.6083067391937271e-06, -8.570975406935895e-07, 2.6280473644293605e-07, 4.336270489137126e-06, 2.0110968097081397e-06, -6.997333191480771e-05, -2.7491688820177876e-05, 3.897096848122061e-06, -1.1183352028286993e-06, 2.0110968097081397e-06, 0.00012246178861349686]",,,,0.334140973914,-0.466739791514,-0.0142087695918,,-0.0196212677871,-0.0131348064906,0.288358142121,"[0.00033144399745856746, 1.0606008434315203e-06, 3.57889850108112e-05, 3.434346453507746e-09, -9.673052222425439e-09, -5.2002204537696975e-08, 1.0606008434315203e-06, 0.0001711659165328257, 3.2667546661488596e-06, 8.085313311952189e-09, 4.0796907045479315e-09, -1.6195264868144514e-08, 3.57889850108112e-05, 3.2667546661488596e-06, 0.0001698199136900312, 1.4289987799054916e-09, -1.1902695094727906e-09, 2.717737305352351e-11, 3.434346453507746e-09, 8.085313311952189e-09, 1.4289987799054916e-09, 2.1731594010332174e-09, -4.6167009042604976e-12, -1.1850977519463316e-11, -9.673052222425439e-09, 4.0796907045479315e-09, -1.1902695094727906e-09, -4.6167009042604976e-12, 2.1506725053948765e-09, -5.287050131961087e-13, -5.2002204537696975e-08, -1.6195264868144514e-08, 2.717737305352351e-11, -1.1850977519463316e-11, -5.287050131961087e-13, 2.173085418453211e-09]"
1402416355114956780,,189307,,1402416355,109545946,/enu,/imu,,,,7.18309542341,19.9660395176,-19.182204602,,0.485620340379,0.874105433322,-0.00108181923585,0.0105549095331,"[0.027957340370843096, -0.006163314929605064, -0.0014816972258717442, 2.1219178627576466e-06, -1.2862250645687153e-07, -7.023913260310291e-05, -0.006163314929605064, 0.033474218367552426, 0.005150122285795358, -1.4239296046440985e-06, -1.6350274688584034e-06, -2.7153159804953157e-05, -0.0014816972258717442, 0.005150122285795358, 0.21453764996918634, 2.0525324994202864e-06, -8.50494355239258e-07, 3.891622833379178e-06, 2.1219178627576466e-06, -1.4239296046440985e-06, 2.0525324994202864e-06, 4.245533769492191e-06, 2.6280846791582394e-07, -1.1181368013235906e-06, -1.2862250645687153e-07, -1.6350274688584034e-06, -8.50494355239258e-07, 2.6280846791582394e-07, 4.37623700604536e-06, 2.009443990395634e-06, -7.023913260310291e-05, -2.7153159804953157e-05, 3.891622833379178e-06, -1.1181368013235906e-06, 2.009443990395634e-06, 0.00012247980329083258]",,,,0.335093894894,-0.469363567602,-0.0109540728928,,-0.0293406709885,0.0288353430083,0.285928293465,"[0.0003361998064899567, 4.209816846500325e-07, 3.572765425710381e-05, 3.496403207405833e-09, -9.88763791584541e-09, -5.205399764650944e-08, 4.209816846500325e-07, 0.0001750104755405939, 3.418829346226311e-06, 8.275251725298034e-09, 4.156941590328151e-09, -1.61674210880027e-08, 3.572765425710381e-05, 3.418829346226311e-06, 0.0001702232477494251, 1.4434298782408831e-09, -1.1798551116561128e-09, 6.814318253791473e-12, 3.496403207405833e-09, 8.275251725298034e-09, 1.4434298782408831e-09, 2.173159379762836e-09, -4.6167066920304554e-12, -1.1850695483391356e-11, -9.88763791584541e-09, 4.156941590328151e-09, -1.1798551116561128e-09, -4.6167066920304554e-12, 2.150672458334998e-09, -5.282915659559249e-13, -5.205399764650944e-08, -1.61674210880027e-08, 6.814318253791473e-12, -1.1850695483391356e-11, -5.282915659559249e-13, 2.1730791907962627e-09]"
1402416355154879606,,189308,,1402416355,119541883,/enu,/imu,,,,7.17730789523,19.96626105,-19.1818551304,,0.486838782395,0.87342638543,-0.000991073679348,0.010647392346,"[0.02796022729765177, -0.006164591681381219, -0.0014791556203273225, 2.156949196565825e-06, 7.534300884545939e-08, -7.05058743133739e-05, -0.006164591681381219, 0.03347652037287351, 0.005147520065296018, -1.6260004098401695e-06, -1.6620167093601284e-06, -2.681580323284708e-05, -0.0014791556203273225, 0.005147520065296018, 0.21455115548574247, 2.0687697641319605e-06, -8.438190983752854e-07, 3.886255910057315e-06, 2.156949196565825e-06, -1.6260004098401695e-06, 2.0687697641319605e-06, 4.2854453554632685e-06, 2.6281216750190205e-07, -1.1179369787955482e-06, 7.534300884545939e-08, -1.6620167093601284e-06, -8.438190983752854e-07, 2.6281216750190205e-07, 4.416121997263554e-06, 2.0077788817590635e-06, -7.05058743133739e-05, -2.681580323284708e-05, 3.886255910057315e-06, -1.1179369787955482e-06, 2.0077788817590635e-06, 0.00012249773115106347]",,,,0.337271591122,-0.468488153211,-0.0099171762639,,-0.0220511188798,-0.00849600062341,0.27874919152,"[0.00034105875174099626, -2.1139638468062466e-07, 3.5602973666189764e-05, 3.5594577297331264e-09, -1.0104502914915819e-08, -5.210492280640499e-08, -2.1139638468062466e-07, 0.00017893380772325903, 3.5776467770589357e-06, 8.46720002490174e-09, 4.234567608941067e-09, -1.6143064135548735e-08, 3.5602973666189764e-05, 3.5776467770589357e-06, 0.00017059897261158952, 1.456050065711151e-09, -1.1659901947349148e-09, 7.05371606512163e-12, 3.5594577297331264e-09, 8.46720002490174e-09, 1.456050065711151e-09, 2.173159358032676e-09, -4.616712536793853e-12, -1.1850410226330257e-11, -1.0104502914915819e-08, 4.234567608941067e-09, -1.1659901947349148e-09, -4.616712536793853e-12, 2.150672410689169e-09, -5.278766957045241e-13, -5.210492280640499e-08, -1.6143064135548735e-08, 7.05371606512163e-12, -1.1850410226330257e-11, -5.278766957045241e-13, 2.173072961758834e-09]"
1402416355154912739,,189309,,1402416355,129522085,/enu,/imu,,,,7.17149413098,19.966685079,-19.1819198447,,0.488089445496,0.872728786427,-0.000827639734745,0.0106053547557,"[0.027963199532241516, -0.0061658673976645, -0.0014766937428672294, 2.1922181163137863e-06, 2.833077851611875e-07, -7.077382016342621e-05, -0.0061658673976645, 0.03347884429931641, 0.005144938970862138, -1.8319660173605183e-06, -1.6892219667984568e-06, -2.647859762739895e-05, -0.0014766937428672294, 0.005144938970862138, 0.21456466392180418, 2.0851138600566365e-06, -8.371614192932256e-07, 3.8809872806204646e-06, 2.1922181163137863e-06, -1.8319660173605183e-06, 2.0851138600566365e-06, 4.3252296582881025e-06, 2.628158334781163e-07, -1.1177357034163842e-06, 2.833077851611875e-07, -1.6892219667984568e-06, -8.371614192932256e-07, 2.628158334781163e-07, 4.455879814530212e-06, 2.006101515416963e-06, -7.077382016342621e-05, -2.647859762739895e-05, 3.8809872806204646e-06, -1.1177357034163842e-06, 2.006101515416963e-06, 0.00012251552589334638]",,,,0.337810365904,-0.468974787063,-0.0140637993319,,-0.0216093280265,0.0220980293449,0.286701433296,"[0.0003459697512319907, -8.654072714409027e-07, 3.552946315851755e-05, 3.6237627399470717e-09, -1.0321967743840946e-08, -5.2157390296422615e-08, -8.654072714409027e-07, 0.00018293345067829008, 3.7378767214126397e-06, 8.660290973579636e-09, 4.314123749616341e-09, -1.6114338102636014e-08, 3.552946315851755e-05, 3.7378767214126397e-06, 0.00017099555333884318, 1.4698214410656605e-09, -1.1552006014157962e-09, -8.55902947106983e-12, 3.6237627399470717e-09, 8.660290973579636e-09, 1.4698214410656605e-09, 2.173159335917821e-09, -4.616718396567406e-12, -1.1850121975264646e-11, -1.0321967743840946e-08, 4.314123749616341e-09, -1.1552006014157962e-09, -4.616718396567406e-12, 2.1506723624663806e-09, -5.274604079104184e-13, -5.2157390296422615e-08, -1.6114338102636014e-08, -8.55902947106983e-12, -1.1850121975264646e-11, -5.274604079104184e-13, 2.1730667310356483e-09]"
1402416355154940135,,189310,,1402416355,139539957,/enu,/imu,,,,7.16781351749,19.9757091412,-19.1850591863,,0.489375787845,0.87200659013,-0.00185929419914,0.010601323758,"[0.02794731616649798, -0.006164777112628576, -0.0014796740815046436, 1.982847958892118e-06, -7.513781773139403e-07, -7.044743825833025e-05, -0.006164777112628576, 0.033464195670050254, 0.0051561535838319595, -8.823001180023944e-07, -1.559925620673394e-06, -2.6406907046995636e-05, -0.0014796740815046436, 0.0051561535838319595, 0.21450789485731664, 1.9510387642370863e-06, -7.55409692183036e-07, 3.8290159809537464e-06, 1.982847958892118e-06, -8.823001180023944e-07, 1.9510387642370863e-06, 4.130438159354679e-06, 2.6447485463884757e-07, -1.0843146971249066e-06, -7.513781773139403e-07, -1.559925620673394e-06, -7.55409692183036e-07, 2.6447485463884757e-07, 4.265750222908486e-06, 2.1142702408802636e-06, -7.044743825833025e-05, -2.6406907046995636e-05, 3.8290159809537464e-06, -1.0843146971249066e-06, 2.1142702408802636e-06, 0.00012247605657533561]",,,,0.351291325785,-0.451527751234,-0.00789277681519,,-0.015091738538,0.00829184616794,0.270576166342,"[0.00031880365180389324, 1.2648652056920778e-06, 3.5795378501661266e-05, 3.282905145746591e-09, -9.31662515985583e-09, -5.051947593177441e-08, 1.2648652056920778e-06, 0.00016669600484323126, 2.0331135430212162e-06, 7.786507759831455e-09, 4.037406109725246e-09, -1.7158203522255805e-08, 3.5795378501661266e-05, 2.0331135430212162e-06, 0.0001693094837297048, 1.3537874716537973e-09, -1.1943784137825285e-09, 1.8540261861276057e-11, 3.282905145746591e-09, 7.786507759831455e-09, 1.3537874716537973e-09, 2.1730949111757117e-09, -4.613468670464681e-12, -1.1859705987248681e-11, -9.31662515985583e-09, 4.037406109725246e-09, -1.1943784137825285e-09, -4.613468670464681e-12, 2.1506123706134023e-09, -5.549864092551906e-13, -5.051947593177441e-08, -1.7158203522255805e-08, 1.8540261861276057e-11, -1.1859705987248681e-11, -5.549864092551906e-13, 2.1730453653674944e-09]"
1402416355154977056,,189311,,1402416355,150520086,/enu,/imu,,,,7.16161581454,19.9762909249,-19.1847927403,,0.490707366317,0.871257400827,-0.00169914602797,0.0106740362582,"[0.02795036874602349, -0.006166157941364056, -0.0014769357485626125, 2.0204219331093172e-06, -5.39497531274398e-07, -7.073255875386096e-05, -0.006166157941364056, 0.03346660868405354, 0.005153294061881197, -1.0923669834324284e-06, -1.5886883950098553e-06, -2.604041231724655e-05, -0.0014769357485626125, 0.005153294061881197, 0.2145227291789879, 1.968691504552018e-06, -7.478865193308969e-07, 3.8230226603568695e-06, 2.0204219331093172e-06, -1.0923669834324284e-06, 1.968691504552018e-06, 4.17861633416663e-06, 2.644784119469081e-07, -1.084132704708092e-06, -5.39497531274398e-07, -1.5886883950098553e-06, -7.478865193308969e-07, 2.644784119469081e-07, 4.31389843019403e-06, 2.112621877502563e-06, -7.073255875386096e-05, -2.604041231724655e-05, 3.8230226603568695e-06, -1.084132704708092e-06, 2.112621877502563e-06, 0.00012250230661809322]",,,,0.350238064109,-0.450123306211,-0.0172001376456,,-0.0290081567359,0.00177542803229,0.27797616981,"[0.0003239149603283365, 5.93606151210689e-07, 3.567206966862906e-05, 3.3478324779842976e-09, -9.549274963120702e-09, -5.0575262562900045e-08, 5.93606151210689e-07, 0.0001708394321437581, 2.182849925819042e-06, 7.992063050092446e-09, 4.119451712918998e-09, -1.714126197529417e-08, 3.567206966862906e-05, 2.182849925819042e-06, 0.00016976914875853303, 1.3678107441544262e-09, -1.1796680840121834e-09, 1.140920282037168e-11, 3.3478324779842976e-09, 7.992063050092446e-09, 1.3678107441544262e-09, 2.173094890517785e-09, -4.613475012062933e-12, -1.185942294480091e-11, -9.549274963120702e-09, 4.119451712918998e-09, -1.1796680840121834e-09, -4.613475012062933e-12, 2.1506123239681594e-09, -5.545739906591225e-13, -5.0575262562900045e-08, -1.714126197529417e-08, 1.140920282037168e-11, -1.185942294480091e-11, -5.545739906591225e-13, 2.1730391201060156e-09]"
1402416355194862922,,189312,,1402416355,160520076,/enu,/imu,,,,7.15581320558,19.9769504169,-19.184682799,,0.491915225695,0.870576476167,-0.00154172147377,0.0106598765916,"[0.027953255805024547, -0.006167394718081922, -0.001474442348189432, 2.0549152778777047e-06, -3.41974325097454e-07, -7.099156596181924e-05, -0.006167394718081922, 0.03346883505419672, 0.005150682416203899, -1.2880097247118256e-06, -1.6151495248739422e-06, -2.5705729228856996e-05, -0.001474442348189432, 0.005150682416203899, 0.21453623944741518, 1.984874150447919e-06, -7.410015298875848e-07, 3.817484916584934e-06, 2.0549152778777047e-06, -1.2880097247118256e-06, 1.984874150447919e-06, 4.218562933195035e-06, 2.6448180457934124e-07, -1.0839417477035928e-06, -3.41974325097454e-07, -1.6151495248739422e-06, -7.410015298875848e-07, 2.6448180457934124e-07, 4.353815348340156e-06, 2.1109555195924495e-06, -7.099156596181924e-05, -2.5705729228856996e-05, 3.817484916584934e-06, -1.0839417477035928e-06, 2.1109555195924495e-06, 0.0001225201988050433]",,,,0.352910013102,-0.45213827994,-0.0113648838469,,-0.0231544254849,0.0169067713598,0.277203037473,"[0.00032860626462262416, -2.4583230399609064e-08, 3.558109791015429e-05, 3.4077627431097156e-09, -9.763113464166967e-09, -5.0625594174458925e-08, -2.4583230399609064e-08, 0.0001746618354227737, 2.3249571005075112e-06, 8.18151768294976e-09, 4.195240037002809e-09, -1.712560700448657e-08, 3.558109791015429e-05, 2.3249571005075112e-06, 0.00017016221611632464, 1.380795370442388e-09, -1.1678658956951763e-09, -1.7305216535688658e-12, 3.4077627431097156e-09, 8.18151768294976e-09, 1.380795370442388e-09, 2.173094869400849e-09, -4.613481395216756e-12, -1.1859136909764501e-11, -9.763113464166967e-09, 4.195240037002809e-09, -1.1678658956951763e-09, -4.613481395216756e-12, 2.150612276718858e-09, -5.541599979777946e-13, -5.0625594174458925e-08, -1.712560700448657e-08, -1.7305216535688658e-12, -1.1859136909764501e-11, -5.541599979777946e-13, 2.1730328730889286e-09]"
1402416355194894433,,189313,,1402416355,170490980,/enu,/imu,,,,7.15022796271,19.9778498957,-19.1850440542,,0.493084099054,0.869915602789,-0.00134146062181,0.0106355896772,"[0.02795607256382959, -0.006168717929795303, -0.0014718637750516352, 2.089576249798378e-06, -1.4088980485683758e-07, -7.125055482998096e-05, -0.006168717929795303, 0.03347116838195354, 0.005148012252873481, -1.4871380800195281e-06, -1.6418082766385862e-06, -2.5372211086493683e-05, -0.0014718637750516352, 0.005148012252873481, 0.21454977835864641, 2.001116914936943e-06, -7.341078523595513e-07, 3.811984607894991e-06, 2.089576249798378e-06, -1.4871380800195281e-06, 2.001116914936943e-06, 4.258275601572289e-06, 2.644851608840766e-07, -1.0837492255061725e-06, -1.4088980485683758e-07, -1.6418082766385862e-06, -7.341078523595513e-07, 2.644851608840766e-07, 4.3934984163728916e-06, 2.109276753485041e-06, -7.125055482998096e-05, -2.5372211086493683e-05, 3.811984607894991e-06, -1.0837492255061725e-06, 2.109276753485041e-06, 0.00012253784957383547]",,,,0.352756757387,-0.451238514669,-0.0162751989266,,-0.0297812914031,0.0229813981752,0.269140353782,"[0.0003333595369097034, -6.398789119801406e-07, 3.549935230772388e-05, 3.467852215627413e-09, -9.978233018528836e-09, -5.067478795131406e-08, -6.398789119801406e-07, 0.00017855320742694592, 2.474327306834065e-06, 8.372328657763113e-09, 4.27130428519286e-09, -1.7113692127371644e-08, 3.549935230772388e-05, 2.474327306834065e-06, 0.0001705578951182617, 1.3946110919131886e-09, -1.1564296767551265e-09, -1.9063862501296554e-11, 3.467852215627413e-09, 8.372328657763113e-09, 1.3946110919131886e-09, 2.1730948479297178e-09, -4.613487821870211e-12, -1.185884742559687e-11, -9.978233018528836e-09, 4.27130428519286e-09, -1.1564296767551265e-09, -4.613487821870211e-12, 2.150612228816569e-09, -5.537446305064516e-13, -5.067478795131406e-08, -1.7113692127371644e-08, -1.9063862501296554e-11, -1.185884742559687e-11, -5.537446305064516e-13, 2.173026623952721e-09]"
1402416355194921561,,189314,,1402416355,181493997,/enu,/imu,,,,7.144001123,19.9785265892,-19.1847651612,,0.49436677188,0.869184996468,-0.00128961898612,0.0108292962847,"[0.027959279687772988, -0.006170128260038267, -0.0014690903686248903, 2.12817834792727e-06, 8.594684420516186e-08, -7.153888903328134e-05, -0.006170128260038267, 0.03347366505317325, 0.005145188430165301, -1.7117730753156694e-06, -1.6715517236866666e-06, -2.5002720608498127e-05, -0.0014690903686248903, 0.005145188430165301, 0.21456468883750404, 2.0191645069718876e-06, -7.26549372446164e-07, 3.8058308128197356e-06, 2.12817834792727e-06, -1.7117730753156694e-06, 2.0191645069718876e-06, 4.306650599445901e-06, 2.64488615068283e-07, -1.0835631793186932e-06, 8.594684420516186e-08, -1.6715517236866666e-06, -7.26549372446164e-07, 2.64488615068283e-07, 4.441843668615594e-06, 2.1075890752469756e-06, -7.153888903328134e-05, -2.5002720608498127e-05, 3.8058308128197356e-06, -1.0835631793186932e-06, 2.1075890752469756e-06, 0.00012256428470574777]",,,,0.354208123347,-0.450298971642,-0.0165418761071,,-0.0228230825465,-0.0270514380752,0.268035878288,"[0.0003387814058006026, -1.3205127510714918e-06, 3.531669898504403e-05, 3.536088382534122e-09, -1.0218183023125708e-08, -5.073002329513576e-08, -1.3205127510714918e-06, 0.0001829852238048184, 2.64510976466719e-06, 8.585084321009136e-09, 4.356417226355096e-09, -1.7101742910611485e-08, 3.531669898504403e-05, 2.64510976466719e-06, 0.00017099787567538842, 1.4074165382838868e-09, -1.138503935979379e-09, -9.043071951126802e-12, 3.536088382534122e-09, 8.585084321009136e-09, 1.4074165382838868e-09, 2.1730948259909267e-09, -4.6134942607819325e-12, -1.1858555092730428e-11, -1.0218183023125708e-08, 4.356417226355096e-09, -1.138503935979379e-09, -4.6134942607819325e-12, 2.150612180371954e-09, -5.53327889906389e-13, -5.073002329513576e-08, -1.7101742910611485e-08, -9.043071951126802e-12, -1.1858555092730428e-11, -5.53327889906389e-13, 2.1730203730800192e-09]"
1402416355194941828,,189315,,1402416355,191494941,/enu,/imu,,,,7.12948009093,19.9962195999,-19.1956539573,,0.495120707209,0.868740399497,-0.00241817936412,0.0118218434991,"[0.02794352097966333, -0.00616885457379149, -0.001472331971576503, 1.9035676842893451e-06, -9.427797990085886e-07, -7.116293199033326e-05, -0.00616885457379149, 0.03345913863516677, 0.005156354962734727, -7.713104153773241e-07, -1.5376250801503486e-06, -2.5024775610108524e-05, -0.001472331971576503, 0.005156354962734727, 0.2145079662766789, 1.883348711521214e-06, -6.495320291434787e-07, 3.7655482594695765e-06, 1.9035676842893451e-06, -7.713104153773241e-07, 1.883348711521214e-06, 4.1114733908952755e-06, 2.664400514177144e-07, -1.0320714777223112e-06, -9.427797990085886e-07, -1.5376250801503486e-06, -6.495320291434787e-07, 2.664400514177144e-07, 4.2514367576988936e-06, 2.220065301248111e-06, -7.116293199033326e-05, -2.5024775610108524e-05, 3.7655482594695765e-06, -1.0320714777223112e-06, 2.220065301248111e-06, 0.0001225137300069033]",,,,0.388727236133,-0.440101639737,-0.0149319410666,,-0.0315472549446,0.0180099862776,0.268808505785,"[0.0003132200533819896, 3.2209574469169083e-06, 3.489121630471501e-05, 3.1917724385834285e-09, -9.20671385630031e-09, -4.944748747664026e-08, 3.2209574469169083e-06, 0.00016874188173250323, 1.2113148085068985e-06, 7.723807150520565e-09, 4.119389514910952e-09, -1.95600784024661e-08, 3.489121630471501e-05, 1.2113148085068985e-06, 0.00016926801582905669, 1.302431166709036e-09, -1.1046528246090773e-09, 8.101679505154395e-11, 3.1917724385834285e-09, 7.723807150520565e-09, 1.302431166709036e-09, 2.173030409064058e-09, -4.610257999004717e-12, -1.186559628979152e-11, -9.20671385630031e-09, 4.119389514910952e-09, -1.1046528246090773e-09, -4.610257999004717e-12, 2.150552332350746e-09, -5.846810829486414e-13, -4.944748747664026e-08, -1.95600784024661e-08, 8.101679505154395e-11, -1.186559628979152e-11, -5.846810829486414e-13, 2.1729958602264585e-09]"
