rosbagTimestamp,transforms,-,header,seq,stamp,secs,nsecs,frame_id,child_frame_id,transform,translation,x,y,z,rotation,x,y,z,w
1402416354897972174,,errorv,,0,,1402416354,897681352,base_link,/z_drive,,,0.0,0.0,0.0,,0.0,0.0,0.0,1.0
1402416354898014009,,errorv,,0,,1402416354,897706162,/z_drive,port,,,-0.3,0.3048,0.0,,0.0,0.0,0.0,1.0
1402416354898053710,,errorv,,0,,1402416354,897710738,/z_drive,starboard,,,-0.3,-0.3048,0.0,,0.0,0.0,0.0,1.0
1402416354917740922,,errorv,,0,,1402416354,917503687,base_link,/z_drive,,,0.0,0.0,0.0,,0.0,0.0,0.0,1.0
1402416354917773722,,errorv,,0,,1402416354,917521676,/z_drive,port,,,-0.3,0.3048,0.0,,0.0,0.0,0.0,1.0
1402416354917891925,,errorv,,0,,1402416354,917526054,/z_drive,starboard,,,-0.3,-0.3048,0.0,,0.0,0.0,0.0,1.0
1402416354919563161,,errorv,,0,,1402416354,845664024,/enu,/base_link,,,7.40367224671,19.8659412498,-19.0669314233,,-0.01345833534,0.00163129707437,0.893588326556,0.448682643662
1402416354919596745,,errorv,,0,,1402416354,855659961,/enu,/base_link,,,7.39760746855,19.8658532889,-19.0669552477,,-0.0133605409699,0.00172205287337,0.892846035883,0.450160512136
1402416354919614469,,errorv,,0,,1402416354,866633892,/enu,/base_link,,,7.39111848915,19.8656022691,-19.0667395609,,-0.0132454402478,0.00190444956135,0.892039682314,0.451758936339
1402416354919655574,,errorv,,0,,1402416354,876636028,/enu,/base_link,,,7.38509511723,19.8654897384,-19.0666238012,,-0.0132367100024,0.00200060375552,0.891305693223,0.453205194499
1402416354937617347,,errorv,,0,,1402416354,937490330,base_link,/z_drive,,,0.0,0.0,0.0,,0.0,0.0,0.0,1.0
1402416354937731175,,errorv,,0,,1402416354,937512270,/z_drive,port,,,-0.3,0.3048,0.0,,0.0,0.0,0.0,1.0
1402416354937757966,,errorv,,0,,1402416354,937548873,/z_drive,starboard,,,-0.3,-0.3048,0.0,,0.0,0.0,0.0,1.0
1402416354957655496,,errorv,,0,,1402416354,957470511,base_link,/z_drive,,,0.0,0.0,0.0,,0.0,0.0,0.0,1.0
1402416354957689693,,errorv,,0,,1402416354,957487734,/z_drive,port,,,-0.3,0.3048,0.0,,0.0,0.0,0.0,1.0
1402416354957719997,,errorv,,0,,1402416354,957497073,/z_drive,starboard,,,-0.3,-0.3048,0.0,,0.0,0.0,0.0,1.0
1402416354959078991,,errorv,,0,,1402416354,886643886,/enu,/base_link,,,7.36691779571,19.8789943614,-19.1091064447,,-0.0136276331252,0.00251285622482,0.890627326403,0.454522759203
1402416354959112799,,errorv,,0,,1402416354,896635055,/enu,/base_link,,,7.36092126786,19.8791040524,-19.1091006466,,-0.0136483839047,0.00263544309941,0.889890564159,0.455962235144
1402416354959241176,,errorv,,0,,1402416354,906645059,/enu,/base_link,,,7.35481269442,19.8790689744,-19.1090830438,,-0.0135122879848,0.00259773686326,0.889152705618,0.457403690331
1402416354959262845,,errorv,,0,,1402416354,917633056,/enu,/base_link,,,7.34790297967,19.8791868665,-19.1091190106,,-0.0133916013064,0.00260661105027,0.888339743418,0.458984063838
1402416354960810529,,errorv,,0,,1402416355,60633689,/base_link,/gps,,,-0.84,0.0,-0.14,,0.0,0.0,0.0,1.0
1402416354960988086,,errorv,,0,,1402416355,60763181,base_link,imu,,,0.13,0.0,-0.1,,1.0,0.0,0.0,0.0
1402416354977748914,,errorv,,0,,1402416354,977492161,base_link,/z_drive,,,0.0,0.0,0.0,,0.0,0.0,0.0,1.0
1402416354977773104,,errorv,,0,,1402416354,977509671,/z_drive,port,,,-0.3,0.3048,0.0,,0.0,0.0,0.0,1.0
1402416354977835890,,errorv,,0,,1402416354,977518767,/z_drive,starboard,,,-0.3,-0.3048,0.0,,0.0,0.0,0.0,1.0
1402416354997665378,,errorv,,0,,1402416354,997492330,base_link,/z_drive,,,0.0,0.0,0.0,,0.0,0.0,0.0,1.0
1402416354997761614,,errorv,,0,,1402416354,997515203,/z_drive,port,,,-0.3,0.3048,0.0,,0.0,0.0,0.0,1.0
1402416354997785427,,errorv,,0,,1402416354,997560092,/z_drive,starboard,,,-0.3,-0.3048,0.0,,0.0,0.0,0.0,1.0
1402416354999226582,,errorv,,0,,1402416354,927617073,/enu,/base_link,,,7.34173279724,19.8792976153,-19.1090717558,,-0.0133160686803,0.00269733383157,0.887592251866,0.46042958325
1402416354999293516,,errorv,,0,,1402416354,937751054,/enu,/base_link,,,7.34793961962,19.8652476571,-19.0817556109,,-0.0124025472143,0.00220429179288,0.886719722104,0.462135751001
1402416354999322382,,errorv,,0,,1402416354,947614908,/enu,/base_link,,,7.34175575766,19.8650226133,-19.0814974592,,-0.0122620782138,0.00223325648906,0.885968277654,0.463578326709
1402416354999345973,,errorv,,0,,1402416354,957619905,/enu,/base_link,,,7.33586985123,19.8651101472,-19.0815560102,,-0.0122478464929,0.00230051624739,0.885237219117,0.464972863478
1402416355017805589,,errorv,,0,,1402416355,17529675,base_link,/z_drive,,,0.0,0.0,0.0,,0.0,0.0,0.0,1.0
1402416355017836344,,errorv,,0,,1402416355,17554318,/z_drive,port,,,-0.3,0.3048,0.0,,0.0,0.0,0.0,1.0
1402416355017860983,,errorv,,0,,1402416355,17561460,/z_drive,starboard,,,-0.3,-0.3048,0.0,,0.0,0.0,0.0,1.0
1402416355037754446,,errorv,,0,,1402416355,37495104,base_link,/z_drive,,,0.0,0.0,0.0,,0.0,0.0,0.0,1.0
1402416355037780252,,errorv,,0,,1402416355,37527692,/z_drive,port,,,-0.3,0.3048,0.0,,0.0,0.0,0.0,1.0
1402416355037854361,,errorv,,0,,1402416355,37535131,/z_drive,starboard,,,-0.3,-0.3048,0.0,,0.0,0.0,0.0,1.0
1402416355039045443,,errorv,,0,,1402416354,967617988,/enu,/base_link,,,7.32985521628,19.8651319873,-19.0815396841,,-0.0121138195037,0.00227136332806,0.88449386319,0.466389003157
1402416355039249625,,errorv,,0,,1402416354,977673053,/enu,/base_link,,,7.3236804248,19.8650383431,-19.0812625037,,-0.0120628921168,0.00237334347715,0.883735378969,0.467825430939
1402416355039312321,,errorv,,0,,1402416354,987607002,/enu,/base_link,,,7.31770326253,19.8651301513,-19.0814011911,,-0.0119359820221,0.0023139589589,0.88299201195,0.469230524113
1402416355039379633,,errorv,,0,,1402416354,997766971,/enu,/base_link,,,7.31146023491,19.8651326443,-19.0812916623,,-0.011861217813,0.00225642923673,0.882253301755,0.47062015637
1402416355057780298,,errorv,,0,,1402416355,57497121,base_link,/z_drive,,,0.0,0.0,0.0,,0.0,0.0,0.0,1.0
1402416355057803757,,errorv,,0,,1402416355,57517034,/z_drive,port,,,-0.3,0.3048,0.0,,0.0,0.0,0.0,1.0
1402416355057818430,,errorv,,0,,1402416355,57526554,/z_drive,starboard,,,-0.3,-0.3048,0.0,,0.0,0.0,0.0,1.0
1402416355060936927,,errorv,,0,,1402416355,160746091,/base_link,/gps,,,-0.84,0.0,-0.14,,0.0,0.0,0.0,1.0
1402416355061067030,,errorv,,0,,1402416355,160869547,base_link,imu,,,0.13,0.0,-0.1,,1.0,0.0,0.0,0.0
1402416355077799278,,errorv,,0,,1402416355,77499977,base_link,/z_drive,,,0.0,0.0,0.0,,0.0,0.0,0.0,1.0
1402416355077827888,,errorv,,0,,1402416355,77530753,/z_drive,port,,,-0.3,0.3048,0.0,,0.0,0.0,0.0,1.0
1402416355077846145,,errorv,,0,,1402416355,77538869,/z_drive,starboard,,,-0.3,-0.3048,0.0,,0.0,0.0,0.0,1.0
1402416355081049872,,errorv,,0,,1402416355,7606029,/enu,/base_link,,,7.30552415929,19.865135296,-19.0811150744,,-0.0117513774237,0.00223715434268,0.88152502526,0.471985730832
1402416355081119418,,errorv,,0,,1402416355,18580913,/enu,/base_link,,,7.29870960298,19.8651723939,-19.0810403382,,-0.0117635788086,0.00226321386538,0.880713852715,0.473497207713
1402416355081146208,,errorv,,0,,1402416355,29704093,/enu,/base_link,,,7.29211398467,19.8653227084,-19.0810223133,,-0.0115989764647,0.002137801936,0.879912667521,0.47498904312
1402416355081173838,,errorv,,0,,1402416355,38568973,/enu,/base_link,,,7.29129429607,19.8742399804,-19.0858948777,,-0.0114767537325,0.00346154300116,0.879192118737,0.476316617592
1402416355081193311,,errorv,,0,,1402416355,48551082,/enu,/base_link,,,7.28526061113,19.8744737807,-19.0857230136,,-0.0113784496981,0.00332546068598,0.878483655903,0.477625311835
1402416355097795568,,errorv,,0,,1402416355,97577055,base_link,/z_drive,,,0.0,0.0,0.0,,0.0,0.0,0.0,1.0
1402416355097822215,,errorv,,0,,1402416355,97617774,/z_drive,port,,,-0.3,0.3048,0.0,,0.0,0.0,0.0,1.0
1402416355097840059,,errorv,,0,,1402416355,97626772,/z_drive,starboard,,,-0.3,-0.3048,0.0,,0.0,0.0,0.0,1.0
1402416355117913350,,errorv,,0,,1402416355,117463381,base_link,/z_drive,,,0.0,0.0,0.0,,0.0,0.0,0.0,1.0
1402416355117952036,,errorv,,0,,1402416355,117480963,/z_drive,port,,,-0.3,0.3048,0.0,,0.0,0.0,0.0,1.0
1402416355117988899,,errorv,,0,,1402416355,117489202,/z_drive,starboard,,,-0.3,-0.3048,0.0,,0.0,0.0,0.0,1.0
1402416355119096311,,errorv,,0,,1402416355,58541059,/enu,/base_link,,,7.27921658226,19.8749107585,-19.0857640373,,-0.0113791427738,0.00332919748995,0.877771106399,0.478933519734
1402416355119124202,,errorv,,0,,1402416355,68547964,/enu,/base_link,,,7.27332447913,19.8752996011,-19.0856611022,,-0.0113801112868,0.00322850520302,0.877054394193,0.480245415854
1402416355119147909,,errorv,,0,,1402416355,78552961,/enu,/base_link,,,7.2673032816,19.875948658,-19.0859727141,,-0.0113054368974,0.00315202961777,0.876337615627,0.481554394896
1402416355127411301,,errorv,,0,,1402416355,88558912,/enu,/base_link,,,7.26271812331,19.8563483176,-19.0791842806,,-0.0104901311624,0.00137198739688,0.875566114371,0.482982457409
1402416355127440532,,errorv,,0,,1402416355,99539995,/enu,/base_link,,,7.25602800152,19.8567516374,-19.0796344418,,-0.0106078322578,0.00129557400748,0.874798586538,0.484368896993
1402416355137745844,,errorv,,0,,1402416355,137504482,base_link,/z_drive,,,0.0,0.0,0.0,,0.0,0.0,0.0,1.0
1402416355137812933,,errorv,,0,,1402416355,137526402,/z_drive,port,,,-0.3,0.3048,0.0,,0.0,0.0,0.0,1.0
1402416355137904549,,errorv,,0,,1402416355,137535242,/z_drive,starboard,,,-0.3,-0.3048,0.0,,0.0,0.0,0.0,1.0
1402416355157791864,,errorv,,0,,1402416355,157524169,base_link,/z_drive,,,0.0,0.0,0.0,,0.0,0.0,0.0,1.0
1402416355157855656,,errorv,,0,,1402416355,157560983,/z_drive,port,,,-0.3,0.3048,0.0,,0.0,0.0,0.0,1.0
1402416355157912516,,errorv,,0,,1402416355,157568946,/z_drive,starboard,,,-0.3,-0.3048,0.0,,0.0,0.0,0.0,1.0
1402416355161061822,,errorv,,0,,1402416355,260848475,/base_link,/gps,,,-0.84,0.0,-0.14,,0.0,0.0,0.0,1.0
1402416355161170384,,errorv,,0,,1402416355,260973901,base_link,imu,,,0.13,0.0,-0.1,,1.0,0.0,0.0,0.0
1402416355167076252,,errorv,,0,,1402416355,109545946,/enu,/base_link,,,7.25000694194,19.8568980971,-19.079692327,,-0.0105549095331,0.00108181923588,0.874105433321,0.485620340381
1402416355167249937,,errorv,,0,,1402416355,119541883,/enu,/base_link,,,7.24388755903,19.856924038,-19.0793352198,,-0.0106473923462,0.000991073679232,0.873426385428,0.486838782399
1402416355177700485,,errorv,,0,,1402416355,177488510,base_link,/z_drive,,,0.0,0.0,0.0,,0.0,0.0,0.0,1.0
1402416355177730435,,errorv,,0,,1402416355,177509689,/z_drive,port,,,-0.3,0.3048,0.0,,0.0,0.0,0.0,1.0
1402416355177753152,,errorv,,0,,1402416355,177519480,/z_drive,starboard,,,-0.3,-0.3048,0.0,,0.0,0.0,0.0,1.0
1402416355197721563,,errorv,,0,,1402416355,197490298,base_link,/z_drive,,,0.0,0.0,0.0,,0.0,0.0,0.0,1.0
1402416355197794284,,errorv,,0,,1402416355,197518935,/z_drive,port,,,-0.3,0.3048,0.0,,0.0,0.0,0.0,1.0
1402416355197819223,,errorv,,0,,1402416355,197526373,/z_drive,starboard,,,-0.3,-0.3048,0.0,,0.0,0.0,0.0,1.0
1402416355207181257,,errorv,,0,,1402416355,129522085,/enu,/base_link,,,7.23775014257,19.8571220303,-19.0794315876,,-0.0106053547558,0.000827639734761,0.872728786425,0.4880894455
1402416355207199040,,errorv,,0,,1402416355,139539957,/enu,/base_link,,,7.23384608338,19.8661310722,-19.082442815,,-0.0106013237581,0.00185929419908,0.872006590127,0.489375787851
1402416355207383044,,errorv,,0,,1402416355,150520086,/enu,/base_link,,,7.22728238015,19.8664879263,-19.0821819527,,-0.0106740362583,0.00169914602808,0.871257400827,0.490707366317
1402416355207410476,,errorv,,0,,1402416355,160520076,/enu,/base_link,,,7.22116012353,19.8669340129,-19.0820965479,,-0.0106598765916,0.00154172147375,0.870576476168,0.491915225693
1402416355217676171,,errorv,,0,,1402416355,217467716,base_link,/z_drive,,,0.0,0.0,0.0,,0.0,0.0,0.0,1.0
1402416355217824574,,errorv,,0,,1402416355,217485969,/z_drive,port,,,-0.3,0.3048,0.0,,0.0,0.0,0.0,1.0
1402416355217846009,,errorv,,0,,1402416355,217495990,/z_drive,starboard,,,-0.3,-0.3048,0.0,,0.0,0.0,0.0,1.0
1402416355237666027,,errorv,,0,,1402416355,237455245,base_link,/z_drive,,,0.0,0.0,0.0,,0.0,0.0,0.0,1.0
1402416355237696871,,errorv,,0,,1402416355,237470722,/z_drive,port,,,-0.3,0.3048,0.0,,0.0,0.0,0.0,1.0
1402416355237724868,,errorv,,0,,1402416355,237480384,/z_drive,starboard,,,-0.3,-0.3048,0.0,,0.0,0.0,0.0,1.0
1402416355247303861,,errorv,,0,,1402416355,170490980,/enu,/base_link,,,7.21526193081,19.867618148,-19.0824901172,,-0.0106355896776,0.00134146062173,0.869915602789,0.493084099054
1402416355247335541,,errorv,,0,,1402416355,181493997,/enu,/base_link,,,7.20866782003,19.8681112462,-19.0821764948,,-0.0108292962848,0.00128961898595,0.869184996473,0.494366771872
1402416355247359384,,errorv,,0,,1402416355,191494941,/enu,/base_link,,,7.19388746565,19.8859907824,-19.0927021395,,-0.0118218434992,0.0024181793641,0.868740399493,0.495120707215
1402416355247377142,,errorv,,0,,1402416355,201491117,/enu,/base_link,,,7.18800009126,19.8870795718,-19.0927940205,,-0.0119566780004,0.0023409698611,0.868070790132,0.496290903635
1402416355257720827,,errorv,,0,,1402416355,257510710,base_link,/z_drive,,,0.0,0.0,0.0,,0.0,0.0,0.0,1.0
1402416355257751598,,errorv,,0,,1402416355,257525150,/z_drive,port,,,-0.3,0.3048,0.0,,0.0,0.0,0.0,1.0
1402416355257769366,,errorv,,0,,1402416355,257529367,/z_drive,starboard,,,-0.3,-0.3048,0.0,,0.0,0.0,0.0,1.0
1402416355261144743,,errorv,,0,,1402416355,360952055,/base_link,/gps,,,-0.84,0.0,-0.14,,0.0,0.0,0.0,1.0
1402416355261255366,,errorv,,0,,1402416355,361075152,base_link,imu,,,0.13,0.0,-0.1,,1.0,0.0,0.0,0.0
1402416355277624209,,errorv,,0,,1402416355,277472113,base_link,/z_drive,,,0.0,0.0,0.0,,0.0,0.0,0.0,1.0
1402416355277889104,,errorv,,0,,1402416355,277497662,/z_drive,port,,,-0.3,0.3048,0.0,,0.0,0.0,0.0,1.0
1402416355277914376,,errorv,,0,,1402416355,277613895,/z_drive,starboard,,,-0.3,-0.3048,0.0,,0.0,0.0,0.0,1.0
1402416355287262276,,errorv,,0,,1402416355,211466073,/enu,/base_link,,,7.18174646094,19.8880292256,-19.0927581098,,-0.0120772073762,0.00216546443988,0.867414327717,0.497435257996
1402416355287288026,,errorv,,0,,1402416355,222466945,/enu,/base_link,,,7.17509830807,19.8891849278,-19.0928654869,,-0.0121831713083,0.00201897773901,0.866694488963,0.498686431404
1402416355287308394,,errorv,,0,,1402416355,232465028,/enu,/base_link,,,7.16870223975,19.890167562,-19.0927123961,,-0.0123772393175,0.0018533821056,0.866053283257,0.499795037472
1402416355287353685,,errorv,,0,,1402416355,242466926,/enu,/base_link,,,7.16275082727,19.8911398445,-19.0926685021,,-0.0124679278608,0.0016477766692,0.865389613473,0.500941765577
1402416355297683267,,errorv,,0,,1402416355,297493084,base_link,/z_drive,,,0.0,0.0,0.0,,0.0,0.0,0.0,1.0
1402416355297712012,,errorv,,0,,1402416355,297507139,/z_drive,port,,,-0.3,0.3048,0.0,,0.0,0.0,0.0,1.0
1402416355297787964,,errorv,,0,,1402416355,297513223,/z_drive,starboard,,,-0.3,-0.3048,0.0,,0.0,0.0,0.0,1.0
1402416355317656756,,errorv,,0,,1402416355,317465489,base_link,/z_drive,,,0.0,0.0,0.0,,0.0,0.0,0.0,1.0
1402416355317679784,,errorv,,0,,1402416355,317486221,/z_drive,port,,,-0.3,0.3048,0.0,,0.0,0.0,0.0,1.0
1402416355317748945,,errorv,,0,,1402416355,317496179,/z_drive,starboard,,,-0.3,-0.3048,0.0,,0.0,0.0,0.0,1.0
1402416355327066704,,errorv,,0,,1402416355,252466917,/enu,/base_link,,,7.15670271467,19.8923596839,-19.0929178759,,-0.0125197989675,0.00149868981162,0.864736860394,0.502066898769
1402416355327153985,,errorv,,0,,1402416355,263465881,/enu,/base_link,,,7.14992594287,19.8935107889,-19.0926893952,,-0.012738785424,0.00149002286399,0.864025232141,0.503285109457
1402416355327171477,,errorv,,0,,1402416355,273451089,/enu,/base_link,,,7.13365181721,19.8860386646,-19.0974508076,,-0.0130738565124,-6.90368195129e-05,0.863502282163,0.504175443877
1402416355327452138,,errorv,,0,,1402416355,283467054,/enu,/base_link,,,7.12725201771,19.8869748583,-19.097392876,,-0.0132586297783,-0.000157263059511,0.862862394222,0.505264952912
1402416355337774168,,errorv,,0,,1402416355,337570041,base_link,/z_drive,,,0.0,0.0,0.0,,0.0,0.0,0.0,1.0
1402416355337805586,,errorv,,0,,1402416355,337587668,/z_drive,port,,,-0.3,0.3048,0.0,,0.0,0.0,0.0,1.0
1402416355337836831,,errorv,,0,,1402416355,337596980,/z_drive,starboard,,,-0.3,-0.3048,0.0,,0.0,0.0,0.0,1.0
1402416355357751647,,errorv,,0,,1402416355,357530705,base_link,/z_drive,,,0.0,0.0,0.0,,0.0,0.0,0.0,1.0
1402416355357777177,,errorv,,0,,1402416355,357549921,/z_drive,port,,,-0.3,0.3048,0.0,,0.0,0.0,0.0,1.0
1402416355357792743,,errorv,,0,,1402416355,357556601,/z_drive,starboard,,,-0.3,-0.3048,0.0,,0.0,0.0,0.0,1.0
1402416355361237928,,errorv,,0,,1402416355,461050092,/base_link,/gps,,,-0.84,0.0,-0.14,,0.0,0.0,0.0,1.0
1402416355361385212,,errorv,,0,,1402416355,461203496,base_link,imu,,,0.13,0.0,-0.1,,1.0,0.0,0.0,0.0
1402416355367079589,,errorv,,0,,1402416355,294440984,/enu,/base_link,,,7.12026173616,19.8881268443,-19.0973491233,,-0.0135099031794,-0.000373069402845,0.862172596251,0.506434356663
1402416355367325362,,errorv,,0,,1402416355,304449081,/enu,/base_link,,,7.11387041636,19.8892228858,-19.0975518795,,-0.0136757213528,-0.000534749893758,0.861517267041,0.507543778682
1402416355367346694,,errorv,,0,,1402416355,314450979,/enu,/base_link,,,7.1074539555,19.8902080121,-19.0973676162,,-0.013959423654,-0.000634573651746,0.860855077192,0.508658301693
1402416355367426192,,errorv,,0,,1402416355,325452089,/enu,/base_link,,,7.10966475963,19.8880348943,-19.093038524,,-0.0133824912481,-0.000165715486445,0.859894121288,0.510296954371
1402416355377836843,,errorv,,0,,1402416355,377648475,base_link,/z_drive,,,0.0,0.0,0.0,,0.0,0.0,0.0,1.0
1402416355377862581,,errorv,,0,,1402416355,377664665,/z_drive,port,,,-0.3,0.3048,0.0,,0.0,0.0,0.0,1.0
1402416355377886162,,errorv,,0,,1402416355,377670508,/z_drive,starboard,,,-0.3,-0.3048,0.0,,0.0,0.0,0.0,1.0
1402416355397790805,,errorv,,0,,1402416355,397556585,base_link,/z_drive,,,0.0,0.0,0.0,,0.0,0.0,0.0,1.0
1402416355397895731,,errorv,,0,,1402416355,397632000,/z_drive,port,,,-0.3,0.3048,0.0,,0.0,0.0,0.0,1.0
1402416355397925134,,errorv,,0,,1402416355,397644190,/z_drive,starboard,,,-0.3,-0.3048,0.0,,0.0,0.0,0.0,1.0
1402416355407203052,,errorv,,0,,1402416355,335448980,/enu,/base_link,,,7.10340449053,19.889144004,-19.0930597523,,-0.0134276482507,-0.000211901434865,0.859220422171,0.511429290797
1402416355407224400,,errorv,,0,,1402416355,345443010,/enu,/base_link,,,7.09743697346,19.8902983041,-19.0930777764,,-0.0136297531194,-0.000161179073327,0.858553743639,0.512542362284
1402416355407239936,,errorv,,0,,1402416355,356440067,/enu,/base_link,,,7.09371982803,19.8998401531,-19.0955139328,,-0.013614280667,0.000865285621858,0.857721360418,0.513933819207
1402416355407428948,,errorv,,0,,1402416355,366422891,/enu,/base_link,,,7.0875519579,19.9011905694,-19.0954715047,,-0.0137870046718,0.000750254291247,0.857052203086,0.515044538662
1402416355407506980,,errorv,,0,,1402416355,376427888,/enu,/base_link,,,7.08167040539,19.9027005325,-19.0956083786,,-0.014028014716,0.000646247873407,0.856379799846,0.516155437424
1402416355417658059,,errorv,,0,,1402416355,417510906,base_link,/z_drive,,,0.0,0.0,0.0,,0.0,0.0,0.0,1.0
1402416355417853259,,errorv,,0,,1402416355,417529489,/z_drive,port,,,-0.3,0.3048,0.0,,0.0,0.0,0.0,1.0
1402416355417881743,,errorv,,0,,1402416355,417541617,/z_drive,starboard,,,-0.3,-0.3048,0.0,,0.0,0.0,0.0,1.0
1402416355437695317,,errorv,,0,,1402416355,437482660,base_link,/z_drive,,,0.0,0.0,0.0,,0.0,0.0,0.0,1.0
1402416355437723124,,errorv,,0,,1402416355,437499569,/z_drive,port,,,-0.3,0.3048,0.0,,0.0,0.0,0.0,1.0
1402416355437866006,,errorv,,0,,1402416355,437505797,/z_drive,starboard,,,-0.3,-0.3048,0.0,,0.0,0.0,0.0,1.0
1402416355447202793,,errorv,,0,,1402416355,387447118,/enu,/base_link,,,7.07491521926,19.9041928561,-19.0954848357,,-0.01411959492,0.000559393681843,0.855628046289,0.517398270699
1402416355447239702,,errorv,,0,,1402416355,397417068,/enu,/base_link,,,7.06884894034,19.9056619631,-19.0954924052,,-0.0140993055014,0.000565503729909,0.854960775489,0.518500686754
1402416355447259437,,errorv,,0,,1402416355,407423019,/enu,/base_link,,,7.0627482964,19.9071297016,-19.0953923708,,-0.0142750223485,0.000729473282353,0.854268163159,0.519636023597
1402416355455383810,,errorv,,0,,1402416355,417467117,/enu,/base_link,,,7.05688981038,19.9087551388,-19.0955793836,,-0.0143203815046,0.000745740624979,0.853581323454,0.520762224816
1402416355455396014,,errorv,,0,,1402416355,427412033,/enu,/base_link,,,7.05065681906,19.9102744122,-19.0954700913,,-0.0144559834132,0.000854483211921,0.852894095403,0.521883086934
1402416355457734393,,errorv,,0,,1402416355,457550774,base_link,/z_drive,,,0.0,0.0,0.0,,0.0,0.0,0.0,1.0
1402416355457933235,,errorv,,0,,1402416355,457568906,/z_drive,port,,,-0.3,0.3048,0.0,,0.0,0.0,0.0,1.0
1402416355457953968,,errorv,,0,,1402416355,457714729,/z_drive,starboard,,,-0.3,-0.3048,0.0,,0.0,0.0,0.0,1.0
1402416355461330187,,errorv,,0,,1402416355,561147927,/base_link,/gps,,,-0.84,0.0,-0.14,,0.0,0.0,0.0,1.0
1402416355461516963,,errorv,,0,,1402416355,561320479,base_link,imu,,,0.13,0.0,-0.1,,1.0,0.0,0.0,0.0
1402416355477688935,,errorv,,0,,1402416355,477476288,base_link,/z_drive,,,0.0,0.0,0.0,,0.0,0.0,0.0,1.0
1402416355477717057,,errorv,,0,,1402416355,477491502,/z_drive,port,,,-0.3,0.3048,0.0,,0.0,0.0,0.0,1.0
1402416355477738366,,errorv,,0,,1402416355,477496065,/z_drive,starboard,,,-0.3,-0.3048,0.0,,0.0,0.0,0.0,1.0
1402416355495162211,,errorv,,0,,1402416355,438421010,/enu,/base_link,,,7.0476341933,19.9144888094,-19.0738085691,,-0.0146806808067,0.00146094799804,0.852131586631,0.523119587004
1402416355495195347,,errorv,,0,,1402416355,448384046,/enu,/base_link,,,7.04152391805,19.9161919517,-19.073755274,,-0.0147081788576,0.00152423432371,0.851442255652,0.524239860631
1402416355497973086,,errorv,,0,,1402416355,497790822,base_link,/z_drive,,,0.0,0.0,0.0,,0.0,0.0,0.0,1.0
1402416355498004331,,errorv,,0,,1402416355,497813991,/z_drive,port,,,-0.3,0.3048,0.0,,0.0,0.0,0.0,1.0
1402416355498029955,,errorv,,0,,1402416355,497820983,/z_drive,starboard,,,-0.3,-0.3048,0.0,,0.0,0.0,0.0,1.0
1402416355517663021,,errorv,,0,,1402416355,517484913,base_link,/z_drive,,,0.0,0.0,0.0,,0.0,0.0,0.0,1.0
1402416355517687284,,errorv,,0,,1402416355,517502582,/z_drive,port,,,-0.3,0.3048,0.0,,0.0,0.0,0.0,1.0
1402416355517815596,,errorv,,0,,1402416355,517509023,/z_drive,starboard,,,-0.3,-0.3048,0.0,,0.0,0.0,0.0,1.0
1402416355535190088,,errorv,,0,,1402416355,458385944,/enu,/base_link,,,7.03563134237,19.9181377249,-19.0739321618,,-0.0148455365201,0.00161370176421,0.850744742045,0.525366909783
1402416355535219050,,errorv,,0,,1402416355,468384981,/enu,/base_link,,,7.02950479795,19.9197010209,-19.0734018319,,-0.0147753447337,0.00166501292784,0.85004091505,0.526506751772
1402416355535287440,,errorv,,0,,1402416355,479382991,/enu,/base_link,,,7.02277782408,19.9216169002,-19.0732912263,,-0.014691679476,0.00168994349259,0.849251890561,0.527780754693
1402416355535353367,,errorv,,0,,1402416355,489382982,/enu,/base_link,,,7.02254982643,19.9173320266,-19.0680296878,,-0.0141495639115,0.00162984886863,0.848417251247,0.529136372989
1402416355537760231,,errorv,,0,,1402416355,537502859,base_link,/z_drive,,,0.0,0.0,0.0,,0.0,0.0,0.0,1.0
1402416355537788855,,errorv,,0,,1402416355,537523277,/z_drive,port,,,-0.3,0.3048,0.0,,0.0,0.0,0.0,1.0
1402416355537816067,,errorv,,0,,1402416355,537531209,/z_drive,starboard,,,-0.3,-0.3048,0.0,,0.0,0.0,0.0,1.0
1402416355557656663,,errorv,,0,,1402416355,557487174,base_link,/z_drive,,,0.0,0.0,0.0,,0.0,0.0,0.0,1.0
1402416355557729289,,errorv,,0,,1402416355,557502529,/z_drive,port,,,-0.3,0.3048,0.0,,0.0,0.0,0.0,1.0
1402416355557840529,,errorv,,0,,1402416355,557509205,/z_drive,starboard,,,-0.3,-0.3048,0.0,,0.0,0.0,0.0,1.0
1402416355561424267,,errorv,,0,,1402416355,661244783,/base_link,/gps,,,-0.84,0.0,-0.14,,0.0,0.0,0.0,1.0
1402416355561596543,,errorv,,0,,1402416355,661421816,base_link,imu,,,0.13,0.0,-0.1,,1.0,0.0,0.0,0.0
1402416355575115814,,errorv,,0,,1402416355,499382972,/enu,/base_link,,,7.01664106057,19.919098644,-19.067886509,,-0.0141535074208,0.00163742417337,0.847698821659,0.530286436587
1402416355575128346,,errorv,,0,,1402416355,509385108,/enu,/base_link,,,7.01070884304,19.9208441632,-19.0677746854,,-0.0141618568246,0.00176183553652,0.84697798434,0.531436385459
1402416355575150541,,errorv,,0,,1402416355,519386053,/enu,/base_link,,,7.00498037288,19.9226031987,-19.0675676761,,-0.0141574712696,0.0018999011142,0.846240132801,0.532610170781
1402416355575206369,,errorv,,0,,1402416355,529359102,/enu,/base_link,,,6.99926459165,19.9244020066,-19.0674216279,,-0.0140410829856,0.00206362275992,0.845509486589,0.5337717654
1402416355577729603,,errorv,,0,,1402416355,577474735,base_link,/z_drive,,,0.0,0.0,0.0,,0.0,0.0,0.0,1.0
1402416355577757572,,errorv,,0,,1402416355,577498521,/z_drive,port,,,-0.3,0.3048,0.0,,0.0,0.0,0.0,1.0
1402416355577781092,,errorv,,0,,1402416355,577507251,/z_drive,starboard,,,-0.3,-0.3048,0.0,,0.0,0.0,0.0,1.0
1402416355597759065,,errorv,,0,,1402416355,597470445,base_link,/z_drive,,,0.0,0.0,0.0,,0.0,0.0,0.0,1.0
1402416355597784341,,errorv,,0,,1402416355,597492028,/z_drive,port,,,-0.3,0.3048,0.0,,0.0,0.0,0.0,1.0
1402416355597843092,,errorv,,0,,1402416355,597500067,/z_drive,starboard,,,-0.3,-0.3048,0.0,,0.0,0.0,0.0,1.0
1402416355615302235,,errorv,,0,,1402416355,540358066,/enu,/base_link,,,6.98572688193,19.9274646361,-19.0788335977,,-0.014324492494,0.00181654923849,0.844766247865,0.534940646738
1402416355615331871,,errorv,,0,,1402416355,550357103,/enu,/base_link,,,6.97965209344,19.9289875924,-19.0781966467,,-0.0141399528923,0.00193343720013,0.844023772959,0.536115840311
1402416355615398226,,errorv,,0,,1402416355,560359001,/enu,/base_link,,,6.97398746939,19.930946567,-19.0782344987,,-0.0139881033432,0.00200398451709,0.843284990126,0.537280878535
1402416355615420951,,errorv,,0,,1402416355,570341110,/enu,/base_link,,,6.96821713347,19.9327615009,-19.0779017089,,-0.0139699083258,0.00216725022494,0.842522293287,0.538475932612
1402416355617691142,,errorv,,0,,1402416355,617511664,base_link,/z_drive,,,0.0,0.0,0.0,,0.0,0.0,0.0,1.0
1402416355617720891,,errorv,,0,,1402416355,617529920,/z_drive,port,,,-0.3,0.3048,0.0,,0.0,0.0,0.0,1.0
1402416355617738010,,errorv,,0,,1402416355,617538889,/z_drive,starboard,,,-0.3,-0.3048,0.0,,0.0,0.0,0.0,1.0
1402416355637922835,,errorv,,0,,1402416355,637469209,base_link,/z_drive,,,0.0,0.0,0.0,,0.0,0.0,0.0,1.0
1402416355637960394,,errorv,,0,,1402416355,637488813,/z_drive,port,,,-0.3,0.3048,0.0,,0.0,0.0,0.0,1.0
1402416355637982516,,errorv,,0,,1402416355,637496875,/z_drive,starboard,,,-0.3,-0.3048,0.0,,0.0,0.0,0.0,1.0
1402416355655069094,,errorv,,0,,1402416355,581341028,/enu,/base_link,,,6.96162892835,19.9348309023,-19.077859053,,-0.0138167334221,0.00225435947103,0.841689041059,0.539781042556
1402416355655104018,,errorv,,0,,1402416355,591326951,/enu,/base_link,,,6.95576941413,19.9483964437,-19.0900550875,,-0.0138369026748,0.00346426872957,0.840901278172,0.541000535429
1402416355655127915,,errorv,,0,,1402416355,601326942,/enu,/base_link,,,6.9501407125,19.9505693035,-19.0900913898,,-0.0137183880919,0.00362758339534,0.840133147585,0.54219455991
1402416355655195919,,errorv,,0,,1402416355,611327886,/enu,/base_link,,,6.94433564553,19.9526161571,-19.0897487262,,-0.0135285931703,0.00372500437608,0.839358168682,0.543397613334
1402416355657614496,,errorv,,0,,1402416355,657458752,base_link,/z_drive,,,0.0,0.0,0.0,,0.0,0.0,0.0,1.0
1402416355657641493,,errorv,,0,,1402416355,657472323,/z_drive,port,,,-0.3,0.3048,0.0,,0.0,0.0,0.0,1.0
1402416355657660998,,errorv,,0,,1402416355,657476665,/z_drive,starboard,,,-0.3,-0.3048,0.0,,0.0,0.0,0.0,1.0
1402416355661538080,,errorv,,0,,1402416355,761342267,/base_link,/gps,,,-0.84,0.0,-0.14,,0.0,0.0,0.0,1.0
1402416355661697739,,errorv,,0,,1402416355,761521412,base_link,imu,,,0.13,0.0,-0.1,,1.0,0.0,0.0,0.0
1402416355677724600,,errorv,,0,,1402416355,677500143,base_link,/z_drive,,,0.0,0.0,0.0,,0.0,0.0,0.0,1.0
1402416355677754054,,errorv,,0,,1402416355,677533782,/z_drive,port,,,-0.3,0.3048,0.0,,0.0,0.0,0.0,1.0
1402416355677826259,,errorv,,0,,1402416355,677549854,/z_drive,starboard,,,-0.3,-0.3048,0.0,,0.0,0.0,0.0,1.0
1402416355695333652,,errorv,,0,,1402416355,621341943,/enu,/base_link,,,6.93858696934,19.954761003,-19.0895658609,,-0.0134714277594,0.00389123451809,0.838594398598,0.544575810671
1402416355695354207,,errorv,,0,,1402416355,631315946,/enu,/base_link,,,6.93305952544,19.9569097928,-19.0894169502,,-0.013258704277,0.00398504972876,0.837827974054,0.545758748929
1402416355695385993,,errorv,,0,,1402416355,642326116,/enu,/base_link,,,6.92085981864,19.9551282407,-19.0805314644,,-0.0133655615177,0.00327949741574,0.837070118251,0.546922502548
1402416355695411609,,errorv,,0,,1402416355,652323961,/enu,/base_link,,,6.91511835394,19.9573168035,-19.0804374319,,-0.0132225748487,0.00347555812004,0.836287055371,0.548121378007
1402416355697768625,,errorv,,0,,1402416355,697516055,base_link,/z_drive,,,0.0,0.0,0.0,,0.0,0.0,0.0,1.0
1402416355697839134,,errorv,,0,,1402416355,697535203,/z_drive,port,,,-0.3,0.3048,0.0,,0.0,0.0,0.0,1.0
1402416355697862993,,errorv,,0,,1402416355,697679446,/z_drive,starboard,,,-0.3,-0.3048,0.0,,0.0,0.0,0.0,1.0
1402416355719019932,,errorv,,0,,1402416355,717473184,base_link,/z_drive,,,0.0,0.0,0.0,,0.0,0.0,0.0,1.0
1402416355719047273,,errorv,,0,,1402416355,717488682,/z_drive,port,,,-0.3,0.3048,0.0,,0.0,0.0,0.0,1.0
1402416355719069231,,errorv,,0,,1402416355,717493604,/z_drive,starboard,,,-0.3,-0.3048,0.0,,0.0,0.0,0.0,1.0
1402416355735204836,,errorv,,0,,1402416355,662303924,/enu,/base_link,,,6.90927362667,19.9593612134,-19.080018566,,-0.0130514221465,0.00356064729825,0.835524454448,0.549286690345
1402416355735232301,,errorv,,0,,1402416355,672314882,/enu,/base_link,,,6.90347985035,19.9617659123,-19.080247411,,-0.0128958831877,0.00363613060734,0.834773349158,0.550430677095
1402416355735254391,,errorv,,0,,1402416355,682307958,/enu,/base_link,,,6.89772793347,19.9638923092,-19.0797442127,,-0.0128276866137,0.00372833806988,0.833988249509,0.551620476081
1402416355735426258,,errorv,,0,,1402416355,692313909,/enu,/base_link,,,6.88996617631,19.9725450241,-19.0889545506,,-0.0127660261409,0.00418560561203,0.833250783072,0.55273198007
1402416355737709495,,errorv,,0,,1402416355,737487728,base_link,/z_drive,,,0.0,0.0,0.0,,0.0,0.0,0.0,1.0
1402416355737732342,,errorv,,0,,1402416355,737501224,/z_drive,port,,,-0.3,0.3048,0.0,,0.0,0.0,0.0,1.0
1402416355737755879,,errorv,,0,,1402416355,737505395,/z_drive,starboard,,,-0.3,-0.3048,0.0,,0.0,0.0,0.0,1.0
1402416355757712761,,errorv,,0,,1402416355,757471363,base_link,/z_drive,,,0.0,0.0,0.0,,0.0,0.0,0.0,1.0
1402416355757742023,,errorv,,0,,1402416355,757484527,/z_drive,port,,,-0.3,0.3048,0.0,,0.0,0.0,0.0,1.0
1402416355757903392,,errorv,,0,,1402416355,757488577,/z_drive,starboard,,,-0.3,-0.3048,0.0,,0.0,0.0,0.0,1.0
1402416355761611158,,errorv,,0,,1402416355,861438259,/base_link,/gps,,,-0.84,0.0,-0.14,,0.0,0.0,0.0,1.0
1402416355761808964,,errorv,,0,,1402416355,861633047,base_link,imu,,,0.13,0.0,-0.1,,1.0,0.0,0.0,0.0
1402416355775047518,,errorv,,0,,1402416355,702308893,/enu,/base_link,,,6.88418737774,19.9749982903,-19.0889284358,,-0.0126778832678,0.00433983804619,0.832488337629,0.553880496853
1402416355775072330,,errorv,,0,,1402416355,712322950,/enu,/base_link,,,6.87846245099,19.9771562457,-19.0884376436,,-0.0124138932964,0.00439383742377,0.831714944555,0.555046701143
1402416355775121284,,errorv,,0,,1402416355,722289085,/enu,/base_link,,,6.87294262555,19.9795536296,-19.088352503,,-0.0122545241379,0.00460486965733,0.830930518221,0.556222163981
1402416355775142809,,errorv,,0,,1402416355,732295989,/enu,/base_link,,,6.86705586395,19.9819908963,-19.0882631365,,-0.0120844455509,0.00473958493777,0.8301676173,0.557362745164
1402416355777680765,,errorv,,0,,1402416355,777499397,base_link,/z_drive,,,0.0,0.0,0.0,,0.0,0.0,0.0,1.0
1402416355777773782,,errorv,,0,,1402416355,777536713,/z_drive,port,,,-0.3,0.3048,0.0,,0.0,0.0,0.0,1.0
1402416355777798970,,errorv,,0,,1402416355,777546002,/z_drive,starboard,,,-0.3,-0.3048,0.0,,0.0,0.0,0.0,1.0
1402416355797662771,,errorv,,0,,1402416355,797472815,base_link,/z_drive,,,0.0,0.0,0.0,,0.0,0.0,0.0,1.0
1402416355797803171,,errorv,,0,,1402416355,797493561,/z_drive,port,,,-0.3,0.3048,0.0,,0.0,0.0,0.0,1.0
1402416355797833693,,errorv,,0,,1402416355,797503069,/z_drive,starboard,,,-0.3,-0.3048,0.0,,0.0,0.0,0.0,1.0
1402416355815311207,,errorv,,0,,1402416355,743271112,/enu,/base_link,,,6.86571505401,19.9888640797,-19.0907632527,,-0.0116072324412,0.00553475696408,0.829278223139,0.558687987384
1402416355815337365,,errorv,,0,,1402416355,753271102,/enu,/base_link,,,6.86028603462,19.9912645254,-19.0903614387,,-0.0114254095589,0.00551264733257,0.828512229227,0.559827256176
1402416355815400288,,errorv,,0,,1402416355,763272047,/enu,/base_link,,,6.85471227178,19.9938409236,-19.0902908835,,-0.0113737977965,0.00559551522587,0.827746692855,0.560958768004
1402416355815440546,,errorv,,0,,1402416355,773272037,/enu,/base_link,,,6.84913475756,19.9964840708,-19.0902169514,,-0.0111039633671,0.00565019782405,0.826999783867,0.562064173157
1402416355817907126,,errorv,,0,,1402416355,817532346,base_link,/z_drive,,,0.0,0.0,0.0,,0.0,0.0,0.0,1.0
1402416355817936526,,errorv,,0,,1402416355,817560511,/z_drive,port,,,-0.3,0.3048,0.0,,0.0,0.0,0.0,1.0
1402416355817959765,,errorv,,0,,1402416355,817638610,/z_drive,starboard,,,-0.3,-0.3048,0.0,,0.0,0.0,0.0,1.0
1402416355837846326,,errorv,,0,,1402416355,837528489,base_link,/z_drive,,,0.0,0.0,0.0,,0.0,0.0,0.0,1.0
1402416355837875227,,errorv,,0,,1402416355,837566950,/z_drive,port,,,-0.3,0.3048,0.0,,0.0,0.0,0.0,1.0
1402416355837892558,,errorv,,0,,1402416355,837684172,/z_drive,starboard,,,-0.3,-0.3048,0.0,,0.0,0.0,0.0,1.0
1402416355855188481,,errorv,,0,,1402416355,783245086,/enu,/base_link,,,6.83309358798,19.9921785568,-19.0780329321,,-0.0115853892605,0.0046237292454,0.826340974138,0.563031965651
1402416355855322223,,errorv,,0,,1402416355,793241024,/enu,/base_link,,,6.82757431529,19.9945989606,-19.0777194526,,-0.01140244054,0.0045969521435,0.825578241907,0.564153719185
1402416355855428799,,errorv,,0,,1402416355,803244113,/enu,/base_link,,,6.8217686468,19.997140403,-19.0776779349,,-0.0112677487718,0.00473109783799,0.824814391407,0.565271504924
1402416355855458600,,errorv,,0,,1402416355,813241004,/enu,/base_link,,,6.81585899115,19.9996458579,-19.0773795899,,-0.0111751335446,0.00478453299519,0.824064141896,0.566366060667
1402416355857855680,,errorv,,0,,1402416355,857518424,base_link,/z_drive,,,0.0,0.0,0.0,,0.0,0.0,0.0,1.0
1402416355857882142,,errorv,,0,,1402416355,857539143,/z_drive,port,,,-0.3,0.3048,0.0,,0.0,0.0,0.0,1.0
1402416355857943827,,errorv,,0,,1402416355,857549383,/z_drive,starboard,,,-0.3,-0.3048,0.0,,0.0,0.0,0.0,1.0
1402416355861768112,,errorv,,0,,1402416355,961543489,/base_link,/gps,,,-0.84,0.0,-0.14,,0.0,0.0,0.0,1.0
1402416355861930210,,errorv,,0,,1402416355,961734597,base_link,imu,,,0.13,0.0,-0.1,,1.0,0.0,0.0,0.0
1402416355877765592,,errorv,,0,,1402416355,877505562,base_link,/z_drive,,,0.0,0.0,0.0,,0.0,0.0,0.0,1.0
1402416355877797161,,errorv,,0,,1402416355,877536989,/z_drive,port,,,-0.3,0.3048,0.0,,0.0,0.0,0.0,1.0
1402416355877878468,,errorv,,0,,1402416355,877546303,/z_drive,starboard,,,-0.3,-0.3048,0.0,,0.0,0.0,0.0,1.0
1402416355895678437,,errorv,,0,,1402416355,824243068,/enu,/base_link,,,6.80945587377,20.0023763476,-19.0769900668,,-0.0110699157719,0.0049608240003,0.8232453679,0.567556086587
1402416355895699342,,errorv,,0,,1402416355,834244012,/enu,/base_link,,,6.80585363339,20.0140233839,-19.0910152147,,-0.0106815044751,0.00603874813664,0.822519429509,0.568604631588
1402416355895778700,,errorv,,0,,1402416355,844216108,/enu,/base_link,,,6.80039163989,20.0167645817,-19.0908758227,,-0.0106211168971,0.00619834530486,0.821781087109,0.569670621729
1402416355895809608,,errorv,,0,,1402416355,854217052,/enu,/base_link,,,6.79485123249,20.0192832462,-19.0903463741,,-0.0104606360448,0.00618264210129,0.821032933435,0.570751497804
1402416355895833144,,errorv,,0,,1402416355,864213943,/enu,/base_link,,,6.78913282347,20.0222084247,-19.0903865266,,-0.0104285992433,0.00628009013596,0.820292126372,0.571815208085
1402416355897802258,,errorv,,0,,1402416355,897544652,base_link,/z_drive,,,0.0,0.0,0.0,,0.0,0.0,0.0,1.0
1402416355897885628,,errorv,,0,,1402416355,897564093,/z_drive,port,,,-0.3,0.3048,0.0,,0.0,0.0,0.0,1.0
1402416355897914132,,errorv,,0,,1402416355,897570644,/z_drive,starboard,,,-0.3,-0.3048,0.0,,0.0,0.0,0.0,1.0
1402416355917694163,,errorv,,0,,1402416355,917474005,base_link,/z_drive,,,0.0,0.0,0.0,,0.0,0.0,0.0,1.0
1402416355917823958,,errorv,,0,,1402416355,917499348,/z_drive,port,,,-0.3,0.3048,0.0,,0.0,0.0,0.0,1.0
1402416355917904516,,errorv,,0,,1402416355,917506517,/z_drive,starboard,,,-0.3,-0.3048,0.0,,0.0,0.0,0.0,1.0
1402416355935155085,,errorv,,0,,1402416355,874216079,/enu,/base_link,,,6.78339934658,20.0249298295,-19.0901125021,,-0.0103886365125,0.00626726226832,0.819563226737,0.572860292773
1402416355935183311,,errorv,,0,,1402416355,884233951,/enu,/base_link,,,6.76895294042,20.0285973717,-19.0939024652,,-0.0107598563749,0.00581941186452,0.81886302524,0.57385861136
1402416355935203877,,errorv,,0,,1402416355,895217895,/enu,/base_link,,,6.76283020883,20.0315861986,-19.0934560249,,-0.010761893204,0.00585030843516,0.818069390841,0.574989067127
1402416355937674881,,errorv,,0,,1402416355,937498372,base_link,/z_drive,,,0.0,0.0,0.0,,0.0,0.0,0.0,1.0
1402416355937928226,,errorv,,0,,1402416355,937516094,/z_drive,port,,,-0.3,0.3048,0.0,,0.0,0.0,0.0,1.0
1402416355937951751,,errorv,,0,,1402416355,937522638,/z_drive,starboard,,,-0.3,-0.3048,0.0,,0.0,0.0,0.0,1.0
1402416355943264072,,errorv,,0,,1402416355,905231952,/enu,/base_link,,,6.75711685365,20.0344153699,-19.0931192187,,-0.0107547214349,0.00594223824205,0.817335178169,0.57603145079
1402416355943290860,,errorv,,0,,1402416355,915235042,/enu,/base_link,,,6.75143523796,20.037351784,-19.093005239,,-0.010675178906,0.00594501649024,0.816597770981,0.577077791777
1402416355957651647,,errorv,,0,,1402416355,957497829,base_link,/z_drive,,,0.0,0.0,0.0,,0.0,0.0,0.0,1.0
1402416355957778031,,errorv,,0,,1402416355,957514213,/z_drive,port,,,-0.3,0.3048,0.0,,0.0,0.0,0.0,1.0
1402416355957896943,,errorv,,0,,1402416355,957520161,/z_drive,starboard,,,-0.3,-0.3048,0.0,,0.0,0.0,0.0,1.0
1402416355961835073,,errorv,,0,,1402416356,61643160,/base_link,/gps,,,-0.84,0.0,-0.14,,0.0,0.0,0.0,1.0
1402416355962024927,,errorv,,0,,1402416356,61834291,base_link,imu,,,0.13,0.0,-0.1,,1.0,0.0,0.0,0.0
1402416355977658581,,errorv,,0,,1402416355,977476365,base_link,/z_drive,,,0.0,0.0,0.0,,0.0,0.0,0.0,1.0
1402416355977793582,,errorv,,0,,1402416355,977493451,/z_drive,port,,,-0.3,0.3048,0.0,,0.0,0.0,0.0,1.0
1402416355977819994,,errorv,,0,,1402416355,977499710,/z_drive,starboard,,,-0.3,-0.3048,0.0,,0.0,0.0,0.0,1.0
1402416355983099965,,errorv,,0,,1402416355,925221920,/enu,/base_link,,,6.74563285846,20.0401481067,-19.0926488234,,-0.0106788698672,0.00604894637067,0.815852626378,0.57812962562
1402416355983426340,,errorv,,0,,1402416355,935211896,/enu,/base_link,,,6.74914573585,20.0388648443,-19.0812195794,,-0.00988052057124,0.00647588587839,0.815006373266,0.579331554251
1402416355997776999,,errorv,,0,,1402416355,997581257,base_link,/z_drive,,,0.0,0.0,0.0,,0.0,0.0,0.0,1.0
1402416355997806617,,errorv,,0,,1402416355,997604059,/z_drive,port,,,-0.3,0.3048,0.0,,0.0,0.0,0.0,1.0
1402416355997832805,,errorv,,0,,1402416355,997613403,/z_drive,starboard,,,-0.3,-0.3048,0.0,,0.0,0.0,0.0,1.0
1402416356017761431,,errorv,,0,,1402416356,17532793,base_link,/z_drive,,,0.0,0.0,0.0,,0.0,0.0,0.0,1.0
1402416356017857025,,errorv,,0,,1402416356,17554797,/z_drive,port,,,-0.3,0.3048,0.0,,0.0,0.0,0.0,1.0
1402416356017877375,,errorv,,0,,1402416356,17563818,/z_drive,starboard,,,-0.3,-0.3048,0.0,,0.0,0.0,0.0,1.0
1402416356023227954,,errorv,,0,,1402416355,945219993,/enu,/base_link,,,6.74353069405,20.041487703,-19.0804844406,,-0.00988296803673,0.00651649656051,0.814270067512,0.58036550498
1402416356023255772,,errorv,,0,,1402416355,955204963,/enu,/base_link,,,6.7381809143,20.0444937611,-19.0803717718,,-0.00990040799037,0.00656924975597,0.813541878558,0.581384931617
1402416356023281767,,errorv,,0,,1402416355,965198040,/enu,/base_link,,,6.73261172636,20.0473441496,-19.0799582087,,-0.00987729141458,0.00657244822398,0.812801229415,0.582420297982
1402416356023307001,,errorv,,0,,1402416355,976198911,/enu,/base_link,,,6.72635485344,20.0504419013,-19.0794046456,,-0.00996425230941,0.00663495691877,0.812002854724,0.583530680379
1402416356037708719,,errorv,,0,,1402416356,37549063,base_link,/z_drive,,,0.0,0.0,0.0,,0.0,0.0,0.0,1.0
1402416356037861328,,errorv,,0,,1402416356,37569247,/z_drive,port,,,-0.3,0.3048,0.0,,0.0,0.0,0.0,1.0
1402416356037890189,,errorv,,0,,1402416356,37576226,/z_drive,starboard,,,-0.3,-0.3048,0.0,,0.0,0.0,0.0,1.0
1402416356057726256,,errorv,,0,,1402416356,57557071,base_link,/z_drive,,,0.0,0.0,0.0,,0.0,0.0,0.0,1.0
1402416356057760750,,errorv,,0,,1402416356,57574190,/z_drive,port,,,-0.3,0.3048,0.0,,0.0,0.0,0.0,1.0
1402416356057779542,,errorv,,0,,1402416356,57582843,/z_drive,starboard,,,-0.3,-0.3048,0.0,,0.0,0.0,0.0,1.0
1402416356061946340,,errorv,,0,,1402416356,161752951,/base_link,/gps,,,-0.84,0.0,-0.14,,0.0,0.0,0.0,1.0
1402416356062115446,,errorv,,0,,1402416356,161935641,base_link,imu,,,0.13,0.0,-0.1,,1.0,0.0,0.0,0.0
1402416356063179751,,errorv,,0,,1402416355,986191987,/enu,/base_link,,,6.72442731423,20.0487068993,-19.0711270216,,-0.00966449545101,0.00662713111772,0.811181460656,0.584677104519
1402416356063204807,,errorv,,0,,1402416355,996191978,/enu,/base_link,,,6.71881550302,20.0514783202,-19.0705919922,,-0.00969517408624,0.0065369910548,0.8104565889,0.585681986111
1402416356063368548,,errorv,,0,,1402416356,6180047,/enu,/base_link,,,6.71349579459,20.0543883266,-19.0702361583,,-0.00979290147954,0.00655654106876,0.809725140123,0.586690981951
1402416356063391838,,errorv,,0,,1402416356,17213106,/enu,/base_link,,,6.70735716885,20.0575552647,-19.0696647829,,-0.00986995761253,0.00653867111265,0.808922312465,0.587796327066
1402416356077779273,,errorv,,0,,1402416356,77458711,base_link,/z_drive,,,0.0,0.0,0.0,,0.0,0.0,0.0,1.0
1402416356077807550,,errorv,,0,,1402416356,77500312,/z_drive,port,,,-0.3,0.3048,0.0,,0.0,0.0,0.0,1.0
1402416356077828259,,errorv,,0,,1402416356,77512265,/z_drive,starboard,,,-0.3,-0.3048,0.0,,0.0,0.0,0.0,1.0
1402416356097741449,,errorv,,0,,1402416356,97485887,base_link,/z_drive,,,0.0,0.0,0.0,,0.0,0.0,0.0,1.0
1402416356097768763,,errorv,,0,,1402416356,97507607,/z_drive,port,,,-0.3,0.3048,0.0,,0.0,0.0,0.0,1.0
1402416356097943616,,errorv,,0,,1402416356,97518024,/z_drive,starboard,,,-0.3,-0.3048,0.0,,0.0,0.0,0.0,1.0
1402416356103143699,,errorv,,0,,1402416356,27180910,/enu,/base_link,,,6.70200429176,20.0604140925,-19.0692043382,,-0.00987416544617,0.00654506935597,0.808170281362,0.588829737061
1402416356103182812,,errorv,,0,,1402416356,37194013,/enu,/base_link,,,6.6976533209,20.0691757439,-19.0697582934,,-0.0100410593016,0.00742604124362,0.807498555872,0.589737325684
1402416356103208834,,errorv,,0,,1402416356,47163963,/enu,/base_link,,,6.6925362814,20.0724625384,-19.0697549034,,-0.0100574430855,0.00733862476236,0.806764753737,0.590741588643
1402416356103231516,,errorv,,0,,1402416356,57163953,/enu,/base_link,,,6.68708923509,20.0754346335,-19.069088374,,-0.0101716251407,0.00736233329703,0.806006578042,0.591773377438
1402416356117695160,,errorv,,0,,1402416356,117482023,base_link,/z_drive,,,0.0,0.0,0.0,,0.0,0.0,0.0,1.0
1402416356117821924,,errorv,,0,,1402416356,117499610,/z_drive,port,,,-0.3,0.3048,0.0,,0.0,0.0,0.0,1.0
1402416356117887377,,errorv,,0,,1402416356,117509787,/z_drive,starboard,,,-0.3,-0.3048,0.0,,0.0,0.0,0.0,1.0
1402416356137657747,,errorv,,0,,1402416356,137477821,base_link,/z_drive,,,0.0,0.0,0.0,,0.0,0.0,0.0,1.0
1402416356137726508,,errorv,,0,,1402416356,137493087,/z_drive,port,,,-0.3,0.3048,0.0,,0.0,0.0,0.0,1.0
1402416356137792050,,errorv,,0,,1402416356,137503777,/z_drive,starboard,,,-0.3,-0.3048,0.0,,0.0,0.0,0.0,1.0
1402416356143149088,,errorv,,0,,1402416356,67161083,/enu,/base_link,,,6.68176997788,20.0785907279,-19.0686378116,,-0.0102513247382,0.00740029481342,0.80526769857,0.592776584911
1402416356143174458,,errorv,,0,,1402416356,78156948,/enu,/base_link,,,6.67581169495,20.0821266672,-19.0684466238,,-0.0103223150431,0.00734677514281,0.804427071654,0.593916291322
1402416356143282630,,errorv,,0,,1402416356,88164091,/enu,/base_link,,,6.661960085,20.0739393691,-19.0638989259,,-0.0104189943803,0.0058838910906,0.803532359454,0.595140799888
1402416356143305257,,errorv,,0,,1402416356,98155975,/enu,/base_link,,,6.65634730348,20.0768390626,-19.0633971085,,-0.0105463503995,0.00590004279623,0.802777278015,0.596156528012
1402416356157873490,,errorv,,0,,1402416356,157638944,base_link,/z_drive,,,0.0,0.0,0.0,,0.0,0.0,0.0,1.0
1402416356158024526,,errorv,,0,,1402416356,157666641,/z_drive,port,,,-0.3,0.3048,0.0,,0.0,0.0,0.0,1.0
1402416356158048440,,errorv,,0,,1402416356,157763665,/z_drive,starboard,,,-0.3,-0.3048,0.0,,0.0,0.0,0.0,1.0
1402416356162061505,,errorv,,0,,1402416356,261860956,/base_link,/gps,,,-0.84,0.0,-0.14,,0.0,0.0,0.0,1.0
1402416356162211536,,errorv,,0,,1402416356,262034156,base_link,imu,,,0.13,0.0,-0.1,,1.0,0.0,0.0,0.0
1402416356177774200,,errorv,,0,,1402416356,177542353,base_link,/z_drive,,,0.0,0.0,0.0,,0.0,0.0,0.0,1.0
1402416356177804721,,errorv,,0,,1402416356,177567161,/z_drive,port,,,-0.3,0.3048,0.0,,0.0,0.0,0.0,1.0
1402416356177874115,,errorv,,0,,1402416356,177571768,/z_drive,starboard,,,-0.3,-0.3048,0.0,,0.0,0.0,0.0,1.0
1402416356183261796,,errorv,,0,,1402416356,108160972,/enu,/base_link,,,6.65103206076,20.0798488181,-19.0630444977,,-0.0105634882821,0.00583130833542,0.802014929578,0.597182100612
1402416356183355665,,errorv,,0,,1402416356,118155002,/enu,/base_link,,,6.64560224343,20.082678206,-19.062362986,,-0.0107211058411,0.00585016704759,0.801251191984,0.598203444305
1402416356183378126,,errorv,,0,,1402416356,128135919,/enu,/base_link,,,6.6400654684,20.0857760958,-19.0621807346,,-0.0107634293748,0.00575319206653,0.800480001743,0.599235192707
1402416356183395826,,errorv,,0,,1402416356,139117002,/enu,/base_link,,,6.63558658346,20.0936460792,-19.0402655424,,-0.0113651068467,0.00657412588333,0.799786641456,0.600140769623
1402416356197692283,,errorv,,0,,1402416356,197518645,base_link,/z_drive,,,0.0,0.0,0.0,,0.0,0.0,0.0,1.0
1402416356197772822,,errorv,,0,,1402416356,197538506,/z_drive,port,,,-0.3,0.3048,0.0,,0.0,0.0,0.0,1.0
1402416356197812879,,errorv,,0,,1402416356,197543351,/z_drive,starboard,,,-0.3,-0.3048,0.0,,0.0,0.0,0.0,1.0
1402416356217756347,,errorv,,0,,1402416356,217492083,base_link,/z_drive,,,0.0,0.0,0.0,,0.0,0.0,0.0,1.0
1402416356217785294,,errorv,,0,,1402416356,217516395,/z_drive,port,,,-0.3,0.3048,0.0,,0.0,0.0,0.0,1.0
1402416356217801789,,errorv,,0,,1402416356,217525296,/z_drive,starboard,,,-0.3,-0.3048,0.0,,0.0,0.0,0.0,1.0
1402416356223402698,,errorv,,0,,1402416356,149133920,/enu,/base_link,,,6.62998527784,20.0969792486,-19.0400721295,,-0.0114832970596,0.00646608931867,0.799027085859,0.601150596474
1402416356223530519,,errorv,,0,,1402416356,159118890,/enu,/base_link,,,6.62458339937,20.1001481351,-19.0394875311,,-0.0115804688159,0.00644081358396,0.798263531116,0.602162555754
1402416356223555963,,errorv,,0,,1402416356,169136047,/enu,/base_link,,,6.61937360097,20.1033088916,-19.0388335299,,-0.0115656735073,0.00634029136197,0.797518389865,0.603150440378
1402416356223710377,,errorv,,0,,1402416356,179119110,/enu,/base_link,,,6.61392815416,20.1064216818,-19.038160952,,-0.01168824593,0.00637462650236,0.796755629126,0.604154960668
1402416356223732580,,errorv,,0,,1402416356,190107107,/enu,/base_link,,,6.60877511007,20.1109807249,-19.0560744904,,-0.0111534954271,0.00652924301186,0.795911017744,0.605275656506
1402416356237733202,,errorv,,0,,1402416356,237515483,base_link,/z_drive,,,0.0,0.0,0.0,,0.0,0.0,0.0,1.0
1402416356237762619,,errorv,,0,,1402416356,237529892,/z_drive,port,,,-0.3,0.3048,0.0,,0.0,0.0,0.0,1.0
1402416356237789689,,errorv,,0,,1402416356,237533928,/z_drive,starboard,,,-0.3,-0.3048,0.0,,0.0,0.0,0.0,1.0
1402416356257614213,,errorv,,0,,1402416356,257455069,base_link,/z_drive,,,0.0,0.0,0.0,,0.0,0.0,0.0,1.0
1402416356257684514,,errorv,,0,,1402416356,257467341,/z_drive,port,,,-0.3,0.3048,0.0,,0.0,0.0,0.0,1.0
1402416356257757748,,errorv,,0,,1402416356,257471417,/z_drive,starboard,,,-0.3,-0.3048,0.0,,0.0,0.0,0.0,1.0
1402416356262178029,,errorv,,0,,1402416356,361961772,/base_link,/gps,,,-0.84,0.0,-0.14,,0.0,0.0,0.0,1.0
1402416356262342844,,errorv,,0,,1402416356,362140358,base_link,imu,,,0.13,0.0,-0.1,,1.0,0.0,0.0,0.0
1402416356263277383,,errorv,,0,,1402416356,200110912,/enu,/base_link,,,6.60350356752,20.1140376252,-19.0551705957,,-0.0112744941245,0.00652230201835,0.795152503573,0.606269611164
1402416356263396012,,errorv,,0,,1402416356,210107088,/enu,/base_link,,,6.59811874874,20.1174089005,-19.0549479063,,-0.0113534606062,0.00639374418642,0.794393685063,0.607263445384
1402416356263464519,,errorv,,0,,1402416356,220109939,/enu,/base_link,,,6.59286998458,20.1207067973,-19.0545722717,,-0.0113989560093,0.00635264867718,0.793650817599,0.608233579624
1402416356263491428,,errorv,,0,,1402416356,230113029,/enu,/base_link,,,6.58755388032,20.1241429174,-19.0541939556,,-0.0114866841571,0.00630277317612,0.792905713682,0.609203463834
1402416356263523322,,errorv,,0,,1402416356,241106986,/enu,/base_link,,,6.58165162606,20.1277870564,-19.0535653194,,-0.0115984779094,0.00632734218903,0.79206151399,0.610298286174
1402416356277811002,,errorv,,0,,1402416356,277579400,base_link,/z_drive,,,0.0,0.0,0.0,,0.0,0.0,0.0,1.0
1402416356277835421,,errorv,,0,,1402416356,277601740,/z_drive,port,,,-0.3,0.3048,0.0,,0.0,0.0,0.0,1.0
1402416356277860073,,errorv,,0,,1402416356,277606022,/z_drive,starboard,,,-0.3,-0.3048,0.0,,0.0,0.0,0.0,1.0
1402416356297703736,,errorv,,0,,1402416356,297536818,base_link,/z_drive,,,0.0,0.0,0.0,,0.0,0.0,0.0,1.0
1402416356297733069,,errorv,,0,,1402416356,297555924,/z_drive,port,,,-0.3,0.3048,0.0,,0.0,0.0,0.0,1.0
1402416356297754897,,errorv,,0,,1402416356,297563643,/z_drive,starboard,,,-0.3,-0.3048,0.0,,0.0,0.0,0.0,1.0
1402416356303195336,,errorv,,0,,1402416356,251089096,/enu,/base_link,,,6.57643002083,20.1309494213,-19.0526807433,,-0.0115551409918,0.00623429344762,0.791311628469,0.61127204987
1402416356303205977,,errorv,,0,,1402416356,261086940,/enu,/base_link,,,6.57116386499,20.1345021235,-19.0524686914,,-0.0116285898238,0.00629687654353,0.790558046019,0.612244314894
1402416356317711399,,errorv,,0,,1402416356,317523615,base_link,/z_drive,,,0.0,0.0,0.0,,0.0,0.0,0.0,1.0
1402416356317737286,,errorv,,0,,1402416356,317546018,/z_drive,port,,,-0.3,0.3048,0.0,,0.0,0.0,0.0,1.0
1402416356317760206,,errorv,,0,,1402416356,317555496,/z_drive,starboard,,,-0.3,-0.3048,0.0,,0.0,0.0,0.0,1.0
1402416356337618153,,errorv,,0,,1402416356,337479817,base_link,/z_drive,,,0.0,0.0,0.0,,0.0,0.0,0.0,1.0
1402416356337861166,,errorv,,0,,1402416356,337497291,/z_drive,port,,,-0.3,0.3048,0.0,,0.0,0.0,0.0,1.0
1402416356337891589,,errorv,,0,,1402416356,337640053,/z_drive,starboard,,,-0.3,-0.3048,0.0,,0.0,0.0,0.0,1.0
1402416356343094662,,errorv,,0,,1402416356,271080017,/enu,/base_link,,,6.55945535459,20.1359009008,-19.0540786362,,-0.0118679097279,0.00575218168326,0.789767696193,0.613264258843
1402416356343125574,,errorv,,0,,1402416356,282098054,/enu,/base_link,,,6.55349619213,20.1396418192,-19.0534846908,,-0.0119288759077,0.00569374387253,0.788936658313,0.614332346836
1402416356343198579,,errorv,,0,,1402416356,292102098,/enu,/base_link,,,6.54819842838,20.1429427329,-19.052843825,,-0.011969190167,0.00565903671658,0.788178767715,0.615303944335
1402416356343261041,,errorv,,0,,1402416356,302063941,/enu,/base_link,,,6.54304363974,20.1464046833,-19.0523849066,,-0.0119650186312,0.00557593364974,0.787452132004,0.616234441666
1402416356343287931,,errorv,,0,,1402416356,312069892,/enu,/base_link,,,6.53784520486,20.149952137,-19.0520374172,,-0.0119481954529,0.00543946403191,0.786707957628,0.617185743728
1402416356357796200,,errorv,,0,,1402416356,357626795,base_link,/z_drive,,,0.0,0.0,0.0,,0.0,0.0,0.0,1.0
1402416356357885965,,errorv,,0,,1402416356,357650816,/z_drive,port,,,-0.3,0.3048,0.0,,0.0,0.0,0.0,1.0
1402416356357911038,,errorv,,0,,1402416356,357687468,/z_drive,starboard,,,-0.3,-0.3048,0.0,,0.0,0.0,0.0,1.0
1402416356362265134,,errorv,,0,,1402416356,462060167,/base_link,/gps,,,-0.84,0.0,-0.14,,0.0,0.0,0.0,1.0
1402416356362423461,,errorv,,0,,1402416356,462239518,base_link,imu,,,0.13,0.0,-0.1,,1.0,0.0,0.0,0.0
1402416356377644344,,errorv,,0,,1402416356,377474103,base_link,/z_drive,,,0.0,0.0,0.0,,0.0,0.0,0.0,1.0
1402416356377670287,,errorv,,0,,1402416356,377486243,/z_drive,port,,,-0.3,0.3048,0.0,,0.0,0.0,0.0,1.0
1402416356377735231,,errorv,,0,,1402416356,377490479,/z_drive,starboard,,,-0.3,-0.3048,0.0,,0.0,0.0,0.0,1.0
1402416356383430319,,errorv,,0,,1402416356,322035074,/enu,/base_link,,,6.53340126399,20.1513619183,-19.052111119,,-0.011669309673,0.0056581267489,0.785939509994,0.618167371707
1402416356383455013,,errorv,,0,,1402416356,333062887,/enu,/base_link,,,6.52781151432,20.155201854,-19.0515692588,,-0.0116879136369,0.00555278796973,0.785098920131,0.619235209618
1402416356383527283,,errorv,,0,,1402416356,343049049,/enu,/base_link,,,6.5224077612,20.1587060697,-19.0509661697,,-0.0117242631353,0.00552004079848,0.784347097504,0.620186827851
1402416356391297388,,errorv,,0,,1402416356,353048086,/enu,/base_link,,,6.51739923892,20.1621328676,-19.0502227271,,-0.0117913017266,0.0054697570817,0.783583093535,0.621151014236
1402416356391323750,,errorv,,0,,1402416356,363019943,/enu,/base_link,,,6.50325734227,20.1689491186,-19.0542436382,,-0.0124362484285,0.00524655630609,0.782829469627,0.622089892905
1402416356397704695,,errorv,,0,,1402416356,397516745,base_link,/z_drive,,,0.0,0.0,0.0,,0.0,0.0,0.0,1.0
1402416356397836660,,errorv,,0,,1402416356,397538110,/z_drive,port,,,-0.3,0.3048,0.0,,0.0,0.0,0.0,1.0
1402416356397906938,,errorv,,0,,1402416356,397640639,/z_drive,starboard,,,-0.3,-0.3048,0.0,,0.0,0.0,0.0,1.0
1402416356417734736,,errorv,,0,,1402416356,417485766,base_link,/z_drive,,,0.0,0.0,0.0,,0.0,0.0,0.0,1.0
1402416356417759802,,errorv,,0,,1402416356,417598634,/z_drive,port,,,-0.3,0.3048,0.0,,0.0,0.0,0.0,1.0
1402416356417823584,,errorv,,0,,1402416356,417612170,/z_drive,starboard,,,-0.3,-0.3048,0.0,,0.0,0.0,0.0,1.0
1402416356431081149,,errorv,,0,,1402416356,373020887,/enu,/base_link,,,6.49795445403,20.1724110916,-19.0535481479,,-0.0124600035312,0.00534563506762,0.782068682198,0.623044740627
1402416356431109965,,errorv,,0,,1402416356,384020090,/enu,/base_link,,,6.49226322984,20.1764271319,-19.0530176478,,-0.0123449493943,0.00530916723223,0.781219292717,0.624112034538
1402416356437649540,,errorv,,0,,1402416356,437481637,base_link,/z_drive,,,0.0,0.0,0.0,,0.0,0.0,0.0,1.0
1402416356437713789,,errorv,,0,,1402416356,437501129,/z_drive,port,,,-0.3,0.3048,0.0,,0.0,0.0,0.0,1.0
1402416356437831700,,errorv,,0,,1402416356,437508268,/z_drive,starboard,,,-0.3,-0.3048,0.0,,0.0,0.0,0.0,1.0
1402416356457692291,,errorv,,0,,1402416356,457472716,base_link,/z_drive,,,0.0,0.0,0.0,,0.0,0.0,0.0,1.0
1402416356457724915,,errorv,,0,,1402416356,457490551,/z_drive,port,,,-0.3,0.3048,0.0,,0.0,0.0,0.0,1.0
1402416356457747274,,errorv,,0,,1402416356,457509638,/z_drive,starboard,,,-0.3,-0.3048,0.0,,0.0,0.0,0.0,1.0
1402416356462351445,,errorv,,0,,1402416356,562167047,/base_link,/gps,,,-0.84,0.0,-0.14,,0.0,0.0,0.0,1.0
1402416356462531416,,errorv,,0,,1402416356,562344410,base_link,imu,,,0.13,0.0,-0.1,,1.0,0.0,0.0,0.0
1402416356471236504,,errorv,,0,,1402416356,393992900,/enu,/base_link,,,6.48689961679,20.1800246138,-19.0524622798,,-0.0123638333568,0.00542073617093,0.780435967677,0.625089954807
1402416356471271465,,errorv,,0,,1402416356,403992891,/enu,/base_link,,,6.48188232517,20.1838924756,-19.055004102,,-0.0121752041863,0.00561817666968,0.779638384117,0.626086408178
1402416356471300871,,errorv,,0,,1402416356,413990020,/enu,/base_link,,,6.47694559224,20.1875958313,-19.0546679602,,-0.0122132651183,0.00562874124278,0.778826053457,0.627095791632
1402416356471324147,,errorv,,0,,1402416356,423991918,/enu,/base_link,,,6.4716361473,20.1911939782,-19.0541364306,,-0.0121205458968,0.00559205741542,0.778007460897,0.628113215949
1402416356477674038,,errorv,,0,,1402416356,477497190,base_link,/z_drive,,,0.0,0.0,0.0,,0.0,0.0,0.0,1.0
1402416356477696958,,errorv,,0,,1402416356,477510983,/z_drive,port,,,-0.3,0.3048,0.0,,0.0,0.0,0.0,1.0
1402416356477712276,,errorv,,0,,1402416356,477517068,/z_drive,starboard,,,-0.3,-0.3048,0.0,,0.0,0.0,0.0,1.0
1402416356497747103,,errorv,,0,,1402416356,497510679,base_link,/z_drive,,,0.0,0.0,0.0,,0.0,0.0,0.0,1.0
1402416356497813349,,errorv,,0,,1402416356,497530987,/z_drive,port,,,-0.3,0.3048,0.0,,0.0,0.0,0.0,1.0
1402416356497848775,,errorv,,0,,1402416356,497540368,/z_drive,starboard,,,-0.3,-0.3048,0.0,,0.0,0.0,0.0,1.0
1402416356511149941,,errorv,,0,,1402416356,433993101,/enu,/base_link,,,6.46649317258,20.1948104205,-19.0535135665,,-0.0121086812278,0.00571534205912,0.777172324448,0.629145366999
1402416356511180665,,errorv,,0,,1402416356,443989038,/enu,/base_link,,,6.45561330529,20.1960419685,-19.0628956565,,-0.0119340323741,0.00524888858498,0.776267436396,0.630268907079
1402416356511215843,,errorv,,0,,1402416356,453991889,/enu,/base_link,,,6.45039198846,20.199668686,-19.0624716765,,-0.0118508879636,0.0054398602465,0.775432076274,0.631296332526
1402416356511243425,,errorv,,0,,1402416356,463992118,/enu,/base_link,,,6.44519355194,20.2033566505,-19.0620325643,,-0.0117737326581,0.00544328115522,0.774596357253,0.632322886855
1402416356517742100,,errorv,,0,,1402416356,517531676,base_link,/z_drive,,,0.0,0.0,0.0,,0.0,0.0,0.0,1.0
1402416356517770321,,errorv,,0,,1402416356,517565216,/z_drive,port,,,-0.3,0.3048,0.0,,0.0,0.0,0.0,1.0
1402416356517837970,,errorv,,0,,1402416356,517580176,/z_drive,starboard,,,-0.3,-0.3048,0.0,,0.0,0.0,0.0,1.0
1402416356537724704,,errorv,,0,,1402416356,537487813,base_link,/z_drive,,,0.0,0.0,0.0,,0.0,0.0,0.0,1.0
1402416356537780325,,errorv,,0,,1402416356,537504248,/z_drive,port,,,-0.3,0.3048,0.0,,0.0,0.0,0.0,1.0
1402416356537861011,,errorv,,0,,1402416356,537508791,/z_drive,starboard,,,-0.3,-0.3048,0.0,,0.0,0.0,0.0,1.0
1402416356551205601,,errorv,,0,,1402416356,473989963,/enu,/base_link,,,6.44009921896,20.2069020969,-19.0614669129,,-0.0117034159607,0.00548270463506,0.773746674308,0.633363287539
1402416356551232797,,errorv,,0,,1402416356,483966112,/enu,/base_link,,,6.43492815783,20.2105240604,-19.0610120799,,-0.0116490622335,0.00542887240675,0.772899515433,0.634398270597
1402416356551260587,,errorv,,0,,1402416356,494963884,/enu,/base_link,,,6.429254864,20.2144157756,-19.0600612516,,-0.0117052868849,0.00555515194348,0.771955115862,0.635544983176
1402416356551306464,,errorv,,0,,1402416356,504966974,/enu,/base_link,,,6.42411052787,20.2181247458,-19.0595497942,,-0.0115564654912,0.00556081249137,0.771083635484,0.636604706673
1402416356557704047,,errorv,,0,,1402416356,557476498,base_link,/z_drive,,,0.0,0.0,0.0,,0.0,0.0,0.0,1.0
1402416356557732498,,errorv,,0,,1402416356,557490137,/z_drive,port,,,-0.3,0.3048,0.0,,0.0,0.0,0.0,1.0
1402416356557796695,,errorv,,0,,1402416356,557494105,/z_drive,starboard,,,-0.3,-0.3048,0.0,,0.0,0.0,0.0,1.0
1402416356562461612,,errorv,,0,,1402416356,662270323,/base_link,/gps,,,-0.84,0.0,-0.14,,0.0,0.0,0.0,1.0
1402416356562646870,,errorv,,0,,1402416356,662444297,base_link,imu,,,0.13,0.0,-0.1,,1.0,0.0,0.0,0.0
1402416356577700806,,errorv,,0,,1402416356,577473509,base_link,/z_drive,,,0.0,0.0,0.0,,0.0,0.0,0.0,1.0
1402416356577724665,,errorv,,0,,1402416356,577487453,/z_drive,port,,,-0.3,0.3048,0.0,,0.0,0.0,0.0,1.0
1402416356577800291,,errorv,,0,,1402416356,577491616,/z_drive,starboard,,,-0.3,-0.3048,0.0,,0.0,0.0,0.0,1.0
