rosbagTimestamp,control_method,x_current,x_desired,y_current,y_desired,x_velocity_current,x_velocity_desired,y_velocity_current,y_velocity_desired,yaw_current,yaw_desired,required_force_x,required_force_y,required_moment_z,resultant_force_x,resultant_force_y,resultant_moment_z,current_port_servo_angle,current_port_thruster_force,current_starboard_servo_angle,current_starboard_thruster_force,estimated_port_servo_angle,estimated_port_thruster_force,estimated_starboard_servo_angle,estimated_starboard_thruster_force,cost_value,step,user_defined_1,user_defined_2,user_defined_3,user_defined_4,user_defined_5
1402598879843974363,0,11.702473659,-0.114322152727,-28.3261298282,0.043815185726,0.143671900226,0.0,0.0535613831458,0.0,1.31653475817,0.0,0.0,0.0,0.0,-0.0,-0.0,0.0,0.000767318410122,-0.0,0.0237825791065,-0.0,0.0,-0.0,0.0207256318136,-0.0,4.96685214702e-08,0.0,0.0,0.0,0.0,0.0,0.0
1402598879863869100,0,11.702473659,-0.114322152727,-28.3261298282,0.043815185726,0.143671900226,0.0,0.0535613831458,0.0,1.31653475817,0.0,0.0,0.0,0.0,-0.0,-0.0,0.0,0.000767318410122,-0.0,0.0237825791065,-0.0,0.0,-0.0,0.0207256318136,-0.0,4.96685214702e-08,0.0,0.0,0.0,0.0,0.0,0.0
1402598879883331420,0,11.7079091842,-0.114322152727,-28.3230693454,0.043815185726,0.150003685334,0.0,0.044057440206,0.0,1.31757032294,0.0,0.0,0.0,0.0,-0.0,-0.0,0.0,-0.000767381983555,-0.0,0.0237825791065,-0.0,0.0,-0.0,0.0207256318136,-0.0,4.9669009301e-08,0.0,0.0,0.0,0.0,0.0,0.0
1402598879903831287,0,11.7079091842,-0.114322152727,-28.3230693454,0.043815185726,0.150003685334,0.0,0.044057440206,0.0,1.31757032294,0.0,0.0,0.0,0.0,-0.0,-0.0,0.0,0.000767318410122,-0.0,0.0237825791065,-0.0,0.0,-0.0,0.0207256318136,-0.0,4.96685214702e-08,0.0,0.0,0.0,0.0,0.0,0.0
1402598879923382039,0,11.7068575184,-0.114322152727,-28.3174155655,0.043815185726,0.15300674598,0.0,0.0489566476159,0.0,1.3178198441,0.0,0.0,0.0,0.0,-0.0,-0.0,0.0,-0.000767381983555,-0.0,0.0237825791065,-0.0,0.0,-0.0,0.0207256318136,-0.0,4.9669009301e-08,0.0,0.0,0.0,0.0,0.0,0.0
1402598879943837874,0,11.7068575184,-0.114322152727,-28.3174155655,0.043815185726,0.15300674598,0.0,0.0489566476159,0.0,1.3178198441,0.0,0.0,0.0,0.0,-0.0,-0.0,0.0,-0.000767381983555,-0.0,0.0237825791065,-0.0,0.0,-0.0,0.0207256318136,-0.0,4.9669009301e-08,0.0,0.0,0.0,0.0,0.0,0.0
1402598879963324822,0,11.713176112,-0.114322152727,-28.3154559847,0.043815185726,0.151713677124,0.0,0.0462491958749,0.0,1.31838577076,0.0,0.0,0.0,0.0,-0.0,-0.0,0.0,0.000767318410122,-0.0,0.0237825791065,-0.0,0.0,-0.0,0.0207256318136,-0.0,4.96685214702e-08,0.0,0.0,0.0,0.0,0.0,0.0
1402598879983265676,0,11.713176112,-0.114322152727,-28.3154559847,0.043815185726,0.151713677124,0.0,0.0462491958749,0.0,1.31838577076,0.0,0.0,0.0,0.0,-0.0,-0.0,0.0,-0.000767381983555,-0.0,0.0237825791065,-0.0,0.0,-0.0,0.0267249369469,-0.0,4.62317238461e-08,0.0,0.0,0.0,0.0,0.0,0.0
1402598880003173671,0,11.7177641761,-0.114322152727,-28.3154725921,0.043815185726,0.160397141947,0.0,0.0338696773441,0.0,1.31925380026,0.0,0.0,0.0,0.0,6.26962631941,0.0,-1.91098210216,0.000767318410122,-0.0,0.0237825791065,-0.0,0.0,6.26962631941,0.0267249369469,-0.0,3987.8780776,0.0,0.0,0.0,0.0,0.0,0.0
1402598880023319723,0,11.7177641761,-0.114322152727,-28.3154725921,0.043815185726,0.160397141947,0.0,0.0338696773441,0.0,1.31925380026,0.0,0.0,0.0,0.0,63.5435183084,-15.6678493998,-8.02610819986,-0.000767381983555,6.26962631941,0.0237825791065,-0.0,-0.241746705453,65.4466211796,0.0267249369469,-0.0,378255.196186,0.0,0.0,0.0,0.0,0.0,0.0
1402598880043897780,0,11.7152112134,-0.114322152727,-28.3089727885,0.043815185726,0.150994317382,0.0,0.0414173712251,0.0,1.31941179188,0.0,0.0,0.0,0.0,92.7533218635,-37.3740723402,-1.21612153695,0.000767318410122,65.4466211796,0.0237825791065,-0.0,-0.383038740522,100.0,0.0267249369469,-0.0,1179309.05401,0.0,0.0,0.0,0.0,0.0,0.0
1402598880063103392,0,11.7152112134,-0.114322152727,-28.3089727885,0.043815185726,0.150994317382,0.0,0.0414173712251,0.0,1.31941179188,0.0,0.0,0.0,0.0,92.7533218635,-37.3740723402,-1.21612153695,-0.00383606751517,100.0,0.0237825791065,-0.0,-0.383038740522,100.0,0.0267249369469,-0.0,1179309.05399,0.0,0.0,0.0,0.0,0.0,0.0
1402598880083714619,0,11.7179408178,-0.114322152727,-28.3106862722,0.043815185726,0.147297339881,0.0,0.0315110715104,0.0,1.31997746512,0.0,0.0,0.0,0.0,92.7533218635,-37.3740723402,-1.21612153695,-0.0161108096416,100.0,0.0237825791065,-0.0,-0.383038740522,100.0,0.0267249369469,-0.0,1179309.05395,0.0,0.0,0.0,0.0,0.0,0.0
1402598880103085733,0,11.7179408178,-0.114322152727,-28.3106862722,0.043815185726,0.147297339881,0.0,0.0315110715104,0.0,1.31997746512,0.0,0.0,0.0,0.0,92.7533218635,-37.3740723402,-1.21612153695,-0.049866588908,100.0,0.0237825791065,-0.0,-0.383038740522,100.0,0.0267249369469,-0.0,1179309.05383,0.0,0.0,0.0,0.0,0.0,0.0
1402598880123846371,0,11.7246016487,-0.114322152727,-28.3035523671,0.043815185726,0.149779006659,0.0,0.0463576397913,0.0,1.32043262707,0.0,0.0,0.0,0.0,92.7533218635,-37.3740723402,-1.21612153695,-0.0851568301494,100.0,0.0237825791065,-0.0,-0.383038740522,100.0,0.0267249369469,-0.0,1179309.05372,0.0,0.0,0.0,0.0,0.0,0.0
1402598880143228721,0,11.7246016487,-0.114322152727,-28.3035523671,0.043815185726,0.149779006659,0.0,0.0463576397913,0.0,1.32043262707,0.0,0.0,0.0,0.0,92.7533218635,-37.3740723402,-1.21612153695,-0.108172090846,100.0,0.0237825791065,-0.0,-0.383038740522,100.0,0.0267249369469,-0.0,1179309.05365,0.0,0.0,0.0,0.0,0.0,0.0
1402598880163736660,0,11.7307601131,-0.114322152727,-28.3016601203,0.043815185726,0.147381733959,0.0,0.0499343021353,0.0,1.32096365933,0.0,0.0,0.0,0.0,92.7533218635,-37.3740723402,-1.21612153695,-0.134256037074,100.0,0.0222481171314,-0.0,-0.383038740522,100.0,0.0267249369469,-0.0,1179309.05359,0.0,0.0,0.0,0.0,0.0,0.0
1402598880183293322,0,11.7307601131,-0.114322152727,-28.3016601203,0.043815185726,0.147381733959,0.0,0.0499343021353,0.0,1.32096365933,0.0,0.0,0.0,0.0,92.7533218635,-37.3740723402,-1.21612153695,-0.17108074029,100.0,0.0237825791065,-0.0,-0.383038740522,100.0,0.0267249369469,-0.0,1179309.0535,0.0,0.0,0.0,0.0,0.0,0.0
1402598880203792831,0,11.734591132,-0.114322152727,-28.2929029689,0.043815185726,0.148344395345,0.0,0.0750957161901,0.0,1.32153595861,0.0,0.0,0.0,0.0,92.7533218635,-37.3740723402,-1.21612153695,-0.212508352595,100.0,0.0237825791065,-0.0,-0.383038740522,100.0,0.0267249369469,-0.0,1179309.05342,0.0,0.0,0.0,0.0,0.0,0.0
1402598880223272442,0,11.734591132,-0.114322152727,-28.2929029689,0.043815185726,0.148344395345,0.0,0.0750957161901,0.0,1.32153595861,0.0,0.0,0.0,0.0,92.7533218635,-37.3740723402,-1.21612153695,-0.25086704095,100.0,0.0237825791065,-0.0,-0.383038740522,100.0,0.0267249369469,-0.0,1179309.05336,0.0,0.0,0.0,0.0,0.0,0.0
1402598880243853168,0,11.7192694801,-0.114322152727,-28.2805764482,0.043815185726,0.123136983572,0.0,0.111410411246,0.0,1.32120172161,0.0,0.0,0.0,0.0,92.7533218635,-37.3740723402,-1.21612153695,-0.284623058635,100.0,0.0253168026631,-0.0,-0.383038740522,100.0,0.0267249369469,-0.0,1179309.05332,0.0,0.0,0.0,0.0,0.0,0.0
1402598880263230284,0,11.7217250048,-0.114322152727,-28.2780603435,0.043815185726,0.131943347837,0.0,0.132848094324,0.0,1.32055812111,0.0,0.0,0.0,0.0,92.7533218635,-37.3740723402,-1.21612153695,-0.318378837901,100.0,0.0237825791065,-0.0,-0.383038740522,100.0,0.0267249369469,-0.0,1179309.0533,0.0,0.0,0.0,0.0,0.0,0.0
1402598880283937623,0,11.7217250048,-0.114322152727,-28.2780603435,0.043815185726,0.131943347837,0.0,0.132848094324,0.0,1.32055812111,0.0,0.0,0.0,0.0,92.7533218635,-37.3740723402,-1.21612153695,-0.347531708079,100.0,0.0237825791065,-0.0,-0.383038740522,100.0,0.0267249369469,-0.0,1179309.05328,0.0,0.0,0.0,0.0,0.0,0.0
1402598880303328032,0,11.7254972632,-0.114322152727,-28.2732499599,0.043815185726,0.141480638313,0.0,0.149716844785,0.0,1.31905979346,0.0,0.0,0.0,0.0,92.7533218635,-37.3740723402,-1.21612153695,-0.36594358285,100.0,0.0237825791065,-0.0,-0.383038740522,100.0,0.0267249369469,-0.0,1179309.05328,0.0,0.0,0.0,0.0,0.0,0.0
1402598880323892174,0,11.7254972632,-0.114322152727,-28.2732499599,0.043815185726,0.141480638313,0.0,0.149716844785,0.0,1.31905979346,0.0,0.0,0.0,0.0,92.7533218635,-37.3740723402,-1.21612153695,-0.375149877864,100.0,0.0237825791065,-0.0,-0.383038740522,100.0,0.0267249369469,-0.0,1179309.05328,0.0,0.0,0.0,0.0,0.0,0.0
1402598880343348865,0,11.7294562858,-0.114322152727,-28.2697284189,0.043815185726,0.151567047472,0.0,0.174771030106,0.0,1.31691137538,0.0,0.0,0.0,0.0,92.7533218635,-37.3740723402,-1.21612153695,-0.37668410142,100.0,0.0237825791065,-0.0,-0.383038740522,100.0,0.0267249369469,-0.0,1179309.05328,0.0,0.0,0.0,0.0,0.0,0.0
1402598880363810161,0,11.7294562858,-0.114322152727,-28.2697284189,0.043815185726,0.151567047472,0.0,0.174771030106,0.0,1.31691137538,0.0,0.0,0.0,0.0,92.7533218635,-37.3740723402,-1.21612153695,-0.37668410142,100.0,0.0237825791065,-0.0,-0.383038740522,100.0,0.0267249369469,-0.0,1179309.05328,0.0,0.0,0.0,0.0,0.0,0.0
1402598880383330581,0,11.7362822269,-0.114322152727,-28.2615970885,0.043815185726,0.161983501916,0.0,0.207630762356,0.0,1.31125827796,0.0,0.0,0.0,0.0,92.7533218635,-37.3740723402,-1.21612153695,-0.37668410142,100.0,0.0253168026631,-0.0,-0.383038740522,100.0,0.0267249369469,-0.0,1179309.05328,0.0,0.0,0.0,0.0,0.0,0.0
1402598880403901592,0,11.7362822269,-0.114322152727,-28.2615970885,0.043815185726,0.161983501916,0.0,0.207630762356,0.0,1.31125827796,0.0,0.0,0.0,0.0,92.7533218635,-37.3740723402,-1.21612153695,-0.37668410142,100.0,0.0237825791065,-0.0,-0.383038740522,100.0,0.0267249369469,-0.0,1179309.05328,0.0,0.0,0.0,0.0,0.0,0.0
1402598880423432510,0,11.7484313306,-0.114322152727,-28.2469959136,0.043815185726,0.183369992971,0.0,0.249430668026,0.0,1.29941442479,0.0,0.0,0.0,0.0,92.7533218635,-37.3740723402,-1.21612153695,-0.37668410142,100.0,0.0237825791065,-0.0,-0.383038740522,100.0,0.0267249369469,-0.0,1179309.05328,0.0,0.0,0.0,0.0,0.0,0.0
1402598880443924584,0,11.7484313306,-0.114322152727,-28.2469959136,0.043815185726,0.183369992971,0.0,0.249430668026,0.0,1.29941442479,0.0,0.0,0.0,0.0,92.7533218635,-37.3740723402,-1.21612153695,-0.37668410142,100.0,0.0237825791065,-0.0,-0.383038740522,100.0,0.0267249369469,-0.0,1179309.05328,0.0,0.0,0.0,0.0,0.0,0.0
1402598880463323233,0,11.7534604669,-0.114322152727,-28.233395597,0.043815185726,0.19269790198,0.0,0.281363426962,0.0,1.29013127205,0.0,0.0,0.0,0.0,92.7533218635,-37.3740723402,-1.21612153695,-0.37668410142,100.0,0.0253168026631,-0.0,-0.383038740522,100.0,0.0267249369469,-0.0,1179309.05328,0.0,0.0,0.0,0.0,0.0,0.0
1402598880483886837,0,11.7534604669,-0.114322152727,-28.233395597,0.043815185726,0.19269790198,0.0,0.281363426962,0.0,1.29013127205,0.0,0.0,0.0,0.0,92.7533218635,-37.3740723402,-1.21612153695,-0.37668410142,100.0,0.0237825791065,-0.0,-0.383038740522,100.0,0.0267249369469,-0.0,1179309.05328,0.0,0.0,0.0,0.0,0.0,0.0
1402598880503294439,0,11.7577410815,-0.114322152727,-28.2275161326,0.043815185726,0.202674247891,0.0,0.294107125911,0.0,1.28436718708,0.0,0.0,0.0,0.0,92.7533218635,-37.3740723402,-1.21612153695,-0.37668410142,100.0,0.0237825791065,-0.0,-0.383038740522,100.0,0.0267249369469,-0.0,1179309.05328,0.0,0.0,0.0,0.0,0.0,0.0
1402598880523783666,0,11.7577410815,-0.114322152727,-28.2275161326,0.043815185726,0.202674247891,0.0,0.294107125911,0.0,1.28436718708,0.0,0.0,0.0,0.0,92.7533218635,-37.3740723402,-1.21612153695,-0.37668410142,100.0,0.0237825791065,-0.0,-0.383038740522,100.0,0.0267249369469,-0.0,1179309.05328,0.0,0.0,0.0,0.0,0.0,0.0
1402598880543440389,0,11.7663883968,-0.114322152727,-28.2148368148,0.043815185726,0.212476775014,0.0,0.322441198322,0.0,1.27174932283,0.0,0.0,0.0,0.0,92.7533218635,-37.3740723402,-1.21612153695,-0.37668410142,100.0,0.0237825791065,-0.0,-0.383038740522,100.0,0.0267249369469,-0.0,1179309.05328,0.0,0.0,0.0,0.0,0.0,0.0
1402598880563883931,0,11.7663883968,-0.114322152727,-28.2148368148,0.043815185726,0.212476775014,0.0,0.322441198322,0.0,1.27174932283,0.0,0.0,0.0,0.0,92.7533218635,-37.3740723402,-1.21612153695,-0.37668410142,100.0,0.0237825791065,-0.0,-0.383038740522,100.0,0.0267249369469,-0.0,1179309.05328,0.0,0.0,0.0,0.0,0.0,0.0
1402598880583369132,0,11.7769850443,-0.114322152727,-28.19948396,0.043815185726,0.229008259068,0.0,0.351538893637,0.0,1.25571436071,0.0,0.0,0.0,0.0,92.7533218635,-37.3740723402,-1.21612153695,-0.37668410142,100.0,0.0237825791065,-0.0,-0.383038740522,100.0,0.0267249369469,-0.0,1179309.05328,0.0,0.0,0.0,0.0,0.0,0.0
1402598880603741443,0,11.7769850443,-0.114322152727,-28.19948396,0.043815185726,0.229008259068,0.0,0.351538893637,0.0,1.25571436071,0.0,0.0,0.0,0.0,92.7533218635,-37.3740723402,-1.21612153695,-0.37668410142,100.0,0.0237825791065,-0.0,-0.383038740522,100.0,0.0267249369469,-0.0,1179309.05328,0.0,0.0,0.0,0.0,0.0,0.0
1402598880623256768,0,11.7956666851,-0.114322152727,-28.1861075422,0.043815185726,0.256978795562,0.0,0.373049566401,0.0,1.23648312181,0.0,0.0,0.0,0.0,92.7533218635,-37.3740723402,-1.21612153695,-0.37668410142,100.0,0.0253168026631,-0.0,-0.383038740522,100.0,0.0267249369469,-0.0,1179309.05328,0.0,0.0,0.0,0.0,0.0,0.0
1402598880643897469,0,11.7956666851,-0.114322152727,-28.1861075422,0.043815185726,0.256978795562,0.0,0.373049566401,0.0,1.23648312181,0.0,0.0,0.0,0.0,92.7533218635,-37.3740723402,-1.21612153695,-0.37668410142,100.0,0.0237825791065,-0.0,-0.383038740522,100.0,0.0267249369469,-0.0,1179309.05328,0.0,0.0,0.0,0.0,0.0,0.0
1402598880663407176,0,11.7993063489,-0.114322152727,-28.174850928,0.043815185726,0.259990353827,0.0,0.37936635104,0.0,1.22513079516,0.0,0.0,0.0,0.0,92.7533218635,-37.3740723402,-1.21612153695,-0.37668410142,100.0,0.0253168026631,-0.0,-0.383038740522,100.0,0.0267249369469,-0.0,1179309.05328,0.0,0.0,0.0,0.0,0.0,0.0
1402598880683905493,0,11.7993063489,-0.114322152727,-28.174850928,0.043815185726,0.259990353827,0.0,0.37936635104,0.0,1.22513079516,0.0,0.0,0.0,0.0,92.7533218635,-37.3740723402,-1.21612153695,-0.37668410142,100.0,0.0253168026631,-0.0,-0.383038740522,100.0,0.0267249369469,-0.0,1179309.05328,0.0,0.0,0.0,0.0,0.0,0.0
1402598880703316808,0,11.8157583259,-0.114322152727,-28.1551295749,0.043815185726,0.278687546586,0.0,0.402999411484,0.0,1.20046434129,0.0,0.0,0.0,0.0,92.7533218635,-37.3740723402,-1.21612153695,-0.37668410142,100.0,0.0237825791065,-0.0,-0.383038740522,100.0,0.0267249369469,-0.0,1179309.05328,0.0,0.0,0.0,0.0,0.0,0.0
1402598880723889629,0,11.8157583259,-0.114322152727,-28.1551295749,0.043815185726,0.278687546586,0.0,0.402999411484,0.0,1.20046434129,0.0,0.0,0.0,0.0,92.7533218635,-37.3740723402,-1.21612153695,-0.37668410142,100.0,0.0237825791065,-0.0,-0.383038740522,100.0,0.0267249369469,-0.0,1179309.05328,0.0,0.0,0.0,0.0,0.0,0.0
1402598880743413031,0,11.8202736872,-0.114322152727,-28.1377196202,0.043815185726,0.282079451018,0.0,0.425646937598,0.0,1.1847442622,0.0,0.0,0.0,0.0,92.7533218635,-37.3740723402,-1.21612153695,-0.37668410142,100.0,0.0253168026631,-0.0,-0.383038740522,100.0,0.0267249369469,-0.0,1179309.05328,0.0,0.0,0.0,0.0,0.0,0.0
1402598880763859941,0,11.8263856129,-0.114322152727,-28.1287546309,0.043815185726,0.286751599003,0.0,0.435765072903,0.0,1.17401248417,0.0,0.0,0.0,0.0,92.7533218635,-37.3740723402,-1.21612153695,-0.37668410142,100.0,0.0237825791065,-0.0,-0.383038740522,100.0,0.0267249369469,-0.0,1179309.05328,0.0,0.0,0.0,0.0,0.0,0.0
1402598880783324312,0,11.8263856129,-0.114322152727,-28.1287546309,0.043815185726,0.286751599003,0.0,0.435765072903,0.0,1.17401248417,0.0,0.0,0.0,0.0,92.7533218635,-37.3740723402,-1.21612153695,-0.378218801814,100.0,0.0253168026631,-0.0,-0.383038740522,100.0,0.0267249369469,-0.0,1179309.05328,0.0,0.0,0.0,0.0,0.0,0.0
1402598880803621295,0,11.8318995005,-0.114322152727,-28.1234394605,0.043815185726,0.297570644204,0.0,0.433588965214,0.0,1.16387335192,0.0,0.0,0.0,0.0,92.7533218635,-37.3740723402,-1.21612153695,-0.37668410142,100.0,0.0237825791065,-0.0,-0.383038740522,100.0,0.0267249369469,-0.0,1179309.05328,0.0,0.0,0.0,0.0,0.0,0.0
1402598880823397203,0,11.8318995005,-0.114322152727,-28.1234394605,0.043815185726,0.297570644204,0.0,0.433588965214,0.0,1.16387335192,0.0,0.0,0.0,0.0,92.7533218635,-37.3740723402,-1.21612153695,-0.37668410142,100.0,0.0253168026631,-0.0,-0.383038740522,100.0,0.0267249369469,-0.0,1179309.05328,0.0,0.0,0.0,0.0,0.0,0.0
1402598880844070371,0,11.8455649485,-0.114322152727,-28.1012860441,0.043815185726,0.312138861297,0.0,0.464665697583,0.0,1.13816928687,0.0,0.0,0.0,0.0,92.7533218635,-37.3740723402,-1.21612153695,-0.37668410142,100.0,0.0253168026631,-0.0,-0.383038740522,100.0,0.0267249369469,-0.0,1179309.05328,0.0,0.0,0.0,0.0,0.0,0.0
1402598880863251038,0,11.8455649485,-0.114322152727,-28.1012860441,0.043815185726,0.312138861297,0.0,0.464665697583,0.0,1.13816928687,0.0,0.0,0.0,0.0,92.7533218635,-37.3740723402,-1.21612153695,-0.37668410142,100.0,0.0253168026631,-0.0,-0.383038740522,100.0,0.0267249369469,-0.0,1179309.05328,0.0,0.0,0.0,0.0,0.0,0.0
1402598880883864903,0,11.8589254347,-0.114322152727,-28.0814779487,0.043815185726,0.325013943773,0.0,0.476741519352,0.0,1.11433046784,0.0,0.0,0.0,0.0,92.7533218635,-37.3740723402,-1.21612153695,-0.378218801814,100.0,0.0237825791065,-0.0,-0.383038740522,100.0,0.0267249369469,-0.0,1179309.05328,0.0,0.0,0.0,0.0,0.0,0.0
1402598880903321735,0,11.8589254347,-0.114322152727,-28.0814779487,0.043815185726,0.325013943773,0.0,0.476741519352,0.0,1.11433046784,0.0,0.0,0.0,0.0,92.7533218635,-37.3740723402,-1.21612153695,-0.37668410142,100.0,0.0237825791065,-0.0,-0.383038740522,100.0,0.0267249369469,-0.0,1179309.05328,0.0,0.0,0.0,0.0,0.0,0.0
1402598880923984556,0,11.8703004135,-0.114322152727,-28.061395412,0.043815185726,0.335098333529,0.0,0.490582172077,0.0,1.09029354298,0.0,0.0,0.0,0.0,92.7533218635,-37.3740723402,-1.21612153695,-0.37668410142,100.0,0.0237825791065,-0.0,-0.383038740522,100.0,0.0267249369469,-0.0,1179309.05328,0.0,0.0,0.0,0.0,0.0,0.0
1402598880943316640,0,11.8703004135,-0.114322152727,-28.061395412,0.043815185726,0.335098333529,0.0,0.490582172077,0.0,1.09029354298,0.0,0.0,0.0,0.0,92.7533218635,-37.3740723402,-1.21612153695,-0.378218801814,100.0,0.0253168026631,-0.0,-0.383038740522,100.0,0.0267249369469,-0.0,1179309.05328,0.0,0.0,0.0,0.0,0.0,0.0
1402598880963841333,0,11.8802293563,-0.114322152727,-28.0376231114,0.043815185726,0.344704121613,0.0,0.506404197239,0.0,1.06638399408,0.0,0.0,0.0,0.0,92.7533218635,-37.3740723402,-1.21612153695,-0.378218801814,100.0,0.0253168026631,-0.0,-0.383038740522,100.0,0.0267249369469,-0.0,1179309.05328,0.0,0.0,0.0,0.0,0.0,0.0
1402598880983264413,0,11.8802293563,-0.114322152727,-28.0376231114,0.043815185726,0.344704121613,0.0,0.506404197239,0.0,1.06638399408,0.0,0.0,0.0,0.0,92.7533218635,-37.3740723402,-1.21612153695,-0.378218801814,100.0,0.0253168026631,-0.0,-0.383038740522,100.0,0.0267249369469,-0.0,1179309.05328,0.0,0.0,0.0,0.0,0.0,0.0
1402598881003910584,0,11.9051793881,-0.114322152727,-28.0118039907,0.043815185726,0.374075070967,0.0,0.521798576074,0.0,1.03114035589,0.0,0.0,0.0,0.0,92.7533218635,-37.3740723402,-1.21612153695,-0.378218801814,100.0,0.0253168026631,-0.0,-0.383038740522,100.0,0.0267249369469,-0.0,1179309.05328,0.0,0.0,0.0,0.0,0.0,0.0
1402598881023325903,0,11.9051793881,-0.114322152727,-28.0118039907,0.043815185726,0.374075070967,0.0,0.521798576074,0.0,1.03114035589,0.0,0.0,0.0,0.0,92.7533218635,-37.3740723402,-1.21612153695,-0.378218801814,100.0,0.0253168026631,-0.0,-0.383038740522,100.0,0.0267249369469,-0.0,1179309.05328,0.0,0.0,0.0,0.0,0.0,0.0
1402598881043876673,0,11.9245868514,-0.114322152727,-27.9812488233,0.043815185726,0.399990076439,0.0,0.536223055102,0.0,0.997128257824,0.0,0.0,0.0,0.0,92.7533218635,-37.3740723402,-1.21612153695,-0.378218801814,100.0,0.0253168026631,-0.0,-0.383038740522,100.0,0.0267249369469,-0.0,1179309.05328,0.0,0.0,0.0,0.0,0.0,0.0
1402598881063281705,0,11.9245868514,-0.114322152727,-27.9812488233,0.043815185726,0.399990076439,0.0,0.536223055102,0.0,0.997128257824,0.0,0.0,0.0,0.0,92.7533218635,-37.3740723402,-1.21612153695,-0.378218801814,100.0,0.0253168026631,-0.0,-0.383038740522,100.0,0.0267249369469,-0.0,1179309.05328,0.0,0.0,0.0,0.0,0.0,0.0
1402598881083896717,0,11.9346806096,-0.114322152727,-27.9693007729,0.043815185726,0.414108241365,0.0,0.538247977098,0.0,0.981222776428,0.0,0.0,0.0,0.0,92.7533218635,-37.3740723402,-1.21612153695,-0.378218801814,100.0,0.0253168026631,-0.0,-0.383038740522,100.0,0.0267249369469,-0.0,1179309.05328,0.0,0.0,0.0,0.0,0.0,0.0
1402598881103135442,0,11.9346806096,-0.114322152727,-27.9693007729,0.043815185726,0.414108241365,0.0,0.538247977098,0.0,0.981222776428,0.0,0.0,0.0,0.0,92.7533218635,-37.3740723402,-1.21612153695,-0.378218801814,100.0,0.0253168026631,-0.0,-0.383038740522,100.0,0.0267249369469,-0.0,1179309.05328,0.0,0.0,0.0,0.0,0.0,0.0
1402598881123935197,0,11.9511595066,-0.114322152727,-27.9484688017,0.043815185726,0.431129542616,0.0,0.545353012629,0.0,0.955540754946,0.0,0.0,0.0,0.0,92.7533218635,-37.3740723402,-1.21612153695,-0.378218801814,100.0,0.0253168026631,-0.0,-0.383038740522,100.0,0.0267249369469,-0.0,1179309.05328,0.0,0.0,0.0,0.0,0.0,0.0
1402598881143297196,0,11.9511595066,-0.114322152727,-27.9484688017,0.043815185726,0.431129542616,0.0,0.545353012629,0.0,0.955540754946,0.0,0.0,0.0,0.0,92.7533218635,-37.3740723402,-1.21612153695,-0.37668410142,100.0,0.0253168026631,-0.0,-0.383038740522,100.0,0.0267249369469,-0.0,1179309.05328,0.0,0.0,0.0,0.0,0.0,0.0
1402598881163881825,0,11.9688467383,-0.114322152727,-27.9278240801,0.043815185726,0.446692860253,0.0,0.549105751084,0.0,0.928655461081,0.0,0.0,0.0,0.0,92.7533218635,-37.3740723402,-1.21612153695,-0.378218801814,100.0,0.0253168026631,-0.0,-0.383038740522,100.0,0.0267249369469,-0.0,1179309.05328,0.0,0.0,0.0,0.0,0.0,0.0
1402598881183361727,0,11.9688467383,-0.114322152727,-27.9278240801,0.043815185726,0.446692860253,0.0,0.549105751084,0.0,0.928655461081,0.0,0.0,0.0,0.0,92.7533218635,-37.3740723402,-1.21612153695,-0.378218801814,100.0,0.0253168026631,-0.0,-0.383038740522,100.0,0.0267249369469,-0.0,1179309.05328,0.0,0.0,0.0,0.0,0.0,0.0
1402598881203381139,0,11.9863214105,-0.114322152727,-27.9046381369,0.043815185726,0.461399203024,0.0,0.553884211747,0.0,0.901872325398,0.0,0.0,0.0,0.0,92.7533218635,-37.3740723402,-1.21612153695,-0.378218801814,100.0,0.0253168026631,-0.0,-0.383038740522,100.0,0.0267249369469,-0.0,1179309.05328,0.0,0.0,0.0,0.0,0.0,0.0
1402598881223909669,0,11.9863214105,-0.114322152727,-27.9046381369,0.043815185726,0.461399203024,0.0,0.553884211747,0.0,0.901872325398,0.0,0.0,0.0,0.0,92.7533218635,-37.3740723402,-1.21612153695,-0.378218801814,100.0,0.0253168026631,-0.0,-0.383038740522,100.0,0.0267249369469,-0.0,1179309.05328,0.0,0.0,0.0,0.0,0.0,0.0
1402598881243260073,0,12.0092836743,-0.114322152727,-27.8805433123,0.043815185726,0.488448549629,0.0,0.564477823751,0.0,0.874604000054,0.0,0.0,0.0,0.0,92.7533218635,-37.3740723402,-1.21612153695,-0.37975302537,100.0,0.0253168026631,-0.0,-0.383038740522,100.0,0.0267249369469,-0.0,1179309.05328,0.0,0.0,0.0,0.0,0.0,0.0
1402598881263956867,0,12.0092836743,-0.114322152727,-27.8805433123,0.043815185726,0.488448549629,0.0,0.564477823751,0.0,0.874604000054,0.0,0.0,0.0,0.0,92.7533218635,-37.3740723402,-1.21612153695,-0.37975302537,100.0,0.0253168026631,-0.0,-0.383038740522,100.0,0.0267249369469,-0.0,1179309.05328,0.0,0.0,0.0,0.0,0.0,0.0
1402598881283400586,0,12.0312355316,-0.114322152727,-27.8508709922,0.043815185726,0.499052436107,0.0,0.566225780239,0.0,0.839702848165,0.0,0.0,0.0,0.0,92.7533218635,-37.3740723402,-1.21612153695,-0.37975302537,100.0,0.0253168026631,-0.0,-0.383038740522,100.0,0.0267249369469,-0.0,1179309.05328,0.0,0.0,0.0,0.0,0.0,0.0
1402598881304404761,0,12.0312355316,-0.114322152727,-27.8508709922,0.043815185726,0.499052436107,0.0,0.566225780239,0.0,0.839702848165,0.0,0.0,0.0,0.0,92.7533218635,-37.3740723402,-1.21612153695,-0.37975302537,100.0,0.0253168026631,-0.0,-0.383038740522,100.0,0.0267249369469,-0.0,1179309.05328,0.0,0.0,0.0,0.0,0.0,0.0
1402598881323413044,0,12.0464256977,-0.114322152727,-27.8339272247,0.043815185726,0.512295081857,0.0,0.565927612017,0.0,0.818491157131,0.0,0.0,0.0,0.0,92.7533218635,-37.3740723402,-1.21612153695,-0.37975302537,100.0,0.0253168026631,-0.0,-0.383038740522,100.0,0.0267249369469,-0.0,1179309.05328,0.0,0.0,0.0,0.0,0.0,0.0
1402598881343679386,0,12.0573969413,-0.114322152727,-27.8210323309,0.043815185726,0.516817789148,0.0,0.572797817227,0.0,0.805362095539,0.0,0.0,0.0,0.0,92.7533218635,-37.3740723402,-1.21612153695,-0.37975302537,100.0,0.0253168026631,-0.0,-0.383038740522,100.0,0.0267249369469,-0.0,1179309.05328,0.0,0.0,0.0,0.0,0.0,0.0
1402598881363200414,0,12.0573969413,-0.114322152727,-27.8210323309,0.043815185726,0.516817789148,0.0,0.572797817227,0.0,0.805362095539,0.0,0.0,0.0,0.0,92.7533218635,-37.3740723402,-1.21612153695,-0.37975302537,100.0,0.0253168026631,-0.0,-0.383038740522,100.0,0.0267249369469,-0.0,1179309.05328,0.0,0.0,0.0,0.0,0.0,0.0
1402598881383829322,0,12.0678843882,-0.114322152727,-27.8097160989,0.043815185726,0.525505662343,0.0,0.571679885449,0.0,0.791219126777,0.0,0.0,0.0,0.0,92.7533218635,-37.3740723402,-1.21612153695,-0.37975302537,100.0,0.0253168026631,-0.0,-0.383038740522,100.0,0.0267249369469,-0.0,1179309.05328,0.0,0.0,0.0,0.0,0.0,0.0
1402598881403335590,0,12.0678843882,-0.114322152727,-27.8097160989,0.043815185726,0.525505662343,0.0,0.571679885449,0.0,0.791219126777,0.0,0.0,0.0,0.0,92.7533218635,-37.3740723402,-1.21612153695,-0.37975302537,100.0,0.0253168026631,-0.0,-0.383038740522,100.0,0.0267249369469,-0.0,1179309.05328,0.0,0.0,0.0,0.0,0.0,0.0
1402598881423883307,0,12.0988684577,-0.114322152727,-27.7898808798,0.043815185726,0.553118802825,0.0,0.56731795271,0.0,0.761396217931,0.0,0.0,0.0,0.0,92.7533218635,-37.3740723402,-1.21612153695,-0.37975302537,100.0,0.0253168026631,-0.0,-0.383038740522,100.0,0.0267249369469,-0.0,1179309.05328,0.0,0.0,0.0,0.0,0.0,0.0
1402598881443293368,0,12.0988684577,-0.114322152727,-27.7898808798,0.043815185726,0.553118802825,0.0,0.56731795271,0.0,0.761396217931,0.0,0.0,0.0,0.0,92.7533218635,-37.3740723402,-1.21612153695,-0.37975302537,100.0,0.0253168026631,-0.0,-0.383038740522,100.0,0.0267249369469,-0.0,1179309.05328,0.0,0.0,0.0,0.0,0.0,0.0
1402598881463825530,0,12.1294564341,-0.114322152727,-27.7700839908,0.043815185726,0.585019622062,0.0,0.565943056628,0.0,0.732630999857,0.0,0.0,0.0,0.0,92.7533218635,-37.3740723402,-1.21612153695,-0.37975302537,100.0,0.0253168026631,-0.0,-0.383038740522,100.0,0.0267249369469,-0.0,1179309.05328,0.0,0.0,0.0,0.0,0.0,0.0
1402598881483256190,0,12.1294564341,-0.114322152727,-27.7700839908,0.043815185726,0.585019622062,0.0,0.565943056628,0.0,0.732630999857,0.0,0.0,0.0,0.0,92.7533218635,-37.3740723402,-1.21612153695,-0.381287487345,100.0,0.0253168026631,-0.0,-0.383038740522,100.0,0.0267249369469,-0.0,1179309.05328,0.0,0.0,0.0,0.0,0.0,0.0
1402598881503827031,0,12.1505835864,-0.114322152727,-27.7482744669,0.043815185726,0.599579248064,0.0,0.556406373807,0.0,0.70187343967,0.0,0.0,0.0,0.0,92.7533218635,-37.3740723402,-1.21612153695,-0.381287487345,100.0,0.0253168026631,-0.0,-0.383038740522,100.0,0.0267249369469,-0.0,1179309.05328,0.0,0.0,0.0,0.0,0.0,0.0
1402598881523196863,0,12.1505835864,-0.114322152727,-27.7482744669,0.043815185726,0.599579248064,0.0,0.556406373807,0.0,0.70187343967,0.0,0.0,0.0,0.0,92.7533218635,-37.3740723402,-1.21612153695,-0.37975302537,100.0,0.0253168026631,-0.0,-0.383038740522,100.0,0.0267249369469,-0.0,1179309.05328,0.0,0.0,0.0,0.0,0.0,0.0
1402598881543602379,0,12.1754412604,-0.114322152727,-27.725630305,0.043815185726,0.616212626753,0.0,0.550414960975,0.0,0.67309110479,0.0,0.0,0.0,0.0,92.7533218635,-37.3740723402,-1.21612153695,-0.381287487345,100.0,0.0253168026631,-0.0,-0.383038740522,100.0,0.0267249369469,-0.0,1179309.05328,0.0,0.0,0.0,0.0,0.0,0.0
1402598881563314326,0,12.1754412604,-0.114322152727,-27.725630305,0.043815185726,0.616212626753,0.0,0.550414960975,0.0,0.67309110479,0.0,0.0,0.0,0.0,92.7533218635,-37.3740723402,-1.21612153695,-0.37975302537,100.0,0.0253168026631,-0.0,-0.383038740522,100.0,0.0267249369469,-0.0,1179309.05328,0.0,0.0,0.0,0.0,0.0,0.0
1402598881583927470,0,12.2009975431,-0.114322152727,-27.7033489723,0.043815185726,0.634145071569,0.0,0.545167092281,0.0,0.644562573266,0.0,0.0,0.0,0.0,92.7533218635,-37.3740723402,-1.21612153695,-0.37975302537,100.0,0.0253168026631,-0.0,-0.383038740522,100.0,0.0267249369469,-0.0,1179309.05328,0.0,0.0,0.0,0.0,0.0,0.0
1402598881603328345,0,12.2009975431,-0.114322152727,-27.7033489723,0.043815185726,0.634145071569,0.0,0.545167092281,0.0,0.644562573266,0.0,0.0,0.0,0.0,92.7533218635,-37.3740723402,-1.21612153695,-0.381287487345,100.0,0.0253168026631,-0.0,-0.383038740522,100.0,0.0267249369469,-0.0,1179309.05328,0.0,0.0,0.0,0.0,0.0,0.0
1402598881623797833,0,12.2293400323,-0.114322152727,-27.6830869518,0.043815185726,0.656257913012,0.0,0.535941304258,0.0,0.615445588439,0.0,0.0,0.0,0.0,92.7533218635,-37.3740723402,-1.21612153695,-0.381287487345,100.0,0.0253168026631,-0.0,-0.383038740522,100.0,0.0267249369469,-0.0,1179309.05328,0.0,0.0,0.0,0.0,0.0,0.0
1402598881643093935,0,12.2293400323,-0.114322152727,-27.6830869518,0.043815185726,0.656257913012,0.0,0.535941304258,0.0,0.615445588439,0.0,0.0,0.0,0.0,92.7533218635,-37.3740723402,-1.21612153695,-0.37975302537,100.0,0.0253168026631,-0.0,-0.383038740522,100.0,0.0267249369469,-0.0,1179309.05328,0.0,0.0,0.0,0.0,0.0,0.0
1402598881665083428,0,12.2482446524,-0.114322152727,-27.6545030902,0.043815185726,0.662268528807,0.0,0.537539463505,0.0,0.588648739981,0.0,0.0,0.0,0.0,92.7533218635,-37.3740723402,-1.21612153695,-0.381287487345,100.0,0.0253168026631,-0.0,-0.383038740522,100.0,0.0267249369469,-0.0,1179309.05328,0.0,0.0,0.0,0.0,0.0,0.0
1402598881683320601,0,12.2482446524,-0.114322152727,-27.6545030902,0.043815185726,0.662268528807,0.0,0.537539463505,0.0,0.588648739981,0.0,0.0,0.0,0.0,92.7533218635,-37.3740723402,-1.21612153695,-0.381287487345,100.0,0.0253168026631,-0.0,-0.383038740522,100.0,0.0267249369469,-0.0,1179309.05328,0.0,0.0,0.0,0.0,0.0,0.0
1402598881703828049,0,12.2733159583,-0.114322152727,-27.6390412471,0.043815185726,0.675685978102,0.0,0.518004495717,0.0,0.55804018822,0.0,0.0,0.0,0.0,92.7533218635,-37.3740723402,-1.21612153695,-0.381287487345,100.0,0.0253168026631,-0.0,-0.383038740522,100.0,0.0267249369469,-0.0,1179309.05328,0.0,0.0,0.0,0.0,0.0,0.0
1402598881723277530,0,12.2733159583,-0.114322152727,-27.6390412471,0.043815185726,0.675685978102,0.0,0.518004495717,0.0,0.55804018822,0.0,0.0,0.0,0.0,92.7533218635,-37.3740723402,-1.21612153695,-0.381287487345,100.0,0.0253168026631,-0.0,-0.383038740522,100.0,0.0267249369469,-0.0,1179309.05328,0.0,0.0,0.0,0.0,0.0,0.0
1402598881743965760,0,12.3033233537,-0.114322152727,-27.6117934029,0.043815185726,0.700846879154,0.0,0.513802530883,0.0,0.533005534892,0.0,0.0,0.0,0.0,92.7533218635,-37.3740723402,-1.21612153695,-0.381287487345,100.0,0.0253168026631,-0.0,-0.383038740522,100.0,0.0267249369469,-0.0,1179309.05328,0.0,0.0,0.0,0.0,0.0,0.0
1402598881763363359,0,12.3033233537,-0.114322152727,-27.6117934029,0.043815185726,0.700846879154,0.0,0.513802530883,0.0,0.533005534892,0.0,0.0,0.0,0.0,92.7533218635,-37.3740723402,-1.21612153695,-0.381287487345,100.0,0.0253168026631,-0.0,-0.383038740522,100.0,0.0267249369469,-0.0,1179309.05328,0.0,0.0,0.0,0.0,0.0,0.0
1402598881783942768,0,12.337757451,-0.114322152727,-27.5836015802,0.043815185726,0.723862807226,0.0,0.500056975681,0.0,0.498632592054,0.0,0.0,0.0,0.0,92.7533218635,-37.3740723402,-1.21612153695,-0.37975302537,100.0,0.0253168026631,-0.0,-0.383038740522,100.0,0.0267249369469,-0.0,1179309.05328,0.0,0.0,0.0,0.0,0.0,0.0
1402598881803452406,0,12.337757451,-0.114322152727,-27.5836015802,0.043815185726,0.723862807226,0.0,0.500056975681,0.0,0.498632592054,0.0,0.0,0.0,0.0,92.7533218635,-37.3740723402,-1.21612153695,-0.381287487345,100.0,0.0253168026631,-0.0,-0.383038740522,100.0,0.0267249369469,-0.0,1179309.05328,0.0,0.0,0.0,0.0,0.0,0.0
1402598881823832672,0,12.3772351347,-0.114322152727,-27.5611932763,0.043815185726,0.748928516942,0.0,0.477492941032,0.0,0.463126637293,0.0,0.0,0.0,0.0,92.7533218635,-37.3740723402,-1.21612153695,-0.381287487345,100.0,0.0253168026631,-0.0,-0.383038740522,100.0,0.0267249369469,-0.0,1179309.05328,0.0,0.0,0.0,0.0,0.0,0.0
1402598881843364470,0,12.3772351347,-0.114322152727,-27.5611932763,0.043815185726,0.748928516942,0.0,0.477492941032,0.0,0.463126637293,0.0,0.0,0.0,0.0,92.7533218635,-37.3740723402,-1.21612153695,-0.381287487345,100.0,0.0253168026631,-0.0,-0.383038740522,100.0,0.0267249369469,-0.0,1179309.05328,0.0,0.0,0.0,0.0,0.0,0.0
1402598881863896280,0,12.3930193507,-0.114322152727,-27.551234917,0.043815185726,0.755185737554,0.0,0.471650585649,0.0,0.449240158937,0.0,0.0,0.0,0.0,92.7533218635,-37.3740723402,-1.21612153695,-0.381287487345,100.0,0.0253168026631,-0.0,-0.383038740522,100.0,0.0267249369469,-0.0,1179309.05328,0.0,0.0,0.0,0.0,0.0,0.0
1402598881883345266,0,12.3930193507,-0.114322152727,-27.551234917,0.043815185726,0.755185737554,0.0,0.471650585649,0.0,0.449240158937,0.0,0.0,0.0,0.0,92.7533218635,-37.3740723402,-1.21612153695,-0.381287487345,100.0,0.0253168026631,-0.0,-0.383038740522,100.0,0.0267249369469,-0.0,1179309.05328,0.0,0.0,0.0,0.0,0.0,0.0
1402598881903896767,0,12.4292081338,-0.114322152727,-27.5247730981,0.043815185726,0.78459375503,0.0,0.470274824038,0.0,0.426485344133,0.0,0.0,0.0,0.0,92.7533218635,-37.3740723402,-1.21612153695,-0.381287487345,100.0,0.0253168026631,-0.0,-0.383038740522,100.0,0.0267249369469,-0.0,1179309.05328,0.0,0.0,0.0,0.0,0.0,0.0
1402598881923354788,0,12.4292081338,-0.114322152727,-27.5247730981,0.043815185726,0.78459375503,0.0,0.470274824038,0.0,0.426485344133,0.0,0.0,0.0,0.0,92.7533218635,-37.3740723402,-1.21612153695,-0.381287487345,100.0,0.0253168026631,-0.0,-0.383038740522,100.0,0.0267249369469,-0.0,1179309.05328,0.0,0.0,0.0,0.0,0.0,0.0
1402598881943911580,0,12.4622404947,-0.114322152727,-27.5127136922,0.043815185726,0.802556103601,0.0,0.43984897407,0.0,0.396790198238,0.0,0.0,0.0,0.0,92.7533218635,-37.3740723402,-1.21612153695,-0.381287487345,100.0,0.0253168026631,-0.0,-0.383038740522,100.0,0.0267249369469,-0.0,1179309.05328,0.0,0.0,0.0,0.0,0.0,0.0
1402598881963272832,0,12.4622404947,-0.114322152727,-27.5127136922,0.043815185726,0.802556103601,0.0,0.43984897407,0.0,0.396790198238,0.0,0.0,0.0,0.0,92.7533218635,-37.3740723402,-1.21612153695,-0.381287487345,100.0,0.0253168026631,-0.0,-0.383038740522,100.0,0.0267249369469,-0.0,1179309.05328,0.0,0.0,0.0,0.0,0.0,0.0
1402598881983860162,0,12.496389466,-0.114322152727,-27.4907153261,0.043815185726,0.821238773058,0.0,0.431652684422,0.0,0.372504236819,0.0,0.0,0.0,0.0,92.7533218635,-37.3740723402,-1.21612153695,-0.381287487345,100.0,0.0253168026631,-0.0,-0.383038740522,100.0,0.0267249369469,-0.0,1179309.05328,0.0,0.0,0.0,0.0,0.0,0.0
1402598882003294481,0,12.496389466,-0.114322152727,-27.4907153261,0.043815185726,0.821238773058,0.0,0.431652684422,0.0,0.372504236819,0.0,0.0,0.0,0.0,92.7533218635,-37.3740723402,-1.21612153695,-0.381287487345,100.0,0.0253168026631,-0.0,-0.383038740522,100.0,0.0267249369469,-0.0,1179309.05328,0.0,0.0,0.0,0.0,0.0,0.0
1402598882024088359,0,12.5303717081,-0.114322152727,-27.473323603,0.043815185726,0.833288211168,0.0,0.417572398189,0.0,0.346491717354,0.0,0.0,0.0,0.0,92.7533218635,-37.3740723402,-1.21612153695,-0.381287487345,100.0,0.0253168026631,-0.0,-0.383038740522,100.0,0.0267249369469,-0.0,1179309.05328,0.0,0.0,0.0,0.0,0.0,0.0
1402598882043375147,0,12.5303717081,-0.114322152727,-27.473323603,0.043815185726,0.833288211168,0.0,0.417572398189,0.0,0.346491717354,0.0,0.0,0.0,0.0,92.7533218635,-37.3740723402,-1.21612153695,-0.381287487345,100.0,0.0253168026631,-0.0,-0.383038740522,100.0,0.0267249369469,-0.0,1179309.05328,0.0,0.0,0.0,0.0,0.0,0.0
1402598882063924393,0,12.561739864,-0.114322152727,-27.4580184333,0.043815185726,0.84229559311,0.0,0.402778669198,0.0,0.319208826169,0.0,0.0,0.0,0.0,92.7533218635,-37.3740723402,-1.21612153695,-0.37975302537,100.0,0.0253168026631,-0.0,-0.383038740522,100.0,0.0267249369469,-0.0,1179309.05328,0.0,0.0,0.0,0.0,0.0,0.0
1402598882083346349,0,12.561739864,-0.114322152727,-27.4580184333,0.043815185726,0.84229559311,0.0,0.402778669198,0.0,0.319208826169,0.0,0.0,0.0,0.0,92.7533218635,-37.3740723402,-1.21612153695,-0.381287487345,100.0,0.0253168026631,-0.0,-0.383038740522,100.0,0.0267249369469,-0.0,1179309.05328,0.0,0.0,0.0,0.0,0.0,0.0
1402598882103890476,0,12.594810896,-0.114322152727,-27.4473909426,0.043815185726,0.855473715088,0.0,0.371137444751,0.0,0.291854871314,0.0,0.0,0.0,0.0,92.7533218635,-37.3740723402,-1.21612153695,-0.381287487345,100.0,0.0253168026631,-0.0,-0.383038740522,100.0,0.0267249369469,-0.0,1179309.05328,0.0,0.0,0.0,0.0,0.0,0.0
1402598882123375040,0,12.594810896,-0.114322152727,-27.4473909426,0.043815185726,0.855473715088,0.0,0.371137444751,0.0,0.291854871314,0.0,0.0,0.0,0.0,92.7533218635,-37.3740723402,-1.21612153695,-0.381287487345,100.0,0.0253168026631,-0.0,-0.383038740522,100.0,0.0267249369469,-0.0,1179309.05328,0.0,0.0,0.0,0.0,0.0,0.0
1402598882143879090,0,12.6402148157,-0.114322152727,-27.4227777018,0.043815185726,0.875069297268,0.0,0.356049857584,0.0,0.260568600806,0.0,0.0,0.0,0.0,92.7533218635,-37.3740723402,-1.21612153695,-0.37975302537,100.0,0.0253168026631,-0.0,-0.383038740522,100.0,0.0267249369469,-0.0,1179309.05328,0.0,0.0,0.0,0.0,0.0,0.0
1402598882163178947,0,12.6402148157,-0.114322152727,-27.4227777018,0.043815185726,0.875069297268,0.0,0.356049857584,0.0,0.260568600806,0.0,0.0,0.0,0.0,92.7533218635,-37.3740723402,-1.21612153695,-0.381287487345,100.0,0.0253168026631,-0.0,-0.383038740522,100.0,0.0267249369469,-0.0,1179309.05328,0.0,0.0,0.0,0.0,0.0,0.0
1402598882183898331,0,12.6845008278,-0.114322152727,-27.4108962655,0.043815185726,0.893251612646,0.0,0.315525511849,0.0,0.226383965799,0.0,0.0,0.0,0.0,92.7533218635,-37.3740723402,-1.21612153695,-0.381287487345,100.0,0.0253168026631,-0.0,-0.383038740522,100.0,0.0267249369469,-0.0,1179309.05328,0.0,0.0,0.0,0.0,0.0,0.0
1402598882204059970,0,12.6845008278,-0.114322152727,-27.4108962655,0.043815185726,0.893251612646,0.0,0.315525511849,0.0,0.226383965799,0.0,0.0,0.0,0.0,92.7533218635,-37.3740723402,-1.21612153695,-0.381287487345,100.0,0.0253168026631,-0.0,-0.383038740522,100.0,0.0267249369469,-0.0,1179309.05328,0.0,0.0,0.0,0.0,0.0,0.0
1402598882223939510,0,12.7039731452,-0.114322152727,-27.4004011482,0.043815185726,0.906382632607,0.0,0.310553060825,0.0,0.214411337246,0.0,0.0,0.0,0.0,92.7533218635,-37.3740723402,-1.21612153695,-0.381287487345,100.0,0.0253168026631,-0.0,-0.383038740522,100.0,0.0267249369469,-0.0,1179309.05328,0.0,0.0,0.0,0.0,0.0,0.0
1402598882243969981,0,12.7039731452,-0.114322152727,-27.4004011482,0.043815185726,0.906382632607,0.0,0.310553060825,0.0,0.214411337246,0.0,0.0,0.0,0.0,92.7533218635,-37.3740723402,-1.21612153695,-0.381287487345,100.0,0.0253168026631,-0.0,-0.383038740522,100.0,0.0267249369469,-0.0,1179309.05328,0.0,0.0,0.0,0.0,0.0,0.0
1402598882264519330,0,12.7413300565,-0.114322152727,-27.3881297062,0.043815185726,0.919828492709,0.0,0.291355911772,0.0,0.188007418428,0.0,0.0,0.0,0.0,92.7533218635,-37.3740723402,-1.21612153695,-0.381287487345,100.0,0.0253168026631,-0.0,-0.383038740522,100.0,0.0267249369469,-0.0,1179309.05328,0.0,0.0,0.0,0.0,0.0,0.0
1402598882283944176,0,12.7413300565,-0.114322152727,-27.3881297062,0.043815185726,0.919828492709,0.0,0.291355911772,0.0,0.188007418428,0.0,0.0,0.0,0.0,92.7533218635,-37.3740723402,-1.21612153695,-0.381287487345,100.0,0.0253168026631,-0.0,-0.383038740522,100.0,0.0267249369469,-0.0,1179309.05328,0.0,0.0,0.0,0.0,0.0,0.0
1402598882303818942,0,12.7719773301,-0.114322152727,-27.3830857698,0.043815185726,0.918907218452,0.0,0.261842397667,0.0,0.15899614633,0.0,0.0,0.0,0.0,92.7533218635,-37.3740723402,-1.21612153695,-0.381287487345,100.0,0.0253168026631,-0.0,-0.383038740522,100.0,0.0267249369469,-0.0,1179309.05328,0.0,0.0,0.0,0.0,0.0,0.0
1402598882323471849,0,12.7719773301,-0.114322152727,-27.3830857698,0.043815185726,0.918907218452,0.0,0.261842397667,0.0,0.15899614633,0.0,0.0,0.0,0.0,92.7533218635,-37.3740723402,-1.21612153695,-0.381287487345,100.0,0.0253168026631,-0.0,-0.383038740522,100.0,0.0267249369469,-0.0,1179309.05328,0.0,0.0,0.0,0.0,0.0,0.0
1402598882343893433,0,12.8129542693,-0.114322152727,-27.3682854356,0.043815185726,0.937788057275,0.0,0.249866703253,0.0,0.134306736504,0.0,0.0,0.0,0.0,92.7533218635,-37.3740723402,-1.21612153695,-0.381287487345,100.0,0.0253168026631,-0.0,-0.383038740522,100.0,0.0267249369469,-0.0,1179309.05328,0.0,0.0,0.0,0.0,0.0,0.0
1402598882363289269,0,12.8129542693,-0.114322152727,-27.3682854356,0.043815185726,0.937788057275,0.0,0.249866703253,0.0,0.134306736504,0.0,0.0,0.0,0.0,92.7533218635,-37.3740723402,-1.21612153695,-0.381287487345,100.0,0.0268512646381,-0.0,-0.383038740522,100.0,0.0267249369469,-0.0,1179309.05328,0.0,0.0,0.0,0.0,0.0,0.0
1402598882383793939,0,12.8512933698,-0.114322152727,-27.3584297317,0.043815185726,0.945348516547,0.0,0.235314813676,0.0,0.107470563193,0.0,0.0,0.0,0.0,92.7533218635,-37.3740723402,-1.21612153695,-0.381287487345,100.0,0.0253168026631,-0.0,-0.383038740522,100.0,0.0267249369469,-0.0,1179309.05328,0.0,0.0,0.0,0.0,0.0,0.0
1402598882403312737,0,12.8512933698,-0.114322152727,-27.3584297317,0.043815185726,0.945348516547,0.0,0.235314813676,0.0,0.107470563193,0.0,0.0,0.0,0.0,92.7533218635,-37.3740723402,-1.21612153695,-0.381287487345,100.0,0.0253168026631,-0.0,-0.383038740522,100.0,0.0267249369469,-0.0,1179309.05328,0.0,0.0,0.0,0.0,0.0,0.0
1402598882423986695,0,12.8947517933,-0.114322152727,-27.3460297908,0.043815185726,0.960885943003,0.0,0.228919392473,0.0,0.0828251829079,0.0,0.0,0.0,0.0,92.7533218635,-37.3740723402,-1.21612153695,-0.381287487345,100.0,0.0268512646381,-0.0,-0.383038740522,100.0,0.0267249369469,-0.0,1179309.05328,0.0,0.0,0.0,0.0,0.0,0.0
1402598882443417257,0,12.8947517933,-0.114322152727,-27.3460297908,0.043815185726,0.960885943003,0.0,0.228919392473,0.0,0.0828251829079,0.0,0.0,0.0,0.0,92.7533218635,-37.3740723402,-1.21612153695,-0.381287487345,100.0,0.0268512646381,-0.0,-0.383038740522,100.0,0.0267249369469,-0.0,1179309.05328,0.0,0.0,0.0,0.0,0.0,0.0
1402598882463870446,0,12.9433968245,-0.114322152727,-27.3412068756,0.043815185726,0.966748790156,0.0,0.20483840232,0.0,0.0494666856379,0.0,0.0,0.0,0.0,92.7533218635,-37.3740723402,-1.21612153695,-0.381287487345,100.0,0.0268512646381,-0.0,-0.383038740522,100.0,0.0267249369469,-0.0,1179309.05328,0.0,0.0,0.0,0.0,0.0,0.0
1402598882483305661,0,12.9433968245,-0.114322152727,-27.3412068756,0.043815185726,0.966748790156,0.0,0.20483840232,0.0,0.0494666856379,0.0,0.0,0.0,0.0,92.7533218635,-37.3740723402,-1.21612153695,-0.381287487345,100.0,0.0268512646381,-0.0,-0.383038740522,100.0,0.0267249369469,-0.0,1179309.05328,0.0,0.0,0.0,0.0,0.0,0.0
1402598882504680113,0,12.9733428078,-0.114322152727,-27.335035826,0.043815185726,0.969556686615,0.0,0.196632278614,0.0,0.030230141893,0.0,0.0,0.0,0.0,92.7533218635,-37.3740723402,-1.21612153695,-0.381287487345,100.0,0.0268512646381,-0.0,-0.383038740522,100.0,0.0267249369469,-0.0,1179309.05328,0.0,0.0,0.0,0.0,0.0,0.0
1402598882523365923,0,12.9936861237,-0.114322152727,-27.3310006303,0.043815185726,0.972798081654,0.0,0.192489525772,0.0,0.0174453831517,0.0,0.0,0.0,0.0,92.7533218635,-37.3740723402,-1.21612153695,-0.381287487345,100.0,0.0268512646381,-0.0,-0.383038740522,100.0,0.0267249369469,-0.0,1179309.05328,0.0,0.0,0.0,0.0,0.0,0.0
1402598882543865925,0,12.9936861237,-0.114322152727,-27.3310006303,0.043815185726,0.972798081654,0.0,0.192489525772,0.0,0.0174453831517,0.0,0.0,0.0,0.0,92.7533218635,-37.3740723402,-1.21612153695,-0.381287487345,100.0,0.0268512646381,-0.0,-0.383038740522,100.0,0.0267249369469,-0.0,1179309.05328,0.0,0.0,0.0,0.0,0.0,0.0
1402598882563281924,0,13.0130585725,-0.114322152727,-27.3272439846,0.043815185726,0.975724452763,0.0,0.187695627935,0.0,0.00519707558747,0.0,0.0,0.0,0.0,92.7533218635,-37.3740723402,-1.21612153695,-0.381287487345,100.0,0.0268512646381,-0.0,-0.383038740522,100.0,0.0267249369469,-0.0,1179309.05328,0.0,0.0,0.0,0.0,0.0,0.0
1402598882583894081,0,13.0130585725,-0.114322152727,-27.3272439846,0.043815185726,0.975724452763,0.0,0.187695627935,0.0,0.00519707558747,0.0,0.0,0.0,0.0,92.7533218635,-37.3740723402,-1.21612153695,-0.381287487345,100.0,0.0268512646381,-0.0,-0.383038740522,100.0,0.0267249369469,-0.0,1179309.05328,0.0,0.0,0.0,0.0,0.0,0.0
1402598882603334801,0,13.0598936533,-0.114322152727,-27.3168109594,0.043815185726,0.993356010272,0.0,0.175457305025,0.0,-0.0183805533018,0.0,0.0,0.0,0.0,92.7533218635,-37.3740723402,-1.21612153695,-0.381287487345,100.0,0.0268512646381,-0.0,-0.383038740522,100.0,0.0267249369469,-0.0,1179309.05328,0.0,0.0,0.0,0.0,0.0,0.0
1402598882623986346,0,13.0598936533,-0.114322152727,-27.3168109594,0.043815185726,0.993356010272,0.0,0.175457305025,0.0,-0.0183805533018,0.0,0.0,0.0,0.0,92.7533218635,-37.3740723402,-1.21612153695,-0.381287487345,100.0,0.0268512646381,-0.0,-0.383038740522,100.0,0.0267249369469,-0.0,1179309.05328,0.0,0.0,0.0,0.0,0.0,0.0
1402598882643382032,0,13.0960763035,-0.114322152727,-27.3090709151,0.043815185726,0.988305857911,0.0,0.159634578523,0.0,-0.044319601422,0.0,0.0,0.0,0.0,92.7533218635,-37.3740723402,-1.21612153695,-0.381287487345,100.0,0.0268512646381,-0.0,-0.383038740522,100.0,0.0267249369469,-0.0,1179309.05328,0.0,0.0,0.0,0.0,0.0,0.0
1402598882663734820,0,13.0960763035,-0.114322152727,-27.3090709151,0.043815185726,0.988305857911,0.0,0.159634578523,0.0,-0.044319601422,0.0,0.0,0.0,0.0,92.7533218635,-37.3740723402,-1.21612153695,-0.381287487345,100.0,0.0268512646381,-0.0,-0.383038740522,100.0,0.0267249369469,-0.0,1179309.05328,0.0,0.0,0.0,0.0,0.0,0.0
1402598882683374934,0,13.1416111114,-0.114322152727,-27.2995941691,0.043815185726,1.00759841126,0.0,0.136255212785,0.0,-0.0667279694983,0.0,0.0,0.0,0.0,92.7533218635,-37.3740723402,-1.21612153695,-0.381287487345,100.0,0.0283854881947,-0.0,-0.383038740522,100.0,0.0267249369469,-0.0,1179309.05328,0.0,0.0,0.0,0.0,0.0,0.0
1402598882703970012,0,13.1416111114,-0.114322152727,-27.2995941691,0.043815185726,1.00759841126,0.0,0.136255212785,0.0,-0.0667279694983,0.0,0.0,0.0,0.0,92.7533218635,-37.3740723402,-1.21612153695,-0.381287487345,100.0,0.0268512646381,-0.0,-0.383038740522,100.0,0.0267249369469,-0.0,1179309.05328,0.0,0.0,0.0,0.0,0.0,0.0
1402598882723317449,0,13.1941905494,-0.114322152727,-27.2968448954,0.043815185726,1.01497861188,0.0,0.0936043073524,0.0,-0.0973906065663,0.0,0.0,0.0,0.0,92.7533218635,-37.3740723402,-1.21612153695,-0.381287487345,100.0,0.0268512646381,-0.0,-0.383038740522,100.0,0.0267249369469,-0.0,1179309.05328,0.0,0.0,0.0,0.0,0.0,0.0
1402598882743941693,0,13.1941905494,-0.114322152727,-27.2968448954,0.043815185726,1.01497861188,0.0,0.0936043073524,0.0,-0.0973906065663,0.0,0.0,0.0,0.0,92.7533218635,-37.3740723402,-1.21612153695,-0.381287487345,100.0,0.0268512646381,-0.0,-0.383038740522,100.0,0.0267249369469,-0.0,1179309.05328,0.0,0.0,0.0,0.0,0.0,0.0
1402598882763551529,0,13.2507457491,-0.114322152727,-27.2862768794,0.043815185726,1.02952684452,0.0,0.0695051409475,0.0,-0.126129533651,0.0,0.0,0.0,0.0,92.7533218635,-37.3740723402,-1.21612153695,-0.381287487345,100.0,0.0268512646381,-0.0,-0.383038740522,100.0,0.0267249369469,-0.0,1179309.05328,0.0,0.0,0.0,0.0,0.0,0.0
1402598882783941732,0,13.2507457491,-0.114322152727,-27.2862768794,0.043815185726,1.02952684452,0.0,0.0695051409475,0.0,-0.126129533651,0.0,0.0,0.0,0.0,92.7533218635,-37.3740723402,-1.21612153695,-0.381287487345,100.0,0.0283854881947,-0.0,-0.383038740522,100.0,0.0267249369469,-0.0,1179309.05328,0.0,0.0,0.0,0.0,0.0,0.0
1402598882803274391,0,13.2591795933,-0.114322152727,-27.2932221465,0.043815185726,1.024719456,0.0,0.0383209461457,0.0,-0.133122796592,0.0,0.0,0.0,0.0,92.7533218635,-37.3740723402,-1.21612153695,-0.381287487345,100.0,0.0283854881947,-0.0,-0.383038740522,100.0,0.0267249369469,-0.0,1179309.05328,0.0,0.0,0.0,0.0,0.0,0.0
1402598882823878977,0,13.2591795933,-0.114322152727,-27.2932221465,0.043815185726,1.024719456,0.0,0.0383209461457,0.0,-0.133122796592,0.0,0.0,0.0,0.0,92.7533218635,-37.3740723402,-1.21612153695,-0.381287487345,100.0,0.0268512646381,-0.0,-0.383038740522,100.0,0.0267249369469,-0.0,1179309.05328,0.0,0.0,0.0,0.0,0.0,0.0
1402598882843307677,0,13.3147182531,-0.114322152727,-27.2893364847,0.043815185726,1.03418030589,0.0,-0.000480655304488,0.0,-0.163179093501,0.0,0.0,0.0,0.0,92.7533218635,-37.3740723402,-1.21612153695,-0.381287487345,100.0,0.0283854881947,-0.0,-0.383038740522,100.0,0.0267249369469,-0.0,1179309.05328,0.0,0.0,0.0,0.0,0.0,0.0
1402598882864032043,0,13.3147182531,-0.114322152727,-27.2893364847,0.043815185726,1.03418030589,0.0,-0.000480655304488,0.0,-0.163179093501,0.0,0.0,0.0,0.0,92.7533218635,-37.3740723402,-1.21612153695,-0.381287487345,100.0,0.0283854881947,-0.0,-0.383038740522,100.0,0.0267249369469,-0.0,1179309.05328,0.0,0.0,0.0,0.0,0.0,0.0
1402598882883953740,0,13.3758354098,-0.114322152727,-27.294397982,0.043815185726,1.03493263178,0.0,-0.0660147680149,0.0,-0.200393308239,0.0,0.0,0.0,0.0,92.7533218635,-37.3740723402,-1.21612153695,-0.381287487345,100.0,0.0283854881947,-0.0,-0.383038740522,100.0,0.0267249369469,-0.0,1179309.05328,0.0,0.0,0.0,0.0,0.0,0.0
1402598882904179747,0,13.3758354098,-0.114322152727,-27.294397982,0.043815185726,1.03493263178,0.0,-0.0660147680149,0.0,-0.200393308239,0.0,0.0,0.0,0.0,92.7533218635,-37.3740723402,-1.21612153695,-0.381287487345,100.0,0.0283854881947,-0.0,-0.383038740522,100.0,0.0267249369469,-0.0,1179309.05328,0.0,0.0,0.0,0.0,0.0,0.0
1402598882924087313,0,13.4095190717,-0.114322152727,-27.2934782441,0.043815185726,1.04071099645,0.0,-0.0867923821897,0.0,-0.218193817312,0.0,0.0,0.0,0.0,92.7533218635,-37.3740723402,-1.21612153695,-0.37975302537,100.0,0.0268512646381,-0.0,-0.383038740522,100.0,0.0267249369469,-0.0,1179309.05328,0.0,0.0,0.0,0.0,0.0,0.0
1402598882944635752,0,13.4314891249,-0.114322152727,-27.2954932996,0.043815185726,1.04184536367,0.0,-0.103172369873,0.0,-0.230741822347,0.0,0.0,0.0,0.0,92.7533218635,-37.3740723402,-1.21612153695,-0.381287487345,100.0,0.0283854881947,-0.0,-0.383038740522,100.0,0.0267249369469,-0.0,1179309.05328,0.0,0.0,0.0,0.0,0.0,0.0
1402598882963973647,0,13.4314891249,-0.114322152727,-27.2954932996,0.043815185726,1.04184536367,0.0,-0.103172369873,0.0,-0.230741822347,0.0,0.0,0.0,0.0,92.7533218635,-37.3740723402,-1.21612153695,-0.381287487345,100.0,0.0283854881947,-0.0,-0.383038740522,100.0,0.0267249369469,-0.0,1179309.05328,0.0,0.0,0.0,0.0,0.0,0.0
1402598882983887655,0,13.4583126323,-0.114322152727,-27.2953221127,0.043815185726,1.05744959789,0.0,-0.124265622394,0.0,-0.239760180834,0.0,0.0,0.0,0.0,92.7533218635,-37.3740723402,-1.21612153695,-0.381287487345,100.0,0.0268512646381,-0.0,-0.383038740522,100.0,0.0267249369469,-0.0,1179309.05328,0.0,0.0,0.0,0.0,0.0,0.0
1402598883003341199,0,13.4583126323,-0.114322152727,-27.2953221127,0.043815185726,1.05744959789,0.0,-0.124265622394,0.0,-0.239760180834,0.0,0.0,0.0,0.0,92.7533218635,-37.3740723402,-1.21612153695,-0.37975302537,100.0,0.0268512646381,-0.0,-0.383038740522,100.0,0.0267249369469,-0.0,1179309.05328,0.0,0.0,0.0,0.0,0.0,0.0
1402598883024099566,0,13.5015920726,-0.114322152727,-27.3008396873,0.043815185726,1.05727675046,0.0,-0.145430125223,0.0,-0.26420781662,0.0,0.0,0.0,0.0,92.7533218635,-37.3740723402,-1.21612153695,-0.381287487345,100.0,0.0283854881947,-0.0,-0.383038740522,100.0,0.0267249369469,-0.0,1179309.05328,0.0,0.0,0.0,0.0,0.0,0.0
1402598883043360303,0,13.5015920726,-0.114322152727,-27.3008396873,0.043815185726,1.05727675046,0.0,-0.145430125223,0.0,-0.26420781662,0.0,0.0,0.0,0.0,92.7533218635,-37.3740723402,-1.21612153695,-0.381287487345,100.0,0.0268512646381,-0.0,-0.383038740522,100.0,0.0267249369469,-0.0,1179309.05328,0.0,0.0,0.0,0.0,0.0,0.0
1402598883063955779,0,13.5471483261,-0.114322152727,-27.3093899402,0.043815185726,1.05724760525,0.0,-0.173096555468,0.0,-0.287939653088,0.0,0.0,0.0,0.0,92.7533218635,-37.3740723402,-1.21612153695,-0.381287487345,100.0,0.0268512646381,-0.0,-0.383038740522,100.0,0.0267249369469,-0.0,1179309.05328,0.0,0.0,0.0,0.0,0.0,0.0
1402598883083459559,0,13.5471483261,-0.114322152727,-27.3093899402,0.043815185726,1.05724760525,0.0,-0.173096555468,0.0,-0.287939653088,0.0,0.0,0.0,0.0,92.7533218635,-37.3740723402,-1.21612153695,-0.381287487345,100.0,0.0268512646381,-0.0,-0.383038740522,100.0,0.0267249369469,-0.0,1179309.05328,0.0,0.0,0.0,0.0,0.0,0.0
1402598883103897909,0,13.5929170632,-0.114322152727,-27.3162039001,0.043815185726,1.05809772774,0.0,-0.185714133095,0.0,-0.311567505676,0.0,0.0,0.0,0.0,92.7533218635,-37.3740723402,-1.21612153695,-0.381287487345,100.0,0.0283854881947,-0.0,-0.383038740522,100.0,0.0267249369469,-0.0,1179309.05328,0.0,0.0,0.0,0.0,0.0,0.0
1402598883123387159,0,13.5929170632,-0.114322152727,-27.3162039001,0.043815185726,1.05809772774,0.0,-0.185714133095,0.0,-0.311567505676,0.0,0.0,0.0,0.0,92.7533218635,-37.3740723402,-1.21612153695,-0.381287487345,100.0,0.0268512646381,-0.0,-0.383038740522,100.0,0.0267249369469,-0.0,1179309.05328,0.0,0.0,0.0,0.0,0.0,0.0
1402598883143948425,0,13.6575640551,-0.114322152727,-27.3249804765,0.043815185726,1.07784208835,0.0,-0.214059317446,0.0,-0.336341771154,0.0,0.0,0.0,0.0,92.7533218635,-37.3740723402,-1.21612153695,-0.381287487345,100.0,0.0268512646381,-0.0,-0.383038740522,100.0,0.0267249369469,-0.0,1179309.05328,0.0,0.0,0.0,0.0,0.0,0.0
1402598883163164735,0,13.6575640551,-0.114322152727,-27.3249804765,0.043815185726,1.07784208835,0.0,-0.214059317446,0.0,-0.336341771154,0.0,0.0,0.0,0.0,92.7533218635,-37.3740723402,-1.21612153695,-0.381287487345,100.0,0.0268512646381,-0.0,-0.383038740522,100.0,0.0267249369469,-0.0,1179309.05328,0.0,0.0,0.0,0.0,0.0,0.0
1402598883183861125,0,13.7068896274,-0.114322152727,-27.336577655,0.043815185726,1.05984247303,0.0,-0.241013538295,0.0,-0.367696087588,0.0,0.0,0.0,0.0,92.7533218635,-37.3740723402,-1.21612153695,-0.381287487345,100.0,0.0268512646381,-0.0,-0.383038740522,100.0,0.0267249369469,-0.0,1179309.05328,0.0,0.0,0.0,0.0,0.0,0.0
1402598883203252975,0,13.7068896274,-0.114322152727,-27.336577655,0.043815185726,1.05984247303,0.0,-0.241013538295,0.0,-0.367696087588,0.0,0.0,0.0,0.0,92.7533218635,-37.3740723402,-1.21612153695,-0.381287487345,100.0,0.0283854881947,-0.0,-0.383038740522,100.0,0.0267249369469,-0.0,1179309.05328,0.0,0.0,0.0,0.0,0.0,0.0
1402598883223903050,0,13.7311201633,-0.114322152727,-27.3376930893,0.043815185726,1.06247212005,0.0,-0.226385948786,0.0,-0.381401718382,0.0,0.0,0.0,0.0,92.7533218635,-37.3740723402,-1.21612153695,-0.381287487345,100.0,0.0268512646381,-0.0,-0.383038740522,100.0,0.0267249369469,-0.0,1179309.05328,0.0,0.0,0.0,0.0,0.0,0.0
1402598883243270347,0,13.7311201633,-0.114322152727,-27.3376930893,0.043815185726,1.06247212005,0.0,-0.226385948786,0.0,-0.381401718382,0.0,0.0,0.0,0.0,92.7533218635,-37.3740723402,-1.21612153695,-0.381287487345,100.0,0.0283854881947,-0.0,-0.383038740522,100.0,0.0267249369469,-0.0,1179309.05328,0.0,0.0,0.0,0.0,0.0,0.0
1402598883263896651,0,13.775016363,-0.114322152727,-27.3473020097,0.043815185726,1.06109346374,0.0,-0.246848571517,0.0,-0.404826289948,0.0,0.0,0.0,0.0,92.7533218635,-37.3740723402,-1.21612153695,-0.381287487345,100.0,0.0283854881947,-0.0,-0.383038740522,100.0,0.0267249369469,-0.0,1179309.05328,0.0,0.0,0.0,0.0,0.0,0.0
1402598883283349823,0,13.775016363,-0.114322152727,-27.3473020097,0.043815185726,1.06109346374,0.0,-0.246848571517,0.0,-0.404826289948,0.0,0.0,0.0,0.0,92.7533218635,-37.3740723402,-1.21612153695,-0.381287487345,100.0,0.0268512646381,-0.0,-0.383038740522,100.0,0.0267249369469,-0.0,1179309.05328,0.0,0.0,0.0,0.0,0.0,0.0
1402598883303895698,0,13.8100702944,-0.114322152727,-27.3634372665,0.043815185726,1.03639453175,0.0,-0.281659741212,0.0,-0.430414805438,0.0,0.0,0.0,0.0,92.7533218635,-37.3740723402,-1.21612153695,-0.381287487345,100.0,0.0268512646381,-0.0,-0.383038740522,100.0,0.0267249369469,-0.0,1179309.05328,0.0,0.0,0.0,0.0,0.0,0.0
1402598883323437683,0,13.8100702944,-0.114322152727,-27.3634372665,0.043815185726,1.03639453175,0.0,-0.281659741212,0.0,-0.430414805438,0.0,0.0,0.0,0.0,92.7533218635,-37.3740723402,-1.21612153695,-0.381287487345,100.0,0.0268512646381,-0.0,-0.383038740522,100.0,0.0267249369469,-0.0,1179309.05328,0.0,0.0,0.0,0.0,0.0,0.0
1402598883344397678,0,13.8769074314,-0.114322152727,-27.381173456,0.043815185726,1.05722791669,0.0,-0.328203654342,0.0,-0.458809829077,0.0,0.0,0.0,0.0,92.7533218635,-37.3740723402,-1.21612153695,-0.381287487345,100.0,0.0283854881947,-0.0,-0.383038740522,100.0,0.0267249369469,-0.0,1179309.05328,0.0,0.0,0.0,0.0,0.0,0.0
1402598883363471767,0,13.8769074314,-0.114322152727,-27.381173456,0.043815185726,1.05722791669,0.0,-0.328203654342,0.0,-0.458809829077,0.0,0.0,0.0,0.0,92.7533218635,-37.3740723402,-1.21612153695,-0.381287487345,100.0,0.0283854881947,-0.0,-0.383038740522,100.0,0.0267249369469,-0.0,1179309.05328,0.0,0.0,0.0,0.0,0.0,0.0
1402598883383907253,0,13.9028928348,-0.114322152727,-27.3925357528,0.043815185726,1.03901825496,0.0,-0.346923857545,0.0,-0.479889375055,0.0,0.0,0.0,0.0,92.7533218635,-37.3740723402,-1.21612153695,-0.381287487345,100.0,0.0283854881947,-0.0,-0.383038740522,100.0,0.0267249369469,-0.0,1179309.05328,0.0,0.0,0.0,0.0,0.0,0.0
1402598883403456744,0,13.9246406402,-0.114322152727,-27.3999662024,0.043815185726,1.03860307091,0.0,-0.357731656404,0.0,-0.493381799406,0.0,0.0,0.0,0.0,92.7533218635,-37.3740723402,-1.21612153695,-0.381287487345,100.0,0.0268512646381,-0.0,-0.383038740522,100.0,0.0267249369469,-0.0,1179309.05328,0.0,0.0,0.0,0.0,0.0,0.0
1402598883423988151,0,13.9246406402,-0.114322152727,-27.3999662024,0.043815185726,1.03860307091,0.0,-0.357731656404,0.0,-0.493381799406,0.0,0.0,0.0,0.0,92.7533218635,-37.3740723402,-1.21612153695,-0.381287487345,100.0,0.0283854881947,-0.0,-0.383038740522,100.0,0.0267249369469,-0.0,1179309.05328,0.0,0.0,0.0,0.0,0.0,0.0
1402598883443363965,0,13.951668778,-0.114322152727,-27.4045642018,0.043815185726,1.03277692636,0.0,-0.367890056349,0.0,-0.507292723933,0.0,0.0,0.0,0.0,92.7533218635,-37.3740723402,-1.21612153695,-0.381287487345,100.0,0.0268512646381,-0.0,-0.383038740522,100.0,0.0267249369469,-0.0,1179309.05328,0.0,0.0,0.0,0.0,0.0,0.0
1402598883463972744,0,13.951668778,-0.114322152727,-27.4045642018,0.043815185726,1.03277692636,0.0,-0.367890056349,0.0,-0.507292723933,0.0,0.0,0.0,0.0,92.7533218635,-37.3740723402,-1.21612153695,-0.381287487345,100.0,0.0283854881947,-0.0,-0.383038740522,100.0,0.0267249369469,-0.0,1179309.05328,0.0,0.0,0.0,0.0,0.0,0.0
1402598883483247247,0,13.9997173146,-0.114322152727,-27.4207969085,0.043815185726,1.026212002,0.0,-0.387083760047,0.0,-0.534360443473,0.0,0.0,0.0,0.0,92.7533218635,-37.3740723402,-1.21612153695,-0.381287487345,100.0,0.0283854881947,-0.0,-0.383038740522,100.0,0.0267249369469,-0.0,1179309.05328,0.0,0.0,0.0,0.0,0.0,0.0
1402598883503728550,0,13.9997173146,-0.114322152727,-27.4207969085,0.043815185726,1.026212002,0.0,-0.387083760047,0.0,-0.534360443473,0.0,0.0,0.0,0.0,92.7533218635,-37.3740723402,-1.21612153695,-0.381287487345,100.0,0.0283854881947,-0.0,-0.383038740522,100.0,0.0267249369469,-0.0,1179309.05328,0.0,0.0,0.0,0.0,0.0,0.0
1402598883523419482,0,14.0529352429,-0.114322152727,-27.4417681132,0.043815185726,1.02100599382,0.0,-0.412322270203,0.0,-0.567295487463,0.0,0.0,0.0,0.0,92.7533218635,-37.3740723402,-1.21612153695,-0.381287487345,100.0,0.0283854881947,-0.0,-0.383038740522,100.0,0.0267249369469,-0.0,1179309.05328,0.0,0.0,0.0,0.0,0.0,0.0
1402598883544297711,0,14.0529352429,-0.114322152727,-27.4417681132,0.043815185726,1.02100599382,0.0,-0.412322270203,0.0,-0.567295487463,0.0,0.0,0.0,0.0,92.7533218635,-37.3740723402,-1.21612153695,-0.381287487345,100.0,0.0283854881947,-0.0,-0.383038740522,100.0,0.0267249369469,-0.0,1179309.05328,0.0,0.0,0.0,0.0,0.0,0.0
