rosbagTimestamp,transforms,-,header,seq,stamp,secs,nsecs,frame_id,child_frame_id,transform,translation,x,y,z,rotation,x,y,z,w
1402415803837820742,,errorv,,0,,1402415803,837445773,base_link,/z_drive,,,0.0,0.0,0.0,,0.0,0.0,0.0,1.0
1402415803837862648,,errorv,,0,,1402415803,837488638,/z_drive,port,,,-0.3,0.3048,0.0,,0.0,0.0,0.0,1.0
1402415803837884348,,errorv,,0,,1402415803,837522839,/z_drive,starboard,,,-0.3,-0.3048,0.0,,0.0,0.0,0.0,1.0
1402415803857572895,,errorv,,0,,1402415803,857424395,base_link,/z_drive,,,0.0,0.0,0.0,,0.0,0.0,0.0,1.0
1402415803857736437,,errorv,,0,,1402415803,857465287,/z_drive,port,,,-0.3,0.3048,0.0,,0.0,0.0,0.0,1.0
1402415803857765883,,errorv,,0,,1402415803,857499015,/z_drive,starboard,,,-0.3,-0.3048,0.0,,0.0,0.0,0.0,1.0
1402415803859208086,,errorv,,0,,1402415803,787524938,/enu,/base_link,,,11.7636381759,17.179035022,-25.5450873932,,-0.0139658382573,0.00899627391372,0.797108213461,0.603607917816
1402415803859229682,,errorv,,0,,1402415803,797530889,/enu,/base_link,,,11.7635915793,17.1785796995,-25.5449072255,,-0.0138398223541,0.00895079245476,0.797212329765,0.603473979474
1402415803859260942,,errorv,,0,,1402415803,807524919,/enu,/base_link,,,11.7634368839,17.1782887411,-25.5451005161,,-0.01372043152,0.00890769740327,0.79730141715,0.603359638107
1402415803859350411,,errorv,,0,,1402415803,817528009,/enu,/base_link,,,11.763502173,17.1778705335,-25.5449941705,,-0.0136018233452,0.00887070492366,0.79738732801,0.603249326667
1402415803877742129,,errorv,,0,,1402415803,877463768,base_link,/z_drive,,,0.0,0.0,0.0,,0.0,0.0,0.0,1.0
1402415803877770674,,errorv,,0,,1402415803,877529216,/z_drive,port,,,-0.3,0.3048,0.0,,0.0,0.0,0.0,1.0
1402415803877789385,,errorv,,0,,1402415803,877538730,/z_drive,starboard,,,-0.3,-0.3048,0.0,,0.0,0.0,0.0,1.0
1402415803879631240,,errorv,,0,,1402415803,979372983,base_link,imu,,,0.13,0.0,-0.1,,1.0,0.0,0.0,0.0
1402415803879744721,,errorv,,0,,1402415803,979282349,/base_link,/gps,,,-0.84,0.0,-0.14,,0.0,0.0,0.0,1.0
1402415803897816198,,errorv,,0,,1402415803,897453097,base_link,/z_drive,,,0.0,0.0,0.0,,0.0,0.0,0.0,1.0
1402415803897842999,,errorv,,0,,1402415803,897498817,/z_drive,port,,,-0.3,0.3048,0.0,,0.0,0.0,0.0,1.0
1402415803897869481,,errorv,,0,,1402415803,897505911,/z_drive,starboard,,,-0.3,-0.3048,0.0,,0.0,0.0,0.0,1.0
1402415803899520382,,errorv,,0,,1402415803,827495098,/enu,/base_link,,,11.7633821537,17.1773528544,-25.544645213,,-0.0134637168607,0.00886667267201,0.797480893338,0.603128788241
1402415803899542498,,errorv,,0,,1402415803,837497949,/enu,/base_link,,,11.7640050138,17.186312079,-25.5917763586,,-0.0138481161786,0.00803013245258,0.797469416643,0.603146977254
1402415803899565123,,errorv,,0,,1402415803,847501039,/enu,/base_link,,,11.7637580073,17.1859730871,-25.5919735556,,-0.0137306438718,0.00800921306298,0.797556669056,0.603034560842
1402415803899585064,,errorv,,0,,1402415803,857497930,/enu,/base_link,,,11.7636025817,17.1854442952,-25.5918569519,,-0.0136020740871,0.00801865237905,0.797643651303,0.602922292116
1402415803917654149,,errorv,,0,,1402415803,917476621,base_link,/z_drive,,,0.0,0.0,0.0,,0.0,0.0,0.0,1.0
1402415803917784910,,errorv,,0,,1402415803,917504899,/z_drive,port,,,-0.3,0.3048,0.0,,0.0,0.0,0.0,1.0
1402415803917818181,,errorv,,0,,1402415803,917555404,/z_drive,starboard,,,-0.3,-0.3048,0.0,,0.0,0.0,0.0,1.0
1402415803937634968,,errorv,,0,,1402415803,937449592,base_link,/z_drive,,,0.0,0.0,0.0,,0.0,0.0,0.0,1.0
1402415803937802288,,errorv,,0,,1402415803,937484572,/z_drive,port,,,-0.3,0.3048,0.0,,0.0,0.0,0.0,1.0
1402415803937825836,,errorv,,0,,1402415803,937521663,/z_drive,starboard,,,-0.3,-0.3048,0.0,,0.0,0.0,0.0,1.0
1402415803939197003,,errorv,,0,,1402415803,867496013,/enu,/base_link,,,11.7631269354,17.1846730634,-25.5914774337,,-0.013471536826,0.00799953500125,0.797727725363,0.602814234505
1402415803939267438,,errorv,,0,,1402415803,877496957,/enu,/base_link,,,11.7630285139,17.1844187512,-25.5919022335,,-0.0133765153892,0.00796598922822,0.797820335696,0.602694220813
1402415803939299345,,errorv,,0,,1402415803,887470960,/enu,/base_link,,,11.7824039246,17.1895138063,-25.5766852746,,-0.0126153979636,0.00929190214844,0.798080628113,0.602346929369
1402415803939323357,,errorv,,0,,1402415803,897476911,/enu,/base_link,,,11.7824072355,17.1891862935,-25.5766756565,,-0.012531682745,0.00933328423085,0.798166645016,0.602234052106
1402415803939357450,,errorv,,0,,1402415803,907470941,/enu,/base_link,,,11.7825303269,17.1887773021,-25.576536015,,-0.0124158289379,0.00939077005151,0.798242375068,0.602135176912
1402415803957630419,,errorv,,0,,1402415803,957476580,base_link,/z_drive,,,0.0,0.0,0.0,,0.0,0.0,0.0,1.0
1402415803957774906,,errorv,,0,,1402415803,957497648,/z_drive,port,,,-0.3,0.3048,0.0,,0.0,0.0,0.0,1.0
1402415803957803641,,errorv,,0,,1402415803,957542638,/z_drive,starboard,,,-0.3,-0.3048,0.0,,0.0,0.0,0.0,1.0
1402415803977639600,,errorv,,0,,1402415803,977447286,base_link,/z_drive,,,0.0,0.0,0.0,,0.0,0.0,0.0,1.0
1402415803977665980,,errorv,,0,,1402415803,977489514,/z_drive,port,,,-0.3,0.3048,0.0,,0.0,0.0,0.0,1.0
1402415803977778268,,errorv,,0,,1402415803,977496783,/z_drive,starboard,,,-0.3,-0.3048,0.0,,0.0,0.0,0.0,1.0
1402415803979140225,,errorv,,0,,1402415803,917515039,/enu,/base_link,,,11.7824750676,17.1884065983,-25.5764373101,,-0.0123322705614,0.00944641888553,0.798323088113,0.602029008652
1402415803979162090,,errorv,,0,,1402415803,927473068,/enu,/base_link,,,11.7824135108,17.1880652983,-25.5762908213,,-0.0122534313089,0.00948887883675,0.798406913472,0.601918777843
1402415803979222671,,errorv,,0,,1402415803,937494039,/enu,/base_link,,,11.7929739809,17.2005134066,-25.5932913358,,-0.0124329874112,0.0102204761986,0.798528338254,0.601742017559
1402415803979573859,,errorv,,0,,1402415804,79389498,/base_link,/gps,,,-0.84,0.0,-0.14,,0.0,0.0,0.0,1.0
1402415803979737152,,errorv,,0,,1402415804,79479795,base_link,imu,,,0.13,0.0,-0.1,,1.0,0.0,0.0,0.0
1402415803987278806,,errorv,,0,,1402415803,947469949,/enu,/base_link,,,11.7930379452,17.2003941204,-25.5932986049,,-0.0123704213302,0.0102741639306,0.798635435284,0.601600245795
1402415803987354766,,errorv,,0,,1402415803,957508087,/enu,/base_link,,,11.7931746503,17.2001402798,-25.5932751193,,-0.0123087108263,0.0103284254387,0.798722444197,0.601485059167
1402415803997703375,,errorv,,0,,1402415803,997501864,base_link,/z_drive,,,0.0,0.0,0.0,,0.0,0.0,0.0,1.0
1402415803997736114,,errorv,,0,,1402415803,997527869,/z_drive,port,,,-0.3,0.3048,0.0,,0.0,0.0,0.0,1.0
1402415803997759794,,errorv,,0,,1402415803,997576889,/z_drive,starboard,,,-0.3,-0.3048,0.0,,0.0,0.0,0.0,1.0
1402415804017578018,,errorv,,0,,1402415804,17413030,base_link,/z_drive,,,0.0,0.0,0.0,,0.0,0.0,0.0,1.0
1402415804017608341,,errorv,,0,,1402415804,17440676,/z_drive,port,,,-0.3,0.3048,0.0,,0.0,0.0,0.0,1.0
1402415804017707153,,errorv,,0,,1402415804,17450466,/z_drive,starboard,,,-0.3,-0.3048,0.0,,0.0,0.0,0.0,1.0
1402415804027141510,,errorv,,0,,1402415803,967470884,/enu,/base_link,,,11.793370896,17.1999676918,-25.593172245,,-0.0122438245809,0.0103816079444,0.798807874,0.601372007506
1402415804027165596,,errorv,,0,,1402415803,977472066,/enu,/base_link,,,11.7934754819,17.1997934519,-25.5931984759,,-0.0121876092968,0.0104433190789,0.798900621948,0.601248863215
1402415804037573183,,errorv,,0,,1402415804,37390716,base_link,/z_drive,,,0.0,0.0,0.0,,0.0,0.0,0.0,1.0
1402415804037605523,,errorv,,0,,1402415804,37420156,/z_drive,port,,,-0.3,0.3048,0.0,,0.0,0.0,0.0,1.0
1402415804037624848,,errorv,,0,,1402415804,37450552,/z_drive,starboard,,,-0.3,-0.3048,0.0,,0.0,0.0,0.0,1.0
1402415804057567001,,errorv,,0,,1402415804,57415108,base_link,/z_drive,,,0.0,0.0,0.0,,0.0,0.0,0.0,1.0
1402415804057596708,,errorv,,0,,1402415804,57434866,/z_drive,port,,,-0.3,0.3048,0.0,,0.0,0.0,0.0,1.0
1402415804057619968,,errorv,,0,,1402415804,57445893,/z_drive,starboard,,,-0.3,-0.3048,0.0,,0.0,0.0,0.0,1.0
1402415804067251537,,errorv,,0,,1402415803,987472057,/enu,/base_link,,,11.7989029977,17.1946922291,-25.5734625234,,-0.0119628555714,0.0106020525762,0.799024884723,0.60108545163
1402415804067280576,,errorv,,0,,1402415803,998471021,/enu,/base_link,,,11.7990280215,17.1945833113,-25.5734804899,,-0.0119382821029,0.0106810691038,0.799123660158,0.600953216114
1402415804067300443,,errorv,,0,,1402415804,8475065,/enu,/base_link,,,11.7995035217,17.1943815227,-25.5734501681,,-0.0119093507237,0.0107304450297,0.799204677839,0.600845161281
1402415804067381868,,errorv,,0,,1402415804,18474102,/enu,/base_link,,,11.7995262063,17.1942482643,-25.5734349859,,-0.0118857027919,0.0108094220135,0.799309186566,0.600705177883
1402415804077811123,,errorv,,0,,1402415804,77440726,base_link,/z_drive,,,0.0,0.0,0.0,,0.0,0.0,0.0,1.0
1402415804077834444,,errorv,,0,,1402415804,77584633,/z_drive,port,,,-0.3,0.3048,0.0,,0.0,0.0,0.0,1.0
1402415804077856883,,errorv,,0,,1402415804,77596623,/z_drive,starboard,,,-0.3,-0.3048,0.0,,0.0,0.0,0.0,1.0
1402415804079718352,,errorv,,0,,1402415804,179489211,/base_link,/gps,,,-0.84,0.0,-0.14,,0.0,0.0,0.0,1.0
1402415804079881177,,errorv,,0,,1402415804,179583953,base_link,imu,,,0.13,0.0,-0.1,,1.0,0.0,0.0,0.0
1402415804097664024,,errorv,,0,,1402415804,97463434,base_link,/z_drive,,,0.0,0.0,0.0,,0.0,0.0,0.0,1.0
1402415804097817332,,errorv,,0,,1402415804,97497498,/z_drive,port,,,-0.3,0.3048,0.0,,0.0,0.0,0.0,1.0
1402415804097842868,,errorv,,0,,1402415804,97528673,/z_drive,starboard,,,-0.3,-0.3048,0.0,,0.0,0.0,0.0,1.0
1402415804107442545,,errorv,,0,,1402415804,28471946,/enu,/base_link,,,11.7998479672,17.1938665106,-25.5730142535,,-0.0118712033805,0.0108741250903,0.799420053223,0.60055674706
1402415804107481538,,errorv,,0,,1402415804,38506984,/enu,/base_link,,,11.7964686998,17.1916710465,-25.5828679964,,-0.0123857172994,0.0100343463448,0.799453906514,0.600515909248
1402415804107507344,,errorv,,0,,1402415804,48506021,/enu,/base_link,,,11.796513355,17.1914089397,-25.5827708066,,-0.0123930850714,0.0101100341852,0.799549290462,0.600387483858
1402415804107552223,,errorv,,0,,1402415804,58470964,/enu,/base_link,,,11.7966947694,17.1911081074,-25.5826806464,,-0.0124252103821,0.010223026486,0.799633800123,0.60027234617
1402415804117625774,,errorv,,0,,1402415804,117444773,base_link,/z_drive,,,0.0,0.0,0.0,,0.0,0.0,0.0,1.0
1402415804117792230,,errorv,,0,,1402415804,117497207,/z_drive,port,,,-0.3,0.3048,0.0,,0.0,0.0,0.0,1.0
1402415804117819471,,errorv,,0,,1402415804,117531549,/z_drive,starboard,,,-0.3,-0.3048,0.0,,0.0,0.0,0.0,1.0
1402415804137717988,,errorv,,0,,1402415804,137425669,base_link,/z_drive,,,0.0,0.0,0.0,,0.0,0.0,0.0,1.0
1402415804137751023,,errorv,,0,,1402415804,137479451,/z_drive,port,,,-0.3,0.3048,0.0,,0.0,0.0,0.0,1.0
1402415804137825473,,errorv,,0,,1402415804,137492991,/z_drive,starboard,,,-0.3,-0.3048,0.0,,0.0,0.0,0.0,1.0
1402415804147854784,,errorv,,0,,1402415804,68470001,/enu,/base_link,,,11.7967201851,17.1909027527,-25.5827306157,,-0.0124520617396,0.0103104486936,0.799724232756,0.600149808256
1402415804147884246,,errorv,,0,,1402415804,79111099,/enu,/base_link,,,11.798003642,17.1953275802,-25.5876818611,,-0.0131407590774,0.0103659740922,0.799825825762,0.599998762895
1402415804147920785,,errorv,,0,,1402415804,88469982,/enu,/base_link,,,11.7979846168,17.1949999954,-25.5873491231,,-0.013181110832,0.0104826756321,0.799914520532,0.599877597241
1402415804147955654,,errorv,,0,,1402415804,98474025,/enu,/base_link,,,11.7978203929,17.1948717056,-25.5873592739,,-0.0132129057182,0.0106096904309,0.800021389644,0.599732131625
1402415804157598941,,errorv,,0,,1402415804,157445657,base_link,/z_drive,,,0.0,0.0,0.0,,0.0,0.0,0.0,1.0
1402415804157760053,,errorv,,0,,1402415804,157481857,/z_drive,port,,,-0.3,0.3048,0.0,,0.0,0.0,0.0,1.0
1402415804157783499,,errorv,,0,,1402415804,157607795,/z_drive,starboard,,,-0.3,-0.3048,0.0,,0.0,0.0,0.0,1.0
1402415804177613673,,errorv,,0,,1402415804,177444039,base_link,/z_drive,,,0.0,0.0,0.0,,0.0,0.0,0.0,1.0
1402415804177721699,,errorv,,0,,1402415804,177473492,/z_drive,port,,,-0.3,0.3048,0.0,,0.0,0.0,0.0,1.0
1402415804177834386,,errorv,,0,,1402415804,177500437,/z_drive,starboard,,,-0.3,-0.3048,0.0,,0.0,0.0,0.0,1.0
1402415804179799593,,errorv,,0,,1402415804,279594985,/base_link,/gps,,,-0.84,0.0,-0.14,,0.0,0.0,0.0,1.0
1402415804179916888,,errorv,,0,,1402415804,279689288,base_link,imu,,,0.13,0.0,-0.1,,1.0,0.0,0.0,0.0
1402415804187399632,,errorv,,0,,1402415804,109472990,/enu,/base_link,,,11.7977794345,17.1946291353,-25.5872452304,,-0.0132835310821,0.0107260522012,0.800141632691,0.599568067228
1402415804187429093,,errorv,,0,,1402415804,119472980,/enu,/base_link,,,11.7978884472,17.1944445721,-25.587089229,,-0.0133506439204,0.010827917616,0.800253049675,0.599416026641
1402415804187461449,,errorv,,0,,1402415804,129472017,/enu,/base_link,,,11.8068516527,17.1993803859,-25.5935666267,,-0.0133185040535,0.0112853005689,0.80037019175,0.599251879929
1402415804187493040,,errorv,,0,,1402415804,139472961,/enu,/base_link,,,11.8070337068,17.1992956683,-25.5936110424,,-0.0133959103215,0.0113905782158,0.800495482459,0.599080784934
1402415804197680124,,errorv,,0,,1402415804,197447523,base_link,/z_drive,,,0.0,0.0,0.0,,0.0,0.0,0.0,1.0
1402415804197710110,,errorv,,0,,1402415804,197484463,/z_drive,port,,,-0.3,0.3048,0.0,,0.0,0.0,0.0,1.0
1402415804197733193,,errorv,,0,,1402415804,197493179,/z_drive,starboard,,,-0.3,-0.3048,0.0,,0.0,0.0,0.0,1.0
1402415804217588207,,errorv,,0,,1402415804,217410623,base_link,/z_drive,,,0.0,0.0,0.0,,0.0,0.0,0.0,1.0
1402415804217738189,,errorv,,0,,1402415804,217437411,/z_drive,port,,,-0.3,0.3048,0.0,,0.0,0.0,0.0,1.0
1402415804217761980,,errorv,,0,,1402415804,217444498,/z_drive,starboard,,,-0.3,-0.3048,0.0,,0.0,0.0,0.0,1.0
1402415804227209429,,errorv,,0,,1402415804,149377107,/enu,/base_link,,,11.8070075847,17.199294203,-25.5937361164,,-0.0134652371265,0.0115232190947,0.800593357946,0.598945889061
1402415804227231859,,errorv,,0,,1402415804,160393953,/enu,/base_link,,,11.8070002041,17.1990480959,-25.5934802187,,-0.0135469126158,0.0116565897636,0.800700042228,0.598798837215
1402415804227247260,,errorv,,0,,1402415804,170365095,/enu,/base_link,,,11.8071093422,17.1990326611,-25.5935168937,,-0.0136048419758,0.0117811708497,0.800796448944,0.59866615041
1402415804227300550,,errorv,,0,,1402415804,180366039,/enu,/base_link,,,11.8192398614,17.2123203905,-25.6086947796,,-0.0138255195531,0.0128520738207,0.800942135664,0.598444128158
1402415804237633810,,errorv,,0,,1402415804,237420777,base_link,/z_drive,,,0.0,0.0,0.0,,0.0,0.0,0.0,1.0
1402415804237656181,,errorv,,0,,1402415804,237448195,/z_drive,port,,,-0.3,0.3048,0.0,,0.0,0.0,0.0,1.0
1402415804237678195,,errorv,,0,,1402415804,237494688,/z_drive,starboard,,,-0.3,-0.3048,0.0,,0.0,0.0,0.0,1.0
1402415804257572128,,errorv,,0,,1402415804,257397933,base_link,/z_drive,,,0.0,0.0,0.0,,0.0,0.0,0.0,1.0
1402415804257600650,,errorv,,0,,1402415804,257422510,/z_drive,port,,,-0.3,0.3048,0.0,,0.0,0.0,0.0,1.0
1402415804257714215,,errorv,,0,,1402415804,257435344,/z_drive,starboard,,,-0.3,-0.3048,0.0,,0.0,0.0,0.0,1.0
1402415804267708135,,errorv,,0,,1402415804,190373897,/enu,/base_link,,,11.8194453354,17.2122825969,-25.6085399288,,-0.0138918064261,0.0129827141569,0.801042257985,0.598305747732
1402415804267737007,,errorv,,0,,1402415804,200377941,/enu,/base_link,,,11.8196338823,17.2122744681,-25.6082901514,,-0.0139825921609,0.0131349258366,0.801138225558,0.598171801734
1402415804267764579,,errorv,,0,,1402415804,211368083,/enu,/base_link,,,11.8197920951,17.2123260864,-25.6082088698,,-0.0140614727213,0.0132924655862,0.801258987144,0.598004699701
1402415804267799720,,errorv,,0,,1402415804,221365928,/enu,/base_link,,,11.8200266165,17.212614,-25.6084316961,,-0.0141256944298,0.0134560160728,0.801360471382,0.597863525644
1402415804277573155,,errorv,,0,,1402415804,277427611,base_link,/z_drive,,,0.0,0.0,0.0,,0.0,0.0,0.0,1.0
1402415804277637689,,errorv,,0,,1402415804,277448173,/z_drive,port,,,-0.3,0.3048,0.0,,0.0,0.0,0.0,1.0
1402415804277701936,,errorv,,0,,1402415804,277470740,/z_drive,starboard,,,-0.3,-0.3048,0.0,,0.0,0.0,0.0,1.0
1402415804279877564,,errorv,,0,,1402415804,379703995,/base_link,/gps,,,-0.84,0.0,-0.14,,0.0,0.0,0.0,1.0
1402415804279973146,,errorv,,0,,1402415804,379785244,base_link,imu,,,0.13,0.0,-0.1,,1.0,0.0,0.0,0.0
1402415804297667567,,errorv,,0,,1402415804,297403611,base_link,/z_drive,,,0.0,0.0,0.0,,0.0,0.0,0.0,1.0
1402415804297729545,,errorv,,0,,1402415804,297418652,/z_drive,port,,,-0.3,0.3048,0.0,,0.0,0.0,0.0,1.0
1402415804298859351,,errorv,,0,,1402415804,297444832,/z_drive,starboard,,,-0.3,-0.3048,0.0,,0.0,0.0,0.0,1.0
1402415804307192302,,errorv,,0,,1402415804,231368064,/enu,/base_link,,,11.8201433158,17.2126134269,-25.6082411041,,-0.0142348575084,0.0135732632252,0.80146391374,0.597719608454
1402415804307216742,,errorv,,0,,1402415804,241367101,/enu,/base_link,,,11.8202037054,17.2126619773,-25.6081228505,,-0.0143254102172,0.0137273801284,0.801561530354,0.59758301073
1402415804307308880,,errorv,,0,,1402415804,251349925,/enu,/base_link,,,11.8204369279,17.2125221756,-25.6076326923,,-0.0144203103978,0.0138437920038,0.801670714237,0.597431560939
1402415804307332337,,errorv,,0,,1402415804,261344909,/enu,/base_link,,,11.820566273,17.2126442387,-25.6076673916,,-0.0145381578416,0.0139271184817,0.80176335636,0.597302434061
1402415804317738541,,errorv,,0,,1402415804,317433496,base_link,/z_drive,,,0.0,0.0,0.0,,0.0,0.0,0.0,1.0
1402415804317779458,,errorv,,0,,1402415804,317451159,/z_drive,port,,,-0.3,0.3048,0.0,,0.0,0.0,0.0,1.0
1402415804317809026,,errorv,,0,,1402415804,317473119,/z_drive,starboard,,,-0.3,-0.3048,0.0,,0.0,0.0,0.0,1.0
1402415804337653038,,errorv,,0,,1402415804,337402932,base_link,/z_drive,,,0.0,0.0,0.0,,0.0,0.0,0.0,1.0
1402415804337675199,,errorv,,0,,1402415804,337430438,/z_drive,port,,,-0.3,0.3048,0.0,,0.0,0.0,0.0,1.0
1402415804337690120,,errorv,,0,,1402415804,337458016,/z_drive,starboard,,,-0.3,-0.3048,0.0,,0.0,0.0,0.0,1.0
1402415804347238782,,errorv,,0,,1402415804,272346973,/enu,/base_link,,,11.814699855,17.195526029,-25.5657060737,,-0.0148031399711,0.0132629970039,0.801871146337,0.597166329116
1402415804347259546,,errorv,,0,,1402415804,282352924,/enu,/base_link,,,11.8147904293,17.1955641478,-25.5657130067,,-0.0148676708789,0.0134016707064,0.801965470828,0.597034949717
1402415804347348459,,errorv,,0,,1402415804,292347908,/enu,/base_link,,,11.8149478641,17.195531373,-25.5655449441,,-0.0149654377383,0.0135009590682,0.802075541738,0.596882388016
1402415804347373898,,errorv,,0,,1402415804,303361892,/enu,/base_link,,,11.8149097275,17.1953060397,-25.5650535606,,-0.0150858330155,0.013575154706,0.802181126366,0.596735765075
1402415804357621426,,errorv,,0,,1402415804,357446953,base_link,/z_drive,,,0.0,0.0,0.0,,0.0,0.0,0.0,1.0
1402415804357658116,,errorv,,0,,1402415804,357492238,/z_drive,port,,,-0.3,0.3048,0.0,,0.0,0.0,0.0,1.0
1402415804357682218,,errorv,,0,,1402415804,357502924,/z_drive,starboard,,,-0.3,-0.3048,0.0,,0.0,0.0,0.0,1.0
1402415804377701362,,errorv,,0,,1402415804,377448590,base_link,/z_drive,,,0.0,0.0,0.0,,0.0,0.0,0.0,1.0
1402415804377730720,,errorv,,0,,1402415804,377474311,/z_drive,port,,,-0.3,0.3048,0.0,,0.0,0.0,0.0,1.0
1402415804377866914,,errorv,,0,,1402415804,377481382,/z_drive,starboard,,,-0.3,-0.3048,0.0,,0.0,0.0,0.0,1.0
1402415804379980665,,errorv,,0,,1402415804,479800906,/base_link,/gps,,,-0.84,0.0,-0.14,,0.0,0.0,0.0,1.0
1402415804380092904,,errorv,,0,,1402415804,479882669,base_link,imu,,,0.13,0.0,-0.1,,1.0,0.0,0.0,0.0
1402415804387218332,,errorv,,0,,1402415804,313353061,/enu,/base_link,,,11.8194461595,17.1983156717,-25.5590091367,,-0.0154717830232,0.0140239744045,0.802332891207,0.596511428021
1402415804387243463,,errorv,,0,,1402415804,323388099,/enu,/base_link,,,11.8195552352,17.1982600749,-25.5586070793,,-0.0155650190897,0.014106140831,0.802441527489,0.596360915832
1402415804387344148,,errorv,,0,,1402415804,333338975,/enu,/base_link,,,11.8195995208,17.1983526816,-25.5584434173,,-0.0156361908544,0.0141969776921,0.802530188282,0.596237580379
1402415804387371468,,errorv,,0,,1402415804,343364000,/enu,/base_link,,,11.8105609741,17.1830307444,-25.5378209392,,-0.0159143959563,0.0131202848026,0.802616712374,0.596138409387
1402415804397609247,,errorv,,0,,1402415804,397457581,base_link,/z_drive,,,0.0,0.0,0.0,,0.0,0.0,0.0,1.0
1402415804397728844,,errorv,,0,,1402415804,397492004,/z_drive,port,,,-0.3,0.3048,0.0,,0.0,0.0,0.0,1.0
1402415804397757049,,errorv,,0,,1402415804,397524302,/z_drive,starboard,,,-0.3,-0.3048,0.0,,0.0,0.0,0.0,1.0
1402415804417583484,,errorv,,0,,1402415804,417435812,base_link,/z_drive,,,0.0,0.0,0.0,,0.0,0.0,0.0,1.0
1402415804417717232,,errorv,,0,,1402415804,417452535,/z_drive,port,,,-0.3,0.3048,0.0,,0.0,0.0,0.0,1.0
1402415804417748986,,errorv,,0,,1402415804,417484828,/z_drive,starboard,,,-0.3,-0.3048,0.0,,0.0,0.0,0.0,1.0
1402415804427362630,,errorv,,0,,1402415804,353334903,/enu,/base_link,,,11.8104931286,17.1829494836,-25.5376196733,,-0.0159748171512,0.0131790843559,0.802721653617,0.595994180985
1402415804427382990,,errorv,,0,,1402415804,364317893,/enu,/base_link,,,11.8103651391,17.182725507,-25.537205743,,-0.016070368988,0.0132374079589,0.802836327875,0.595835837219
1402415804427468646,,errorv,,0,,1402415804,374320030,/enu,/base_link,,,11.8101885631,17.1825700452,-25.5369790177,,-0.0161655232287,0.0132814411751,0.802924946118,0.59571285875
1402415804427487281,,errorv,,0,,1402415804,384304046,/enu,/base_link,,,11.8086851115,17.1688364113,-25.518118993,,-0.0157134300083,0.0126879165289,0.802988021195,0.595652870981
1402415804437759722,,errorv,,0,,1402415804,437490816,base_link,/z_drive,,,0.0,0.0,0.0,,0.0,0.0,0.0,1.0
1402415804437783672,,errorv,,0,,1402415804,437510925,/z_drive,port,,,-0.3,0.3048,0.0,,0.0,0.0,0.0,1.0
1402415804437835459,,errorv,,0,,1402415804,437520587,/z_drive,starboard,,,-0.3,-0.3048,0.0,,0.0,0.0,0.0,1.0
1402415804457620960,,errorv,,0,,1402415804,457438656,base_link,/z_drive,,,0.0,0.0,0.0,,0.0,0.0,0.0,1.0
1402415804457668053,,errorv,,0,,1402415804,457469502,/z_drive,port,,,-0.3,0.3048,0.0,,0.0,0.0,0.0,1.0
1402415804457698924,,errorv,,0,,1402415804,457477632,/z_drive,starboard,,,-0.3,-0.3048,0.0,,0.0,0.0,0.0,1.0
1402415804467129477,,errorv,,0,,1402415804,395304918,/enu,/base_link,,,11.8085605402,17.1685872852,-25.5179095022,,-0.0157877544855,0.0126835431751,0.803089056652,0.595514770285
1402415804467179626,,errorv,,0,,1402415804,405293941,/enu,/base_link,,,11.8084524142,17.1683166544,-25.5177457042,,-0.0158384474094,0.0127234425698,0.803180576104,0.595389133056
1402415804467202931,,errorv,,0,,1402415804,415296077,/enu,/base_link,,,11.8082687738,17.1678957279,-25.517268534,,-0.0159022416369,0.0127245015615,0.803262496532,0.595276883002
1402415804467228099,,errorv,,0,,1402415804,425303936,/enu,/base_link,,,11.8082428631,17.1676259847,-25.5170826523,,-0.0159619606686,0.0127125291613,0.803352203572,0.595154471066
1402415804477602524,,errorv,,0,,1402415804,477451610,base_link,/z_drive,,,0.0,0.0,0.0,,0.0,0.0,0.0,1.0
1402415804477737074,,errorv,,0,,1402415804,477484171,/z_drive,port,,,-0.3,0.3048,0.0,,0.0,0.0,0.0,1.0
1402415804477758159,,errorv,,0,,1402415804,477516434,/z_drive,starboard,,,-0.3,-0.3048,0.0,,0.0,0.0,0.0,1.0
1402415804480046789,,errorv,,0,,1402415804,579865279,/base_link,/gps,,,-0.84,0.0,-0.14,,0.0,0.0,0.0,1.0
1402415804480201853,,errorv,,0,,1402415804,579979294,base_link,imu,,,0.13,0.0,-0.1,,1.0,0.0,0.0,0.0
1402415804497677418,,errorv,,0,,1402415804,497458261,base_link,/z_drive,,,0.0,0.0,0.0,,0.0,0.0,0.0,1.0
1402415804497700170,,errorv,,0,,1402415804,497487925,/z_drive,port,,,-0.3,0.3048,0.0,,0.0,0.0,0.0,1.0
1402415804497714234,,errorv,,0,,1402415804,497494911,/z_drive,starboard,,,-0.3,-0.3048,0.0,,0.0,0.0,0.0,1.0
1402415804507061918,,errorv,,0,,1402415804,436294078,/enu,/base_link,,,11.8120835259,17.1691715037,-25.5311478405,,-0.0157486614973,0.012689659491,0.803448619613,0.5950304764
1402415804507122346,,errorv,,0,,1402415804,446296930,/enu,/base_link,,,11.8119497727,17.1688353693,-25.5308401269,,-0.0158268869559,0.0126367928548,0.803517493601,0.594936516439
1402415804507175009,,errorv,,0,,1402415804,456295013,/enu,/base_link,,,11.8119589426,17.1683341969,-25.5302765396,,-0.0158840335691,0.0125920523467,0.803592542845,0.594834567573
1402415804507188185,,errorv,,0,,1402415804,467791080,/enu,/base_link,,,11.8119775595,17.1681007907,-25.5302024949,,-0.0159577520155,0.0125799562978,0.8036839027,0.594709407518
1402415804507209238,,errorv,,0,,1402415804,477277994,/enu,/base_link,,,11.8119560156,17.1677011011,-25.5298279543,,-0.0159811005432,0.0125492691993,0.803740984697,0.59463228115
1402415804517625585,,errorv,,0,,1402415804,517442331,base_link,/z_drive,,,0.0,0.0,0.0,,0.0,0.0,0.0,1.0
1402415804517651277,,errorv,,0,,1402415804,517467709,/z_drive,port,,,-0.3,0.3048,0.0,,0.0,0.0,0.0,1.0
1402415804517807397,,errorv,,0,,1402415804,517484784,/z_drive,starboard,,,-0.3,-0.3048,0.0,,0.0,0.0,0.0,1.0
1402415804537691310,,errorv,,0,,1402415804,537478497,base_link,/z_drive,,,0.0,0.0,0.0,,0.0,0.0,0.0,1.0
1402415804537715130,,errorv,,0,,1402415804,537497652,/z_drive,port,,,-0.3,0.3048,0.0,,0.0,0.0,0.0,1.0
1402415804537729662,,errorv,,0,,1402415804,537503886,/z_drive,starboard,,,-0.3,-0.3048,0.0,,0.0,0.0,0.0,1.0
1402415804547019199,,errorv,,0,,1402415804,487873077,/enu,/base_link,,,11.8170437744,17.1786294729,-25.5291274781,,-0.0166525524107,0.0135441332171,0.803795101727,0.594518867147
1402415804547119896,,errorv,,0,,1402415804,497251987,/enu,/base_link,,,11.8168967473,17.178350149,-25.5285805292,,-0.0167032614569,0.0134772326291,0.803858303304,0.594433506345
1402415804547147775,,errorv,,0,,1402415804,507250070,/enu,/base_link,,,11.8168969243,17.1782245856,-25.5282477745,,-0.0167510906355,0.0134068807485,0.803942395636,0.594320015657
1402415804555302421,,errorv,,0,,1402415804,518256902,/enu,/base_link,,,11.8169128607,17.1781867836,-25.528046336,,-0.0168172365211,0.0132662385034,0.804022293886,0.594213209552
1402415804555667769,,errorv,,0,,1402415804,528242111,/enu,/base_link,,,11.8169326136,17.1780822654,-25.5278459401,,-0.0168532102693,0.013140559016,0.804089711321,0.594123750712
1402415804557757139,,errorv,,0,,1402415804,557523013,base_link,/z_drive,,,0.0,0.0,0.0,,0.0,0.0,0.0,1.0
1402415804557872934,,errorv,,0,,1402415804,557539761,/z_drive,port,,,-0.3,0.3048,0.0,,0.0,0.0,0.0,1.0
1402415804557895395,,errorv,,0,,1402415804,557674674,/z_drive,starboard,,,-0.3,-0.3048,0.0,,0.0,0.0,0.0,1.0
1402415804577706309,,errorv,,0,,1402415804,577472128,base_link,/z_drive,,,0.0,0.0,0.0,,0.0,0.0,0.0,1.0
1402415804577780776,,errorv,,0,,1402415804,577490416,/z_drive,port,,,-0.3,0.3048,0.0,,0.0,0.0,0.0,1.0
1402415804578797811,,errorv,,0,,1402415804,577498593,/z_drive,starboard,,,-0.3,-0.3048,0.0,,0.0,0.0,0.0,1.0
1402415804580144770,,errorv,,0,,1402415804,679964381,/base_link,/gps,,,-0.84,0.0,-0.14,,0.0,0.0,0.0,1.0
1402415804580290578,,errorv,,0,,1402415804,680081767,base_link,imu,,,0.13,0.0,-0.1,,1.0,0.0,0.0,0.0
1402415804595127920,,errorv,,0,,1402415804,538252115,/enu,/base_link,,,11.8189394205,17.1722680607,-25.513475814,,-0.0167437852779,0.0129198877001,0.80415536398,0.594042820626
1402415804595151281,,errorv,,0,,1402415804,548240900,/enu,/base_link,,,11.8189489049,17.1721940498,-25.5131717553,,-0.0167740449115,0.0127906851026,0.804225903366,0.593949262267
1402415804597776792,,errorv,,0,,1402415804,597537821,base_link,/z_drive,,,0.0,0.0,0.0,,0.0,0.0,0.0,1.0
1402415804597813474,,errorv,,0,,1402415804,597556740,/z_drive,port,,,-0.3,0.3048,0.0,,0.0,0.0,0.0,1.0
1402415804597840332,,errorv,,0,,1402415804,597561428,/z_drive,starboard,,,-0.3,-0.3048,0.0,,0.0,0.0,0.0,1.0
1402415804617699851,,errorv,,0,,1402415804,617493226,base_link,/z_drive,,,0.0,0.0,0.0,,0.0,0.0,0.0,1.0
1402415804617730426,,errorv,,0,,1402415804,617511328,/z_drive,port,,,-0.3,0.3048,0.0,,0.0,0.0,0.0,1.0
1402415804617748765,,errorv,,0,,1402415804,617518916,/z_drive,starboard,,,-0.3,-0.3048,0.0,,0.0,0.0,0.0,1.0
1402415804635223531,,errorv,,0,,1402415804,558238983,/enu,/base_link,,,11.8190352602,17.1721146383,-25.5129208773,,-0.0168129941964,0.012639517492,0.804308797179,0.593839140344
1402415804635283828,,errorv,,0,,1402415804,569238901,/enu,/base_link,,,11.8191071542,17.1717636877,-25.5122449328,,-0.0168568064055,0.0124453094768,0.804385297136,0.593738373445
1402415804635346747,,errorv,,0,,1402415804,579224109,/enu,/base_link,,,11.8224146007,17.1724948829,-25.5196150559,,-0.0169502928501,0.0121717434056,0.804475475634,0.593619192192
1402415804635362717,,errorv,,0,,1402415804,589231014,/enu,/base_link,,,11.8224749073,17.1723971281,-25.5193551858,,-0.0169687997617,0.0120118496561,0.804551157472,0.59351934283
1402415804637718378,,errorv,,0,,1402415804,637568507,base_link,/z_drive,,,0.0,0.0,0.0,,0.0,0.0,0.0,1.0
1402415804637741095,,errorv,,0,,1402415804,637582474,/z_drive,port,,,-0.3,0.3048,0.0,,0.0,0.0,0.0,1.0
1402415804637803871,,errorv,,0,,1402415804,637586707,/z_drive,starboard,,,-0.3,-0.3048,0.0,,0.0,0.0,0.0,1.0
1402415804657638811,,errorv,,0,,1402415804,657477071,base_link,/z_drive,,,0.0,0.0,0.0,,0.0,0.0,0.0,1.0
1402415804657748169,,errorv,,0,,1402415804,657489824,/z_drive,port,,,-0.3,0.3048,0.0,,0.0,0.0,0.0,1.0
1402415804657777668,,errorv,,0,,1402415804,657494078,/z_drive,starboard,,,-0.3,-0.3048,0.0,,0.0,0.0,0.0,1.0
1402415804675205496,,errorv,,0,,1402415804,599215030,/enu,/base_link,,,11.8224907742,17.1722035325,-25.5189485875,,-0.0169951784218,0.0118239214939,0.804611510073,0.593440541798
1402415804675323634,,errorv,,0,,1402415804,609203100,/enu,/base_link,,,11.8224063503,17.1720107364,-25.5185465606,,-0.017017679523,0.0116616363467,0.804682277579,0.593347147101
1402415804675415132,,errorv,,0,,1402415804,620230913,/enu,/base_link,,,11.822537631,17.171995027,-25.5184401095,,-0.0170246815152,0.0114368963776,0.804764113442,0.593240321739
1402415804675444354,,errorv,,0,,1402415804,630232095,/enu,/base_link,,,11.8248142308,17.1759135939,-25.5437234154,,-0.0171960540926,0.0108858261171,0.804855449237,0.59312182589
1402415804677716763,,errorv,,0,,1402415804,677549948,base_link,/z_drive,,,0.0,0.0,0.0,,0.0,0.0,0.0,1.0
1402415804677838655,,errorv,,0,,1402415804,677582499,/z_drive,port,,,-0.3,0.3048,0.0,,0.0,0.0,0.0,1.0
1402415804677864061,,errorv,,0,,1402415804,677587553,/z_drive,starboard,,,-0.3,-0.3048,0.0,,0.0,0.0,0.0,1.0
1402415804680233287,,errorv,,0,,1402415804,780059664,/base_link,/gps,,,-0.84,0.0,-0.14,,0.0,0.0,0.0,1.0
1402415804680366476,,errorv,,0,,1402415804,780185290,base_link,imu,,,0.13,0.0,-0.1,,1.0,0.0,0.0,0.0
1402415804697787120,,errorv,,0,,1402415804,697602789,base_link,/z_drive,,,0.0,0.0,0.0,,0.0,0.0,0.0,1.0
1402415804697811380,,errorv,,0,,1402415804,697623370,/z_drive,port,,,-0.3,0.3048,0.0,,0.0,0.0,0.0,1.0
1402415804697880974,,errorv,,0,,1402415804,697633047,/z_drive,starboard,,,-0.3,-0.3048,0.0,,0.0,0.0,0.0,1.0
1402415804715356059,,errorv,,0,,1402415804,640207052,/enu,/base_link,,,11.824664599,17.17569338,-25.543402484,,-0.0172115310556,0.0107220243745,0.804910611406,0.593049499652
1402415804715419259,,errorv,,0,,1402415804,650228977,/enu,/base_link,,,11.8247063141,17.1756035334,-25.5431443067,,-0.0172196480247,0.0105433286183,0.80497279318,0.592968063376
1402415804715476169,,errorv,,0,,1402415804,660170078,/enu,/base_link,,,11.8246646477,17.1752983757,-25.5426528423,,-0.0172196712854,0.0103955122796,0.80504747561,0.592869275861
1402415804715533550,,errorv,,0,,1402415804,671199083,/enu,/base_link,,,11.8247329164,17.1753045925,-25.5426493582,,-0.0172255553327,0.0101835755423,0.805129175823,0.592761828454
1402415804717736560,,errorv,,0,,1402415804,717515985,base_link,/z_drive,,,0.0,0.0,0.0,,0.0,0.0,0.0,1.0
1402415804717760499,,errorv,,0,,1402415804,717532870,/z_drive,port,,,-0.3,0.3048,0.0,,0.0,0.0,0.0,1.0
1402415804717782770,,errorv,,0,,1402415804,717542870,/z_drive,starboard,,,-0.3,-0.3048,0.0,,0.0,0.0,0.0,1.0
1402415804737756724,,errorv,,0,,1402415804,737505602,base_link,/z_drive,,,0.0,0.0,0.0,,0.0,0.0,0.0,1.0
1402415804737789402,,errorv,,0,,1402415804,737529394,/z_drive,port,,,-0.3,0.3048,0.0,,0.0,0.0,0.0,1.0
1402415804737815231,,errorv,,0,,1402415804,737553842,/z_drive,starboard,,,-0.3,-0.3048,0.0,,0.0,0.0,0.0,1.0
1402415804755282042,,errorv,,0,,1402415804,682105064,/enu,/base_link,,,11.8300954597,17.1777269736,-25.5587943521,,-0.0170644130723,0.00988349115289,0.805185795131,0.592694658089
1402415804755340828,,errorv,,0,,1402415804,691171884,/enu,/base_link,,,11.83032214,17.1776265174,-25.5586592037,,-0.0170507579014,0.00974368201441,0.805272188367,0.592579981908
1402415804755452876,,errorv,,0,,1402415804,701173067,/enu,/base_link,,,11.8303605705,17.177180219,-25.5579996244,,-0.0170297687217,0.00958807916599,0.805339750244,0.592491301533
1402415804755523082,,errorv,,0,,1402415804,711154937,/enu,/base_link,,,11.8303051033,17.1769383557,-25.557582059,,-0.0169935151617,0.00943309908326,0.805405266092,0.592405768402
1402415804757718570,,errorv,,0,,1402415804,757506064,base_link,/z_drive,,,0.0,0.0,0.0,,0.0,0.0,0.0,1.0
1402415804757742146,,errorv,,0,,1402415804,757522567,/z_drive,port,,,-0.3,0.3048,0.0,,0.0,0.0,0.0,1.0
1402415804757805134,,errorv,,0,,1402415804,757531222,/z_drive,starboard,,,-0.3,-0.3048,0.0,,0.0,0.0,0.0,1.0
1402415804777732777,,errorv,,0,,1402415804,777501934,base_link,/z_drive,,,0.0,0.0,0.0,,0.0,0.0,0.0,1.0
1402415804777792498,,errorv,,0,,1402415804,777520460,/z_drive,port,,,-0.3,0.3048,0.0,,0.0,0.0,0.0,1.0
1402415804777819161,,errorv,,0,,1402415804,777528970,/z_drive,starboard,,,-0.3,-0.3048,0.0,,0.0,0.0,0.0,1.0
1402415804780352201,,errorv,,0,,1402415804,880153097,/base_link,/gps,,,-0.84,0.0,-0.14,,0.0,0.0,0.0,1.0
1402415804780471542,,errorv,,0,,1402415804,880283427,base_link,imu,,,0.13,0.0,-0.1,,1.0,0.0,0.0,0.0
1402415804795499213,,errorv,,0,,1402415804,722167968,/enu,/base_link,,,11.8303139582,17.1769559203,-25.5576335766,,-0.0169750829861,0.00928525583437,0.805489365216,0.592294279143
1402415804795529210,,errorv,,0,,1402415804,732153892,/enu,/base_link,,,11.8430769217,17.1864852097,-25.562735785,,-0.016817920981,0.0103015844769,0.805544051538,0.592207578408
1402415804795551519,,errorv,,0,,1402415804,742142915,/enu,/base_link,,,11.8432666011,17.1866660504,-25.5627187342,,-0.0167491567737,0.0101980381653,0.80562754084,0.592097737882
1402415804795611631,,errorv,,0,,1402415804,752144098,/enu,/base_link,,,11.8436346814,17.1866379695,-25.5624544503,,-0.0166930992248,0.0100779404552,0.805698741219,0.592004488119
1402415804797755069,,errorv,,0,,1402415804,797528300,base_link,/z_drive,,,0.0,0.0,0.0,,0.0,0.0,0.0,1.0
1402415804797820491,,errorv,,0,,1402415804,797561683,/z_drive,port,,,-0.3,0.3048,0.0,,0.0,0.0,0.0,1.0
1402415804797847548,,errorv,,0,,1402415804,797571095,/z_drive,starboard,,,-0.3,-0.3048,0.0,,0.0,0.0,0.0,1.0
1402415804817711818,,errorv,,0,,1402415804,817492766,base_link,/z_drive,,,0.0,0.0,0.0,,0.0,0.0,0.0,1.0
1402415804817770708,,errorv,,0,,1402415804,817524803,/z_drive,port,,,-0.3,0.3048,0.0,,0.0,0.0,0.0,1.0
1402415804817794905,,errorv,,0,,1402415804,817535060,/z_drive,starboard,,,-0.3,-0.3048,0.0,,0.0,0.0,0.0,1.0
1402415804835202705,,errorv,,0,,1402415804,763149976,/enu,/base_link,,,11.8437654231,17.1866450081,-25.5620583161,,-0.0166400854434,0.00995752843267,0.805779863424,0.591897598309
1402415804835268539,,errorv,,0,,1402415804,773128032,/enu,/base_link,,,11.8440710758,17.186681288,-25.5618208201,,-0.0165550198999,0.00989501594331,0.805869087247,0.591779548645
1402415804835379426,,errorv,,0,,1402415804,783144950,/enu,/base_link,,,11.8464319462,17.1919610033,-25.5647812711,,-0.0170646633982,0.0102070918432,0.806020091028,0.591554076479
1402415804835439581,,errorv,,0,,1402415804,793128013,/enu,/base_link,,,11.846562339,17.1920671609,-25.5643330785,,-0.0169611006754,0.0101370912085,0.806105708071,0.591441584487
1402415804837796088,,errorv,,0,,1402415804,837625502,base_link,/z_drive,,,0.0,0.0,0.0,,0.0,0.0,0.0,1.0
1402415804837818980,,errorv,,0,,1402415804,837644562,/z_drive,port,,,-0.3,0.3048,0.0,,0.0,0.0,0.0,1.0
1402415804837840957,,errorv,,0,,1402415804,837653779,/z_drive,starboard,,,-0.3,-0.3048,0.0,,0.0,0.0,0.0,1.0
1402415804857699935,,errorv,,0,,1402415804,857500064,base_link,/z_drive,,,0.0,0.0,0.0,,0.0,0.0,0.0,1.0
1402415804857727794,,errorv,,0,,1402415804,857516370,/z_drive,port,,,-0.3,0.3048,0.0,,0.0,0.0,0.0,1.0
1402415804857795592,,errorv,,0,,1402415804,857524985,/z_drive,starboard,,,-0.3,-0.3048,0.0,,0.0,0.0,0.0,1.0
1402415804875301845,,errorv,,0,,1402415804,803129911,/enu,/base_link,,,11.8468611347,17.1923341926,-25.5643504367,,-0.0168708629255,0.0100848906801,0.806185965623,0.59133565578
1402415804875325117,,errorv,,0,,1402415804,813123941,/enu,/base_link,,,11.8469752352,17.1925009669,-25.564044429,,-0.0167555255754,0.0100438336467,0.806285664559,0.591203688161
1402415804875374327,,errorv,,0,,1402415804,823112964,/enu,/base_link,,,11.8471671179,17.1925963192,-25.5637146549,,-0.0166685159195,0.00997441329803,0.80637175362,0.591089897241
1402415804876938986,,errorv,,0,,1402415804,833125114,/enu,/base_link,,,11.8551978623,17.186879368,-25.5633892189,,-0.0156538319643,0.00972901287827,0.806396449132,0.591088039703
1402415804877731428,,errorv,,0,,1402415804,877508186,base_link,/z_drive,,,0.0,0.0,0.0,,0.0,0.0,0.0,1.0
1402415804877850111,,errorv,,0,,1402415804,877525452,/z_drive,port,,,-0.3,0.3048,0.0,,0.0,0.0,0.0,1.0
1402415804877879489,,errorv,,0,,1402415804,877534585,/z_drive,starboard,,,-0.3,-0.3048,0.0,,0.0,0.0,0.0,1.0
1402415804880436675,,errorv,,0,,1402415804,980259545,/base_link,/gps,,,-0.84,0.0,-0.14,,0.0,0.0,0.0,1.0
1402415804880562594,,errorv,,0,,1402415804,980387301,base_link,imu,,,0.13,0.0,-0.1,,1.0,0.0,0.0,0.0
1402415804897858200,,errorv,,0,,1402415804,897707823,base_link,/z_drive,,,0.0,0.0,0.0,,0.0,0.0,0.0,1.0
1402415804897911640,,errorv,,0,,1402415804,897724962,/z_drive,port,,,-0.3,0.3048,0.0,,0.0,0.0,0.0,1.0
1402415804897937826,,errorv,,0,,1402415804,897729785,/z_drive,starboard,,,-0.3,-0.3048,0.0,,0.0,0.0,0.0,1.0
1402415804915484354,,errorv,,0,,1402415804,843120098,/enu,/base_link,,,11.8554682755,17.1868794372,-25.5630267572,,-0.0155331551979,0.00970558764891,0.806489124836,0.590965154792
1402415804915508146,,errorv,,0,,1402415804,853115081,/enu,/base_link,,,11.8558077442,17.1869378803,-25.5629004352,,-0.0154380042759,0.00966686305207,0.806588150071,0.590833120218
1402415804915531792,,errorv,,0,,1402415804,863099098,/enu,/base_link,,,11.856062366,17.1869363346,-25.5624718568,,-0.0153382080359,0.00963260332807,0.806660905127,0.590736943544
1402415804915557350,,errorv,,0,,1402415804,873095035,/enu,/base_link,,,11.8564326594,17.1870780552,-25.5624110121,,-0.0152367891409,0.00964525193245,0.806755519707,0.590610142814
1402415804917761657,,errorv,,0,,1402415804,917531531,base_link,/z_drive,,,0.0,0.0,0.0,,0.0,0.0,0.0,1.0
1402415804917785835,,errorv,,0,,1402415804,917551008,/z_drive,port,,,-0.3,0.3048,0.0,,0.0,0.0,0.0,1.0
1402415804917908475,,errorv,,0,,1402415804,917555839,/z_drive,starboard,,,-0.3,-0.3048,0.0,,0.0,0.0,0.0,1.0
1402415804937736822,,errorv,,0,,1402415804,937468387,base_link,/z_drive,,,0.0,0.0,0.0,,0.0,0.0,0.0,1.0
1402415804937786816,,errorv,,0,,1402415804,937494628,/z_drive,port,,,-0.3,0.3048,0.0,,0.0,0.0,0.0,1.0
1402415804937814774,,errorv,,0,,1402415804,937505545,/z_drive,starboard,,,-0.3,-0.3048,0.0,,0.0,0.0,0.0,1.0
1402415804955297182,,errorv,,0,,1402415804,883095026,/enu,/base_link,,,11.8426162513,17.1611650673,-25.5830266724,,-0.0141914217854,0.00643712426177,0.806851172477,0.590549195623
1402415804955326272,,errorv,,0,,1402415804,893074989,/enu,/base_link,,,11.8427523477,17.1605547961,-25.5827666808,,-0.014045886314,0.00648285861927,0.806956629522,0.590408065403
1402415804955349348,,errorv,,0,,1402415804,903069972,/enu,/base_link,,,11.8425709495,17.1599888584,-25.5824956001,,-0.0139335164137,0.00649604603718,0.807053896446,0.59027761836
1402415804955386711,,errorv,,0,,1402415804,914103031,/enu,/base_link,,,11.8427050396,17.159199808,-25.582108391,,-0.0137593366086,0.00657703885642,0.807150840142,0.590148239405
1402415804955408632,,errorv,,0,,1402415804,924076080,/enu,/base_link,,,11.8427858276,17.1587162889,-25.5820001946,,-0.0136454107865,0.00662331438736,0.807234453109,0.590035992279
1402415804957722045,,errorv,,0,,1402415804,957490278,base_link,/z_drive,,,0.0,0.0,0.0,,0.0,0.0,0.0,1.0
1402415804957781964,,errorv,,0,,1402415804,957507115,/z_drive,port,,,-0.3,0.3048,0.0,,0.0,0.0,0.0,1.0
1402415804957899680,,errorv,,0,,1402415804,957513884,/z_drive,starboard,,,-0.3,-0.3048,0.0,,0.0,0.0,0.0,1.0
1402415804977653446,,errorv,,0,,1402415804,977479673,base_link,/z_drive,,,0.0,0.0,0.0,,0.0,0.0,0.0,1.0
1402415804977686300,,errorv,,0,,1402415804,977498156,/z_drive,port,,,-0.3,0.3048,0.0,,0.0,0.0,0.0,1.0
1402415804977709147,,errorv,,0,,1402415804,977505259,/z_drive,starboard,,,-0.3,-0.3048,0.0,,0.0,0.0,0.0,1.0
1402415804980559298,,errorv,,0,,1402415805,80351897,/base_link,/gps,,,-0.84,0.0,-0.14,,0.0,0.0,0.0,1.0
1402415804980698323,,errorv,,0,,1402415805,80497581,base_link,imu,,,0.13,0.0,-0.1,,1.0,0.0,0.0,0.0
1402415804995185272,,errorv,,0,,1402415804,934113025,/enu,/base_link,,,11.7969883864,17.1534692955,-25.6831141717,,-0.0165014686208,0.00191745249585,0.807638765106,0.58944350875
1402415804995236697,,errorv,,0,,1402415804,944062948,/enu,/base_link,,,11.7957283778,17.1521007056,-25.6826434634,,-0.0163956324374,0.0020036071179,0.807732323564,0.589317963637
1402415804995288716,,errorv,,0,,1402415804,954055070,/enu,/base_link,,,11.7948267109,17.1510050751,-25.6826278937,,-0.0162511695831,0.00210607592199,0.807829797627,0.589187985279
1402415804997728415,,errorv,,0,,1402415804,997504446,base_link,/z_drive,,,0.0,0.0,0.0,,0.0,0.0,0.0,1.0
1402415804997753326,,errorv,,0,,1402415804,997517395,/z_drive,port,,,-0.3,0.3048,0.0,,0.0,0.0,0.0,1.0
1402415804997787308,,errorv,,0,,1402415804,997521847,/z_drive,starboard,,,-0.3,-0.3048,0.0,,0.0,0.0,0.0,1.0
1402415805003354505,,errorv,,0,,1402415804,964027881,/enu,/base_link,,,11.7937766972,17.1500867039,-25.6828826954,,-0.0161175910528,0.00221204808478,0.807905458887,0.589087514384
1402415805003386181,,errorv,,0,,1402415804,974026918,/enu,/base_link,,,11.7927739751,17.1491029383,-25.6830984547,,-0.0160047663255,0.00233250983176,0.807986804333,0.588978548741
1402415805017677928,,errorv,,0,,1402415805,17474516,base_link,/z_drive,,,0.0,0.0,0.0,,0.0,0.0,0.0,1.0
1402415805017740278,,errorv,,0,,1402415805,17488522,/z_drive,port,,,-0.3,0.3048,0.0,,0.0,0.0,0.0,1.0
1402415805017769468,,errorv,,0,,1402415805,17492505,/z_drive,starboard,,,-0.3,-0.3048,0.0,,0.0,0.0,0.0,1.0
1402415805037741224,,errorv,,0,,1402415805,37507922,base_link,/z_drive,,,0.0,0.0,0.0,,0.0,0.0,0.0,1.0
1402415805037800641,,errorv,,0,,1402415805,37527801,/z_drive,port,,,-0.3,0.3048,0.0,,0.0,0.0,0.0,1.0
1402415805037814610,,errorv,,0,,1402415805,37535422,/z_drive,starboard,,,-0.3,-0.3048,0.0,,0.0,0.0,0.0,1.0
1402415805043094803,,errorv,,0,,1402415804,984710931,/enu,/base_link,,,11.7833489972,17.1587620936,-25.6083657578,,-0.0195851408002,0.00488116374186,0.807987779932,0.58885341468
1402415805043125459,,errorv,,0,,1402415804,994029998,/enu,/base_link,,,11.7819714103,17.1582013946,-25.6078700763,,-0.019491576284,0.00498121629555,0.808077123471,0.588733070636
1402415805057752969,,errorv,,0,,1402415805,57500014,base_link,/z_drive,,,0.0,0.0,0.0,,0.0,0.0,0.0,1.0
1402415805057777858,,errorv,,0,,1402415805,57517933,/z_drive,port,,,-0.3,0.3048,0.0,,0.0,0.0,0.0,1.0
1402415805057900602,,errorv,,0,,1402415805,57525278,/z_drive,starboard,,,-0.3,-0.3048,0.0,,0.0,0.0,0.0,1.0
1402415805077914231,,errorv,,0,,1402415805,77686497,base_link,/z_drive,,,0.0,0.0,0.0,,0.0,0.0,0.0,1.0
1402415805077955994,,errorv,,0,,1402415805,77715327,/z_drive,port,,,-0.3,0.3048,0.0,,0.0,0.0,0.0,1.0
1402415805077985764,,errorv,,0,,1402415805,77723071,/z_drive,starboard,,,-0.3,-0.3048,0.0,,0.0,0.0,0.0,1.0
1402415805080629389,,errorv,,0,,1402415805,180449311,/base_link,/gps,,,-0.84,0.0,-0.14,,0.0,0.0,0.0,1.0
1402415805080800441,,errorv,,0,,1402415805,180621327,base_link,imu,,,0.13,0.0,-0.1,,1.0,0.0,0.0,0.0
1402415805083162685,,errorv,,0,,1402415805,4017114,/enu,/base_link,,,11.7808155155,17.157966939,-25.6080408457,,-0.0194029023558,0.00510623734561,0.80816722467,0.58861123901
1402415805083210549,,errorv,,0,,1402415805,14029026,/enu,/base_link,,,11.7794563502,17.1576640442,-25.6080089653,,-0.0193375434367,0.00523604976095,0.808265179127,0.588477733995
1402415805083233454,,errorv,,0,,1402415805,24003028,/enu,/base_link,,,11.7779194349,17.1571201277,-25.6077258315,,-0.0192260343964,0.0053681922683,0.808358209715,0.588352400266
1402415805083247929,,errorv,,0,,1402415805,33998966,/enu,/base_link,,,11.7827281333,17.1404295429,-25.6107075603,,-0.0173054041577,0.00417433155571,0.808532117391,0.588182720836
1402415805097886671,,errorv,,0,,1402415805,97677974,base_link,/z_drive,,,0.0,0.0,0.0,,0.0,0.0,0.0,1.0
1402415805097961223,,errorv,,0,,1402415805,97709138,/z_drive,port,,,-0.3,0.3048,0.0,,0.0,0.0,0.0,1.0
1402415805098048010,,errorv,,0,,1402415805,97718641,/z_drive,starboard,,,-0.3,-0.3048,0.0,,0.0,0.0,0.0,1.0
1402415805117729030,,errorv,,0,,1402415805,117492176,base_link,/z_drive,,,0.0,0.0,0.0,,0.0,0.0,0.0,1.0
1402415805117790024,,errorv,,0,,1402415805,117518674,/z_drive,port,,,-0.3,0.3048,0.0,,0.0,0.0,0.0,1.0
1402415805117818827,,errorv,,0,,1402415805,117527885,/z_drive,starboard,,,-0.3,-0.3048,0.0,,0.0,0.0,0.0,1.0
1402415805123260109,,errorv,,0,,1402415805,44002056,/enu,/base_link,,,11.7816465557,17.1397033627,-25.6106086893,,-0.0172245473625,0.00429921487538,0.80863105351,0.588048170662
1402415805123283194,,errorv,,0,,1402415805,53999900,/enu,/base_link,,,11.7802626252,17.1388750291,-25.610516619,,-0.0171574930304,0.00444149929073,0.808728357989,0.587915246019
1402415805123346518,,errorv,,0,,1402415805,63991069,/enu,/base_link,,,11.7789302205,17.1381733555,-25.6106095967,,-0.0171046988818,0.00453637876911,0.808834591428,0.587769899071
1402415805123382425,,errorv,,0,,1402415805,73991060,/enu,/base_link,,,11.777567884,17.1372242222,-25.6101827655,,-0.0170138445625,0.00472180032138,0.808921139003,0.587651958704
1402415805137690494,,errorv,,0,,1402415805,137502737,base_link,/z_drive,,,0.0,0.0,0.0,,0.0,0.0,0.0,1.0
1402415805137723182,,errorv,,0,,1402415805,137525831,/z_drive,port,,,-0.3,0.3048,0.0,,0.0,0.0,0.0,1.0
1402415805137817036,,errorv,,0,,1402415805,137535702,/z_drive,starboard,,,-0.3,-0.3048,0.0,,0.0,0.0,0.0,1.0
1402415805157734118,,errorv,,0,,1402415805,157458382,base_link,/z_drive,,,0.0,0.0,0.0,,0.0,0.0,0.0,1.0
1402415805157803915,,errorv,,0,,1402415805,157478351,/z_drive,port,,,-0.3,0.3048,0.0,,0.0,0.0,0.0,1.0
1402415805157869372,,errorv,,0,,1402415805,157486665,/z_drive,starboard,,,-0.3,-0.3048,0.0,,0.0,0.0,0.0,1.0
1402415805163234040,,errorv,,0,,1402415805,83993911,/enu,/base_link,,,11.7796337139,17.1365267637,-25.6523528194,,-0.0162008025257,0.00383998071575,0.80912469557,0.587401068747
1402415805163355767,,errorv,,0,,1402415805,94001054,/enu,/base_link,,,11.7782742618,17.1355600141,-25.6523745357,,-0.016168300938,0.00396591566702,0.809208245209,0.587286023538
1402415805163383014,,errorv,,0,,1402415805,103993892,/enu,/base_link,,,11.7767566159,17.1345465369,-25.6524105104,,-0.0161269545011,0.00410473648193,0.809283629677,0.587182321953
1402415805163411600,,errorv,,0,,1402415805,114972114,/enu,/base_link,,,11.7753240316,17.1334313597,-25.6525569598,,-0.0160737461073,0.00422625170455,0.809393886819,0.587030927177
1402415805177809490,,errorv,,0,,1402415805,177576621,base_link,/z_drive,,,0.0,0.0,0.0,,0.0,0.0,0.0,1.0
1402415805177942861,,errorv,,0,,1402415805,177597445,/z_drive,port,,,-0.3,0.3048,0.0,,0.0,0.0,0.0,1.0
1402415805178009445,,errorv,,0,,1402415805,177606866,/z_drive,starboard,,,-0.3,-0.3048,0.0,,0.0,0.0,0.0,1.0
1402415805180749076,,errorv,,0,,1402415805,280557906,/base_link,/gps,,,-0.84,0.0,-0.14,,0.0,0.0,0.0,1.0
1402415805180904570,,errorv,,0,,1402415805,280736257,base_link,imu,,,0.13,0.0,-0.1,,1.0,0.0,0.0,0.0
1402415805197725519,,errorv,,0,,1402415805,197476786,base_link,/z_drive,,,0.0,0.0,0.0,,0.0,0.0,0.0,1.0
1402415805197757186,,errorv,,0,,1402415805,197492753,/z_drive,port,,,-0.3,0.3048,0.0,,0.0,0.0,0.0,1.0
1402415805197778362,,errorv,,0,,1402415805,197499116,/z_drive,starboard,,,-0.3,-0.3048,0.0,,0.0,0.0,0.0,1.0
1402415805203170902,,errorv,,0,,1402415805,124978065,/enu,/base_link,,,11.7740208822,17.1323139273,-25.6524920111,,-0.0160356386864,0.00434964684327,0.809482076642,0.586909453374
1402415805203197581,,errorv,,0,,1402415805,134975910,/enu,/base_link,,,11.7282246143,17.0959783449,-25.6973708425,,-0.016737883232,-0.00114384948595,0.80996533491,0.586237742829
1402415805203218706,,errorv,,0,,1402415805,144994020,/enu,/base_link,,,11.7258306894,17.0939690749,-25.6973277402,,-0.016725682369,-0.000996583026653,0.810049978175,0.586121396325
1402415805203290171,,errorv,,0,,1402415805,154962062,/enu,/base_link,,,11.7237225805,17.0920809463,-25.6975513806,,-0.0167114584513,-0.000855704174151,0.810131870515,0.586008828691
1402415805217684596,,errorv,,0,,1402415805,217512487,base_link,/z_drive,,,0.0,0.0,0.0,,0.0,0.0,0.0,1.0
1402415805217795803,,errorv,,0,,1402415805,217529874,/z_drive,port,,,-0.3,0.3048,0.0,,0.0,0.0,0.0,1.0
1402415805217863485,,errorv,,0,,1402415805,217536068,/z_drive,starboard,,,-0.3,-0.3048,0.0,,0.0,0.0,0.0,1.0
1402415805237633552,,errorv,,0,,1402415805,237474434,base_link,/z_drive,,,0.0,0.0,0.0,,0.0,0.0,0.0,1.0
1402415805237749891,,errorv,,0,,1402415805,237488982,/z_drive,port,,,-0.3,0.3048,0.0,,0.0,0.0,0.0,1.0
1402415805237779891,,errorv,,0,,1402415805,237495365,/z_drive,starboard,,,-0.3,-0.3048,0.0,,0.0,0.0,0.0,1.0
1402415805243222145,,errorv,,0,,1402415805,164974927,/enu,/base_link,,,11.7212252124,17.0899450036,-25.6974399143,,-0.0166978091104,-0.00072240308917,0.810238801832,0.585861541074
1402415805243279487,,errorv,,0,,1402415805,174968957,/enu,/base_link,,,11.7188692595,17.0880650573,-25.6977062602,,-0.0167045773843,-0.000609966238222,0.810328798758,0.585736991268
1402415805243302022,,errorv,,0,,1402415805,184952974,/enu,/base_link,,,11.7052169234,17.1272649238,-25.7375281761,,-0.0215049030158,0.0014514307144,0.80973112644,0.586405094938
1402415805243326851,,errorv,,0,,1402415805,195950984,/enu,/base_link,,,11.70202926,17.1258724676,-25.7376957748,,-0.0215113290685,0.00162356024697,0.809839359602,0.586254926131
1402415805257692627,,errorv,,0,,1402415805,257518411,base_link,/z_drive,,,0.0,0.0,0.0,,0.0,0.0,0.0,1.0
1402415805257758820,,errorv,,0,,1402415805,257535363,/z_drive,port,,,-0.3,0.3048,0.0,,0.0,0.0,0.0,1.0
1402415805257784962,,errorv,,0,,1402415805,257541854,/z_drive,starboard,,,-0.3,-0.3048,0.0,,0.0,0.0,0.0,1.0
1402415805277676571,,errorv,,0,,1402415805,277477409,base_link,/z_drive,,,0.0,0.0,0.0,,0.0,0.0,0.0,1.0
1402415805277904996,,errorv,,0,,1402415805,277497634,/z_drive,port,,,-0.3,0.3048,0.0,,0.0,0.0,0.0,1.0
1402415805277933090,,errorv,,0,,1402415805,277504681,/z_drive,starboard,,,-0.3,-0.3048,0.0,,0.0,0.0,0.0,1.0
1402415805280842148,,errorv,,0,,1402415805,380657689,/base_link,/gps,,,-0.84,0.0,-0.14,,0.0,0.0,0.0,1.0
1402415805281011595,,errorv,,0,,1402415805,380838320,base_link,imu,,,0.13,0.0,-0.1,,1.0,0.0,0.0,0.0
1402415805283032871,,errorv,,0,,1402415805,205952882,/enu,/base_link,,,11.6993464017,17.1246880159,-25.7379046392,,-0.0215362697745,0.00173345128211,0.809925372545,0.58613486088
1402415805283072862,,errorv,,0,,1402415805,215951919,/enu,/base_link,,,11.6962598348,17.1234824122,-25.7382045553,,-0.0216084476903,0.00181002339096,0.810010263279,0.586014651853
1402415805283095725,,errorv,,0,,1402415805,225953102,/enu,/base_link,,,11.6934638161,17.1221965594,-25.7383524361,,-0.0216381809407,0.00190945468815,0.810123418891,0.585856799288
1402415805283136710,,errorv,,0,,1402415805,235932111,/enu,/base_link,,,11.6905706765,17.121060339,-25.7387036835,,-0.0216786137288,0.00201132622396,0.810226330102,0.585712631145
1402415805297866233,,errorv,,0,,1402415805,297678786,base_link,/z_drive,,,0.0,0.0,0.0,,0.0,0.0,0.0,1.0
1402415805297891176,,errorv,,0,,1402415805,297697292,/z_drive,port,,,-0.3,0.3048,0.0,,0.0,0.0,0.0,1.0
1402415805297959921,,errorv,,0,,1402415805,297704622,/z_drive,starboard,,,-0.3,-0.3048,0.0,,0.0,0.0,0.0,1.0
1402415805317674554,,errorv,,0,,1402415805,317436532,base_link,/z_drive,,,0.0,0.0,0.0,,0.0,0.0,0.0,1.0
1402415805317738272,,errorv,,0,,1402415805,317493418,/z_drive,port,,,-0.3,0.3048,0.0,,0.0,0.0,0.0,1.0
1402415805317782137,,errorv,,0,,1402415805,317502012,/z_drive,starboard,,,-0.3,-0.3048,0.0,,0.0,0.0,0.0,1.0
1402415805323234842,,errorv,,0,,1402415805,246938943,/enu,/base_link,,,11.6871790289,17.119647184,-25.7387785735,,-0.0217275484541,0.00211762959291,0.810334750694,0.585560433346
1402415805323333219,,errorv,,0,,1402415805,256923913,/enu,/base_link,,,11.6842442416,17.1184533721,-25.7390838585,,-0.0217617775428,0.00223270277187,0.810423362473,0.585436088429
1402415805323353434,,errorv,,0,,1402415805,266922950,/enu,/base_link,,,11.688610456,17.1567667724,-25.9356808962,,-0.0217406409433,0.000676055517568,0.810745813614,0.584994113806
1402415805323378007,,errorv,,0,,1402415805,276921033,/enu,/base_link,,,11.6854921842,17.1554376203,-25.936468244,,-0.0217818569036,0.000787738277311,0.8108440881,0.584856217349
1402415805337696616,,errorv,,0,,1402415805,337528885,base_link,/z_drive,,,0.0,0.0,0.0,,0.0,0.0,0.0,1.0
1402415805337906837,,errorv,,0,,1402415805,337548858,/z_drive,port,,,-0.3,0.3048,0.0,,0.0,0.0,0.0,1.0
1402415805337930917,,errorv,,0,,1402415805,337558653,/z_drive,starboard,,,-0.3,-0.3048,0.0,,0.0,0.0,0.0,1.0
1402415805357710326,,errorv,,0,,1402415805,357484886,base_link,/z_drive,,,0.0,0.0,0.0,,0.0,0.0,0.0,1.0
1402415805357770780,,errorv,,0,,1402415805,357500640,/z_drive,port,,,-0.3,0.3048,0.0,,0.0,0.0,0.0,1.0
1402415805357811699,,errorv,,0,,1402415805,357506884,/z_drive,starboard,,,-0.3,-0.3048,0.0,,0.0,0.0,0.0,1.0
1402415805363116267,,errorv,,0,,1402415805,286921024,/enu,/base_link,,,11.6822914181,17.1537166697,-25.9365820954,,-0.0218206585107,0.000873385609087,0.810965684664,0.584686030581
1402415805363178036,,errorv,,0,,1402415805,296921968,/enu,/base_link,,,11.6789977345,17.1525555087,-25.9376546459,,-0.0218677142603,0.00094328196562,0.811071154183,0.584537848342
1402415805363203405,,errorv,,0,,1402415805,306895971,/enu,/base_link,,,11.6416796206,17.1850251948,-26.0289602841,,-0.0273700177521,0.000188723369027,0.810322417904,0.585344706608
1402415805363266816,,errorv,,0,,1402415805,317904949,/enu,/base_link,,,11.6372458828,17.1839001275,-26.029929113,,-0.0274205582056,0.000271095015031,0.810444954139,0.585172637608
1402415805377690067,,errorv,,0,,1402415805,377529849,base_link,/z_drive,,,0.0,0.0,0.0,,0.0,0.0,0.0,1.0
1402415805377762924,,errorv,,0,,1402415805,377549256,/z_drive,port,,,-0.3,0.3048,0.0,,0.0,0.0,0.0,1.0
1402415805377787655,,errorv,,0,,1402415805,377559454,/z_drive,starboard,,,-0.3,-0.3048,0.0,,0.0,0.0,0.0,1.0
1402415805381002343,,errorv,,0,,1402415805,480761550,/base_link,/gps,,,-0.84,0.0,-0.14,,0.0,0.0,0.0,1.0
1402415805381135010,,errorv,,0,,1402415805,480939687,base_link,imu,,,0.13,0.0,-0.1,,1.0,0.0,0.0,0.0
1402415805397740477,,errorv,,0,,1402415805,397508247,base_link,/z_drive,,,0.0,0.0,0.0,,0.0,0.0,0.0,1.0
1402415805397989056,,errorv,,0,,1402415805,397541355,/z_drive,port,,,-0.3,0.3048,0.0,,0.0,0.0,0.0,1.0
1402415805398013973,,errorv,,0,,1402415805,397701733,/z_drive,starboard,,,-0.3,-0.3048,0.0,,0.0,0.0,0.0,1.0
1402415805403187247,,errorv,,0,,1402415805,327893972,/enu,/base_link,,,11.6328805953,17.1828496267,-26.0308288607,,-0.0274663274874,0.000348685400767,0.810545607707,0.585031022339
1402415805403214696,,errorv,,0,,1402415805,337872982,/enu,/base_link,,,11.6284778213,17.1818254673,-26.0316104532,,-0.0275473897911,0.000385725007944,0.810644129872,0.584890662634
1402415805403272914,,errorv,,0,,1402415805,347891092,/enu,/base_link,,,11.6258305116,17.2316413894,-26.1466750741,,-0.0305078758796,0.00164414920602,0.809917442546,0.585747644077
1402415805403337939,,errorv,,0,,1402415805,357902050,/enu,/base_link,,,11.6210880352,17.2310821978,-26.1476939665,,-0.0305470048113,0.00170870833894,0.810018501463,0.585605659212
1402415805417761769,,errorv,,0,,1402415805,417544124,base_link,/z_drive,,,0.0,0.0,0.0,,0.0,0.0,0.0,1.0
1402415805417791311,,errorv,,0,,1402415805,417559085,/z_drive,port,,,-0.3,0.3048,0.0,,0.0,0.0,0.0,1.0
1402415805417813930,,errorv,,0,,1402415805,417563165,/z_drive,starboard,,,-0.3,-0.3048,0.0,,0.0,0.0,0.0,1.0
1402415805437836230,,errorv,,0,,1402415805,437512983,base_link,/z_drive,,,0.0,0.0,0.0,,0.0,0.0,0.0,1.0
1402415805437863710,,errorv,,0,,1402415805,437537628,/z_drive,port,,,-0.3,0.3048,0.0,,0.0,0.0,0.0,1.0
1402415805437930474,,errorv,,0,,1402415805,437547886,/z_drive,starboard,,,-0.3,-0.3048,0.0,,0.0,0.0,0.0,1.0
1402415805443385146,,errorv,,0,,1402415805,368868112,/enu,/base_link,,,11.6159438579,17.2305591402,-26.1488224742,,-0.0306144054141,0.00175658383295,0.810136513325,0.585438726402
1402415805443412038,,errorv,,0,,1402415805,378885030,/enu,/base_link,,,11.6113544208,17.230015639,-26.1498229938,,-0.0306674861735,0.00181473936546,0.810246484724,0.585283560341
1402415805443463127,,errorv,,0,,1402415805,388864040,/enu,/base_link,,,11.5746019416,17.2294422509,-26.0722318602,,-0.0356024020126,0.0027614559765,0.808981150164,0.586748959958
1402415805443490409,,errorv,,0,,1402415805,398847103,/enu,/base_link,,,11.5692731532,17.2295722035,-26.0732788238,,-0.0356207837184,0.00282282115856,0.809087151047,0.586601375261
1402415805457883659,,errorv,,0,,1402415805,457693561,base_link,/z_drive,,,0.0,0.0,0.0,,0.0,0.0,0.0,1.0
1402415805457912521,,errorv,,0,,1402415805,457717635,/z_drive,port,,,-0.3,0.3048,0.0,,0.0,0.0,0.0,1.0
1402415805457936417,,errorv,,0,,1402415805,457728219,/z_drive,starboard,,,-0.3,-0.3048,0.0,,0.0,0.0,0.0,1.0
1402415805477689078,,errorv,,0,,1402415805,477442230,base_link,/z_drive,,,0.0,0.0,0.0,,0.0,0.0,0.0,1.0
1402415805477973175,,errorv,,0,,1402415805,477463881,/z_drive,port,,,-0.3,0.3048,0.0,,0.0,0.0,0.0,1.0
1402415805477999224,,errorv,,0,,1402415805,477515423,/z_drive,starboard,,,-0.3,-0.3048,0.0,,0.0,0.0,0.0,1.0
1402415805481063398,,errorv,,0,,1402415805,580856414,/base_link,/gps,,,-0.84,0.0,-0.14,,0.0,0.0,0.0,1.0
1402415805481235947,,errorv,,0,,1402415805,581041859,base_link,imu,,,0.13,0.0,-0.1,,1.0,0.0,0.0,0.0
1402415805483435125,,errorv,,0,,1402415805,408854007,/enu,/base_link,,,11.5638060363,17.2295863655,-26.0740944481,,-0.0356632199034,0.00287088667559,0.809190055631,0.586456602507
1402415805483469162,,errorv,,0,,1402415805,418853998,/enu,/base_link,,,11.5581206687,17.2295082593,-26.0746484818,,-0.0356959586996,0.00290956269728,0.809309987096,0.586288902985
1402415805483489399,,errorv,,0,,1402415805,428826093,/enu,/base_link,,,11.5880797305,17.1891989809,-25.9390259453,,-0.0311396016533,0.00457226094341,0.810171617966,0.585347220956
1402415805483526963,,errorv,,0,,1402415805,439847946,/enu,/base_link,,,11.5829979961,17.1891795215,-25.9397624078,,-0.0312011195366,0.00460475315241,0.810274499351,0.58520126631
1402415805497773497,,errorv,,0,,1402415805,497610452,base_link,/z_drive,,,0.0,0.0,0.0,,0.0,0.0,0.0,1.0
1402415805497802908,,errorv,,0,,1402415805,497641132,/z_drive,port,,,-0.3,0.3048,0.0,,0.0,0.0,0.0,1.0
1402415805497823980,,errorv,,0,,1402415805,497650830,/z_drive,starboard,,,-0.3,-0.3048,0.0,,0.0,0.0,0.0,1.0
1402415805517726604,,errorv,,0,,1402415805,517471602,base_link,/z_drive,,,0.0,0.0,0.0,,0.0,0.0,0.0,1.0
1402415805517756834,,errorv,,0,,1402415805,517484199,/z_drive,port,,,-0.3,0.3048,0.0,,0.0,0.0,0.0,1.0
1402415805517778131,,errorv,,0,,1402415805,517488405,/z_drive,starboard,,,-0.3,-0.3048,0.0,,0.0,0.0,0.0,1.0
1402415805523204764,,errorv,,0,,1402415805,449822902,/enu,/base_link,,,11.5784009403,17.1890884191,-25.940466678,,-0.0312536919776,0.00463926879589,0.810402667066,0.585020684365
