rosbagTimestamp,transforms,-,header,seq,stamp,secs,nsecs,frame_id,child_frame_id,transform,translation,x,y,z,rotation,x,y,z,w
1402416464937715266,,errorv,,0,,1402416464,937486072,base_link,/z_drive,,,0.0,0.0,0.0,,0.0,0.0,0.0,1.0
1402416464937731607,,errorv,,0,,1402416464,937529928,/z_drive,port,,,-0.3,0.3048,0.0,,0.0,0.0,0.0,1.0
1402416464937744926,,errorv,,0,,1402416464,937539336,/z_drive,starboard,,,-0.3,-0.3048,0.0,,0.0,0.0,0.0,1.0
1402416464955100335,,errorv,,0,,1402416464,877207994,/enu,/base_link,,,0.600731038206,29.2543561568,-21.3548668709,,-0.00598309095795,0.00234096306421,0.666381205349,0.745583537688
1402416464955132278,,errorv,,0,,1402416464,887203931,/enu,/base_link,,,0.543256884287,29.2272666184,-21.4819966162,,-0.00421299926999,-0.00612322358589,0.667392825091,0.744668767834
1402416464955229382,,errorv,,0,,1402416464,897206068,/enu,/base_link,,,0.538951872782,29.2153945997,-21.4844424442,,-0.00402601769732,-0.00592445966127,0.665874561877,0.746029329051
1402416464955286329,,errorv,,0,,1402416464,907206058,/enu,/base_link,,,0.534981673488,29.2031704928,-21.486574152,,-0.00380294918935,-0.00594280534232,0.664361418388,0.747378168266
1402416464957843610,,errorv,,0,,1402416464,957489245,base_link,/z_drive,,,0.0,0.0,0.0,,0.0,0.0,0.0,1.0
1402416464957865943,,errorv,,0,,1402416464,957513575,/z_drive,port,,,-0.3,0.3048,0.0,,0.0,0.0,0.0,1.0
1402416464957916184,,errorv,,0,,1402416464,957521620,/z_drive,starboard,,,-0.3,-0.3048,0.0,,0.0,0.0,0.0,1.0
1402416464975543558,,errorv,,0,,1402416465,75353847,base_link,imu,,,0.13,0.0,-0.1,,1.0,0.0,0.0,0.0
1402416464975577667,,errorv,,0,,1402416465,75327709,/base_link,/gps,,,-0.84,0.0,-0.14,,0.0,0.0,0.0,1.0
1402416464977703071,,errorv,,0,,1402416464,977476273,base_link,/z_drive,,,0.0,0.0,0.0,,0.0,0.0,0.0,1.0
1402416464977721653,,errorv,,0,,1402416464,977494282,/z_drive,port,,,-0.3,0.3048,0.0,,0.0,0.0,0.0,1.0
1402416464977742307,,errorv,,0,,1402416464,977503932,/z_drive,starboard,,,-0.3,-0.3048,0.0,,0.0,0.0,0.0,1.0
1402416464995082063,,errorv,,0,,1402416464,917208909,/enu,/base_link,,,0.530767243736,29.1909391356,-21.4886646276,,-0.00365159700462,-0.00584429650223,0.662822219432,0.748745093783
1402416464995114759,,errorv,,0,,1402416464,927205085,/enu,/base_link,,,0.526484446231,29.1784392852,-21.49067504,,-0.00346843015966,-0.00595697369577,0.661281440107,0.750106220096
1402416464995141604,,errorv,,0,,1402416464,937182903,/enu,/base_link,,,0.598206367418,29.2467694584,-21.7693189379,,0.00196515482475,-0.00535539266637,0.665811161398,0.746098489003
1402416464995181198,,errorv,,0,,1402416464,947182893,/enu,/base_link,,,0.594960790903,29.2338807767,-21.7722151236,,0.00216273531419,-0.00537636187368,0.664277842091,0.74746328727
1402416464997707092,,errorv,,0,,1402416464,997510704,base_link,/z_drive,,,0.0,0.0,0.0,,0.0,0.0,0.0,1.0
1402416464997721903,,errorv,,0,,1402416464,997529787,/z_drive,port,,,-0.3,0.3048,0.0,,0.0,0.0,0.0,1.0
1402416464997756253,,errorv,,0,,1402416464,997542076,/z_drive,starboard,,,-0.3,-0.3048,0.0,,0.0,0.0,0.0,1.0
1402416465017800532,,errorv,,0,,1402416465,17504993,base_link,/z_drive,,,0.0,0.0,0.0,,0.0,0.0,0.0,1.0
1402416465017886846,,errorv,,0,,1402416465,17522543,/z_drive,port,,,-0.3,0.3048,0.0,,0.0,0.0,0.0,1.0
1402416465018042395,,errorv,,0,,1402416465,17531652,/z_drive,starboard,,,-0.3,-0.3048,0.0,,0.0,0.0,0.0,1.0
1402416465035018355,,errorv,,0,,1402416464,957181930,/enu,/base_link,,,0.591634308051,29.2209165985,-21.7749197378,,0.00229824850606,-0.00525156652775,0.662719891579,0.748845434257
1402416465035141236,,errorv,,0,,1402416464,967181921,/enu,/base_link,,,0.588210367074,29.2079965789,-21.7781309646,,0.00245338736169,-0.00533343849537,0.66119070116,0.750194902691
1402416465035182914,,errorv,,0,,1402416464,977180957,/enu,/base_link,,,0.584765210988,29.1948768087,-21.7809592938,,0.00249813980246,-0.00526078048326,0.659659098457,0.751542385571
1402416465035208091,,errorv,,0,,1402416464,987140893,/enu,/base_link,,,0.754525996889,29.3620260409,-22.2092216196,,0.00824554628374,0.0028044573112,0.66381179855,0.747848943364
1402416465037687844,,errorv,,0,,1402416465,37480475,base_link,/z_drive,,,0.0,0.0,0.0,,0.0,0.0,0.0,1.0
1402416465037713703,,errorv,,0,,1402416465,37499379,/z_drive,port,,,-0.3,0.3048,0.0,,0.0,0.0,0.0,1.0
1402416465037728476,,errorv,,0,,1402416465,37509136,/z_drive,starboard,,,-0.3,-0.3048,0.0,,0.0,0.0,0.0,1.0
1402416465057738567,,errorv,,0,,1402416465,57475842,base_link,/z_drive,,,0.0,0.0,0.0,,0.0,0.0,0.0,1.0
1402416465057760938,,errorv,,0,,1402416465,57497132,/z_drive,port,,,-0.3,0.3048,0.0,,0.0,0.0,0.0,1.0
1402416465057781482,,errorv,,0,,1402416465,57509305,/z_drive,starboard,,,-0.3,-0.3048,0.0,,0.0,0.0,0.0,1.0
1402416465075266434,,errorv,,0,,1402416464,998174905,/enu,/base_link,,,0.753077508978,29.3481336091,-22.2134927371,,0.00832489148139,0.00272242970134,0.662146038614,0.749323633757
1402416465075306529,,errorv,,0,,1402416465,8160114,/enu,/base_link,,,0.751877418342,29.335468034,-22.2171670184,,0.00835897561292,0.00274838558645,0.660626589722,0.75066309544
1402416465075331729,,errorv,,0,,1402416465,18150091,/enu,/base_link,,,0.750481420491,29.322786527,-22.2209649056,,0.00838538873523,0.00272123072187,0.659108128982,0.751996512272
1402416465075351295,,errorv,,0,,1402416465,28129100,/enu,/base_link,,,0.749345375479,29.3100455249,-22.2247698136,,0.00834343179376,0.00269934793,0.65760191538,0.753314556846
1402416465075634316,,errorv,,0,,1402416465,175425141,/base_link,/gps,,,-0.84,0.0,-0.14,,0.0,0.0,0.0,1.0
1402416465075658577,,errorv,,0,,1402416465,175452476,base_link,imu,,,0.13,0.0,-0.1,,1.0,0.0,0.0,0.0
1402416465077920932,,errorv,,0,,1402416465,77667254,base_link,/z_drive,,,0.0,0.0,0.0,,0.0,0.0,0.0,1.0
1402416465077945049,,errorv,,0,,1402416465,77691896,/z_drive,port,,,-0.3,0.3048,0.0,,0.0,0.0,0.0,1.0
1402416465077967952,,errorv,,0,,1402416465,77700552,/z_drive,starboard,,,-0.3,-0.3048,0.0,,0.0,0.0,0.0,1.0
1402416465097757675,,errorv,,0,,1402416465,97489730,base_link,/z_drive,,,0.0,0.0,0.0,,0.0,0.0,0.0,1.0
1402416465097789784,,errorv,,0,,1402416465,97513073,/z_drive,port,,,-0.3,0.3048,0.0,,0.0,0.0,0.0,1.0
1402416465097814757,,errorv,,0,,1402416465,97520819,/z_drive,starboard,,,-0.3,-0.3048,0.0,,0.0,0.0,0.0,1.0
1402416465115198057,,errorv,,0,,1402416465,38151979,/enu,/base_link,,,0.956094682039,29.4869924359,-22.5954246249,,0.0138144779603,0.0155998063021,0.661120364182,0.749990446809
1402416465115228100,,errorv,,0,,1402416465,48145055,/enu,/base_link,,,0.958047293011,29.4753097966,-22.5998948015,,0.0137815226214,0.0156199607845,0.65965698317,0.751278078354
1402416465115250914,,errorv,,0,,1402416465,58147907,/enu,/base_link,,,0.959727025514,29.4635995448,-22.6045591234,,0.0137184115277,0.0155478909805,0.658182128009,0.752573155674
1402416465115289072,,errorv,,0,,1402416465,68145990,/enu,/base_link,,,0.961394501063,29.451646655,-22.6087369834,,0.0135997266857,0.0154754851788,0.656687062083,0.753881727651
1402416465117747825,,errorv,,0,,1402416465,117474507,base_link,/z_drive,,,0.0,0.0,0.0,,0.0,0.0,0.0,1.0
1402416465117772984,,errorv,,0,,1402416465,117490882,/z_drive,port,,,-0.3,0.3048,0.0,,0.0,0.0,0.0,1.0
1402416465117852997,,errorv,,0,,1402416465,117500269,/z_drive,starboard,,,-0.3,-0.3048,0.0,,0.0,0.0,0.0,1.0
1402416465137755242,,errorv,,0,,1402416465,137476232,base_link,/z_drive,,,0.0,0.0,0.0,,0.0,0.0,0.0,1.0
1402416465137781345,,errorv,,0,,1402416465,137496816,/z_drive,port,,,-0.3,0.3048,0.0,,0.0,0.0,0.0,1.0
1402416465137809852,,errorv,,0,,1402416465,137506245,/z_drive,starboard,,,-0.3,-0.3048,0.0,,0.0,0.0,0.0,1.0
1402416465155161799,,errorv,,0,,1402416465,79222917,/enu,/base_link,,,0.963368170668,29.4384074407,-22.6136945894,,0.013505958528,0.0154684919858,0.655074202623,0.755285445311
1402416465155190997,,errorv,,0,,1402416465,89129924,/enu,/base_link,,,1.14022402752,29.5861804036,-22.8714823333,,0.0162952124595,0.0283765621983,0.656696928052,0.753444345294
1402416465155208383,,errorv,,0,,1402416465,99165916,/enu,/base_link,,,1.14467154664,29.5756782667,-22.8766691593,,0.0160391168402,0.0283095443045,0.655284425354,0.754681150103
1402416465155223159,,errorv,,0,,1402416465,109143018,/enu,/base_link,,,1.14906234043,29.5650342849,-22.8815118781,,0.0159036536731,0.028192184355,0.653880972892,0.755904721398
1402416465157747557,,errorv,,0,,1402416465,157480423,base_link,/z_drive,,,0.0,0.0,0.0,,0.0,0.0,0.0,1.0
1402416465157774719,,errorv,,0,,1402416465,157498538,/z_drive,port,,,-0.3,0.3048,0.0,,0.0,0.0,0.0,1.0
1402416465157793574,,errorv,,0,,1402416465,157504370,/z_drive,starboard,,,-0.3,-0.3048,0.0,,0.0,0.0,0.0,1.0
1402416465175792307,,errorv,,0,,1402416465,275554719,base_link,imu,,,0.13,0.0,-0.1,,1.0,0.0,0.0,0.0
1402416465175822564,,errorv,,0,,1402416465,275537510,/base_link,/gps,,,-0.84,0.0,-0.14,,0.0,0.0,0.0,1.0
1402416465177745335,,errorv,,0,,1402416465,177488969,base_link,/z_drive,,,0.0,0.0,0.0,,0.0,0.0,0.0,1.0
1402416465177767637,,errorv,,0,,1402416465,177505782,/z_drive,port,,,-0.3,0.3048,0.0,,0.0,0.0,0.0,1.0
1402416465177789497,,errorv,,0,,1402416465,177514061,/z_drive,starboard,,,-0.3,-0.3048,0.0,,0.0,0.0,0.0,1.0
1402416465195131948,,errorv,,0,,1402416465,120141983,/enu,/base_link,,,1.15425879478,29.5533777084,-22.8870036127,,0.0157190704139,0.0281858084098,0.652322269061,0.757254335291
1402416465195158029,,errorv,,0,,1402416465,130089998,/enu,/base_link,,,1.15860017757,29.5425984023,-22.891778702,,0.015610942368,0.0280700499568,0.650933761222,0.758454750974
1402416465195178860,,errorv,,0,,1402416465,140088081,/enu,/base_link,,,1.254999797,29.621710154,-23.0228756487,,0.0159281319713,0.0354596500066,0.651153384456,0.75794998367
1402416465195204010,,errorv,,0,,1402416465,151089906,/enu,/base_link,,,1.26147431001,29.610879174,-23.0286691792,,0.0157553568304,0.0353288582168,0.649692955127,0.759211897013
1402416465198187616,,errorv,,0,,1402416465,197487407,base_link,/z_drive,,,0.0,0.0,0.0,,0.0,0.0,0.0,1.0
1402416465198214110,,errorv,,0,,1402416465,197519432,/z_drive,port,,,-0.3,0.3048,0.0,,0.0,0.0,0.0,1.0
1402416465198239742,,errorv,,0,,1402416465,197528510,/z_drive,starboard,,,-0.3,-0.3048,0.0,,0.0,0.0,0.0,1.0
1402416465217843687,,errorv,,0,,1402416465,217491976,base_link,/z_drive,,,0.0,0.0,0.0,,0.0,0.0,0.0,1.0
1402416465217886001,,errorv,,0,,1402416465,217523668,/z_drive,port,,,-0.3,0.3048,0.0,,0.0,0.0,0.0,1.0
1402416465217916657,,errorv,,0,,1402416465,217534037,/z_drive,starboard,,,-0.3,-0.3048,0.0,,0.0,0.0,0.0,1.0
1402416465235048469,,errorv,,0,,1402416465,161089897,/enu,/base_link,,,1.26750855724,29.6010797146,-23.033931012,,0.0155883637877,0.0352127070175,0.648384127784,0.760338800152
1402416465235139097,,errorv,,0,,1402416465,171091079,/enu,/base_link,,,1.27361238712,29.5910927788,-23.0389823545,,0.0153165848703,0.0350437752329,0.647095279772,0.761449298997
1402416465236131103,,errorv,,0,,1402416465,181088924,/enu,/base_link,,,1.2795251098,29.5810198704,-23.0440750019,,0.0151253957089,0.0348871278184,0.645818955784,0.762543105055
1402416465236156449,,errorv,,0,,1402416465,192063093,/enu,/base_link,,,1.34694756179,29.6276634584,-22.9961783451,,0.0114426799137,0.0442175637916,0.64740202941,0.760778866981
1402416465237829466,,errorv,,0,,1402416465,237532273,base_link,/z_drive,,,0.0,0.0,0.0,,0.0,0.0,0.0,1.0
1402416465237891266,,errorv,,0,,1402416465,237555683,/z_drive,port,,,-0.3,0.3048,0.0,,0.0,0.0,0.0,1.0
1402416465237915879,,errorv,,0,,1402416465,237563406,/z_drive,starboard,,,-0.3,-0.3048,0.0,,0.0,0.0,0.0,1.0
1402416465257952600,,errorv,,0,,1402416465,257482484,base_link,/z_drive,,,0.0,0.0,0.0,,0.0,0.0,0.0,1.0
1402416465257983396,,errorv,,0,,1402416465,257510453,/z_drive,port,,,-0.3,0.3048,0.0,,0.0,0.0,0.0,1.0
1402416465258006387,,errorv,,0,,1402416465,257520644,/z_drive,starboard,,,-0.3,-0.3048,0.0,,0.0,0.0,0.0,1.0
1402416465275189413,,errorv,,0,,1402416465,202063083,/enu,/base_link,,,1.35427449694,29.6193607863,-23.0012636084,,0.0111988922918,0.0441035477282,0.646181584769,0.76182597842
1402416465275262140,,errorv,,0,,1402416465,212061882,/enu,/base_link,,,1.36179459413,29.6107465751,-23.0059676679,,0.0109422092154,0.0439448111383,0.644991534755,0.762846669866
1402416465275292973,,errorv,,0,,1402416465,222059965,/enu,/base_link,,,1.36934541031,29.602258594,-23.0109625544,,0.0107726901968,0.043840449304,0.643802268376,0.763859020621
1402416465275320365,,errorv,,0,,1402416465,233061075,/enu,/base_link,,,1.37756122374,29.5929042594,-23.016440353,,0.0105448735574,0.0436741700132,0.642555135084,0.764921088016
1402416465275855389,,errorv,,0,,1402416465,375635661,/base_link,/gps,,,-0.84,0.0,-0.14,,0.0,0.0,0.0,1.0
1402416465275882704,,errorv,,0,,1402416465,375659063,base_link,imu,,,0.13,0.0,-0.1,,1.0,0.0,0.0,0.0
1402416465277794885,,errorv,,0,,1402416465,277611951,base_link,/z_drive,,,0.0,0.0,0.0,,0.0,0.0,0.0,1.0
1402416465277816070,,errorv,,0,,1402416465,277631143,/z_drive,port,,,-0.3,0.3048,0.0,,0.0,0.0,0.0,1.0
1402416465277860312,,errorv,,0,,1402416465,277640161,/z_drive,starboard,,,-0.3,-0.3048,0.0,,0.0,0.0,0.0,1.0
1402416465297736798,,errorv,,0,,1402416465,297484889,base_link,/z_drive,,,0.0,0.0,0.0,,0.0,0.0,0.0,1.0
1402416465297757042,,errorv,,0,,1402416465,297498883,/z_drive,port,,,-0.3,0.3048,0.0,,0.0,0.0,0.0,1.0
1402416465297770983,,errorv,,0,,1402416465,297504809,/z_drive,starboard,,,-0.3,-0.3048,0.0,,0.0,0.0,0.0,1.0
1402416465315131166,,errorv,,0,,1402416465,243063926,/enu,/base_link,,,1.38512533686,29.5841906305,-23.021093542,,0.0102602988744,0.0434477735007,0.641403178122,0.765904028152
1402416465317129480,,errorv,,0,,1402416465,253062009,/enu,/base_link,,,1.39280059724,29.5754639757,-23.0258026959,,0.0100139789913,0.0432738443094,0.640288101035,0.766849556495
1402416465317175502,,errorv,,0,,1402416465,263061046,/enu,/base_link,,,1.40047164785,29.5668656187,-23.030539977,,0.00974566920127,0.0431238111886,0.639209218217,0.767760987669
1402416465317206370,,errorv,,0,,1402416465,274061918,/enu,/base_link,,,1.40920491022,29.5573196941,-23.0358771071,,0.00958389215872,0.0429631326729,0.638025605545,0.768755907236
1402416465317250206,,errorv,,0,,1402416465,284063100,/enu,/base_link,,,1.41688474851,29.5487430643,-23.0408391516,,0.00931703203264,0.042753404055,0.636993725161,0.769626099779
1402416465318001528,,errorv,,0,,1402416465,317652702,base_link,/z_drive,,,0.0,0.0,0.0,,0.0,0.0,0.0,1.0
1402416465318022814,,errorv,,0,,1402416465,317673657,/z_drive,port,,,-0.3,0.3048,0.0,,0.0,0.0,0.0,1.0
1402416465318037117,,errorv,,0,,1402416465,317680590,/z_drive,starboard,,,-0.3,-0.3048,0.0,,0.0,0.0,0.0,1.0
1402416465337841612,,errorv,,0,,1402416465,337608775,base_link,/z_drive,,,0.0,0.0,0.0,,0.0,0.0,0.0,1.0
1402416465337871381,,errorv,,0,,1402416465,337630204,/z_drive,port,,,-0.3,0.3048,0.0,,0.0,0.0,0.0,1.0
1402416465337941994,,errorv,,0,,1402416465,337638394,/z_drive,starboard,,,-0.3,-0.3048,0.0,,0.0,0.0,0.0,1.0
1402416465355154428,,errorv,,0,,1402416465,294060945,/enu,/base_link,,,1.42458901588,29.5398920297,-23.0454433624,,0.00912283734631,0.0426409236979,0.635968326255,0.770482195424
1402416465355177655,,errorv,,0,,1402416465,304064035,/enu,/base_link,,,1.4324079896,29.5310497441,-23.0500563633,,0.00893079584772,0.0424898661862,0.634970146105,0.771315607072
1402416465355262053,,errorv,,0,,1402416465,315062046,/enu,/base_link,,,1.44145834723,29.5213971629,-23.055296852,,0.00870132637477,0.0422385728677,0.63391850451,0.772196554979
1402416465357779687,,errorv,,0,,1402416465,357487043,base_link,/z_drive,,,0.0,0.0,0.0,,0.0,0.0,0.0,1.0
1402416465357803968,,errorv,,0,,1402416465,357505665,/z_drive,port,,,-0.3,0.3048,0.0,,0.0,0.0,0.0,1.0
1402416465357825515,,errorv,,0,,1402416465,357515429,/z_drive,starboard,,,-0.3,-0.3048,0.0,,0.0,0.0,0.0,1.0
1402416465363311346,,errorv,,0,,1402416465,325098037,/enu,/base_link,,,1.3359474866,29.4509557429,-22.9640157959,,0.00462710066981,0.0345401589597,0.63112689342,0.774896387758
1402416465363341229,,errorv,,0,,1402416465,335084915,/enu,/base_link,,,1.34204292474,29.4415585063,-22.9684361469,,0.00449739933513,0.034338320402,0.630231775806,0.775634296506
1402416465376006607,,errorv,,0,,1402416465,475774282,base_link,imu,,,0.13,0.0,-0.1,,1.0,0.0,0.0,0.0
1402416465376044493,,errorv,,0,,1402416465,475739169,/base_link,/gps,,,-0.84,0.0,-0.14,,0.0,0.0,0.0,1.0
1402416465377821801,,errorv,,0,,1402416465,377513073,base_link,/z_drive,,,0.0,0.0,0.0,,0.0,0.0,0.0,1.0
1402416465377849976,,errorv,,0,,1402416465,377532387,/z_drive,port,,,-0.3,0.3048,0.0,,0.0,0.0,0.0,1.0
1402416465377870001,,errorv,,0,,1402416465,377541474,/z_drive,starboard,,,-0.3,-0.3048,0.0,,0.0,0.0,0.0,1.0
1402416465397681219,,errorv,,0,,1402416465,397502561,base_link,/z_drive,,,0.0,0.0,0.0,,0.0,0.0,0.0,1.0
1402416465397800203,,errorv,,0,,1402416465,397525043,/z_drive,port,,,-0.3,0.3048,0.0,,0.0,0.0,0.0,1.0
1402416465397823850,,errorv,,0,,1402416465,397560494,/z_drive,starboard,,,-0.3,-0.3048,0.0,,0.0,0.0,0.0,1.0
1402416465403060387,,errorv,,0,,1402416465,344985961,/enu,/base_link,,,1.3483629849,29.432381308,-22.9731426258,,0.00440441228437,0.0342115361178,0.629354239523,0.776352634531
1402416465403088488,,errorv,,0,,1402416465,355087995,/enu,/base_link,,,1.36611392692,29.4725489523,-23.104668052,,0.00338460845961,0.0338001181865,0.629032925478,0.776636127863
1402416465417673850,,errorv,,0,,1402416465,417471343,base_link,/z_drive,,,0.0,0.0,0.0,,0.0,0.0,0.0,1.0
1402416465417696361,,errorv,,0,,1402416465,417491478,/z_drive,port,,,-0.3,0.3048,0.0,,0.0,0.0,0.0,1.0
1402416465417753268,,errorv,,0,,1402416465,417514544,/z_drive,starboard,,,-0.3,-0.3048,0.0,,0.0,0.0,0.0,1.0
1402416465437949189,,errorv,,0,,1402416465,437486377,base_link,/z_drive,,,0.0,0.0,0.0,,0.0,0.0,0.0,1.0
1402416465438004023,,errorv,,0,,1402416465,437503398,/z_drive,port,,,-0.3,0.3048,0.0,,0.0,0.0,0.0,1.0
1402416465438026462,,errorv,,0,,1402416465,437507639,/z_drive,starboard,,,-0.3,-0.3048,0.0,,0.0,0.0,0.0,1.0
1402416465443166554,,errorv,,0,,1402416465,366064071,/enu,/base_link,,,1.3730334033,29.4625924538,-23.1102227793,,0.00331960404492,0.0337403869435,0.628144909822,0.777357407363
1402416465443196316,,errorv,,0,,1402416465,376017093,/enu,/base_link,,,1.37931854295,29.4535083147,-23.1152168534,,0.00327609596603,0.0335681772838,0.627392523716,0.777972406872
1402416465443217169,,errorv,,0,,1402416465,385967016,/enu,/base_link,,,1.3856106361,29.4443001222,-23.1200850762,,0.00322126601366,0.0334175280335,0.626666660494,0.778563927299
1402416465443376111,,errorv,,0,,1402416465,396969079,/enu,/base_link,,,1.3705941802,29.4433432614,-23.1341269202,,0.000985981325482,0.0321097094634,0.627358647917,0.778067555732
1402416465457781802,,errorv,,0,,1402416465,457482346,base_link,/z_drive,,,0.0,0.0,0.0,,0.0,0.0,0.0,1.0
1402416465457808170,,errorv,,0,,1402416465,457500396,/z_drive,port,,,-0.3,0.3048,0.0,,0.0,0.0,0.0,1.0
1402416465457982892,,errorv,,0,,1402416465,457504967,/z_drive,starboard,,,-0.3,-0.3048,0.0,,0.0,0.0,0.0,1.0
1402416465476060282,,errorv,,0,,1402416465,575893639,base_link,imu,,,0.13,0.0,-0.1,,1.0,0.0,0.0,0.0
1402416465476086183,,errorv,,0,,1402416465,575849937,/base_link,/gps,,,-0.84,0.0,-0.14,,0.0,0.0,0.0,1.0
1402416465477646843,,errorv,,0,,1402416465,477427143,base_link,/z_drive,,,0.0,0.0,0.0,,0.0,0.0,0.0,1.0
1402416465477913523,,errorv,,0,,1402416465,477441793,/z_drive,port,,,-0.3,0.3048,0.0,,0.0,0.0,0.0,1.0
1402416465477941502,,errorv,,0,,1402416465,477477092,/z_drive,starboard,,,-0.3,-0.3048,0.0,,0.0,0.0,0.0,1.0
1402416465483402865,,errorv,,0,,1402416465,406982898,/enu,/base_link,,,1.37662194323,29.434163171,-23.1386412226,,0.00088716818093,0.031805235428,0.626695780962,0.778614177919
1402416465483429739,,errorv,,0,,1402416465,416954994,/enu,/base_link,,,1.38277043048,29.4251321644,-23.1435102539,,0.000943829562443,0.0317883847679,0.626071929725,0.779116516697
1402416465483491146,,errorv,,0,,1402416465,426970005,/enu,/base_link,,,1.38908748275,29.4160979529,-23.1485059839,,0.00100722078404,0.0315800550216,0.625453132733,0.779621744429
1402416465483519824,,errorv,,0,,1402416465,437969923,/enu,/base_link,,,1.35303598587,29.3903275505,-23.0885887437,,-0.00189311252232,0.0297076648224,0.627109641552,0.778361977648
1402416465499017158,,errorv,,0,,1402416465,497516201,base_link,/z_drive,,,0.0,0.0,0.0,,0.0,0.0,0.0,1.0
1402416465499040810,,errorv,,0,,1402416465,497535670,/z_drive,port,,,-0.3,0.3048,0.0,,0.0,0.0,0.0,1.0
1402416465499066208,,errorv,,0,,1402416465,497540390,/z_drive,starboard,,,-0.3,-0.3048,0.0,,0.0,0.0,0.0,1.0
1402416465517727754,,errorv,,0,,1402416465,517478374,base_link,/z_drive,,,0.0,0.0,0.0,,0.0,0.0,0.0,1.0
1402416465517748184,,errorv,,0,,1402416465,517492731,/z_drive,port,,,-0.3,0.3048,0.0,,0.0,0.0,0.0,1.0
1402416465517776471,,errorv,,0,,1402416465,517496942,/z_drive,starboard,,,-0.3,-0.3048,0.0,,0.0,0.0,0.0,1.0
1402416465523046347,,errorv,,0,,1402416465,447953939,/enu,/base_link,,,1.35868621861,29.3815822296,-23.093651257,,-0.00182780419458,0.0295905684273,0.626543974494,0.778821998545
1402416465523197993,,errorv,,0,,1402416465,457968950,/enu,/base_link,,,1.36443244722,29.3726207813,-23.0983961801,,-0.00197169640817,0.0292826715262,0.625982719615,0.779284461737
1402416465523214822,,errorv,,0,,1402416465,468941926,/enu,/base_link,,,1.3703617441,29.3627783661,-23.1036947407,,-0.00214692256083,0.0287979675817,0.625410216359,0.779761584756
1402416465523224388,,errorv,,0,,1402416465,478962898,/enu,/base_link,,,1.37622535716,29.3538255039,-23.1084240575,,-0.00209120639572,0.0288333205271,0.62487197481,0.780191823579
1402416465537814733,,errorv,,0,,1402416465,537604930,base_link,/z_drive,,,0.0,0.0,0.0,,0.0,0.0,0.0,1.0
1402416465537842362,,errorv,,0,,1402416465,537625093,/z_drive,port,,,-0.3,0.3048,0.0,,0.0,0.0,0.0,1.0
1402416465537862183,,errorv,,0,,1402416465,537635523,/z_drive,starboard,,,-0.3,-0.3048,0.0,,0.0,0.0,0.0,1.0
1402416465557688804,,errorv,,0,,1402416465,557461873,base_link,/z_drive,,,0.0,0.0,0.0,,0.0,0.0,0.0,1.0
1402416465557711466,,errorv,,0,,1402416465,557476002,/z_drive,port,,,-0.3,0.3048,0.0,,0.0,0.0,0.0,1.0
1402416465557730617,,errorv,,0,,1402416465,557480706,/z_drive,starboard,,,-0.3,-0.3048,0.0,,0.0,0.0,0.0,1.0
1402416465563186606,,errorv,,0,,1402416465,488940954,/enu,/base_link,,,1.34874295602,29.339511419,-23.1066806355,,-0.00380919683137,0.0262195544183,0.625155572381,0.780050341521
1402416465563215629,,errorv,,0,,1402416465,498951911,/enu,/base_link,,,1.35391924744,29.3303334534,-23.1111747545,,-0.00372983533548,0.0262879120156,0.624629562247,0.780469694464
1402416465563238757,,errorv,,0,,1402416465,508924007,/enu,/base_link,,,1.35901127344,29.3214957071,-23.1164328454,,-0.00356344464626,0.0259690036806,0.624141689429,0.780871349344
1402416465563267677,,errorv,,0,,1402416465,518927097,/enu,/base_link,,,1.36427700326,29.312339761,-23.1210346864,,-0.00357492343952,0.0259773046751,0.623681065289,0.781238970075
1402416465576154317,,errorv,,0,,1402416465,675954515,/base_link,/gps,,,-0.84,0.0,-0.14,,0.0,0.0,0.0,1.0
1402416465576184178,,errorv,,0,,1402416465,676006660,base_link,imu,,,0.13,0.0,-0.1,,1.0,0.0,0.0,0.0
1402416465577663809,,errorv,,0,,1402416465,577485930,base_link,/z_drive,,,0.0,0.0,0.0,,0.0,0.0,0.0,1.0
1402416465577736532,,errorv,,0,,1402416465,577504904,/z_drive,port,,,-0.3,0.3048,0.0,,0.0,0.0,0.0,1.0
1402416465577910604,,errorv,,0,,1402416465,577516865,/z_drive,starboard,,,-0.3,-0.3048,0.0,,0.0,0.0,0.0,1.0
1402416465597685433,,errorv,,0,,1402416465,597476190,base_link,/z_drive,,,0.0,0.0,0.0,,0.0,0.0,0.0,1.0
1402416465597910348,,errorv,,0,,1402416465,597498454,/z_drive,port,,,-0.3,0.3048,0.0,,0.0,0.0,0.0,1.0
1402416465597948218,,errorv,,0,,1402416465,597639492,/z_drive,starboard,,,-0.3,-0.3048,0.0,,0.0,0.0,0.0,1.0
1402416465603174963,,errorv,,0,,1402416465,529915094,/enu,/base_link,,,1.37001666538,29.3024644759,-23.1264411418,,-0.00351367570698,0.0256518074449,0.623179683701,0.781649998836
1402416465603279486,,errorv,,0,,1402416465,539899110,/enu,/base_link,,,1.37549523726,29.2936167993,-23.131507376,,-0.00342683779108,0.0256233720904,0.622692178149,0.782039737391
1402416465603346453,,errorv,,0,,1402416465,549912929,/enu,/base_link,,,1.38074356675,29.2844389578,-23.1360898245,,-0.00331230459417,0.0256078573896,0.622251322856,0.782391562763
1402416465603388916,,errorv,,0,,1402416465,559885978,/enu,/base_link,,,1.38609581075,29.2755407982,-23.1409779046,,-0.00322385311723,0.0255719504737,0.621781700805,0.782766375533
1402416465617818459,,errorv,,0,,1402416465,617519009,base_link,/z_drive,,,0.0,0.0,0.0,,0.0,0.0,0.0,1.0
1402416465617839720,,errorv,,0,,1402416465,617533232,/z_drive,port,,,-0.3,0.3048,0.0,,0.0,0.0,0.0,1.0
1402416465617922168,,errorv,,0,,1402416465,617537356,/z_drive,starboard,,,-0.3,-0.3048,0.0,,0.0,0.0,0.0,1.0
1402416465637763235,,errorv,,0,,1402416465,637537585,base_link,/z_drive,,,0.0,0.0,0.0,,0.0,0.0,0.0,1.0
1402416465637788753,,errorv,,0,,1402416465,637559237,/z_drive,port,,,-0.3,0.3048,0.0,,0.0,0.0,0.0,1.0
1402416465637852384,,errorv,,0,,1402416465,637569345,/z_drive,starboard,,,-0.3,-0.3048,0.0,,0.0,0.0,0.0,1.0
1402416465643225385,,errorv,,0,,1402416465,569876909,/enu,/base_link,,,1.39116003095,29.2665045445,-23.1456715551,,-0.00315789763673,0.0253884292871,0.621342465845,0.783121315939
1402416465643255470,,errorv,,0,,1402416465,580885887,/enu,/base_link,,,1.39744668956,29.2566557312,-23.1510751709,,-0.00296749499375,0.0254373073978,0.620840013277,0.783518867214
1402416465643281324,,errorv,,0,,1402416465,590878009,/enu,/base_link,,,1.37079179905,29.2459360804,-23.133970968,,-0.00524526962038,0.0236757423784,0.622940045389,0.781893628456
1402416465643304137,,errorv,,0,,1402416465,600879907,/enu,/base_link,,,1.37561413157,29.2373925314,-23.1390978079,,-0.00520556203083,0.0237649954046,0.622516678945,0.78222829887
1402416465657837215,,errorv,,0,,1402416465,657495746,base_link,/z_drive,,,0.0,0.0,0.0,,0.0,0.0,0.0,1.0
1402416465657865832,,errorv,,0,,1402416465,657513254,/z_drive,port,,,-0.3,0.3048,0.0,,0.0,0.0,0.0,1.0
1402416465657910765,,errorv,,0,,1402416465,657525749,/z_drive,starboard,,,-0.3,-0.3048,0.0,,0.0,0.0,0.0,1.0
1402416465676288600,,errorv,,0,,1402416465,776062241,/base_link,/gps,,,-0.84,0.0,-0.14,,0.0,0.0,0.0,1.0
1402416465676381589,,errorv,,0,,1402416465,776114997,base_link,imu,,,0.13,0.0,-0.1,,1.0,0.0,0.0,0.0
1402416465677713920,,errorv,,0,,1402416465,677478338,base_link,/z_drive,,,0.0,0.0,0.0,,0.0,0.0,0.0,1.0
1402416465677790991,,errorv,,0,,1402416465,677492462,/z_drive,port,,,-0.3,0.3048,0.0,,0.0,0.0,0.0,1.0
1402416465677822052,,errorv,,0,,1402416465,677499918,/z_drive,starboard,,,-0.3,-0.3048,0.0,,0.0,0.0,0.0,1.0
1402416465683037988,,errorv,,0,,1402416465,610876083,/enu,/base_link,,,1.3805597696,29.2284248672,-23.143709949,,-0.00513269481995,0.0235194119588,0.622104117169,0.78256434886
1402416465684013491,,errorv,,0,,1402416465,621859073,/enu,/base_link,,,1.38613233956,29.2188580902,-23.1491365111,,-0.0048541937825,0.0237454020435,0.621660647144,0.78291163772
1402416465684177515,,errorv,,0,,1402416465,631881952,/enu,/base_link,,,1.39147203301,29.2100936649,-23.1538379106,,-0.00481357944359,0.0238723091597,0.621233664805,0.783246880633
1402416465684207014,,errorv,,0,,1402416465,641858100,/enu,/base_link,,,1.3784782925,29.2093962739,-23.1606284559,,-0.00655332121412,0.0227999177006,0.622992413555,0.781868064565
1402416465697736711,,errorv,,0,,1402416465,697469589,base_link,/z_drive,,,0.0,0.0,0.0,,0.0,0.0,0.0,1.0
1402416465697832245,,errorv,,0,,1402416465,697505498,/z_drive,port,,,-0.3,0.3048,0.0,,0.0,0.0,0.0,1.0
1402416465697876947,,errorv,,0,,1402416465,697514891,/z_drive,starboard,,,-0.3,-0.3048,0.0,,0.0,0.0,0.0,1.0
1402416465717699721,,errorv,,0,,1402416465,717472174,base_link,/z_drive,,,0.0,0.0,0.0,,0.0,0.0,0.0,1.0
1402416465717722244,,errorv,,0,,1402416465,717489839,/z_drive,port,,,-0.3,0.3048,0.0,,0.0,0.0,0.0,1.0
1402416465717784809,,errorv,,0,,1402416465,717499692,/z_drive,starboard,,,-0.3,-0.3048,0.0,,0.0,0.0,0.0,1.0
1402416465723217331,,errorv,,0,,1402416465,651859998,/enu,/base_link,,,1.38349922482,29.2008313578,-23.1654150424,,-0.00633510222774,0.0230176893295,0.622602526807,0.782173987084
1402416465723245502,,errorv,,0,,1402416465,662882089,/enu,/base_link,,,1.38893904363,29.1914165804,-23.1707507889,,-0.00630295547989,0.0228694535321,0.622178818055,0.78251567346
1402416465723273450,,errorv,,0,,1402416465,672857999,/enu,/base_link,,,1.39378187798,29.1828864285,-23.1753863285,,-0.00620796079409,0.0230316123072,0.621759382437,0.782844988749
1402416465723308406,,errorv,,0,,1402416465,682846069,/enu,/base_link,,,1.39887797868,29.1745184108,-23.18030954,,-0.00617914516172,0.0229431332362,0.621364226742,0.783161495815
1402416465723332860,,errorv,,0,,1402416465,692843914,/enu,/base_link,,,1.38675313177,29.1432060061,-23.1355579781,,-0.00614318339332,0.0221231665792,0.620845055957,0.783596990354
1402416465737811287,,errorv,,0,,1402416465,737498841,base_link,/z_drive,,,0.0,0.0,0.0,,0.0,0.0,0.0,1.0
1402416465737830244,,errorv,,0,,1402416465,737517166,/z_drive,port,,,-0.3,0.3048,0.0,,0.0,0.0,0.0,1.0
1402416465737844483,,errorv,,0,,1402416465,737521462,/z_drive,starboard,,,-0.3,-0.3048,0.0,,0.0,0.0,0.0,1.0
1402416465757813936,,errorv,,0,,1402416465,757555763,base_link,/z_drive,,,0.0,0.0,0.0,,0.0,0.0,0.0,1.0
1402416465757838917,,errorv,,0,,1402416465,757577892,/z_drive,port,,,-0.3,0.3048,0.0,,0.0,0.0,0.0,1.0
1402416465757922697,,errorv,,0,,1402416465,757589258,/z_drive,starboard,,,-0.3,-0.3048,0.0,,0.0,0.0,0.0,1.0
1402416465763045144,,errorv,,0,,1402416465,702841997,/enu,/base_link,,,1.39166670061,29.1345778266,-23.1401373424,,-0.00613586148978,0.0222017286216,0.62044541272,0.783911298735
1402416465763139870,,errorv,,0,,1402416465,713833093,/enu,/base_link,,,1.39696808501,29.1251067336,-23.1453656132,,-0.00620736388978,0.022182233635,0.620028462453,0.784241112728
1402416465763165241,,errorv,,0,,1402416465,723831892,/enu,/base_link,,,1.40202100403,29.1167146283,-23.1504637998,,-0.00611544410974,0.022332649652,0.619664605974,0.784525098519
1402416465771229562,,errorv,,0,,1402416465,734412908,/enu,/base_link,,,1.38137169636,29.1066420371,-23.1350312195,,-0.00795081170035,0.0211272205118,0.621770971441,0.782873734532
1402416465771254801,,errorv,,0,,1402416465,744817018,/enu,/base_link,,,1.38627586865,29.0979657602,-23.1400795809,,-0.00793338104533,0.0212120356443,0.621399575614,0.783166443635
1402416465776352771,,errorv,,0,,1402416465,876167481,/base_link,/gps,,,-0.84,0.0,-0.14,,0.0,0.0,0.0,1.0
1402416465776500575,,errorv,,0,,1402416465,876322835,base_link,imu,,,0.13,0.0,-0.1,,1.0,0.0,0.0,0.0
1402416465777747342,,errorv,,0,,1402416465,777482543,base_link,/z_drive,,,0.0,0.0,0.0,,0.0,0.0,0.0,1.0
1402416465777813311,,errorv,,0,,1402416465,777500662,/z_drive,port,,,-0.3,0.3048,0.0,,0.0,0.0,0.0,1.0
1402416465777838508,,errorv,,0,,1402416465,777510422,/z_drive,starboard,,,-0.3,-0.3048,0.0,,0.0,0.0,0.0,1.0
1402416465797713418,,errorv,,0,,1402416465,797487345,base_link,/z_drive,,,0.0,0.0,0.0,,0.0,0.0,0.0,1.0
1402416465797734601,,errorv,,0,,1402416465,797505600,/z_drive,port,,,-0.3,0.3048,0.0,,0.0,0.0,0.0,1.0
1402416465797796138,,errorv,,0,,1402416465,797511822,/z_drive,starboard,,,-0.3,-0.3048,0.0,,0.0,0.0,0.0,1.0
1402416465811042081,,errorv,,0,,1402416465,754813909,/enu,/base_link,,,1.39078818596,29.0894622136,-23.144566487,,-0.00797241584957,0.0212737495107,0.62105382826,0.783438581238
1402416465811143653,,errorv,,0,,1402416465,764787912,/enu,/base_link,,,1.39562462591,29.0812060662,-23.1493928376,,-0.00798845268297,0.0213815971649,0.620703040494,0.783713434521
1402416465818543180,,errorv,,0,,1402416465,817856986,base_link,/z_drive,,,0.0,0.0,0.0,,0.0,0.0,0.0,1.0
1402416465818645959,,errorv,,0,,1402416465,817895632,/z_drive,port,,,-0.3,0.3048,0.0,,0.0,0.0,0.0,1.0
1402416465818702078,,errorv,,0,,1402416465,817902198,/z_drive,starboard,,,-0.3,-0.3048,0.0,,0.0,0.0,0.0,1.0
1402416465837733255,,errorv,,0,,1402416465,837499566,base_link,/z_drive,,,0.0,0.0,0.0,,0.0,0.0,0.0,1.0
1402416465837765797,,errorv,,0,,1402416465,837536425,/z_drive,port,,,-0.3,0.3048,0.0,,0.0,0.0,0.0,1.0
1402416465837833885,,errorv,,0,,1402416465,837566784,/z_drive,starboard,,,-0.3,-0.3048,0.0,,0.0,0.0,0.0,1.0
1402416465851118218,,errorv,,0,,1402416465,774785995,/enu,/base_link,,,1.40039810144,29.0727870233,-23.1540091344,,-0.00795529517462,0.0214646975622,0.620347725716,0.783992780092
1402416465851189738,,errorv,,0,,1402416465,785805940,/enu,/base_link,,,1.37598707038,29.0507602862,-23.1325408873,,-0.00922481438438,0.0195698368959,0.621353725619,0.783231429363
1402416465851217014,,errorv,,0,,1402416465,795768022,/enu,/base_link,,,1.38030461321,29.0424718573,-23.1371996433,,-0.00928853618297,0.019637731968,0.621018272172,0.783494982885
1402416465851239264,,errorv,,0,,1402416465,805772066,/enu,/base_link,,,1.38466618438,29.0340772079,-23.1417805026,,-0.00918266369176,0.0197587273736,0.620686886136,0.783755740495
1402416465857777098,,errorv,,0,,1402416465,857515520,base_link,/z_drive,,,0.0,0.0,0.0,,0.0,0.0,0.0,1.0
1402416465857803715,,errorv,,0,,1402416465,857537013,/z_drive,port,,,-0.3,0.3048,0.0,,0.0,0.0,0.0,1.0
1402416465857829029,,errorv,,0,,1402416465,857548783,/z_drive,starboard,,,-0.3,-0.3048,0.0,,0.0,0.0,0.0,1.0
1402416465876496730,,errorv,,0,,1402416465,976263104,/base_link,/gps,,,-0.84,0.0,-0.14,,0.0,0.0,0.0,1.0
1402416465876638731,,errorv,,0,,1402416465,976439318,base_link,imu,,,0.13,0.0,-0.1,,1.0,0.0,0.0,0.0
1402416465877848693,,errorv,,0,,1402416465,877490441,base_link,/z_drive,,,0.0,0.0,0.0,,0.0,0.0,0.0,1.0
1402416465877873338,,errorv,,0,,1402416465,877512177,/z_drive,port,,,-0.3,0.3048,0.0,,0.0,0.0,0.0,1.0
1402416465878021441,,errorv,,0,,1402416465,877524350,/z_drive,starboard,,,-0.3,-0.3048,0.0,,0.0,0.0,0.0,1.0
1402416465891180302,,errorv,,0,,1402416465,816772937,/enu,/base_link,,,1.38932250361,29.024811021,-23.1465592701,,-0.00928697974334,0.0197589254125,0.62031071967,0.784052260972
1402416465891203324,,errorv,,0,,1402416465,826772928,/enu,/base_link,,,1.39363011596,29.016635433,-23.1513064004,,-0.00924545715105,0.0199289847723,0.619955484805,0.784329365731
1402416465891303618,,errorv,,0,,1402416465,837776899,/enu,/base_link,,,1.40530598243,28.9983546472,-23.1456741455,,-0.00843301032345,0.0202220909161,0.618298417542,0.78563796894
1402416465891331834,,errorv,,0,,1402416465,847760915,/enu,/base_link,,,1.40987547093,28.9899740052,-23.1499685661,,-0.00833573525394,0.0203297151919,0.617968108021,0.785896071798
1402416465897814035,,errorv,,0,,1402416465,897545189,base_link,/z_drive,,,0.0,0.0,0.0,,0.0,0.0,0.0,1.0
1402416465897886634,,errorv,,0,,1402416465,897580145,/z_drive,port,,,-0.3,0.3048,0.0,,0.0,0.0,0.0,1.0
1402416465897910859,,errorv,,0,,1402416465,897591033,/z_drive,starboard,,,-0.3,-0.3048,0.0,,0.0,0.0,0.0,1.0
1402416465917855050,,errorv,,0,,1402416465,917651607,base_link,/z_drive,,,0.0,0.0,0.0,,0.0,0.0,0.0,1.0
1402416465917894862,,errorv,,0,,1402416465,917674554,/z_drive,port,,,-0.3,0.3048,0.0,,0.0,0.0,0.0,1.0
1402416465917919543,,errorv,,0,,1402416465,917679400,/z_drive,starboard,,,-0.3,-0.3048,0.0,,0.0,0.0,0.0,1.0
1402416465931026756,,errorv,,0,,1402416465,857744932,/enu,/base_link,,,1.4144266101,28.9817290817,-23.1545475511,,-0.00835478791223,0.0204398610053,0.617637621922,0.786152769879
1402416465931202418,,errorv,,0,,1402416465,868747949,/enu,/base_link,,,1.41932281632,28.9724679769,-23.1594879391,,-0.0084531606237,0.0204424776458,0.617277084033,0.786434772064
1402416465931231287,,errorv,,0,,1402416465,878742933,/enu,/base_link,,,1.42406160805,28.9641413246,-23.1639573547,,-0.0083357911471,0.0205685034929,0.616945759811,0.786692685043
1402416465931252668,,errorv,,0,,1402416465,888741970,/enu,/base_link,,,1.41847235012,28.9384889655,-23.0549752674,,-0.0100951926571,0.0220416578111,0.619148412421,0.784899672444
1402416465937990551,,errorv,,0,,1402416465,937683253,base_link,/z_drive,,,0.0,0.0,0.0,,0.0,0.0,0.0,1.0
1402416465938016204,,errorv,,0,,1402416465,937703232,/z_drive,port,,,-0.3,0.3048,0.0,,0.0,0.0,0.0,1.0
1402416465938123090,,errorv,,0,,1402416465,937708145,/z_drive,starboard,,,-0.3,-0.3048,0.0,,0.0,0.0,0.0,1.0
1402416465957743854,,errorv,,0,,1402416465,957570627,base_link,/z_drive,,,0.0,0.0,0.0,,0.0,0.0,0.0,1.0
1402416465957758495,,errorv,,0,,1402416465,957586263,/z_drive,port,,,-0.3,0.3048,0.0,,0.0,0.0,0.0,1.0
1402416465957771558,,errorv,,0,,1402416465,957590573,/z_drive,starboard,,,-0.3,-0.3048,0.0,,0.0,0.0,0.0,1.0
1402416465971178790,,errorv,,0,,1402416465,898732900,/enu,/base_link,,,1.42297310336,28.9303408327,-23.0588936283,,-0.0100641414879,0.0221779702723,0.61881236586,0.785161197812
1402416465971204084,,errorv,,0,,1402416465,909717082,/enu,/base_link,,,1.4282567812,28.9219327563,-23.0639682551,,-0.0101016039115,0.0222316445325,0.618486204581,0.785416148499
1402416465971228897,,errorv,,0,,1402416465,919737100,/enu,/base_link,,,1.43302732908,28.9140546997,-23.0682313877,,-0.0100080275622,0.0223256163205,0.618183015611,0.785653336689
1402416465971240722,,errorv,,0,,1402416465,929704904,/enu,/base_link,,,1.43775711058,28.9061210168,-23.0723270702,,-0.0100190642726,0.0222873907202,0.617890435907,0.785884406118
1402416465971268419,,errorv,,0,,1402416465,940711975,/enu,/base_link,,,1.51580252641,28.9208338611,-22.9636449694,,-0.0107192824844,0.0324330918514,0.618134605635,0.785329740207
1402416465976600051,,errorv,,0,,1402416466,76377488,/base_link,/gps,,,-0.84,0.0,-0.14,,0.0,0.0,0.0,1.0
1402416465976722510,,errorv,,0,,1402416466,76530106,base_link,imu,,,0.13,0.0,-0.1,,1.0,0.0,0.0,0.0
1402416465977905498,,errorv,,0,,1402416465,977679942,base_link,/z_drive,,,0.0,0.0,0.0,,0.0,0.0,0.0,1.0
1402416465977950438,,errorv,,0,,1402416465,977700607,/z_drive,port,,,-0.3,0.3048,0.0,,0.0,0.0,0.0,1.0
1402416465977981445,,errorv,,0,,1402416465,977709741,/z_drive,starboard,,,-0.3,-0.3048,0.0,,0.0,0.0,0.0,1.0
1402416465997906734,,errorv,,0,,1402416465,997657472,base_link,/z_drive,,,0.0,0.0,0.0,,0.0,0.0,0.0,1.0
1402416465997944519,,errorv,,0,,1402416465,997682036,/z_drive,port,,,-0.3,0.3048,0.0,,0.0,0.0,0.0,1.0
1402416465998022349,,errorv,,0,,1402416465,997692165,/z_drive,starboard,,,-0.3,-0.3048,0.0,,0.0,0.0,0.0,1.0
1402416466011130716,,errorv,,0,,1402416465,950716018,/enu,/base_link,,,1.52236551466,28.9139741487,-22.9673103312,,-0.0105385681563,0.0325051361037,0.617851647544,0.785551841914
1402416466011160633,,errorv,,0,,1402416465,960716962,/enu,/base_link,,,1.52905020604,28.9075381732,-22.9716652347,,-0.0105106055669,0.0325212530157,0.617558225992,0.785782242598
1402416466011182070,,errorv,,0,,1402416465,970707893,/enu,/base_link,,,1.53554552296,28.9009161825,-22.9757966564,,-0.0103924434519,0.0324866864275,0.617277114757,0.78600609153
1402416466017824242,,errorv,,0,,1402416466,17679613,base_link,/z_drive,,,0.0,0.0,0.0,,0.0,0.0,0.0,1.0
1402416466017848788,,errorv,,0,,1402416466,17701010,/z_drive,port,,,-0.3,0.3048,0.0,,0.0,0.0,0.0,1.0
1402416466017909889,,errorv,,0,,1402416466,17711202,/z_drive,starboard,,,-0.3,-0.3048,0.0,,0.0,0.0,0.0,1.0
1402416466019388689,,errorv,,0,,1402416465,981709003,/enu,/base_link,,,1.54268510574,28.8935974899,-22.9800739993,,-0.010406731327,0.0325388446511,0.616977911271,0.786238628239
1402416466019417005,,errorv,,0,,1402416465,991705894,/enu,/base_link,,,1.61094746312,28.9106678535,-22.8990238071,,-0.0109527652524,0.0410120532121,0.616989874143,0.785825390039
1402416466037785196,,errorv,,0,,1402416466,37502945,base_link,/z_drive,,,0.0,0.0,0.0,,0.0,0.0,0.0,1.0
1402416466037833868,,errorv,,0,,1402416466,37524218,/z_drive,port,,,-0.3,0.3048,0.0,,0.0,0.0,0.0,1.0
1402416466037859375,,errorv,,0,,1402416466,37532764,/z_drive,starboard,,,-0.3,-0.3048,0.0,,0.0,0.0,0.0,1.0
1402416466057692764,,errorv,,0,,1402416466,57477252,base_link,/z_drive,,,0.0,0.0,0.0,,0.0,0.0,0.0,1.0
1402416466057724504,,errorv,,0,,1402416466,57499425,/z_drive,port,,,-0.3,0.3048,0.0,,0.0,0.0,0.0,1.0
1402416466057917883,,errorv,,0,,1402416466,57598029,/z_drive,starboard,,,-0.3,-0.3048,0.0,,0.0,0.0,0.0,1.0
1402416466059073452,,errorv,,0,,1402416466,1673936,/enu,/base_link,,,1.6190121208,28.9052679947,-22.9028679011,,-0.0108687206974,0.0410564184281,0.616714288689,0.786040538104
1402416466059098303,,errorv,,0,,1402416466,11673927,/enu,/base_link,,,1.62720405779,28.8997119149,-22.9066262092,,-0.0108005096449,0.0411253494964,0.616440665807,0.786252478635
1402416466076730406,,errorv,,0,,1402416466,176489256,/base_link,/gps,,,-0.84,0.0,-0.14,,0.0,0.0,0.0,1.0
1402416466076838129,,errorv,,0,,1402416466,176635115,base_link,imu,,,0.13,0.0,-0.1,,1.0,0.0,0.0,0.0
1402416466077773712,,errorv,,0,,1402416466,77463955,base_link,/z_drive,,,0.0,0.0,0.0,,0.0,0.0,0.0,1.0
1402416466077802087,,errorv,,0,,1402416466,77482209,/z_drive,port,,,-0.3,0.3048,0.0,,0.0,0.0,0.0,1.0
1402416466077823503,,errorv,,0,,1402416466,77492125,/z_drive,starboard,,,-0.3,-0.3048,0.0,,0.0,0.0,0.0,1.0
1402416466097858848,,errorv,,0,,1402416466,97467888,base_link,/z_drive,,,0.0,0.0,0.0,,0.0,0.0,0.0,1.0
1402416466097886035,,errorv,,0,,1402416466,97485295,/z_drive,port,,,-0.3,0.3048,0.0,,0.0,0.0,0.0,1.0
1402416466097906800,,errorv,,0,,1402416466,97489623,/z_drive,starboard,,,-0.3,-0.3048,0.0,,0.0,0.0,0.0,1.0
1402416466099130781,,errorv,,0,,1402416466,21673917,/enu,/base_link,,,1.63526668934,28.8944163374,-22.9107255106,,-0.0106493373322,0.0410443545315,0.616211502412,0.786438387206
1402416466099159420,,errorv,,0,,1402416466,32665967,/enu,/base_link,,,1.6444790576,28.8885124409,-22.914863477,,-0.0105508167648,0.0410663993831,0.615958899734,0.786636424879
1402416466099184226,,errorv,,0,,1402416466,42670965,/enu,/base_link,,,1.70750390442,28.9089959346,-22.8378133672,,-0.0116391252098,0.0488102805096,0.616597882788,0.785677502683
1402416466099249301,,errorv,,0,,1402416466,52675962,/enu,/base_link,,,1.71701759959,28.9049051828,-22.8417529627,,-0.0115590732615,0.0489004420771,0.616371205447,0.785850922049
1402416466117673890,,errorv,,0,,1402416466,117457064,base_link,/z_drive,,,0.0,0.0,0.0,,0.0,0.0,0.0,1.0
1402416466117700479,,errorv,,0,,1402416466,117471080,/z_drive,port,,,-0.3,0.3048,0.0,,0.0,0.0,0.0,1.0
1402416466117730917,,errorv,,0,,1402416466,117475360,/z_drive,starboard,,,-0.3,-0.3048,0.0,,0.0,0.0,0.0,1.0
1402416466137854426,,errorv,,0,,1402416466,137495791,base_link,/z_drive,,,0.0,0.0,0.0,,0.0,0.0,0.0,1.0
1402416466137882591,,errorv,,0,,1402416466,137517625,/z_drive,port,,,-0.3,0.3048,0.0,,0.0,0.0,0.0,1.0
1402416466137906964,,errorv,,0,,1402416466,137527384,/z_drive,starboard,,,-0.3,-0.3048,0.0,,0.0,0.0,0.0,1.0
1402416466139085131,,errorv,,0,,1402416466,62673091,/enu,/base_link,,,1.72661383874,28.9006214846,-22.845251429,,-0.0113955993542,0.0487815032572,0.616146633669,0.786036787354
1402416466139171182,,errorv,,0,,1402416466,72671890,/enu,/base_link,,,1.73617768337,28.8964260017,-22.8487448312,,-0.0111416226456,0.0488762923049,0.615893338424,0.786233023969
1402416466139208811,,errorv,,0,,1402416466,83646059,/enu,/base_link,,,1.74706424265,28.8920064687,-22.8531120278,,-0.0109328693218,0.0487578204713,0.615650337317,0.786433601439
1402416466139232505,,errorv,,0,,1402416466,93645095,/enu,/base_link,,,1.80737314418,28.9010541418,-22.7729303181,,-0.0111576034613,0.0555068561527,0.614756065322,0.786682576999
1402416466157725740,,errorv,,0,,1402416466,157498567,base_link,/z_drive,,,0.0,0.0,0.0,,0.0,0.0,0.0,1.0
1402416466157754473,,errorv,,0,,1402416466,157523358,/z_drive,port,,,-0.3,0.3048,0.0,,0.0,0.0,0.0,1.0
1402416466157822833,,errorv,,0,,1402416466,157534710,/z_drive,starboard,,,-0.3,-0.3048,0.0,,0.0,0.0,0.0,1.0
1402416466176782085,,errorv,,0,,1402416466,276585874,/base_link,/gps,,,-0.84,0.0,-0.14,,0.0,0.0,0.0,1.0
1402416466176912288,,errorv,,0,,1402416466,276736259,base_link,imu,,,0.13,0.0,-0.1,,1.0,0.0,0.0,0.0
1402416466177599889,,errorv,,0,,1402416466,177462616,base_link,/z_drive,,,0.0,0.0,0.0,,0.0,0.0,0.0,1.0
1402416466177663538,,errorv,,0,,1402416466,177479178,/z_drive,port,,,-0.3,0.3048,0.0,,0.0,0.0,0.0,1.0
1402416466177690027,,errorv,,0,,1402416466,177564582,/z_drive,starboard,,,-0.3,-0.3048,0.0,,0.0,0.0,0.0,1.0
1402416466179154584,,errorv,,0,,1402416466,103643894,/enu,/base_link,,,1.81829424934,28.8979475569,-22.776684129,,-0.0110239154662,0.0554842339103,0.614561699052,0.786837906518
1402416466179184306,,errorv,,0,,1402416466,113632917,/enu,/base_link,,,1.82923054816,28.8947496043,-22.7802561392,,-0.0109539743753,0.0552939609649,0.614390865819,0.78698567479
1402416466179210983,,errorv,,0,,1402416466,124636888,/enu,/base_link,,,1.84145038654,28.8912585579,-22.7839807006,,-0.0108154692122,0.0553592017259,0.61415636708,0.78716601882
1402416466179241806,,errorv,,0,,1402416466,134614944,/enu,/base_link,,,1.76018005528,28.8045965014,-22.7232633216,,-0.00983869858235,0.0444723962986,0.614974846287,0.787230172448
1402416466197990996,,errorv,,0,,1402416466,197617802,base_link,/z_drive,,,0.0,0.0,0.0,,0.0,0.0,0.0,1.0
1402416466198021093,,errorv,,0,,1402416466,197638874,/z_drive,port,,,-0.3,0.3048,0.0,,0.0,0.0,0.0,1.0
1402416466198048954,,errorv,,0,,1402416466,197647640,/z_drive,starboard,,,-0.3,-0.3048,0.0,,0.0,0.0,0.0,1.0
1402416466217723991,,errorv,,0,,1402416466,217493101,base_link,/z_drive,,,0.0,0.0,0.0,,0.0,0.0,0.0,1.0
1402416466217776638,,errorv,,0,,1402416466,217504351,/z_drive,port,,,-0.3,0.3048,0.0,,0.0,0.0,0.0,1.0
1402416466217849918,,errorv,,0,,1402416466,217508475,/z_drive,starboard,,,-0.3,-0.3048,0.0,,0.0,0.0,0.0,1.0
1402416466219372792,,errorv,,0,,1402416466,144608974,/enu,/base_link,,,1.76981049106,28.8001544613,-22.7267277264,,-0.00959988211749,0.0445409853387,0.614745413204,0.787408419966
1402416466219401215,,errorv,,0,,1402416466,154612064,/enu,/base_link,,,1.77936120099,28.7956340613,-22.7301252574,,-0.00945558988274,0.0443982964997,0.614507091383,0.78760422658
1402416466219425818,,errorv,,0,,1402416466,164622068,/enu,/base_link,,,1.78894339665,28.7915045478,-22.7340472815,,-0.00934841974667,0.0444708077586,0.614267063021,0.787788632562
1402416466219474109,,errorv,,0,,1402416466,174608945,/enu,/base_link,,,1.79868126208,28.7871133737,-22.737425064,,-0.00918414884668,0.0445149591908,0.614012684579,0.787986353304
1402416466238076029,,errorv,,0,,1402416466,237582937,base_link,/z_drive,,,0.0,0.0,0.0,,0.0,0.0,0.0,1.0
1402416466238113657,,errorv,,0,,1402416466,237610428,/z_drive,port,,,-0.3,0.3048,0.0,,0.0,0.0,0.0,1.0
1402416466238183700,,errorv,,0,,1402416466,237616995,/z_drive,starboard,,,-0.3,-0.3048,0.0,,0.0,0.0,0.0,1.0
1402416466257929266,,errorv,,0,,1402416466,257546861,base_link,/z_drive,,,0.0,0.0,0.0,,0.0,0.0,0.0,1.0
1402416466257985445,,errorv,,0,,1402416466,257574668,/z_drive,port,,,-0.3,0.3048,0.0,,0.0,0.0,0.0,1.0
1402416466258014579,,errorv,,0,,1402416466,257581830,/z_drive,starboard,,,-0.3,-0.3048,0.0,,0.0,0.0,0.0,1.0
1402416466259201920,,errorv,,0,,1402416466,185589075,/enu,/base_link,,,1.78204324831,28.777180638,-22.807037036,,-0.0084345290349,0.0393188308222,0.614562830769,0.787842252802
1402416466259232559,,errorv,,0,,1402416466,195599079,/enu,/base_link,,,1.79098681386,28.7722437413,-22.8106522654,,-0.00831752361488,0.0393983862624,0.614339864511,0.788013398892
1402416466259260713,,errorv,,0,,1402416466,205599069,/enu,/base_link,,,1.80000068479,28.7674191594,-22.8144697683,,-0.00818469362574,0.0393053671616,0.614104439548,0.788202915644
1402416466259284890,,errorv,,0,,1402416466,215573072,/enu,/base_link,,,1.80908683892,28.7627197663,-22.8182615504,,-0.00812726790686,0.0393147316884,0.613862375325,0.788391580085
1402416466277028625,,errorv,,0,,1402416466,376692340,/base_link,/gps,,,-0.84,0.0,-0.14,,0.0,0.0,0.0,1.0
1402416466277117497,,errorv,,0,,1402416466,376853831,base_link,imu,,,0.13,0.0,-0.1,,1.0,0.0,0.0,0.0
1402416466277890721,,errorv,,0,,1402416466,277550513,base_link,/z_drive,,,0.0,0.0,0.0,,0.0,0.0,0.0,1.0
1402416466277917296,,errorv,,0,,1402416466,277569429,/z_drive,port,,,-0.3,0.3048,0.0,,0.0,0.0,0.0,1.0
1402416466277938644,,errorv,,0,,1402416466,277575775,/z_drive,starboard,,,-0.3,-0.3048,0.0,,0.0,0.0,0.0,1.0
1402416466297715456,,errorv,,0,,1402416466,297489455,base_link,/z_drive,,,0.0,0.0,0.0,,0.0,0.0,0.0,1.0
1402416466297746703,,errorv,,0,,1402416466,297506802,/z_drive,port,,,-0.3,0.3048,0.0,,0.0,0.0,0.0,1.0
1402416466297769034,,errorv,,0,,1402416466,297513095,/z_drive,starboard,,,-0.3,-0.3048,0.0,,0.0,0.0,0.0,1.0
1402416466299229927,,errorv,,0,,1402416466,225585937,/enu,/base_link,,,1.81831422765,28.7580908572,-22.8224293915,,-0.00795678391798,0.0391822155352,0.613648647398,0.788566282009
1402416466299346041,,errorv,,0,,1402416466,235583066,/enu,/base_link,,,1.82740566284,28.753349949,-22.82623859,,-0.00794081605636,0.0391702188234,0.613414921581,0.788748864582
1402416466299497955,,errorv,,0,,1402416466,246583938,/enu,/base_link,,,1.83750209285,28.748374138,-22.8307914836,,-0.00782653323377,0.0390706227725,0.61313563491,0.788972068591
1402416466299527947,,errorv,,0,,1402416466,256580114,/enu,/base_link,,,1.84695246486,28.7436386204,-22.8344061154,,-0.00757939855504,0.0391168511493,0.612889168638,0.78916366594
1402416466317789019,,errorv,,0,,1402416466,317554825,base_link,/z_drive,,,0.0,0.0,0.0,,0.0,0.0,0.0,1.0
1402416466317815573,,errorv,,0,,1402416466,317578189,/z_drive,port,,,-0.3,0.3048,0.0,,0.0,0.0,0.0,1.0
1402416466317883981,,errorv,,0,,1402416466,317587592,/z_drive,starboard,,,-0.3,-0.3048,0.0,,0.0,0.0,0.0,1.0
1402416466337833016,,errorv,,0,,1402416466,337512570,base_link,/z_drive,,,0.0,0.0,0.0,,0.0,0.0,0.0,1.0
1402416466337857855,,errorv,,0,,1402416466,337526624,/z_drive,port,,,-0.3,0.3048,0.0,,0.0,0.0,0.0,1.0
1402416466337878952,,errorv,,0,,1402416466,337530947,/z_drive,starboard,,,-0.3,-0.3048,0.0,,0.0,0.0,0.0,1.0
1402416466339307831,,errorv,,0,,1402416466,266568899,/enu,/base_link,,,1.8561998882,28.739271242,-22.8386012725,,-0.00755205218861,0.0391210278448,0.612643964865,0.789354092916
1402416466339339752,,errorv,,0,,1402416466,276535987,/enu,/base_link,,,1.81886210409,28.7116787664,-22.8381974272,,-0.0079731304119,0.0336148078229,0.615376557985,0.787475819165
1402416466339363697,,errorv,,0,,1402416466,286537885,/enu,/base_link,,,1.82754480174,28.7067771417,-22.8422682723,,-0.00792587134772,0.0335040317439,0.61511735854,0.787683499664
1402416466339386322,,errorv,,0,,1402416466,297537088,/enu,/base_link,,,1.83673324108,28.7013074778,-22.8465927829,,-0.00776037687759,0.0336325712596,0.614826125719,0.787907013444
1402416466357806929,,errorv,,0,,1402416466,357509625,base_link,/z_drive,,,0.0,0.0,0.0,,0.0,0.0,0.0,1.0
1402416466357831393,,errorv,,0,,1402416466,357525456,/z_drive,port,,,-0.3,0.3048,0.0,,0.0,0.0,0.0,1.0
1402416466357854214,,errorv,,0,,1402416466,357529712,/z_drive,starboard,,,-0.3,-0.3048,0.0,,0.0,0.0,0.0,1.0
1402416466377024696,,errorv,,0,,1402416466,476805498,/base_link,/gps,,,-0.84,0.0,-0.14,,0.0,0.0,0.0,1.0
1402416466377153055,,errorv,,0,,1402416466,476956692,base_link,imu,,,0.13,0.0,-0.1,,1.0,0.0,0.0,0.0
1402416466377744272,,errorv,,0,,1402416466,377497545,base_link,/z_drive,,,0.0,0.0,0.0,,0.0,0.0,0.0,1.0
1402416466377767829,,errorv,,0,,1402416466,377511540,/z_drive,port,,,-0.3,0.3048,0.0,,0.0,0.0,0.0,1.0
1402416466377788310,,errorv,,0,,1402416466,377515764,/z_drive,starboard,,,-0.3,-0.3048,0.0,,0.0,0.0,0.0,1.0
1402416466379248366,,errorv,,0,,1402416466,307538032,/enu,/base_link,,,1.84526059549,28.6963581648,-22.8505476276,,-0.00775779442974,0.0335742381696,0.614520321602,0.788148058105
1402416466379367201,,errorv,,0,,1402416466,317652940,/enu,/base_link,,,1.81600845831,28.651890858,-22.8131345764,,-0.00705915107754,0.0290755380833,0.615750598352,0.787372835511
1402416466379424100,,errorv,,0,,1402416466,327512025,/enu,/base_link,,,1.82368755722,28.6465576597,-22.8170950181,,-0.00703999359061,0.0289633000211,0.615499298776,0.787573602242
1402416466379449972,,errorv,,0,,1402416466,337512969,/enu,/base_link,,,1.83170469532,28.6409559709,-22.8208229765,,-0.00707792804075,0.0288720623631,0.61523415869,0.787783750105
1402416466397745476,,errorv,,0,,1402416466,397480342,base_link,/z_drive,,,0.0,0.0,0.0,,0.0,0.0,0.0,1.0
1402416466397766045,,errorv,,0,,1402416466,397502510,/z_drive,port,,,-0.3,0.3048,0.0,,0.0,0.0,0.0,1.0
1402416466397841908,,errorv,,0,,1402416466,397511362,/z_drive,starboard,,,-0.3,-0.3048,0.0,,0.0,0.0,0.0,1.0
1402416466417736321,,errorv,,0,,1402416466,417459788,base_link,/z_drive,,,0.0,0.0,0.0,,0.0,0.0,0.0,1.0
1402416466417826986,,errorv,,0,,1402416466,417476000,/z_drive,port,,,-0.3,0.3048,0.0,,0.0,0.0,0.0,1.0
1402416466417851611,,errorv,,0,,1402416466,417484202,/z_drive,starboard,,,-0.3,-0.3048,0.0,,0.0,0.0,0.0,1.0
1402416466419137077,,errorv,,0,,1402416466,347512006,/enu,/base_link,,,1.83958761218,28.6355699726,-22.8246398827,,-0.00704912259208,0.0289879719894,0.614951320124,0.788000559155
1402416466419315692,,errorv,,0,,1402416466,358514070,/enu,/base_link,,,1.82039590878,28.6036442341,-22.8156863357,,-0.00644054536898,0.025021216659,0.615759927481,0.787510107745
1402416466419341102,,errorv,,0,,1402416466,368495941,/enu,/base_link,,,1.82808791636,28.5977561514,-22.819509454,,-0.00630129629173,0.0251689294001,0.615503619276,0.787706870172
1402416466419363716,,errorv,,0,,1402416466,378509998,/enu,/base_link,,,1.83546482234,28.5919200655,-22.8234117337,,-0.0064183775412,0.0250547282348,0.615214948878,0.787935042817
1402416466419410865,,errorv,,0,,1402416466,389492988,/enu,/base_link,,,1.84362571015,28.5855272181,-22.8275568661,,-0.00651175773139,0.0250973184233,0.614912334799,0.788169107573
1402416466437768160,,errorv,,0,,1402416466,437481541,base_link,/z_drive,,,0.0,0.0,0.0,,0.0,0.0,0.0,1.0
1402416466437791764,,errorv,,0,,1402416466,437502739,/z_drive,port,,,-0.3,0.3048,0.0,,0.0,0.0,0.0,1.0
1402416466437874438,,errorv,,0,,1402416466,437511813,/z_drive,starboard,,,-0.3,-0.3048,0.0,,0.0,0.0,0.0,1.0
1402416466457778604,,errorv,,0,,1402416466,457463124,base_link,/z_drive,,,0.0,0.0,0.0,,0.0,0.0,0.0,1.0
1402416466457802856,,errorv,,0,,1402416466,457479812,/z_drive,port,,,-0.3,0.3048,0.0,,0.0,0.0,0.0,1.0
1402416466457822801,,errorv,,0,,1402416466,457487936,/z_drive,starboard,,,-0.3,-0.3048,0.0,,0.0,0.0,0.0,1.0
1402416466459202687,,errorv,,0,,1402416466,399512052,/enu,/base_link,,,1.81409390432,28.5618644839,-22.8472543796,,-0.00651993908677,0.0197440078163,0.617165403866,0.786558662034
1402416466459229170,,errorv,,0,,1402416466,409483909,/enu,/base_link,,,1.82085253067,28.5556706457,-22.851380694,,-0.00641073045396,0.0198246004267,0.616907324257,0.78675996405
1402416466459248148,,errorv,,0,,1402416466,420492887,/enu,/base_link,,,1.82844651296,28.5486010017,-22.8552772602,,-0.00643934275527,0.0199415235397,0.616580509484,0.787012926087
1402416466467267752,,errorv,,0,,1402416466,430485010,/enu,/base_link,,,1.83509423174,28.542223733,-22.8586987205,,-0.00652032268965,0.0198509259232,0.616300932056,0.787233502386
1402416466467292394,,errorv,,0,,1402416466,440481901,/enu,/base_link,,,1.82348523372,28.5375022943,-22.9025908846,,-0.00639765484778,0.0168329018362,0.617878191871,0.7860675947
1402416466477120727,,errorv,,0,,1402416466,576915088,/base_link,/gps,,,-0.84,0.0,-0.14,,0.0,0.0,0.0,1.0
1402416466477243247,,errorv,,0,,1402416466,577056814,base_link,imu,,,0.13,0.0,-0.1,,1.0,0.0,0.0,0.0
1402416466477796055,,errorv,,0,,1402416466,477508280,base_link,/z_drive,,,0.0,0.0,0.0,,0.0,0.0,0.0,1.0
1402416466477818593,,errorv,,0,,1402416466,477525017,/z_drive,port,,,-0.3,0.3048,0.0,,0.0,0.0,0.0,1.0
1402416466477840117,,errorv,,0,,1402416466,477529387,/z_drive,starboard,,,-0.3,-0.3048,0.0,,0.0,0.0,0.0,1.0
1402416466497710413,,errorv,,0,,1402416466,497544445,base_link,/z_drive,,,0.0,0.0,0.0,,0.0,0.0,0.0,1.0
1402416466497816708,,errorv,,0,,1402416466,497567027,/z_drive,port,,,-0.3,0.3048,0.0,,0.0,0.0,0.0,1.0
1402416466497843186,,errorv,,0,,1402416466,497600562,/z_drive,starboard,,,-0.3,-0.3048,0.0,,0.0,0.0,0.0,1.0
1402416466507102429,,errorv,,0,,1402416466,450457096,/enu,/base_link,,,1.82966962031,28.5309579018,-22.9063988598,,-0.00651483283354,0.0166694779104,0.617589337395,0.786297078588
1402416466507126686,,errorv,,0,,1402416466,461466073,/enu,/base_link,,,1.83662722096,28.5235982005,-22.9100839437,,-0.00658623870262,0.0167140685586,0.61725827267,0.786555456527
1402416466517678013,,errorv,,0,,1402416466,517493732,base_link,/z_drive,,,0.0,0.0,0.0,,0.0,0.0,0.0,1.0
1402416466517802650,,errorv,,0,,1402416466,517507512,/z_drive,port,,,-0.3,0.3048,0.0,,0.0,0.0,0.0,1.0
1402416466517826114,,errorv,,0,,1402416466,517511649,/z_drive,starboard,,,-0.3,-0.3048,0.0,,0.0,0.0,0.0,1.0
1402416466537794378,,errorv,,0,,1402416466,537577533,base_link,/z_drive,,,0.0,0.0,0.0,,0.0,0.0,0.0,1.0
1402416466537850416,,errorv,,0,,1402416466,537609717,/z_drive,port,,,-0.3,0.3048,0.0,,0.0,0.0,0.0,1.0
1402416466537916900,,errorv,,0,,1402416466,537615294,/z_drive,starboard,,,-0.3,-0.3048,0.0,,0.0,0.0,0.0,1.0
1402416466547247232,,errorv,,0,,1402416466,471463918,/enu,/base_link,,,1.84295603665,28.5170980594,-22.9136109959,,-0.00682572599339,0.016524048229,0.616964898265,0.786787569553
1402416466547275744,,errorv,,0,,1402416466,481470108,/enu,/base_link,,,1.84927233305,28.5106665663,-22.9173027992,,-0.00684001865854,0.0166163445318,0.616703088617,0.786990731667
1402416466547300490,,errorv,,0,,1402416466,492439031,/enu,/base_link,,,1.82828586706,28.4829918707,-22.8924370757,,-0.00717402992142,0.0134223196135,0.618486894486,0.785647717479
1402416466547343831,,errorv,,0,,1402416466,502444028,/enu,/base_link,,,1.83379879051,28.4759470372,-22.8956939181,,-0.00732216271167,0.0133409330903,0.618232915721,0.785847610772
1402416466557879749,,errorv,,0,,1402416466,557697537,base_link,/z_drive,,,0.0,0.0,0.0,,0.0,0.0,0.0,1.0
1402416466557902086,,errorv,,0,,1402416466,557716655,/z_drive,port,,,-0.3,0.3048,0.0,,0.0,0.0,0.0,1.0
1402416466557969939,,errorv,,0,,1402416466,557721516,/z_drive,starboard,,,-0.3,-0.3048,0.0,,0.0,0.0,0.0,1.0
1402416466577222970,,errorv,,0,,1402416466,677011535,/base_link,/gps,,,-0.84,0.0,-0.14,,0.0,0.0,0.0,1.0
1402416466577350009,,errorv,,0,,1402416466,677156413,base_link,imu,,,0.13,0.0,-0.1,,1.0,0.0,0.0,0.0
1402416466577826382,,errorv,,0,,1402416466,577508263,base_link,/z_drive,,,0.0,0.0,0.0,,0.0,0.0,0.0,1.0
1402416466577943345,,errorv,,0,,1402416466,577526533,/z_drive,port,,,-0.3,0.3048,0.0,,0.0,0.0,0.0,1.0
1402416466578067837,,errorv,,0,,1402416466,577534372,/z_drive,starboard,,,-0.3,-0.3048,0.0,,0.0,0.0,0.0,1.0
1402416466587216505,,errorv,,0,,1402416466,512425899,/enu,/base_link,,,1.83992039958,28.469198536,-22.8994575581,,-0.00727165308986,0.0134325926488,0.617965397928,0.786056903461
1402416466587339218,,errorv,,0,,1402416466,522444009,/enu,/base_link,,,1.84561418025,28.4625086147,-22.9032649653,,-0.0074052073533,0.0133165370663,0.617661923738,0.786296115156
1402416466587360563,,errorv,,0,,1402416466,533411979,/enu,/base_link,,,1.85220150362,28.4551298612,-22.907103259,,-0.00756847895069,0.0132853830987,0.617351999875,0.786538444688
1402416466587496681,,errorv,,0,,1402416466,543440103,/enu,/base_link,,,1.75579916127,28.3715339201,-22.8290267592,,-0.00723552214448,0.00141255564379,0.624805123128,0.780745931798
1402416466597864137,,errorv,,0,,1402416466,597549005,base_link,/z_drive,,,0.0,0.0,0.0,,0.0,0.0,0.0,1.0
1402416466597947086,,errorv,,0,,1402416466,597569420,/z_drive,port,,,-0.3,0.3048,0.0,,0.0,0.0,0.0,1.0
1402416466597967524,,errorv,,0,,1402416466,597578359,/z_drive,starboard,,,-0.3,-0.3048,0.0,,0.0,0.0,0.0,1.0
1402416466617784587,,errorv,,0,,1402416466,617458588,base_link,/z_drive,,,0.0,0.0,0.0,,0.0,0.0,0.0,1.0
1402416466617818881,,errorv,,0,,1402416466,617472384,/z_drive,port,,,-0.3,0.3048,0.0,,0.0,0.0,0.0,1.0
1402416466617921089,,errorv,,0,,1402416466,617478076,/z_drive,starboard,,,-0.3,-0.3048,0.0,,0.0,0.0,0.0,1.0
1402416466627313430,,errorv,,0,,1402416466,554460048,/enu,/base_link,,,1.76024843142,28.3624429891,-22.832458573,,-0.00724720651628,0.00152053186617,0.624517627621,0.780975607027
