rosbagTimestamp,control_method,x_current,x_desired,y_current,y_desired,x_velocity_current,x_velocity_desired,y_velocity_current,y_velocity_desired,yaw_current,yaw_desired,required_force_x,required_force_y,required_moment_z,resultant_force_x,resultant_force_y,resultant_moment_z,current_port_servo_angle,current_port_thruster_force,current_starboard_servo_angle,current_starboard_thruster_force,estimated_port_servo_angle,estimated_port_thruster_force,estimated_starboard_servo_angle,estimated_starboard_thruster_force,cost_value,step,user_defined_1,user_defined_2,user_defined_3,user_defined_4,user_defined_5
1402603371309845848,0,3.90385365431,9.88567784727,-39.7805906941,10.0438151857,-0.0535526703836,0.0,-0.0764372212052,0.0,-0.00524016784912,0.0,1011.10499914,2203.10023144,-1.34130416972,0.0,0.0,-60.96,0.00537022749826,0.0,-0.00383606751517,0.0,-0.0,100.0,-0.0,-100.0,2479819175.29,0.0,0.0,0.0,0.0,0.0,0.0
1402603371329618996,0,3.90385365431,9.88567784727,-39.7805906941,10.0438151857,-0.0535526703836,0.0,-0.0764372212052,0.0,-0.00524016784912,0.0,1011.10499914,2203.10023144,-1.34130416972,0.0,0.0,-60.96,0.00383600394174,0.0,-0.00383606751517,0.0,-0.0,100.0,-0.0,-100.0,2479819175.29,0.0,0.0,0.0,0.0,0.0,0.0
1402603371350422189,0,3.90379567822,9.88567784727,-39.7748273695,10.0438151857,-0.055902394339,0.0,-0.0548706906339,0.0,-0.00605657719125,0.0,1011.10499914,2203.10023144,-1.34130416972,0.0,0.0,-60.96,0.00383600394174,0.0,-0.00383606751517,0.0,-0.0,100.0,-0.0,-100.0,2479819175.29,0.0,0.0,0.0,0.0,0.0,0.0
1402603371369698365,0,3.90379567822,9.88567784727,-39.7748273695,10.0438151857,-0.055902394339,0.0,-0.0548706906339,0.0,-0.00605657719125,0.0,1011.10499914,2203.10023144,-1.34130416972,0.0,0.0,-60.96,0.00383600394174,0.0,-0.00383606751517,0.0,-0.0,100.0,-0.0,-100.0,2479819175.29,0.0,0.0,0.0,0.0,0.0,0.0
1402603371390487020,0,3.90252168526,9.88567784727,-39.7760346402,10.0438151857,-0.0585185555872,0.0,-0.0560616542234,0.0,-0.00602069174957,0.0,1011.10499914,2203.10023144,-1.34130416972,0.0,0.0,-60.96,0.00383600394174,0.0,-0.00383606751517,0.0,-0.0,100.0,-0.0,-100.0,2479819175.29,0.0,0.0,0.0,0.0,0.0,0.0
1402603371409614184,0,3.90252168526,9.88567784727,-39.7760346402,10.0438151857,-0.0585185555872,0.0,-0.0560616542234,0.0,-0.00602069174957,0.0,1011.10499914,2203.10023144,-1.34130416972,0.0,0.0,-60.96,0.00383600394174,0.0,-0.00383606751517,0.0,-0.0,100.0,-0.0,-100.0,2479819175.29,0.0,0.0,0.0,0.0,0.0,0.0
1402603371429805593,0,3.92051399445,9.88567784727,-39.7634859909,10.0438151857,-0.0149340285949,0.0,-0.0253811788805,0.0,-0.00634063830434,0.0,1011.10499914,2203.10023144,-1.34130416972,0.0,0.0,-60.96,0.00383600394174,0.0,-0.00383606751517,0.0,-0.0,100.0,-0.0,-100.0,2479819175.29,0.0,0.0,0.0,0.0,0.0,0.0
1402603371450363872,0,3.92051399445,9.88567784727,-39.7634859909,10.0438151857,-0.0149340285949,0.0,-0.0253811788805,0.0,-0.00634063830434,0.0,1011.10499914,2203.10023144,-1.34130416972,0.0,0.0,-60.96,0.00383600394174,0.0,-0.00383606751517,0.0,-0.0,100.0,-0.0,-100.0,2479819175.29,0.0,0.0,0.0,0.0,0.0,0.0
1402603371469659254,0,3.92563574925,9.88567784727,-39.7594744187,10.0438151857,-0.00433604780767,0.0,-0.013984234385,0.0,-0.00631095408432,0.0,1011.10499914,2203.10023144,-1.34130416972,0.0,0.0,-60.96,0.00537022749826,0.0,-0.00383606751517,0.0,-0.0,100.0,-0.0,-100.0,2479819175.29,0.0,0.0,0.0,0.0,0.0,0.0
1402603371489623294,0,3.92563574925,9.88567784727,-39.7594744187,10.0438151857,-0.00433604780767,0.0,-0.013984234385,0.0,-0.00631095408432,0.0,1011.10499914,2203.10023144,-1.34130416972,0.0,0.0,-60.96,0.00383600394174,0.0,-0.00383606751517,0.0,-0.0,100.0,-0.0,-100.0,2479819175.29,0.0,0.0,0.0,0.0,0.0,0.0
1402603371509624413,0,3.9388728061,9.88567784727,-39.7554587818,10.0438151857,0.0272568166167,0.0,-0.00370600703449,0.0,-0.00562924122225,0.0,1011.10499914,2203.10023144,-1.34130416972,0.0,0.0,-60.96,0.00383600394174,0.0,-0.00383606751517,0.0,-0.0,100.0,-0.0,-100.0,2479819175.29,0.0,0.0,0.0,0.0,0.0,0.0
1402603371529597315,0,3.9388728061,9.88567784727,-39.7554587818,10.0438151857,0.0272568166167,0.0,-0.00370600703449,0.0,-0.00562924122225,0.0,1011.10499914,2203.10023144,-1.34130416972,0.0,0.0,-60.96,0.00383600394174,0.0,-0.00383606751517,0.0,-0.0,100.0,-0.0,-100.0,2479819175.29,0.0,0.0,0.0,0.0,0.0,0.0
1402603371549748653,0,3.94033386909,9.88567784727,-39.7558570907,10.0438151857,0.0257021145014,0.0,-0.00590641916862,0.0,-0.00542339823563,0.0,1011.10499914,2203.10023144,-1.34130416972,0.0,0.0,-60.96,0.00383600394174,0.0,-0.00383606751517,0.0,-0.0,100.0,-0.0,-100.0,2479819175.29,0.0,0.0,0.0,0.0,0.0,0.0
1402603371570110933,0,3.94033386909,9.88567784727,-39.7558570907,10.0438151857,0.0257021145014,0.0,-0.00590641916862,0.0,-0.00542339823563,0.0,1011.10499914,2203.10023144,-1.34130416972,0.0,0.0,-60.96,0.00383600394174,0.0,-0.00383606751517,0.0,-0.0,100.0,-0.0,-100.0,2479819175.29,0.0,0.0,0.0,0.0,0.0,0.0
1402603371589618571,0,3.9453244926,9.88567784727,-39.7470502679,10.0438151857,0.0323346990992,0.0,0.0139307432166,0.0,-0.00588905663184,0.0,1011.10499914,2203.10023144,-1.34130416972,0.0,0.0,-60.96,0.00383600394174,0.0,-0.00383606751517,0.0,-0.0,100.0,-0.0,-100.0,2479819175.29,0.0,0.0,0.0,0.0,0.0,0.0
1402603371609516251,0,3.94577853962,9.88567784727,-39.7467981096,10.0438151857,0.0319189822208,0.0,0.0136495643336,0.0,-0.00581749426866,0.0,1011.10499914,2203.10023144,-1.34130416972,0.0,0.0,-60.96,0.00383600394174,0.0,-0.00383606751517,0.0,-0.0,100.0,-0.0,-100.0,2479819175.29,0.0,0.0,0.0,0.0,0.0,0.0
1402603371630079933,0,3.94577853962,9.88567784727,-39.7467981096,10.0438151857,0.0319189822208,0.0,0.0136495643336,0.0,-0.00581749426866,0.0,1011.10499914,2203.10023144,-1.34130416972,0.0,0.0,-60.96,0.00383600394174,0.0,-0.00383606751517,0.0,-0.0,100.0,-0.0,-100.0,2479819175.29,0.0,0.0,0.0,0.0,0.0,0.0
1402603371649607580,0,3.9465480373,9.88567784727,-39.7464216559,10.0438151857,0.0310290134961,0.0,0.0142932524936,0.0,-0.00569478051933,0.0,1011.10499914,2203.10023144,-1.34130416972,0.0,0.0,-60.96,0.00383600394174,0.0,-0.00383606751517,0.0,-0.0,100.0,-0.0,-100.0,2479819175.29,0.0,0.0,0.0,0.0,0.0,0.0
1402603371669693357,0,3.9465480373,9.88567784727,-39.7464216559,10.0438151857,0.0310290134961,0.0,0.0142932524936,0.0,-0.00569478051933,0.0,1011.10499914,2203.10023144,-1.34130416972,0.0,0.0,-60.96,0.00383600394174,0.0,-0.00383606751517,0.0,-0.0,100.0,-0.0,-100.0,2479819175.29,0.0,0.0,0.0,0.0,0.0,0.0
1402603371690325295,0,3.93140493769,9.88567784727,-39.7593839592,10.0438151857,-0.0166615287843,0.0,-0.0205325829099,0.0,-0.00510518800048,0.0,1011.10499914,2203.10023144,-1.34130416972,0.0,0.0,-60.96,0.00537022749826,0.0,-0.00383606751517,0.0,-0.0,100.0,-0.0,-100.0,2479819175.29,0.0,0.0,0.0,0.0,0.0,0.0
1402603371709733308,0,3.93140493769,9.88567784727,-39.7593839592,10.0438151857,-0.0166615287843,0.0,-0.0205325829099,0.0,-0.00510518800048,0.0,1011.10499914,2203.10023144,-1.34130416972,0.0,0.0,-60.96,0.00383600394174,0.0,-0.00383606751517,0.0,-0.0,100.0,-0.0,-100.0,2479819175.29,0.0,0.0,0.0,0.0,0.0,0.0
1402603371730308833,0,3.9341205061,9.88567784727,-39.7605254594,10.0438151857,-0.0122975014862,0.0,-0.0219162406107,0.0,-0.00469944370134,0.0,1011.10499914,2203.10023144,-1.34130416972,0.0,0.0,-60.96,0.00383600394174,0.0,-0.00383606751517,0.0,-0.0,100.0,-0.0,-100.0,2479819175.29,0.0,0.0,0.0,0.0,0.0,0.0
1402603371749573459,0,3.9341205061,9.88567784727,-39.7605254594,10.0438151857,-0.0122975014862,0.0,-0.0219162406107,0.0,-0.00469944370134,0.0,1011.10499914,2203.10023144,-1.34130416972,0.0,0.0,-60.96,0.00383600394174,0.0,-0.00383606751517,0.0,-0.0,100.0,-0.0,-100.0,2479819175.29,0.0,0.0,0.0,0.0,0.0,0.0
1402603371769891243,0,3.93834908423,9.88567784727,-39.7567278147,10.0438151857,-0.00339854306145,0.0,-0.0104908902669,0.0,-0.00467858304933,0.0,1011.10499914,2203.10023144,-1.34130416972,0.0,0.0,-60.96,0.00383600394174,0.0,-0.00383606751517,0.0,-0.0,100.0,-0.0,-100.0,2479819175.29,0.0,0.0,0.0,0.0,0.0,0.0
1402603371790299340,0,3.93834908423,9.88567784727,-39.7567278147,10.0438151857,-0.00339854306145,0.0,-0.0104908902669,0.0,-0.00467858304933,0.0,1011.10499914,2203.10023144,-1.34130416972,0.0,0.0,-60.96,0.00383600394174,0.0,-0.00383606751517,0.0,-0.0,100.0,-0.0,-100.0,2479819175.29,0.0,0.0,0.0,0.0,0.0,0.0
1402603371809644697,0,3.95109643058,9.88567784727,-39.7556888792,10.0438151857,0.0289548034863,0.0,-0.00393240119027,0.0,-0.00434610550683,0.0,1011.10499914,2203.10023144,-1.34130416972,0.0,0.0,-60.96,0.00537022749826,0.0,-0.00383606751517,0.0,-0.0,100.0,-0.0,-100.0,2479819175.29,0.0,0.0,0.0,0.0,0.0,0.0
1402603371829560544,0,3.95109643058,9.88567784727,-39.7556888792,10.0438151857,0.0289548034863,0.0,-0.00393240119027,0.0,-0.00434610550683,0.0,1011.10499914,2203.10023144,-1.34130416972,0.0,0.0,-60.96,0.00383600394174,0.0,-0.00383606751517,0.0,-0.0,100.0,-0.0,-100.0,2479819175.29,0.0,0.0,0.0,0.0,0.0,0.0
1402603371850252744,0,3.96134923969,9.88567784727,-39.74390532,10.0438151857,0.049744185518,0.0,0.0244055576745,0.0,-0.00470436353884,0.0,1011.10499914,2203.10023144,-1.34130416972,0.0,0.0,-60.96,0.00383600394174,0.0,-0.00383606751517,0.0,-0.0,100.0,-0.0,-100.0,2479819175.29,0.0,0.0,0.0,0.0,0.0,0.0
1402603371869656523,0,3.96134923969,9.88567784727,-39.74390532,10.0438151857,0.049744185518,0.0,0.0244055576745,0.0,-0.00470436353884,0.0,1011.10499914,2203.10023144,-1.34130416972,0.0,0.0,-60.96,0.00537022749826,0.0,-0.00383606751517,0.0,-0.0,100.0,-0.0,-100.0,2479819175.29,0.0,0.0,0.0,0.0,0.0,0.0
1402603371890399524,0,3.96248604305,9.88567784727,-39.7433181553,10.0438151857,0.0500544985636,0.0,0.0250534091422,0.0,-0.00451862794655,0.0,1011.10499914,2203.10023144,-1.34130416972,0.0,0.0,-60.96,0.00383600394174,0.0,-0.00383606751517,0.0,-0.0,100.0,-0.0,-100.0,2479819175.29,0.0,0.0,0.0,0.0,0.0,0.0
1402603371909598156,0,3.96248604305,9.88567784727,-39.7433181553,10.0438151857,0.0500544985636,0.0,0.0250534091422,0.0,-0.00451862794655,0.0,1011.10499914,2203.10023144,-1.34130416972,0.0,0.0,-60.96,0.00383600394174,0.0,-0.00383606751517,0.0,-0.0,100.0,-0.0,-100.0,2479819175.29,0.0,0.0,0.0,0.0,0.0,0.0
1402603371930339026,0,3.96275214592,9.88567784727,-39.7435988581,10.0438151857,0.0442601122861,0.0,0.0241145302949,0.0,-0.00417433767302,0.0,1011.10499914,2203.10023144,-1.34130416972,0.0,0.0,-60.96,0.00383600394174,0.0,-0.00383606751517,0.0,-0.0,100.0,-0.0,-100.0,2479819175.29,0.0,0.0,0.0,0.0,0.0,0.0
1402603371949853738,0,3.96275214592,9.88567784727,-39.7435988581,10.0438151857,0.0442601122861,0.0,0.0241145302949,0.0,-0.00417433767302,0.0,1011.10499914,2203.10023144,-1.34130416972,0.0,0.0,-60.96,0.00383600394174,0.0,-0.00383606751517,0.0,-0.0,100.0,-0.0,-100.0,2479819175.29,0.0,0.0,0.0,0.0,0.0,0.0
1402603371969777788,0,3.96430502613,9.88567784727,-39.7427616358,10.0438151857,0.0439667775176,0.0,0.0200095803019,0.0,-0.00382207515946,0.0,1011.10499914,2203.10023144,-1.34130416972,0.0,0.0,-60.96,0.00383600394174,0.0,-0.00383606751517,0.0,-0.0,100.0,-0.0,-100.0,2479819175.29,0.0,0.0,0.0,0.0,0.0,0.0
1402603371989787589,0,3.96430502613,9.88567784727,-39.7427616358,10.0438151857,0.0439667775176,0.0,0.0200095803019,0.0,-0.00382207515946,0.0,1011.10499914,2203.10023144,-1.34130416972,0.0,0.0,-60.96,0.00383600394174,0.0,-0.00383606751517,0.0,-0.0,100.0,-0.0,-100.0,2479819175.29,0.0,0.0,0.0,0.0,0.0,0.0
1402603372009825334,0,3.96618812481,9.88567784727,-39.7419565336,10.0438151857,0.0443418724928,0.0,0.0201839224654,0.0,-0.00359851924658,0.0,1011.10499914,2203.10023144,-1.34130416972,0.0,0.0,-60.96,0.00383600394174,0.0,-0.00383606751517,0.0,-0.0,100.0,-0.0,-100.0,2479819175.29,0.0,0.0,0.0,0.0,0.0,0.0
1402603372030335581,0,3.96618812481,9.88567784727,-39.7419565336,10.0438151857,0.0443418724928,0.0,0.0201839224654,0.0,-0.00359851924658,0.0,1011.10499914,2203.10023144,-1.34130416972,0.0,0.0,-60.96,0.00383600394174,0.0,-0.00383606751517,0.0,-0.0,100.0,-0.0,-100.0,2479819175.29,0.0,0.0,0.0,0.0,0.0,0.0
1402603372049744888,0,3.97386765854,9.88567784727,-39.7379329445,10.0438151857,0.0620311958839,0.0,0.0297241638171,0.0,-0.00346858490793,0.0,1011.10499914,2203.10023144,-1.34130416972,0.0,0.0,-60.96,0.00537022749826,0.0,-0.00383606751517,0.0,-0.0,100.0,-0.0,-100.0,2479819175.29,0.0,0.0,0.0,0.0,0.0,0.0
1402603372069668618,0,3.97386765854,9.88567784727,-39.7379329445,10.0438151857,0.0620311958839,0.0,0.0297241638171,0.0,-0.00346858490793,0.0,1011.10499914,2203.10023144,-1.34130416972,0.0,0.0,-60.96,0.00383600394174,0.0,-0.00383606751517,0.0,-0.0,100.0,-0.0,-100.0,2479819175.29,0.0,0.0,0.0,0.0,0.0,0.0
1402603372089736269,0,3.97469308352,9.88567784727,-39.7338453573,10.0438151857,0.0558527453923,0.0,0.030783981253,0.0,-0.0030221605226,0.0,1011.10499914,2203.10023144,-1.34130416972,0.0,0.0,-60.96,0.00383600394174,0.0,-0.00383606751517,0.0,-0.0,100.0,-0.0,-100.0,2479819175.29,0.0,0.0,0.0,0.0,0.0,0.0
1402603372109669703,0,3.97469308352,9.88567784727,-39.7338453573,10.0438151857,0.0558527453923,0.0,0.030783981253,0.0,-0.0030221605226,0.0,1011.10499914,2203.10023144,-1.34130416972,0.0,0.0,-60.96,0.00383600394174,0.0,-0.00383606751517,0.0,-0.0,100.0,-0.0,-100.0,2479819175.29,0.0,0.0,0.0,0.0,0.0,0.0
1402603372130370049,0,3.97441559117,9.88567784727,-39.7322036827,10.0438151857,0.046780421422,0.0,0.0266516127682,0.0,-0.00272605853222,0.0,1011.10499914,2203.10023144,-1.34130416972,0.0,0.0,-60.96,0.00383600394174,0.0,-0.00383606751517,0.0,-0.0,100.0,-0.0,-100.0,2479819175.29,0.0,0.0,0.0,0.0,0.0,0.0
1402603372149754276,0,3.97441559117,9.88567784727,-39.7322036827,10.0438151857,0.046780421422,0.0,0.0266516127682,0.0,-0.00272605853222,0.0,1011.10499914,2203.10023144,-1.34130416972,0.0,0.0,-60.96,0.00383600394174,0.0,-0.00383606751517,0.0,-0.0,100.0,-0.0,-100.0,2479819175.29,0.0,0.0,0.0,0.0,0.0,0.0
1402603372169825405,0,3.97529515936,9.88567784727,-39.7317154214,10.0438151857,0.0463687468738,0.0,0.0269375094271,0.0,-0.00265514588296,0.0,1011.10499914,2203.10023144,-1.34130416972,0.0,0.0,-60.96,0.00383600394174,0.0,-0.00383606751517,0.0,-0.0,100.0,-0.0,-100.0,2479819175.29,0.0,0.0,0.0,0.0,0.0,0.0
1402603372190409839,0,3.97529515936,9.88567784727,-39.7317154214,10.0438151857,0.0463687468738,0.0,0.0269375094271,0.0,-0.00265514588296,0.0,1011.10499914,2203.10023144,-1.34130416972,0.0,0.0,-60.96,0.00383600394174,0.0,-0.00383606751517,0.0,-0.0,100.0,-0.0,-100.0,2479819175.29,0.0,0.0,0.0,0.0,0.0,0.0
1402603372209770716,0,3.97796589462,9.88567784727,-39.7273887165,10.0438151857,0.0475194514203,0.0,0.0327410960152,0.0,-0.00257523326404,0.0,1011.10499914,2203.10023144,-1.34130416972,0.0,0.0,-60.96,0.00383600394174,0.0,-0.00383606751517,0.0,-0.0,100.0,-0.0,-100.0,2479819175.29,0.0,0.0,0.0,0.0,0.0,0.0
1402603372230295684,0,3.97796589462,9.88567784727,-39.7273887165,10.0438151857,0.0475194514203,0.0,0.0327410960152,0.0,-0.00257523326404,0.0,1011.10499914,2203.10023144,-1.34130416972,0.0,0.0,-60.96,0.00383600394174,0.0,-0.00383606751517,0.0,-0.0,100.0,-0.0,-100.0,2479819175.29,0.0,0.0,0.0,0.0,0.0,0.0
1402603372249661391,0,3.9850910054,9.88567784727,-39.7201593173,10.0438151857,0.0625125073373,0.0,0.0456345276713,0.0,-0.00278495800829,0.0,1011.10499914,2203.10023144,-1.34130416972,0.0,0.0,-60.96,0.00383600394174,0.0,-0.00383606751517,0.0,-0.0,100.0,-0.0,-100.0,2479819175.29,0.0,0.0,0.0,0.0,0.0,0.0
1402603372270455667,0,3.9850910054,9.88567784727,-39.7201593173,10.0438151857,0.0625125073373,0.0,0.0456345276713,0.0,-0.00278495800829,0.0,1011.10499914,2203.10023144,-1.34130416972,0.0,0.0,-60.96,0.00383600394174,0.0,-0.00383606751517,0.0,-0.0,100.0,-0.0,-100.0,2479819175.29,0.0,0.0,0.0,0.0,0.0,0.0
1402603372289836512,0,3.99857144372,9.88567784727,-39.7121228086,10.0438151857,0.0920840996446,0.0,0.0537452388628,0.0,-0.00330508823806,0.0,1011.10499914,2203.10023144,-1.34130416972,0.0,0.0,-60.96,0.00383600394174,0.0,-0.00383606751517,0.0,-0.0,100.0,-0.0,-100.0,2479819175.29,0.0,0.0,0.0,0.0,0.0,0.0
1402603372310421327,0,3.99857144372,9.88567784727,-39.7121228086,10.0438151857,0.0920840996446,0.0,0.0537452388628,0.0,-0.00330508823806,0.0,1011.10499914,2203.10023144,-1.34130416972,0.0,0.0,-60.96,0.00383600394174,0.0,-0.00383606751517,0.0,-0.0,100.0,-0.0,-100.0,2479819175.29,0.0,0.0,0.0,0.0,0.0,0.0
1402603372329699538,0,4.00163721678,9.88567784727,-39.7104953036,10.0438151857,0.0928343320215,0.0,0.0559799240053,0.0,-0.00321006020929,0.0,1011.10499914,2203.10023144,-1.34130416972,0.0,0.0,-60.96,0.00383600394174,0.0,-0.00383606751517,0.0,-0.0,100.0,-0.0,-100.0,2479819175.29,0.0,0.0,0.0,0.0,0.0,0.0
1402603372350338207,0,4.00250499367,9.88567784727,-39.7050866287,10.0438151857,0.0904914760059,0.0,0.0624318758726,0.0,-0.00300177922968,0.0,1011.10499914,2203.10023144,-1.34130416972,0.0,0.0,-60.96,0.00383600394174,0.0,-0.00383606751517,0.0,-0.0,100.0,-0.0,-100.0,2479819175.29,0.0,0.0,0.0,0.0,0.0,0.0
1402603372369722266,0,4.00250499367,9.88567784727,-39.7050866287,10.0438151857,0.0904914760059,0.0,0.0624318758726,0.0,-0.00300177922968,0.0,1011.10499914,2203.10023144,-1.34130416972,0.0,0.0,-60.96,0.00383600394174,0.0,-0.00383606751517,0.0,-0.0,100.0,-0.0,-100.0,2479819175.29,0.0,0.0,0.0,0.0,0.0,0.0
1402603372390628926,0,4.0047263839,9.88567784727,-39.7036897672,10.0438151857,0.0915315939269,0.0,0.0628122101029,0.0,-0.00292153835898,0.0,1011.10499914,2203.10023144,-1.34130416972,0.0,0.0,-60.96,0.00383600394174,0.0,-0.00383606751517,0.0,-0.0,100.0,-0.0,-100.0,2479819175.29,0.0,0.0,0.0,0.0,0.0,0.0
1402603372409528200,0,4.0047263839,9.88567784727,-39.7036897672,10.0438151857,0.0915315939269,0.0,0.0628122101029,0.0,-0.00292153835898,0.0,1011.10499914,2203.10023144,-1.34130416972,0.0,0.0,-60.96,0.00383600394174,0.0,-0.00383606751517,0.0,-0.0,100.0,-0.0,-100.0,2479819175.29,0.0,0.0,0.0,0.0,0.0,0.0
1402603372430228174,0,4.00267084446,9.88567784727,-39.7065155754,10.0438151857,0.0778898246339,0.0,0.0488302185833,0.0,-0.00265126131891,0.0,1011.10499914,2203.10023144,-1.34130416972,0.0,0.0,-60.96,0.00383600394174,0.0,-0.00383606751517,0.0,-0.0,100.0,-0.0,-100.0,2479819175.29,0.0,0.0,0.0,0.0,0.0,0.0
1402603372449846529,0,4.00267084446,9.88567784727,-39.7065155754,10.0438151857,0.0778898246339,0.0,0.0488302185833,0.0,-0.00265126131891,0.0,1011.10499914,2203.10023144,-1.34130416972,0.0,0.0,-60.96,0.00383600394174,0.0,-0.00383606751517,0.0,-0.0,100.0,-0.0,-100.0,2479819175.29,0.0,0.0,0.0,0.0,0.0,0.0
1402603372470428448,0,4.00312573997,9.88567784727,-39.7047774721,10.0438151857,0.0688533313095,0.0,0.0418083809374,0.0,-0.0025319068267,0.0,1011.10499914,2203.10023144,-1.34130416972,0.0,0.0,-60.96,0.00383600394174,0.0,-0.00383606751517,0.0,-0.0,100.0,-0.0,-100.0,2479819175.29,0.0,0.0,0.0,0.0,0.0,0.0
1402603372489607480,0,4.00312573997,9.88567784727,-39.7047774721,10.0438151857,0.0688533313095,0.0,0.0418083809374,0.0,-0.0025319068267,0.0,1011.10499914,2203.10023144,-1.34130416972,0.0,0.0,-60.96,0.00537022749826,0.0,-0.00383606751517,0.0,-0.0,100.0,-0.0,-100.0,2479819175.29,0.0,0.0,0.0,0.0,0.0,0.0
1402603372510501470,0,3.99492352762,9.88567784727,-39.7050352081,10.0438151857,0.0382100932111,0.0,0.0314194664714,0.0,-0.00142820364471,0.0,1011.10499914,2203.10023144,-1.34130416972,0.0,0.0,-60.96,0.00383600394174,0.0,-0.00383606751517,0.0,-0.0,100.0,-0.0,-100.0,2479819175.29,0.0,0.0,0.0,0.0,0.0,0.0
1402603372529978061,0,3.99492352762,9.88567784727,-39.7050352081,10.0438151857,0.0382100932111,0.0,0.0314194664714,0.0,-0.00142820364471,0.0,1011.10499914,2203.10023144,-1.34130416972,0.0,0.0,-60.96,0.00383600394174,0.0,-0.00383606751517,0.0,-0.0,100.0,-0.0,-100.0,2479819175.29,0.0,0.0,0.0,0.0,0.0,0.0
1402603372550450694,0,3.99712980106,9.88567784727,-39.7031972536,10.0438151857,0.0374865883386,0.0,0.0326695768445,0.0,-0.001235477349,0.0,1011.10499914,2203.10023144,-1.34130416972,0.0,0.0,-60.96,0.00383600394174,0.0,-0.00383606751517,0.0,-0.0,100.0,-0.0,-100.0,2479819175.29,0.0,0.0,0.0,0.0,0.0,0.0
1402603372569670187,0,3.99712980106,9.88567784727,-39.7031972536,10.0438151857,0.0374865883386,0.0,0.0326695768445,0.0,-0.001235477349,0.0,1011.10499914,2203.10023144,-1.34130416972,0.0,0.0,-60.96,0.00537022749826,0.0,-0.00383606751517,0.0,-0.0,100.0,-0.0,-100.0,2479819175.29,0.0,0.0,0.0,0.0,0.0,0.0
1402603372590347187,0,3.99698320225,9.88567784727,-39.7036646349,10.0438151857,0.0350585705846,0.0,0.0245606112039,0.0,-0.00127017397511,0.0,1011.10499914,2203.10023144,-1.34130416972,0.0,0.0,-60.96,0.00383600394174,0.0,-0.00383606751517,0.0,-0.0,100.0,-0.0,-100.0,2479819175.29,0.0,0.0,0.0,0.0,0.0,0.0
1402603372609680134,0,3.99698320225,9.88567784727,-39.7036646349,10.0438151857,0.0350585705846,0.0,0.0245606112039,0.0,-0.00127017397511,0.0,1011.10499914,2203.10023144,-1.34130416972,0.0,0.0,-60.96,0.00383600394174,0.0,-0.00383606751517,0.0,-0.0,100.0,-0.0,-100.0,2479819175.29,0.0,0.0,0.0,0.0,0.0,0.0
1402603372630223264,0,3.99871957197,9.88567784727,-39.7027212026,10.0438151857,0.0339843814699,0.0,0.0245876439039,0.0,-0.00107160820143,0.0,1011.10499914,2203.10023144,-1.34130416972,0.0,0.0,-60.96,0.00383600394174,0.0,-0.00383606751517,0.0,-0.0,100.0,-0.0,-100.0,2479819175.29,0.0,0.0,0.0,0.0,0.0,0.0
1402603372649660489,0,3.99871957197,9.88567784727,-39.7027212026,10.0438151857,0.0339843814699,0.0,0.0245876439039,0.0,-0.00107160820143,0.0,1011.10499914,2203.10023144,-1.34130416972,0.0,0.0,-60.96,0.00383600394174,0.0,-0.00383606751517,0.0,-0.0,100.0,-0.0,-100.0,2479819175.29,0.0,0.0,0.0,0.0,0.0,0.0
1402603372670255570,0,4.0002831846,9.88567784727,-39.7017761388,10.0438151857,0.0336885508886,0.0,0.0249587637603,0.0,-0.000859336225668,0.0,1011.10499914,2203.10023144,-1.34130416972,0.0,0.0,-60.96,0.00537022749826,0.0,-0.00383606751517,0.0,-0.0,100.0,-0.0,-100.0,2479819175.29,0.0,0.0,0.0,0.0,0.0,0.0
1402603372689977269,0,4.0002831846,9.88567784727,-39.7017761388,10.0438151857,0.0336885508886,0.0,0.0249587637603,0.0,-0.000859336225668,0.0,1011.10499914,2203.10023144,-1.34130416972,0.0,0.0,-60.96,0.00383600394174,0.0,-0.00383606751517,0.0,-0.0,100.0,-0.0,-100.0,2479819175.29,0.0,0.0,0.0,0.0,0.0,0.0
1402603372710421105,0,4.01312996977,9.88567784727,-39.6887488424,10.0438151857,0.0635307728711,0.0,0.0504920455758,0.0,-0.000960303129807,0.0,1011.10499914,2203.10023144,-1.34130416972,0.0,0.0,-60.96,0.00383600394174,0.0,-0.00383606751517,0.0,-0.0,100.0,-0.0,-100.0,2479819175.29,0.0,0.0,0.0,0.0,0.0,0.0
1402603372729675534,0,4.01312996977,9.88567784727,-39.6887488424,10.0438151857,0.0635307728711,0.0,0.0504920455758,0.0,-0.000960303129807,0.0,1011.10499914,2203.10023144,-1.34130416972,0.0,0.0,-60.96,0.00383600394174,0.0,-0.00383606751517,0.0,-0.0,100.0,-0.0,-100.0,2479819175.29,0.0,0.0,0.0,0.0,0.0,0.0
1402603372749799491,0,4.0242319313,9.88567784727,-39.6801655982,10.0438151857,0.0878131438111,0.0,0.0624818516241,0.0,-0.00121111323234,0.0,1011.10499914,2203.10023144,-1.34130416972,0.0,0.0,-60.96,0.00383600394174,0.0,-0.00383606751517,0.0,-0.0,100.0,-0.0,-100.0,2479819175.29,0.0,0.0,0.0,0.0,0.0,0.0
1402603372769775787,0,4.0242319313,9.88567784727,-39.6801655982,10.0438151857,0.0878131438111,0.0,0.0624818516241,0.0,-0.00121111323234,0.0,1011.10499914,2203.10023144,-1.34130416972,0.0,0.0,-60.96,0.00383600394174,0.0,-0.00383606751517,0.0,-0.0,100.0,-0.0,-100.0,2479819175.29,0.0,0.0,0.0,0.0,0.0,0.0
1402603372790480307,0,4.01580864286,9.88567784727,-39.6801135099,10.0438151857,0.0552655313927,0.0,0.0412276577172,0.0,-0.000194383039688,0.0,1011.10499914,2203.10023144,-1.34130416972,0.0,0.0,-60.96,0.00537022749826,0.0,-0.00383606751517,0.0,-0.0,100.0,-0.0,-100.0,2479819175.29,0.0,0.0,0.0,0.0,0.0,0.0
1402603372810446476,0,4.01580864286,9.88567784727,-39.6801135099,10.0438151857,0.0552655313927,0.0,0.0412276577172,0.0,-0.000194383039688,0.0,1011.10499914,2203.10023144,-1.34130416972,0.0,0.0,-60.96,0.00537022749826,0.0,-0.00383606751517,0.0,-0.0,100.0,-0.0,-100.0,2479819175.29,0.0,0.0,0.0,0.0,0.0,0.0
1402603372830993984,0,4.01810895099,9.88567784727,-39.6785156642,10.0438151857,0.0548883009764,0.0,0.0423311518055,0.0,7.39039198677e-05,0.0,1011.10499914,2203.10023144,-1.34130416972,0.0,0.0,-60.96,0.00383600394174,0.0,-0.00383606751517,0.0,-0.0,100.0,-0.0,-100.0,2479819175.29,0.0,0.0,0.0,0.0,0.0,0.0
1402603372850548224,0,4.0200891968,9.88567784727,-39.6769077589,10.0438151857,0.0551982195385,0.0,0.0425387871859,0.0,0.000382462768157,0.0,1011.10499914,2203.10023144,-1.34130416972,0.0,0.0,-60.96,0.00383600394174,0.0,-0.00383606751517,0.0,-0.0,100.0,-0.0,-100.0,2479819175.29,0.0,0.0,0.0,0.0,0.0,0.0
1402603372869771058,0,4.0200891968,9.88567784727,-39.6769077589,10.0438151857,0.0551982195385,0.0,0.0425387871859,0.0,0.000382462768157,0.0,1011.10499914,2203.10023144,-1.34130416972,0.0,0.0,-60.96,0.00383600394174,0.0,-0.00383606751517,0.0,-0.0,100.0,-0.0,-100.0,2479819175.29,0.0,0.0,0.0,0.0,0.0,0.0
1402603372889736619,0,4.02500582912,9.88567784727,-39.6714387138,10.0438151857,0.0643261836661,0.0,0.0479025241239,0.0,0.000274870611913,0.0,1011.10499914,2203.10023144,-1.34130416972,0.0,0.0,-60.96,0.00383600394174,0.0,-0.00383606751517,0.0,-0.0,100.0,-0.0,-100.0,2479819175.29,0.0,0.0,0.0,0.0,0.0,0.0
1402603372909857269,0,4.02500582912,9.88567784727,-39.6714387138,10.0438151857,0.0643261836661,0.0,0.0479025241239,0.0,0.000274870611913,0.0,1011.10499914,2203.10023144,-1.34130416972,0.0,0.0,-60.96,0.00383600394174,0.0,-0.00383606751517,0.0,-0.0,100.0,-0.0,-100.0,2479819175.29,0.0,0.0,0.0,0.0,0.0,0.0
1402603372929790629,0,4.02668689532,9.88567784727,-39.6700377174,10.0438151857,0.0647481057239,0.0,0.0498734919394,0.0,0.000413977646254,0.0,1011.10499914,2203.10023144,-1.34130416972,0.0,0.0,-60.96,0.00383600394174,0.0,-0.00383606751517,0.0,-0.0,100.0,-0.0,-100.0,2479819175.29,0.0,0.0,0.0,0.0,0.0,0.0
1402603372950295014,0,4.02668689532,9.88567784727,-39.6700377174,10.0438151857,0.0647481057239,0.0,0.0498734919394,0.0,0.000413977646254,0.0,1011.10499914,2203.10023144,-1.34130416972,0.0,0.0,-60.96,0.00383600394174,0.0,-0.00383606751517,0.0,-0.0,100.0,-0.0,-100.0,2479819175.29,0.0,0.0,0.0,0.0,0.0,0.0
1402603372969918166,0,4.02884953119,9.88567784727,-39.6684438991,10.0438151857,0.0649086246152,0.0,0.0506434544081,0.0,0.000575278731586,0.0,1011.10499914,2203.10023144,-1.34130416972,0.0,0.0,-60.96,0.00383600394174,0.0,-0.00383606751517,0.0,-0.0,100.0,-0.0,-100.0,2479819175.29,0.0,0.0,0.0,0.0,0.0,0.0
1402603372989845761,0,4.02884953119,9.88567784727,-39.6684438991,10.0438151857,0.0649086246152,0.0,0.0506434544081,0.0,0.000575278731586,0.0,1011.10499914,2203.10023144,-1.34130416972,0.0,0.0,-60.96,0.00383600394174,0.0,-0.00383606751517,0.0,-0.0,100.0,-0.0,-100.0,2479819175.29,0.0,0.0,0.0,0.0,0.0,0.0
1402603373009808721,0,4.03177889094,9.88567784727,-39.6663760857,10.0438151857,0.0664926444564,0.0,0.0513473093738,0.0,0.000676078696266,0.0,1011.10499914,2203.10023144,-1.34130416972,0.0,0.0,-60.96,0.00383600394174,0.0,-0.00383606751517,0.0,-0.0,100.0,-0.0,-100.0,2479819175.29,0.0,0.0,0.0,0.0,0.0,0.0
1402603373029732848,0,4.03177889094,9.88567784727,-39.6663760857,10.0438151857,0.0664926444564,0.0,0.0513473093738,0.0,0.000676078696266,0.0,1011.10499914,2203.10023144,-1.34130416972,0.0,0.0,-60.96,0.00383600394174,0.0,-0.00383606751517,0.0,-0.0,100.0,-0.0,-100.0,2479819175.29,0.0,0.0,0.0,0.0,0.0,0.0
1402603373050303453,0,4.03113931225,9.88567784727,-39.6679464478,10.0438151857,0.0571524003364,0.0,0.0341387732544,0.0,0.000998153462029,0.0,1011.10499914,2203.10023144,-1.34130416972,0.0,0.0,-60.96,0.00383600394174,0.0,-0.00383606751517,0.0,-0.0,100.0,-0.0,-100.0,2479819175.29,0.0,0.0,0.0,0.0,0.0,0.0
1402603373069979528,0,4.03113931225,9.88567784727,-39.6679464478,10.0438151857,0.0571524003364,0.0,0.0341387732544,0.0,0.000998153462029,0.0,1011.10499914,2203.10023144,-1.34130416972,0.0,0.0,-60.96,0.00383600394174,0.0,-0.00383606751517,0.0,-0.0,100.0,-0.0,-100.0,2479819175.29,0.0,0.0,0.0,0.0,0.0,0.0
1402603373089869234,0,4.03284189964,9.88567784727,-39.6655033258,10.0438151857,0.0553474889339,0.0,0.0332637008124,0.0,0.00107157121917,0.0,1011.10499914,2203.10023144,-1.34130416972,0.0,0.0,-60.96,0.00383600394174,0.0,-0.00383606751517,0.0,-0.0,100.0,-0.0,-100.0,2479819175.29,0.0,0.0,0.0,0.0,0.0,0.0
1402603373110397322,0,4.03284189964,9.88567784727,-39.6655033258,10.0438151857,0.0553474889339,0.0,0.0332637008124,0.0,0.00107157121917,0.0,1011.10499914,2203.10023144,-1.34130416972,0.0,0.0,-60.96,0.00383600394174,0.0,-0.00383606751517,0.0,-0.0,100.0,-0.0,-100.0,2479819175.29,0.0,0.0,0.0,0.0,0.0,0.0
1402603373129606809,0,4.03334582694,9.88567784727,-39.658053874,10.0438151857,0.0492240408619,0.0,0.0439225965182,0.0,0.00136497693356,0.0,1011.10499914,2203.10023144,-1.34130416972,0.0,0.0,-60.96,0.00383600394174,0.0,-0.00383606751517,0.0,-0.0,100.0,-0.0,-100.0,2479819175.29,0.0,0.0,0.0,0.0,0.0,0.0
1402603373149722082,0,4.03334582694,9.88567784727,-39.658053874,10.0438151857,0.0492240408619,0.0,0.0439225965182,0.0,0.00136497693356,0.0,1011.10499914,2203.10023144,-1.34130416972,0.0,0.0,-60.96,0.00383600394174,0.0,-0.00383606751517,0.0,-0.0,100.0,-0.0,-100.0,2479819175.29,0.0,0.0,0.0,0.0,0.0,0.0
1402603373170343104,0,4.0352434878,9.88567784727,-39.6566001492,10.0438151857,0.0488682566221,0.0,0.0444409806591,0.0,0.00147453703161,0.0,1011.10499914,2203.10023144,-1.34130416972,0.0,0.0,-60.96,0.00537022749826,0.0,-0.00383606751517,0.0,-0.0,100.0,-0.0,-100.0,2479819175.29,0.0,0.0,0.0,0.0,0.0,0.0
1402603373189791732,0,4.04570523719,9.88567784727,-39.6524869171,10.0438151857,0.0734119049065,0.0,0.0471162905452,0.0,0.00124445594038,0.0,1011.10499914,2203.10023144,-1.34130416972,0.0,0.0,-60.96,0.00383600394174,0.0,-0.00383606751517,0.0,-0.0,100.0,-0.0,-100.0,2479819175.29,0.0,0.0,0.0,0.0,0.0,0.0
1402603373210376618,0,4.04570523719,9.88567784727,-39.6524869171,10.0438151857,0.0734119049065,0.0,0.0471162905452,0.0,0.00124445594038,0.0,1011.10499914,2203.10023144,-1.34130416972,0.0,0.0,-60.96,0.00383600394174,0.0,-0.00383606751517,0.0,-0.0,100.0,-0.0,-100.0,2479819175.29,0.0,0.0,0.0,0.0,0.0,0.0
1402603373229792655,0,4.04720700527,9.88567784727,-39.6514881717,10.0438151857,0.0739091892355,0.0,0.0475281354401,0.0,0.00133342530255,0.0,1011.10499914,2203.10023144,-1.34130416972,0.0,0.0,-60.96,0.00537022749826,0.0,-0.00383606751517,0.0,-0.0,100.0,-0.0,-100.0,2479819175.29,0.0,0.0,0.0,0.0,0.0,0.0
1402603373250361366,0,4.04720700527,9.88567784727,-39.6514881717,10.0438151857,0.0739091892355,0.0,0.0475281354401,0.0,0.00133342530255,0.0,1011.10499914,2203.10023144,-1.34130416972,0.0,0.0,-60.96,0.00383600394174,0.0,-0.00383606751517,0.0,-0.0,100.0,-0.0,-100.0,2479819175.29,0.0,0.0,0.0,0.0,0.0,0.0
1402603373269722669,0,4.05305317076,9.88567784727,-39.6454494959,10.0438151857,0.081656336994,0.0,0.0566525670989,0.0,0.00129336214441,0.0,1011.10499914,2203.10023144,-1.34130416972,0.0,0.0,-60.96,0.00383600394174,0.0,-0.00383606751517,0.0,-0.0,100.0,-0.0,-100.0,2479819175.29,0.0,0.0,0.0,0.0,0.0,0.0
1402603373290355242,0,4.05305317076,9.88567784727,-39.6454494959,10.0438151857,0.081656336994,0.0,0.0566525670989,0.0,0.00129336214441,0.0,1011.10499914,2203.10023144,-1.34130416972,0.0,0.0,-60.96,0.00383600394174,0.0,-0.00383606751517,0.0,-0.0,100.0,-0.0,-100.0,2479819175.29,0.0,0.0,0.0,0.0,0.0,0.0
1402603373309876369,0,4.05573219025,9.88567784727,-39.6415096563,10.0438151857,0.0808049967826,0.0,0.055712181219,0.0,0.00151729679683,0.0,1011.10499914,2203.10023144,-1.34130416972,0.0,0.0,-60.96,0.00383600394174,0.0,-0.00383606751517,0.0,-0.0,100.0,-0.0,-100.0,2479819175.29,0.0,0.0,0.0,0.0,0.0,0.0
1402603373330426370,0,4.05573219025,9.88567784727,-39.6415096563,10.0438151857,0.0808049967826,0.0,0.055712181219,0.0,0.00151729679683,0.0,1011.10499914,2203.10023144,-1.34130416972,0.0,0.0,-60.96,0.00383600394174,0.0,-0.00383606751517,0.0,-0.0,100.0,-0.0,-100.0,2479819175.29,0.0,0.0,0.0,0.0,0.0,0.0
1402603373349825789,0,4.05251841984,9.88567784727,-39.6401797882,10.0438151857,0.0646795789617,0.0,0.0505862194406,0.0,0.00179890250867,0.0,1011.10499914,2203.10023144,-1.34130416972,0.0,0.0,-60.96,0.00383600394174,0.0,-0.00383606751517,0.0,-0.0,100.0,-0.0,-100.0,2479819175.29,0.0,0.0,0.0,0.0,0.0,0.0
1402603373370343327,0,4.05251841984,9.88567784727,-39.6401797882,10.0438151857,0.0646795789617,0.0,0.0505862194406,0.0,0.00179890250867,0.0,1011.10499914,2203.10023144,-1.34130416972,0.0,0.0,-60.96,0.00383600394174,0.0,-0.00383606751517,0.0,-0.0,100.0,-0.0,-100.0,2479819175.29,0.0,0.0,0.0,0.0,0.0,0.0
1402603373389806616,0,4.05533234131,9.88567784727,-39.6380664629,10.0438151857,0.0647120169845,0.0,0.0517467326035,0.0,0.00195750137712,0.0,1011.10499914,2203.10023144,-1.34130416972,0.0,0.0,-60.96,0.00383600394174,0.0,-0.00383606751517,0.0,-0.0,100.0,-0.0,-100.0,2479819175.29,0.0,0.0,0.0,0.0,0.0,0.0
1402603373410407113,0,4.05533234131,9.88567784727,-39.6380664629,10.0438151857,0.0647120169845,0.0,0.0517467326035,0.0,0.00195750137712,0.0,1011.10499914,2203.10023144,-1.34130416972,0.0,0.0,-60.96,0.00537022749826,0.0,-0.00383606751517,0.0,-0.0,100.0,-0.0,-100.0,2479819175.29,0.0,0.0,0.0,0.0,0.0,0.0
1402603373429824740,0,4.05884787236,9.88567784727,-39.6351912096,10.0438151857,0.0658981198991,0.0,0.0527407474139,0.0,0.00216669011555,0.0,1011.10499914,2203.10023144,-1.34130416972,0.0,0.0,-60.96,0.00383600394174,0.0,-0.00383606751517,0.0,-0.0,100.0,-0.0,-100.0,2479819175.29,0.0,0.0,0.0,0.0,0.0,0.0
1402603373450333188,0,4.05884787236,9.88567784727,-39.6351912096,10.0438151857,0.0658981198991,0.0,0.0527407474139,0.0,0.00216669011555,0.0,1011.10499914,2203.10023144,-1.34130416972,0.0,0.0,-60.96,0.00537022749826,0.0,-0.00383606751517,0.0,-0.0,100.0,-0.0,-100.0,2479819175.29,0.0,0.0,0.0,0.0,0.0,0.0
1402603373469821303,0,4.06373468305,9.88567784727,-39.6313378204,10.0438151857,0.06875833039,0.0,0.0530637419561,0.0,0.0022395657993,0.0,1011.10499914,2203.10023144,-1.34130416972,0.0,0.0,-60.96,0.00383600394174,0.0,-0.00383606751517,0.0,-0.0,100.0,-0.0,-100.0,2479819175.29,0.0,0.0,0.0,0.0,0.0,0.0
1402603373490406633,0,4.06373468305,9.88567784727,-39.6313378204,10.0438151857,0.06875833039,0.0,0.0530637419561,0.0,0.0022395657993,0.0,1011.10499914,2203.10023144,-1.34130416972,0.0,0.0,-60.96,0.00383600394174,0.0,-0.00383606751517,0.0,-0.0,100.0,-0.0,-100.0,2479819175.29,0.0,0.0,0.0,0.0,0.0,0.0
1402603373509851416,0,4.06266477111,9.88567784727,-39.6272822103,10.0438151857,0.0615145143267,0.0,0.0595091218155,0.0,0.00240617894292,0.0,1011.10499914,2203.10023144,-1.34130416972,0.0,0.0,-60.96,0.00383600394174,0.0,-0.00383606751517,0.0,-0.0,100.0,-0.0,-100.0,2479819175.29,0.0,0.0,0.0,0.0,0.0,0.0
1402603373530429713,0,4.06266477111,9.88567784727,-39.6272822103,10.0438151857,0.0615145143267,0.0,0.0595091218155,0.0,0.00240617894292,0.0,1011.10499914,2203.10023144,-1.34130416972,0.0,0.0,-60.96,0.00383600394174,0.0,-0.00383606751517,0.0,-0.0,100.0,-0.0,-100.0,2479819175.29,0.0,0.0,0.0,0.0,0.0,0.0
1402603373549809097,0,4.06520627524,9.88567784727,-39.6246191436,10.0438151857,0.0620915285255,0.0,0.0599697695811,0.0,0.002480506058,0.0,1011.10499914,2203.10023144,-1.34130416972,0.0,0.0,-60.96,0.00383600394174,0.0,-0.00383606751517,0.0,-0.0,100.0,-0.0,-100.0,2479819175.29,0.0,0.0,0.0,0.0,0.0,0.0
1402603373585797287,3,4.06520627524,9.88567784727,-39.6246191436,10.0438151857,0.0620915285255,0.0,0.0599697695811,0.0,0.002480506058,0.0,1011.10499914,2203.10023144,-1.34130416972,0.0,0.0,60.96,0.00383600394174,0.0,-0.00383606751517,0.0,-0.0,-100.0,-0.0,100.0,2479982707.09,0.0,0.0,0.0,0.0,0.0,0.0
1402603373590290136,3,4.07215234958,9.88567784727,-39.6196054095,10.0438151857,0.0724263508007,0.0,0.0643547089087,0.0,0.00264189635529,0.0,1011.10499914,2203.10023144,-1.34130416972,0.0,0.0,60.96,0.00383600394174,0.0,-0.00383606751517,0.0,-0.0,-100.0,-0.0,100.0,2479982707.09,0.0,0.0,0.0,0.0,0.0,0.0
1402603373610572843,3,4.07215234958,9.88567784727,-39.6196054095,10.0438151857,0.0724263508007,0.0,0.0643547089087,0.0,0.00264189635529,0.0,1011.10499914,2203.10023144,-1.34130416972,0.0,0.0,60.96,0.00383600394174,0.0,-0.00383606751517,0.0,-0.0,-100.0,-0.0,100.0,2479982707.09,0.0,0.0,0.0,0.0,0.0,0.0
1402603373631263976,3,4.07569409835,9.88567784727,-39.6208813864,10.0438151857,0.0727946730993,0.0,0.0531258221887,0.0,0.00296565839643,0.0,1011.10499914,2203.10023144,-1.34130416972,0.0,0.0,60.96,0.00383600394174,0.0,-0.00383606751517,0.0,-0.0,-100.0,-0.0,100.0,2479982707.09,0.0,0.0,0.0,0.0,0.0,0.0
1402603373650320392,3,4.07569409835,9.88567784727,-39.6208813864,10.0438151857,0.0727946730993,0.0,0.0531258221887,0.0,0.00296565839643,0.0,1011.10499914,2203.10023144,-1.34130416972,0.0,0.0,60.96,0.00383600394174,0.0,-0.00383606751517,0.0,-0.0,-100.0,-0.0,100.0,2479982707.09,0.0,0.0,0.0,0.0,0.0,0.0
1402603373669827492,3,4.0778716937,9.88567784727,-39.619423858,10.0438151857,0.072699493058,0.0,0.0540158557146,0.0,0.00310989661932,0.0,1011.10499914,2203.10023144,-1.34130416972,0.0,0.0,60.96,0.00383600394174,0.0,-0.00383606751517,0.0,-0.0,-100.0,-0.0,100.0,2479982707.09,0.0,0.0,0.0,0.0,0.0,0.0
1402603373690436014,3,4.07700638885,9.88567784727,-39.6161735424,10.0438151857,0.0659352205241,0.0,0.0561615396118,0.0,0.00325837406978,0.0,1011.10499914,2203.10023144,-1.34130416972,0.0,0.0,60.96,0.00383600394174,0.0,-0.00383606751517,0.0,-0.0,-100.0,-0.0,100.0,2479982707.09,0.0,0.0,0.0,0.0,0.0,0.0
1402603373709931635,3,4.07700638885,9.88567784727,-39.6161735424,10.0438151857,0.0659352205241,0.0,0.0561615396118,0.0,0.00325837406978,0.0,1011.10499914,2203.10023144,-1.34130416972,0.0,0.0,60.96,0.00383600394174,0.0,-0.00383606751517,0.0,-0.0,-100.0,-0.0,100.0,2479982707.09,0.0,0.0,0.0,0.0,0.0,0.0
1402603373730454372,3,4.0779960455,9.88567784727,-39.6149320475,10.0438151857,0.06543630702,0.0,0.0577257831065,0.0,0.00340509605255,0.0,1011.10499914,2203.10023144,-1.34130416972,0.0,0.0,60.96,0.00383600394174,0.0,-0.00383606751517,0.0,-0.0,-100.0,-0.0,100.0,2479982707.09,0.0,0.0,0.0,0.0,0.0,0.0
1402603373749863195,3,4.0779960455,9.88567784727,-39.6149320475,10.0438151857,0.06543630702,0.0,0.0577257831065,0.0,0.00340509605255,0.0,1011.10499914,2203.10023144,-1.34130416972,0.0,0.0,60.96,0.00537022749826,0.0,-0.00383606751517,0.0,-0.0,-100.0,-0.0,100.0,2479982707.09,0.0,0.0,0.0,0.0,0.0,0.0
1402603373770183808,3,4.08963859141,9.88567784727,-39.6078713521,10.0438151857,0.0874285060782,0.0,0.0671118148072,0.0,0.0035860592793,0.0,1011.10499914,2203.10023144,-1.34130416972,0.0,0.0,60.96,0.00383600394174,0.0,-0.00383606751517,0.0,-0.0,-100.0,-0.0,100.0,2479982707.09,0.0,0.0,0.0,0.0,0.0,0.0
1402603373789852141,3,4.08963859141,9.88567784727,-39.6078713521,10.0438151857,0.0874285060782,0.0,0.0671118148072,0.0,0.0035860592793,0.0,1011.10499914,2203.10023144,-1.34130416972,0.0,0.0,60.96,0.00537022749826,0.0,-0.00383606751517,0.0,-0.0,-100.0,-0.0,100.0,2479982707.09,0.0,0.0,0.0,0.0,0.0,0.0
1402603373809797396,3,4.09000871006,9.88567784727,-39.6063394638,10.0438151857,0.0785533729347,0.0,0.0637685191463,0.0,0.00384522892028,0.0,1011.10499914,2203.10023144,-1.34130416972,0.0,0.0,60.96,0.00537022749826,0.0,-0.00383606751517,0.0,-0.0,-100.0,-0.0,100.0,2479982707.09,0.0,0.0,0.0,0.0,0.0,0.0
1402603373829825791,3,4.09000871006,9.88567784727,-39.6063394638,10.0438151857,0.0785533729347,0.0,0.0637685191463,0.0,0.00384522892028,0.0,1011.10499914,2203.10023144,-1.34130416972,0.0,0.0,60.96,0.00383600394174,0.0,-0.00383606751517,0.0,-0.0,-100.0,-0.0,100.0,2479982707.09,0.0,0.0,0.0,0.0,0.0,0.0
1402603373849911280,3,4.08959826797,9.88567784727,-39.6111271316,10.0438151857,0.0704903917999,0.0,0.0467892400178,0.0,0.00404768954757,0.0,1011.10499914,2203.10023144,-1.34130416972,0.0,0.0,60.96,0.00383600394174,0.0,-0.00383606751517,0.0,-0.0,-100.0,-0.0,100.0,2479982707.09,0.0,0.0,0.0,0.0,0.0,0.0
1402603373869731855,3,4.08959826797,9.88567784727,-39.6111271316,10.0438151857,0.0704903917999,0.0,0.0467892400178,0.0,0.00404768954757,0.0,1011.10499914,2203.10023144,-1.34130416972,0.0,0.0,60.96,0.00383600394174,0.0,-0.00383606751517,0.0,-0.0,-100.0,-0.0,100.0,2479982707.09,0.0,0.0,0.0,0.0,0.0,0.0
1402603373889714003,3,4.09210527845,9.88567784727,-39.6067029108,10.0438151857,0.067574171057,0.0,0.0516613512255,0.0,0.00424362601627,0.0,1011.10499914,2203.10023144,-1.34130416972,0.0,0.0,60.96,0.00383600394174,0.0,-0.00383606751517,0.0,-0.0,-100.0,-0.0,100.0,2479982707.09,0.0,0.0,0.0,0.0,0.0,0.0
1402603373910364508,3,4.09210527845,9.88567784727,-39.6067029108,10.0438151857,0.067574171057,0.0,0.0516613512255,0.0,0.00424362601627,0.0,1011.10499914,2203.10023144,-1.34130416972,0.0,0.0,60.96,0.00383600394174,0.0,-0.00383606751517,0.0,-0.0,-100.0,-0.0,100.0,2479982707.09,0.0,0.0,0.0,0.0,0.0,0.0
1402603373929730984,3,4.09622271575,9.88567784727,-39.6066452738,10.0438151857,0.0706358836832,0.0,0.0464706013135,0.0,0.00442035216516,0.0,1011.10499914,2203.10023144,-1.34130416972,0.0,0.0,60.96,0.00383600394174,0.0,-0.00383606751517,0.0,-0.0,-100.0,-0.0,100.0,2479982707.09,0.0,0.0,0.0,0.0,0.0,0.0
1402603373950358216,3,4.09622271575,9.88567784727,-39.6066452738,10.0438151857,0.0706358836832,0.0,0.0464706013135,0.0,0.00442035216516,0.0,1011.10499914,2203.10023144,-1.34130416972,0.0,0.0,60.96,0.00383600394174,0.0,-0.00383606751517,0.0,-0.0,-100.0,-0.0,100.0,2479982707.09,0.0,0.0,0.0,0.0,0.0,0.0
1402603373969870677,3,4.10656216027,9.88567784727,-39.5971484445,10.0438151857,0.0889539264516,0.0,0.0661152758951,0.0,0.00453819981936,0.0,1011.10499914,2203.10023144,-1.34130416972,0.0,0.0,60.96,0.00537022749826,0.0,-0.00383606751517,0.0,-0.0,-100.0,-0.0,100.0,2479982707.09,0.0,0.0,0.0,0.0,0.0,0.0
1402603373989794111,3,4.10656216027,9.88567784727,-39.5971484445,10.0438151857,0.0889539264516,0.0,0.0661152758951,0.0,0.00453819981936,0.0,1011.10499914,2203.10023144,-1.34130416972,0.0,0.0,60.96,0.00383600394174,0.0,-0.00383606751517,0.0,-0.0,-100.0,-0.0,100.0,2479982707.09,0.0,0.0,0.0,0.0,0.0,0.0
1402603374009807862,3,4.10999700507,9.88567784727,-39.5949879924,10.0438151857,0.0879427418305,0.0,0.0648212638619,0.0,0.00470260716402,0.0,1011.10499914,2203.10023144,-1.34130416972,0.0,0.0,60.96,0.00383600394174,0.0,-0.00383606751517,0.0,-0.0,-100.0,-0.0,100.0,2479982707.09,0.0,0.0,0.0,0.0,0.0,0.0
1402603374029739874,3,4.10999700507,9.88567784727,-39.5949879924,10.0438151857,0.0879427418305,0.0,0.0648212638619,0.0,0.00470260716402,0.0,1011.10499914,2203.10023144,-1.34130416972,0.0,0.0,60.96,0.00383600394174,0.0,-0.00383606751517,0.0,-0.0,-100.0,-0.0,100.0,2479982707.09,0.0,0.0,0.0,0.0,0.0,0.0
1402603374050346239,3,4.1065907535,9.88567784727,-39.597249645,10.0438151857,0.0641474062738,0.0,0.0487455916169,0.0,0.00473430937335,0.0,1011.10499914,2203.10023144,-1.34130416972,0.0,0.0,60.96,0.00383600394174,0.0,-0.00383606751517,0.0,-0.0,-100.0,-0.0,100.0,2479982707.09,0.0,0.0,0.0,0.0,0.0,0.0
1402603374069762382,3,4.1065907535,9.88567784727,-39.597249645,10.0438151857,0.0641474062738,0.0,0.0487455916169,0.0,0.00473430937335,0.0,1011.10499914,2203.10023144,-1.34130416972,0.0,0.0,60.96,0.00537022749826,0.0,-0.00383606751517,0.0,-0.0,-100.0,-0.0,100.0,2479982707.09,0.0,0.0,0.0,0.0,0.0,0.0
1402603374089734816,3,4.10667622639,9.88567784727,-39.6008906784,10.0438151857,0.059970750751,0.0,0.0360355546456,0.0,0.00489646851012,0.0,1011.10499914,2203.10023144,-1.34130416972,0.0,0.0,60.96,0.00383600394174,0.0,-0.00383606751517,0.0,-0.0,-100.0,-0.0,100.0,2479982707.09,0.0,0.0,0.0,0.0,0.0,0.0
1402603374109693816,3,4.10667622639,9.88567784727,-39.6008906784,10.0438151857,0.059970750751,0.0,0.0360355546456,0.0,0.00489646851012,0.0,1011.10499914,2203.10023144,-1.34130416972,0.0,0.0,60.96,0.00383600394174,0.0,-0.00383606751517,0.0,-0.0,-100.0,-0.0,100.0,2479982707.09,0.0,0.0,0.0,0.0,0.0,0.0
1402603374129769163,3,4.10810322052,9.88567784727,-39.6001531794,10.0438151857,0.0598525326592,0.0,0.0350416020156,0.0,0.00492990683631,0.0,1011.10499914,2203.10023144,-1.34130416972,0.0,0.0,60.96,0.00383600394174,0.0,-0.00383606751517,0.0,-0.0,-100.0,-0.0,100.0,2479982707.09,0.0,0.0,0.0,0.0,0.0,0.0
1402603374150338026,3,4.10810322052,9.88567784727,-39.6001531794,10.0438151857,0.0598525326592,0.0,0.0350416020156,0.0,0.00492990683631,0.0,1011.10499914,2203.10023144,-1.34130416972,0.0,0.0,60.96,0.00383600394174,0.0,-0.00383606751517,0.0,-0.0,-100.0,-0.0,100.0,2479982707.09,0.0,0.0,0.0,0.0,0.0,0.0
1402603374169687241,3,4.10626740913,9.88567784727,-39.6014478528,10.0438151857,0.0481883857772,0.0,0.0315818275357,0.0,0.0049729471014,0.0,1011.10499914,2203.10023144,-1.34130416972,0.0,0.0,60.96,0.00537022749826,0.0,-0.00383606751517,0.0,-0.0,-100.0,-0.0,100.0,2479982707.09,0.0,0.0,0.0,0.0,0.0,0.0
1402603374189839089,3,4.10626740913,9.88567784727,-39.6014478528,10.0438151857,0.0481883857772,0.0,0.0315818275357,0.0,0.0049729471014,0.0,1011.10499914,2203.10023144,-1.34130416972,0.0,0.0,60.96,0.00383600394174,0.0,-0.00383606751517,0.0,-0.0,-100.0,-0.0,100.0,2479982707.09,0.0,0.0,0.0,0.0,0.0,0.0
1402603374210414029,3,4.11559302108,9.88567784727,-39.5989709927,10.0438151857,0.0670433342138,0.0,0.0340790817602,0.0,0.00519127066699,0.0,1011.10499914,2203.10023144,-1.34130416972,0.0,0.0,60.96,0.00383600394174,0.0,-0.00383606751517,0.0,-0.0,-100.0,-0.0,100.0,2479982707.09,0.0,0.0,0.0,0.0,0.0,0.0
1402603374229922238,3,4.11559302108,9.88567784727,-39.5989709927,10.0438151857,0.0670433342138,0.0,0.0340790817602,0.0,0.00519127066699,0.0,1011.10499914,2203.10023144,-1.34130416972,0.0,0.0,60.96,0.00537022749826,0.0,-0.00383606751517,0.0,-0.0,-100.0,-0.0,100.0,2479982707.09,0.0,0.0,0.0,0.0,0.0,0.0
1402603374250519048,3,4.12069044252,9.88567784727,-39.5886810368,10.0438151857,0.0718313468155,0.0,0.059703570542,0.0,0.00520517290144,0.0,1011.10499914,2203.10023144,-1.34130416972,0.0,0.0,60.96,0.00383600394174,0.0,-0.00383606751517,0.0,-0.0,-100.0,-0.0,100.0,2479982707.09,0.0,0.0,0.0,0.0,0.0,0.0
1402603374269757830,3,4.12069044252,9.88567784727,-39.5886810368,10.0438151857,0.0718313468155,0.0,0.059703570542,0.0,0.00520517290144,0.0,1011.10499914,2203.10023144,-1.34130416972,0.0,0.0,60.96,0.00383600394174,0.0,-0.00383606751517,0.0,-0.0,-100.0,-0.0,100.0,2479982707.09,0.0,0.0,0.0,0.0,0.0,0.0
1402603374289848148,3,4.12397651295,9.88567784727,-39.5896242086,10.0438151857,0.0748805417331,0.0,0.0555653804012,0.0,0.00539956525807,0.0,1011.10499914,2203.10023144,-1.34130416972,0.0,0.0,60.96,0.00383600394174,0.0,-0.00383606751517,0.0,-0.0,-100.0,-0.0,100.0,2479982707.09,0.0,0.0,0.0,0.0,0.0,0.0
1402603374309813806,3,4.12550072837,9.88567784727,-39.5884516698,10.0438151857,0.0749416520302,0.0,0.0556558969031,0.0,0.00544048423196,0.0,1011.10499914,2203.10023144,-1.34130416972,0.0,0.0,60.96,0.00383600394174,0.0,-0.00383606751517,0.0,-0.0,-100.0,-0.0,100.0,2479982707.09,0.0,0.0,0.0,0.0,0.0,0.0
1402603374330412790,3,4.12550072837,9.88567784727,-39.5884516698,10.0438151857,0.0749416520302,0.0,0.0556558969031,0.0,0.00544048423196,0.0,1011.10499914,2203.10023144,-1.34130416972,0.0,0.0,60.96,0.00383600394174,0.0,-0.00383606751517,0.0,-0.0,-100.0,-0.0,100.0,2479982707.09,0.0,0.0,0.0,0.0,0.0,0.0
1402603374349914176,3,4.12732909097,9.88567784727,-39.5873740036,10.0438151857,0.0755494734984,0.0,0.0556397532394,0.0,0.00548316510582,0.0,1011.10499914,2203.10023144,-1.34130416972,0.0,0.0,60.96,0.00383600394174,0.0,-0.00383606751517,0.0,-0.0,-100.0,-0.0,100.0,2479982707.09,0.0,0.0,0.0,0.0,0.0,0.0
1402603374370711302,3,4.12732909097,9.88567784727,-39.5873740036,10.0438151857,0.0755494734984,0.0,0.0556397532394,0.0,0.00548316510582,0.0,1011.10499914,2203.10023144,-1.34130416972,0.0,0.0,60.96,0.00383600394174,0.0,-0.00383606751517,0.0,-0.0,-100.0,-0.0,100.0,2479982707.09,0.0,0.0,0.0,0.0,0.0,0.0
1402603374389929448,3,4.13015717626,9.88567784727,-39.5849665919,10.0438151857,0.07528023403,0.0,0.0579487838056,0.0,0.00554881019195,0.0,1011.10499914,2203.10023144,-1.34130416972,0.0,0.0,60.96,0.00383600394174,0.0,-0.00383606751517,0.0,-0.0,-100.0,-0.0,100.0,2479982707.09,0.0,0.0,0.0,0.0,0.0,0.0
1402603374410388583,3,4.13015717626,9.88567784727,-39.5849665919,10.0438151857,0.07528023403,0.0,0.0579487838056,0.0,0.00554881019195,0.0,1011.10499914,2203.10023144,-1.34130416972,0.0,0.0,60.96,0.00537022749826,0.0,-0.00383606751517,0.0,-0.0,-100.0,-0.0,100.0,2479982707.09,0.0,0.0,0.0,0.0,0.0,0.0
1402603374429789014,3,4.12874947999,9.88567784727,-39.587718107,10.0438151857,0.0623877502282,0.0,0.0451257805332,0.0,0.00590787522802,0.0,1011.10499914,2203.10023144,-1.34130416972,0.0,0.0,60.96,0.00383600394174,0.0,-0.00383606751517,0.0,-0.0,-100.0,-0.0,100.0,2479982707.09,0.0,0.0,0.0,0.0,0.0,0.0
1402603374449836183,3,4.12874947999,9.88567784727,-39.587718107,10.0438151857,0.0623877502282,0.0,0.0451257805332,0.0,0.00590787522802,0.0,1011.10499914,2203.10023144,-1.34130416972,0.0,0.0,60.96,0.00383600394174,0.0,-0.00383606751517,0.0,-0.0,-100.0,-0.0,100.0,2479982707.09,0.0,0.0,0.0,0.0,0.0,0.0
1402603374469781990,3,4.13289050711,9.88567784727,-39.5845524199,10.0438151857,0.0656239631046,0.0,0.0507387047132,0.0,0.00599327541192,0.0,1011.10499914,2203.10023144,-1.34130416972,0.0,0.0,60.96,0.00383600394174,0.0,-0.00383606751517,0.0,-0.0,-100.0,-0.0,100.0,2479982707.09,0.0,0.0,0.0,0.0,0.0,0.0
1402603374489728175,3,4.13289050711,9.88567784727,-39.5845524199,10.0438151857,0.0656239631046,0.0,0.0507387047132,0.0,0.00599327541192,0.0,1011.10499914,2203.10023144,-1.34130416972,0.0,0.0,60.96,0.00383600394174,0.0,-0.00383606751517,0.0,-0.0,-100.0,-0.0,100.0,2479982707.09,0.0,0.0,0.0,0.0,0.0,0.0
1402603374509831107,3,4.1349090752,9.88567784727,-39.5839190567,10.0438151857,0.0613608039355,0.0,0.0464605793184,0.0,0.00620595622365,0.0,1011.10499914,2203.10023144,-1.34130416972,0.0,0.0,60.96,0.00383600394174,0.0,-0.00383606751517,0.0,-0.0,-100.0,-0.0,100.0,2479982707.09,0.0,0.0,0.0,0.0,0.0,0.0
1402603374529863655,3,4.1349090752,9.88567784727,-39.5839190567,10.0438151857,0.0613608039355,0.0,0.0464605793184,0.0,0.00620595622365,0.0,1011.10499914,2203.10023144,-1.34130416972,0.0,0.0,60.96,0.00383600394174,0.0,-0.00383606751517,0.0,-0.0,-100.0,-0.0,100.0,2479982707.09,0.0,0.0,0.0,0.0,0.0,0.0
1402603374549919539,3,4.13798607242,9.88567784727,-39.5815684369,10.0438151857,0.0616770848709,0.0,0.0457141960426,0.0,0.006476790522,0.0,1011.10499914,2203.10023144,-1.34130416972,0.0,0.0,60.96,0.00383600394174,0.0,-0.00383606751517,0.0,-0.0,-100.0,-0.0,100.0,2479982707.09,0.0,0.0,0.0,0.0,0.0,0.0
1402603374570492509,3,4.13798607242,9.88567784727,-39.5815684369,10.0438151857,0.0616770848709,0.0,0.0457141960426,0.0,0.006476790522,0.0,1011.10499914,2203.10023144,-1.34130416972,0.0,0.0,60.96,0.00383600394174,0.0,-0.00383606751517,0.0,-0.0,-100.0,-0.0,100.0,2479982707.09,0.0,0.0,0.0,0.0,0.0,0.0
1402603374589735027,3,4.14336084062,9.88567784727,-39.5802467341,10.0438151857,0.0676811731159,0.0,0.0467822061393,0.0,0.006759974524,0.0,1011.10499914,2203.10023144,-1.34130416972,0.0,0.0,60.96,0.00383600394174,0.0,-0.00383606751517,0.0,-0.0,-100.0,-0.0,100.0,2479982707.09,0.0,0.0,0.0,0.0,0.0,0.0
1402603374610400363,3,4.14336084062,9.88567784727,-39.5802467341,10.0438151857,0.0676811731159,0.0,0.0467822061393,0.0,0.006759974524,0.0,1011.10499914,2203.10023144,-1.34130416972,0.0,0.0,60.96,0.00383600394174,0.0,-0.00383606751517,0.0,-0.0,-100.0,-0.0,100.0,2479982707.09,0.0,0.0,0.0,0.0,0.0,0.0
1402603374630332322,3,4.14478031874,9.88567784727,-39.5790555272,10.0438151857,0.0673420568089,0.0,0.0462043271193,0.0,0.00683942335181,0.0,1011.10499914,2203.10023144,-1.34130416972,0.0,0.0,60.96,0.00383600394174,0.0,-0.00383606751517,0.0,-0.0,-100.0,-0.0,100.0,2479982707.09,0.0,0.0,0.0,0.0,0.0,0.0
1402603374651021779,3,4.14478031874,9.88567784727,-39.5790555272,10.0438151857,0.0673420568089,0.0,0.0462043271193,0.0,0.00683942335181,0.0,1011.10499914,2203.10023144,-1.34130416972,0.0,0.0,60.96,0.00537022749826,0.0,-0.00383606751517,0.0,-0.0,-100.0,-0.0,100.0,2479982707.09,0.0,0.0,0.0,0.0,0.0,0.0
1402603374669577273,3,4.15509145238,9.88567784727,-39.5748945463,10.0438151857,0.0872094199334,0.0,0.0534390794134,0.0,0.00672471850077,0.0,1011.10499914,2203.10023144,-1.34130416972,0.0,0.0,60.96,0.00537022749826,0.0,-0.00383606751517,0.0,-0.0,-100.0,-0.0,100.0,2479982707.09,0.0,0.0,0.0,0.0,0.0,0.0
1402603374690284501,3,4.15509145238,9.88567784727,-39.5748945463,10.0438151857,0.0872094199334,0.0,0.0534390794134,0.0,0.00672471850077,0.0,1011.10499914,2203.10023144,-1.34130416972,0.0,0.0,60.96,0.00383600394174,0.0,-0.00383606751517,0.0,-0.0,-100.0,-0.0,100.0,2479982707.09,0.0,0.0,0.0,0.0,0.0,0.0
1402603374709812530,3,4.16417440208,9.88567784727,-39.5684759637,10.0438151857,0.101433976993,0.0,0.0656634189824,0.0,0.00681149629842,0.0,1011.10499914,2203.10023144,-1.34130416972,0.0,0.0,60.96,0.00383600394174,0.0,-0.00383606751517,0.0,-0.0,-100.0,-0.0,100.0,2479982707.09,0.0,0.0,0.0,0.0,0.0,0.0
1402603374730334685,3,4.16417440208,9.88567784727,-39.5684759637,10.0438151857,0.101433976993,0.0,0.0656634189824,0.0,0.00681149629842,0.0,1011.10499914,2203.10023144,-1.34130416972,0.0,0.0,60.96,0.00383600394174,0.0,-0.00383606751517,0.0,-0.0,-100.0,-0.0,100.0,2479982707.09,0.0,0.0,0.0,0.0,0.0,0.0
1402603374749936319,3,4.16202948685,9.88567784727,-39.5704103934,10.0438151857,0.0820888796254,0.0,0.0545447128137,0.0,0.00679709154391,0.0,1011.10499914,2203.10023144,-1.34130416972,0.0,0.0,60.96,0.00383600394174,0.0,-0.00383606751517,0.0,-0.0,-100.0,-0.0,100.0,2479982707.09,0.0,0.0,0.0,0.0,0.0,0.0
1402603374770195788,3,4.16202948685,9.88567784727,-39.5704103934,10.0438151857,0.0820888796254,0.0,0.0545447128137,0.0,0.00679709154391,0.0,1011.10499914,2203.10023144,-1.34130416972,0.0,0.0,60.96,0.00383600394174,0.0,-0.00383606751517,0.0,-0.0,-100.0,-0.0,100.0,2479982707.09,0.0,0.0,0.0,0.0,0.0,0.0
1402603374789927970,3,4.16603903634,9.88567784727,-39.5675003482,10.0438151857,0.0831063897268,0.0,0.0563133355716,0.0,0.00686769981643,0.0,1011.10499914,2203.10023144,-1.34130416972,0.0,0.0,60.96,0.00383600394174,0.0,-0.00383606751517,0.0,-0.0,-100.0,-0.0,100.0,2479982707.09,0.0,0.0,0.0,0.0,0.0,0.0
1402603374810127304,3,4.16603903634,9.88567784727,-39.5675003482,10.0438151857,0.0831063897268,0.0,0.0563133355716,0.0,0.00686769981643,0.0,1011.10499914,2203.10023144,-1.34130416972,0.0,0.0,60.96,0.00383600394174,0.0,-0.00383606751517,0.0,-0.0,-100.0,-0.0,100.0,2479982707.09,0.0,0.0,0.0,0.0,0.0,0.0
1402603374829626145,3,4.16776495921,9.88567784727,-39.5664525849,10.0438151857,0.0836453165267,0.0,0.0544716937326,0.0,0.00693611728757,0.0,1011.10499914,2203.10023144,-1.34130416972,0.0,0.0,60.96,0.00383600394174,0.0,-0.00383606751517,0.0,-0.0,-100.0,-0.0,100.0,2479982707.09,0.0,0.0,0.0,0.0,0.0,0.0
1402603374850254378,3,4.16776495921,9.88567784727,-39.5664525849,10.0438151857,0.0836453165267,0.0,0.0544716937326,0.0,0.00693611728757,0.0,1011.10499914,2203.10023144,-1.34130416972,0.0,0.0,60.96,0.00383600394174,0.0,-0.00383606751517,0.0,-0.0,-100.0,-0.0,100.0,2479982707.09,0.0,0.0,0.0,0.0,0.0,0.0
1402603374869636232,3,4.17690063775,9.88567784727,-39.562482211,10.0438151857,0.0988607601693,0.0,0.0619413024358,0.0,0.00698410809438,0.0,1011.10499914,2203.10023144,-1.34130416972,0.0,0.0,60.96,0.00383600394174,0.0,-0.00383606751517,0.0,-0.0,-100.0,-0.0,100.0,2479982707.09,0.0,0.0,0.0,0.0,0.0,0.0
1402603374889600923,3,4.17690063775,9.88567784727,-39.562482211,10.0438151857,0.0988607601693,0.0,0.0619413024358,0.0,0.00698410809438,0.0,1011.10499914,2203.10023144,-1.34130416972,0.0,0.0,60.96,0.00383600394174,0.0,-0.00383606751517,0.0,-0.0,-100.0,-0.0,100.0,2479982707.09,0.0,0.0,0.0,0.0,0.0,0.0
1402603374910136470,3,4.18084822195,9.88567784727,-39.559855247,10.0438151857,0.100245004983,0.0,0.0625507379755,0.0,0.00700416982482,0.0,1011.10499914,2203.10023144,-1.34130416972,0.0,0.0,60.96,0.00383600394174,0.0,-0.00383606751517,0.0,-0.0,-100.0,-0.0,100.0,2479982707.09,0.0,0.0,0.0,0.0,0.0,0.0
1402603374929821938,3,4.18084822195,9.88567784727,-39.559855247,10.0438151857,0.100245004983,0.0,0.0625507379755,0.0,0.00700416982482,0.0,1011.10499914,2203.10023144,-1.34130416972,0.0,0.0,60.96,0.00537022749826,0.0,-0.00383606751517,0.0,-0.0,-100.0,-0.0,100.0,2479982707.09,0.0,0.0,0.0,0.0,0.0,0.0
1402603374950357518,3,4.18741321497,9.88567784727,-39.5619056767,10.0438151857,0.106305532462,0.0,0.0483210457977,0.0,0.00721820346273,0.0,1011.10499914,2203.10023144,-1.34130416972,0.0,0.0,60.96,0.00383600394174,0.0,-0.00383606751517,0.0,-0.0,-100.0,-0.0,100.0,2479982707.09,0.0,0.0,0.0,0.0,0.0,0.0
1402603374969797210,3,4.18741321497,9.88567784727,-39.5619056767,10.0438151857,0.106305532462,0.0,0.0483210457977,0.0,0.00721820346273,0.0,1011.10499914,2203.10023144,-1.34130416972,0.0,0.0,60.96,0.00383600394174,0.0,-0.00383606751517,0.0,-0.0,-100.0,-0.0,100.0,2479982707.09,0.0,0.0,0.0,0.0,0.0,0.0
1402603374990394900,3,4.18206697202,9.88567784727,-39.5630783604,10.0438151857,0.078066177988,0.0,0.038555543063,0.0,0.0075440333076,0.0,1011.10499914,2203.10023144,-1.34130416972,0.0,0.0,60.96,0.00383600394174,0.0,-0.00383606751517,0.0,-0.0,-100.0,-0.0,100.0,2479982707.09,0.0,0.0,0.0,0.0,0.0,0.0
1402603375009769913,3,4.18206697202,9.88567784727,-39.5630783604,10.0438151857,0.078066177988,0.0,0.038555543063,0.0,0.0075440333076,0.0,1011.10499914,2203.10023144,-1.34130416972,0.0,0.0,60.96,0.00383600394174,0.0,-0.00383606751517,0.0,-0.0,-100.0,-0.0,100.0,2479982707.09,0.0,0.0,0.0,0.0,0.0,0.0
1402603375030374162,3,4.1851581365,9.88567784727,-39.5618642839,10.0438151857,0.0789400822829,0.0,0.0365019774606,0.0,0.00769111726912,0.0,1011.10499914,2203.10023144,-1.34130416972,0.0,0.0,60.96,0.00383600394174,0.0,-0.00383606751517,0.0,-0.0,-100.0,-0.0,100.0,2479982707.09,0.0,0.0,0.0,0.0,0.0,0.0
1402603375049853894,3,4.1851581365,9.88567784727,-39.5618642839,10.0438151857,0.0789400822829,0.0,0.0365019774606,0.0,0.00769111726912,0.0,1011.10499914,2203.10023144,-1.34130416972,0.0,0.0,60.96,0.00537022749826,0.0,-0.00383606751517,0.0,-0.0,-100.0,-0.0,100.0,2479982707.09,0.0,0.0,0.0,0.0,0.0,0.0
1402603375070326763,3,4.18492497434,9.88567784727,-39.5592430755,10.0438151857,0.0658702182836,0.0,0.0382467705382,0.0,0.00784919508254,0.0,1011.10499914,2203.10023144,-1.34130416972,0.0,0.0,60.96,0.00383600394174,0.0,-0.00383606751517,0.0,-0.0,-100.0,-0.0,100.0,2479982707.09,0.0,0.0,0.0,0.0,0.0,0.0
1402603375089806856,3,4.18492497434,9.88567784727,-39.5592430755,10.0438151857,0.0658702182836,0.0,0.0382467705382,0.0,0.00784919508254,0.0,1011.10499914,2203.10023144,-1.34130416972,0.0,0.0,60.96,0.00383600394174,0.0,-0.00383606751517,0.0,-0.0,-100.0,-0.0,100.0,2479982707.09,0.0,0.0,0.0,0.0,0.0,0.0
1402603375110335995,3,4.1868223799,9.88567784727,-39.5564552701,10.0438151857,0.064879371857,0.0,0.0412113287405,0.0,0.00803983172186,0.0,1011.10499914,2203.10023144,-1.34130416972,0.0,0.0,60.96,0.00383600394174,0.0,-0.00383606751517,0.0,-0.0,-100.0,-0.0,100.0,2479982707.09,0.0,0.0,0.0,0.0,0.0,0.0
1402603375129818271,3,4.19135807132,9.88567784727,-39.5559771993,10.0438151857,0.0708044548528,0.0,0.0370810023461,0.0,0.0082481181362,0.0,1011.10499914,2203.10023144,-1.34130416972,0.0,0.0,60.96,0.00537022749826,0.0,-0.00383606751517,0.0,-0.0,-100.0,-0.0,100.0,2479982707.09,0.0,0.0,0.0,0.0,0.0,0.0
1402603375150375183,3,4.19135807132,9.88567784727,-39.5559771993,10.0438151857,0.0708044548528,0.0,0.0370810023461,0.0,0.0082481181362,0.0,1011.10499914,2203.10023144,-1.34130416972,0.0,0.0,60.96,0.00383600394174,0.0,-0.00383606751517,0.0,-0.0,-100.0,-0.0,100.0,2479982707.09,0.0,0.0,0.0,0.0,0.0,0.0
1402603375169893086,3,4.19274823501,9.88567784727,-39.5552985317,10.0438151857,0.0705891256795,0.0,0.036530958679,0.0,0.00835331215301,0.0,1011.10499914,2203.10023144,-1.34130416972,0.0,0.0,60.96,0.00383600394174,0.0,-0.00383606751517,0.0,-0.0,-100.0,-0.0,100.0,2479982707.09,0.0,0.0,0.0,0.0,0.0,0.0
1402603375190430792,3,4.19274823501,9.88567784727,-39.5552985317,10.0438151857,0.0705891256795,0.0,0.036530958679,0.0,0.00835331215301,0.0,1011.10499914,2203.10023144,-1.34130416972,0.0,0.0,60.96,0.00383600394174,0.0,-0.00383606751517,0.0,-0.0,-100.0,-0.0,100.0,2479982707.09,0.0,0.0,0.0,0.0,0.0,0.0
1402603375209596096,3,4.20163845714,9.88567784727,-39.5498178267,10.0438151857,0.0832573470453,0.0,0.0450308354573,0.0,0.00849451015707,0.0,1011.10499914,2203.10023144,-1.34130416972,0.0,0.0,60.96,0.00383600394174,0.0,-0.00383606751517,0.0,-0.0,-100.0,-0.0,100.0,2479982707.09,0.0,0.0,0.0,0.0,0.0,0.0
