rosbagTimestamp,control_method,x_current,x_desired,y_current,y_desired,x_velocity_current,x_velocity_desired,y_velocity_current,y_velocity_desired,yaw_current,yaw_desired,required_force_x,required_force_y,required_moment_z,resultant_force_x,resultant_force_y,resultant_moment_z,current_port_servo_angle,current_port_thruster_force,current_starboard_servo_angle,current_starboard_thruster_force,estimated_port_servo_angle,estimated_port_thruster_force,estimated_starboard_servo_angle,estimated_starboard_thruster_force,cost_value,step,user_defined_1,user_defined_2,user_defined_3,user_defined_4,user_defined_5
1402598803243768872,0,4.54253410357,-0.114322152727,-37.0868454032,0.043815185726,0.171994614792,0.0,-0.1064757489,0.0,2.0296791753,0.0,0.0,0.0,0.0,93.2943341435,36.0023223796,2.3740318763,-0.000767381983555,-0.0,0.312241164846,100.0,0.0,-0.0,0.368292786358,100.0,1136093.26122,0.0,0.0,0.0,0.0,0.0,0.0
1402598803263780854,0,4.55605436836,-0.114322152727,-37.0955145845,0.043815185726,0.167730827465,0.0,-0.097971815404,0.0,2.02798785436,0.0,0.0,0.0,0.0,93.2943341435,36.0023223796,2.3740318763,-0.000767381983555,-0.0,0.330653516454,100.0,0.0,-0.0,0.368292786358,100.0,1136093.26121,0.0,0.0,0.0,0.0,0.0,0.0
1402598803283473983,0,4.55605436836,-0.114322152727,-37.0955145845,0.043815185726,0.167730827465,0.0,-0.097971815404,0.0,2.02798785436,0.0,0.0,0.0,0.0,93.2943341435,36.0023223796,2.3740318763,0.000767318410122,-0.0,0.362875072164,100.0,0.0,-0.0,0.368292786358,100.0,1136093.2612,0.0,0.0,0.0,0.0,0.0,0.0
1402598803303927683,0,4.57088082413,-0.114322152727,-37.1017068708,0.043815185726,0.16861364641,0.0,-0.0765249827763,0.0,2.02628166507,0.0,0.0,0.0,0.0,93.2943341435,36.0023223796,2.3740318763,-0.000767381983555,-0.0,0.36747821967,100.0,0.0,-0.0,0.368292786358,100.0,1136093.2612,0.0,0.0,0.0,0.0,0.0,0.0
1402598803323514656,0,4.57088082413,-0.114322152727,-37.1017068708,0.043815185726,0.16861364641,0.0,-0.0765249827763,0.0,2.02628166507,0.0,0.0,0.0,0.0,93.2943341435,36.0023223796,2.3740318763,-0.000767381983555,-0.0,0.370546905202,100.0,0.0,-0.0,0.368292786358,100.0,1136093.2612,0.0,0.0,0.0,0.0,0.0,0.0
1402598803343374656,0,4.57264137873,-0.114322152727,-37.1003055508,0.043815185726,0.135866998997,0.0,-0.0340229861043,0.0,2.02804251967,0.0,0.0,0.0,0.0,93.2943341435,36.0023223796,2.3740318763,0.000767318410122,-0.0,0.373615590734,100.0,0.0,-0.0,0.368292786358,100.0,1136093.2612,0.0,0.0,0.0,0.0,0.0,0.0
1402598803363980908,0,4.57264137873,-0.114322152727,-37.1003055508,0.043815185726,0.135866998997,0.0,-0.0340229861043,0.0,2.02804251967,0.0,0.0,0.0,0.0,93.2943341435,36.0023223796,2.3740318763,-0.000767381983555,-0.0,0.373615590734,100.0,0.0,-0.0,0.368292786358,100.0,1136093.2612,0.0,0.0,0.0,0.0,0.0,0.0
1402598803383225405,0,4.57744908058,-0.114322152727,-37.1010898556,0.043815185726,0.116245448752,0.0,-0.00360351790602,0.0,2.02991154982,0.0,0.0,0.0,0.0,93.2943341435,36.0023223796,2.3740318763,0.000767318410122,-0.0,0.37514981429,100.0,0.0,-0.0,0.368292786358,100.0,1136093.2612,0.0,0.0,0.0,0.0,0.0,0.0
1402598803403177442,0,4.57744908058,-0.114322152727,-37.1010898556,0.043815185726,0.116245448752,0.0,-0.00360351790602,0.0,2.02991154982,0.0,0.0,0.0,0.0,93.2943341435,36.0023223796,2.3740318763,-0.000767381983555,-0.0,0.373615590734,100.0,0.0,-0.0,0.368292786358,100.0,1136093.2612,0.0,0.0,0.0,0.0,0.0,0.0
1402598803423792230,0,4.58895139957,-0.114322152727,-37.1029326974,0.043815185726,0.113560116267,0.0,0.019412434398,0.0,2.03157419889,0.0,0.0,0.0,0.0,93.2943341435,36.0023223796,2.3740318763,0.000767318410122,-0.0,0.372081128759,100.0,0.0,-0.0,0.368292786358,100.0,1136093.2612,0.0,0.0,0.0,0.0,0.0,0.0
1402598803443148145,0,4.58895139957,-0.114322152727,-37.1029326974,0.043815185726,0.113560116267,0.0,0.019412434398,0.0,2.03157419889,0.0,0.0,0.0,0.0,93.2943341435,36.0023223796,2.3740318763,-0.000767381983555,-0.0,0.372081128759,100.0,0.0,-0.0,0.368292786358,100.0,1136093.2612,0.0,0.0,0.0,0.0,0.0,0.0
1402598803463781452,0,4.59688309003,-0.114322152727,-37.1019000429,0.043815185726,0.101620569102,0.0,0.0459329037694,0.0,2.03514248079,0.0,0.0,0.0,0.0,93.2943341435,36.0023223796,2.3740318763,0.000767318410122,-0.0,0.372081128759,100.0,0.0,-0.0,0.368292786358,100.0,1136093.2612,0.0,0.0,0.0,0.0,0.0,0.0
1402598803482997480,0,4.59688309003,-0.114322152727,-37.1019000429,0.043815185726,0.101620569102,0.0,0.0459329037694,0.0,2.03514248079,0.0,0.0,0.0,0.0,93.2943341435,36.0023223796,2.3740318763,0.000767318410122,-0.0,0.372081128759,100.0,0.0,-0.0,0.368292786358,100.0,1136093.2612,0.0,0.0,0.0,0.0,0.0,0.0
1402598803503541680,0,4.60328798119,-0.114322152727,-37.0953374394,0.043815185726,0.0857770507232,0.0,0.0847459913772,0.0,2.04053275246,0.0,0.0,0.0,0.0,93.2943341435,36.0023223796,2.3740318763,0.000767318410122,-0.0,0.372081128759,100.0,0.0,-0.0,0.368292786358,100.0,1136093.2612,0.0,0.0,0.0,0.0,0.0,0.0
1402598803522863671,0,4.60328798119,-0.114322152727,-37.0953374394,0.043815185726,0.0857770507232,0.0,0.0847459913772,0.0,2.04053275246,0.0,0.0,0.0,0.0,93.2943341435,36.0023223796,2.3740318763,-0.000767381983555,-0.0,0.372081128759,100.0,0.0,-0.0,0.368292786358,100.0,1136093.2612,0.0,0.0,0.0,0.0,0.0,0.0
1402598803543713148,0,4.60649067665,-0.114322152727,-37.0913069934,0.043815185726,0.0655441009391,0.0,0.111555663752,0.0,2.04790061902,0.0,0.0,0.0,0.0,93.2943341435,36.0023223796,2.3740318763,-0.000767381983555,-0.0,0.370546905202,100.0,0.0,-0.0,0.368292786358,100.0,1136093.2612,0.0,0.0,0.0,0.0,0.0,0.0
1402598803563104808,0,4.60649067665,-0.114322152727,-37.0913069934,0.043815185726,0.0655441009391,0.0,0.111555663752,0.0,2.04790061902,0.0,0.0,0.0,0.0,93.2943341435,36.0023223796,2.3740318763,-0.000767381983555,-0.0,0.372081128759,100.0,0.0,-0.0,0.368292786358,100.0,1136093.2612,0.0,0.0,0.0,0.0,0.0,0.0
1402598803583795034,0,4.61796274927,-0.114322152727,-37.0871628391,0.043815185726,0.0566205289499,0.0,0.139241589356,0.0,2.05550012251,0.0,0.0,0.0,0.0,93.2943341435,36.0023223796,2.3740318763,0.000767318410122,-0.0,0.370546905202,100.0,0.0,-0.0,0.368292786358,100.0,1136093.2612,0.0,0.0,0.0,0.0,0.0,0.0
1402598803603242100,0,4.61796274927,-0.114322152727,-37.0871628391,0.043815185726,0.0566205289499,0.0,0.139241589356,0.0,2.05550012251,0.0,0.0,0.0,0.0,93.2943341435,36.0023223796,2.3740318763,-0.000767381983555,-0.0,0.370546905202,100.0,0.0,-0.0,0.368292786358,100.0,1136093.2612,0.0,0.0,0.0,0.0,0.0,0.0
1402598803623709636,0,4.61747961502,-0.114322152727,-37.0781660212,0.043815185726,0.0188505604828,0.0,0.17312690091,0.0,2.07675802748,0.0,0.0,0.0,0.0,93.2943341435,36.0023223796,2.3740318763,-0.000767381983555,-0.0,0.370546905202,100.0,0.0,-0.0,0.368292786358,100.0,1136093.2612,0.0,0.0,0.0,0.0,0.0,0.0
1402598803642949120,0,4.61747961502,-0.114322152727,-37.0781660212,0.043815185726,0.0188505604828,0.0,0.17312690091,0.0,2.07675802748,0.0,0.0,0.0,0.0,93.2943341435,36.0023223796,2.3740318763,0.000767318410122,-0.0,0.370546905202,100.0,0.0,-0.0,0.368292786358,100.0,1136093.2612,0.0,0.0,0.0,0.0,0.0,0.0
1402598803663794820,0,4.61923245948,-0.114322152727,-37.0721795478,0.043815185726,0.00381995756408,0.0,0.18951714881,0.0,2.08891420985,0.0,0.0,0.0,0.0,93.2943341435,36.0023223796,2.3740318763,-0.000767381983555,-0.0,0.370546905202,100.0,0.0,-0.0,0.368292786358,100.0,1136093.2612,0.0,0.0,0.0,0.0,0.0,0.0
1402598803683203673,0,4.61923245948,-0.114322152727,-37.0721795478,0.043815185726,0.00381995756408,0.0,0.18951714881,0.0,2.08891420985,0.0,0.0,0.0,0.0,93.2943341435,36.0023223796,2.3740318763,0.000767318410122,-0.0,0.372081128759,100.0,0.0,-0.0,0.368292786358,100.0,1136093.2612,0.0,0.0,0.0,0.0,0.0,0.0
1402598803703759688,0,4.62637918259,-0.114322152727,-37.0703926604,0.043815185726,0.0128355640604,0.0,0.194233784623,0.0,2.08924536939,0.0,0.0,0.0,0.0,93.2943341435,36.0023223796,2.3740318763,0.000767318410122,-0.0,0.370546905202,100.0,0.0,-0.0,0.368292786358,100.0,1136093.2612,0.0,0.0,0.0,0.0,0.0,0.0
1402598803723174434,0,4.62637918259,-0.114322152727,-37.0703926604,0.043815185726,0.0128355640604,0.0,0.194233784623,0.0,2.08924536939,0.0,0.0,0.0,0.0,93.2943341435,36.0023223796,2.3740318763,-0.000767381983555,-0.0,0.372081128759,100.0,0.0,-0.0,0.368292786358,100.0,1136093.2612,0.0,0.0,0.0,0.0,0.0,0.0
1402598803744201865,0,4.6268634816,-0.114322152727,-37.0641222384,0.043815185726,0.00269024356333,0.0,0.207462498807,0.0,2.10000048564,0.0,0.0,0.0,0.0,93.2943341435,36.0023223796,2.3740318763,0.000767318410122,-0.0,0.370546905202,100.0,0.0,-0.0,0.368292786358,100.0,1136093.2612,0.0,0.0,0.0,0.0,0.0,0.0
1402598803763196630,0,4.6268634816,-0.114322152727,-37.0641222384,0.043815185726,0.00269024356333,0.0,0.207462498807,0.0,2.10000048564,0.0,0.0,0.0,0.0,93.2943341435,36.0023223796,2.3740318763,-0.000767381983555,-0.0,0.372081128759,100.0,0.0,-0.0,0.368292786358,100.0,1136093.2612,0.0,0.0,0.0,0.0,0.0,0.0
1402598803783776516,0,4.62943587494,-0.114322152727,-37.0605810032,0.043815185726,-0.00879184670686,0.0,0.210954084657,0.0,2.11401696547,0.0,0.0,0.0,0.0,93.2943341435,36.0023223796,2.3740318763,0.000767318410122,-0.0,0.370546905202,100.0,0.0,-0.0,0.368292786358,100.0,1136093.2612,0.0,0.0,0.0,0.0,0.0,0.0
1402598803803256024,0,4.62943587494,-0.114322152727,-37.0605810032,0.043815185726,-0.00879184670686,0.0,0.210954084657,0.0,2.11401696547,0.0,0.0,0.0,0.0,93.2943341435,36.0023223796,2.3740318763,-0.000767381983555,-0.0,0.370546905202,100.0,0.0,-0.0,0.368292786358,100.0,1136093.2612,0.0,0.0,0.0,0.0,0.0,0.0
1402598803823770575,0,4.63618255775,-0.114322152727,-37.0469253886,0.043815185726,-0.00727325984971,0.0,0.240006910319,0.0,2.12748729444,0.0,0.0,0.0,0.0,93.2943341435,36.0023223796,2.3740318763,-0.000767381983555,-0.0,0.370546905202,100.0,0.0,-0.0,0.368292786358,100.0,1136093.2612,0.0,0.0,0.0,0.0,0.0,0.0
1402598803843211054,0,4.63618255775,-0.114322152727,-37.0469253886,0.043815185726,-0.00727325984971,0.0,0.240006910319,0.0,2.12748729444,0.0,0.0,0.0,0.0,93.2943341435,36.0023223796,2.3740318763,0.000767318410122,-0.0,0.372081128759,100.0,0.0,-0.0,0.368292786358,100.0,1136093.2612,0.0,0.0,0.0,0.0,0.0,0.0
1402598803863643807,0,4.64284156834,-0.114322152727,-37.0358051753,0.043815185726,-0.00971616754557,0.0,0.255963679939,0.0,2.14208581579,0.0,0.0,0.0,0.0,93.2943341435,36.0023223796,2.3740318763,0.000767318410122,-0.0,0.372081128759,100.0,0.0,-0.0,0.368292786358,100.0,1136093.2612,0.0,0.0,0.0,0.0,0.0,0.0
1402598803883155245,0,4.64284156834,-0.114322152727,-37.0358051753,0.043815185726,-0.00971616754557,0.0,0.255963679939,0.0,2.14208581579,0.0,0.0,0.0,0.0,93.2943341435,36.0023223796,2.3740318763,0.000767318410122,-0.0,0.372081128759,100.0,0.0,-0.0,0.368292786358,100.0,1136093.2612,0.0,0.0,0.0,0.0,0.0,0.0
1402598803903891457,0,4.6391755486,-0.114322152727,-37.0218168431,0.043815185726,-0.0272348484969,0.0,0.279830165154,0.0,2.16147611707,0.0,0.0,0.0,0.0,93.2943341435,36.0023223796,2.3740318763,-0.000767381983555,-0.0,0.372081128759,100.0,0.0,-0.0,0.368292786358,100.0,1136093.2612,0.0,0.0,0.0,0.0,0.0,0.0
1402598803923226734,0,4.6391755486,-0.114322152727,-37.0218168431,0.043815185726,-0.0272348484969,0.0,0.279830165154,0.0,2.16147611707,0.0,0.0,0.0,0.0,93.2943341435,36.0023223796,2.3740318763,-0.000767381983555,-0.0,0.370546905202,100.0,0.0,-0.0,0.368292786358,100.0,1136093.2612,0.0,0.0,0.0,0.0,0.0,0.0
1402598803943592093,0,4.63945072249,-0.114322152727,-37.0088295484,0.043815185726,-0.0407995207194,0.0,0.295323769044,0.0,2.17941552474,0.0,0.0,0.0,0.0,93.2943341435,36.0023223796,2.3740318763,0.000767318410122,-0.0,0.370546905202,100.0,0.0,-0.0,0.368292786358,100.0,1136093.2612,0.0,0.0,0.0,0.0,0.0,0.0
1402598803963058128,0,4.63945072249,-0.114322152727,-37.0088295484,0.043815185726,-0.0407995207194,0.0,0.295323769044,0.0,2.17941552474,0.0,0.0,0.0,0.0,93.2943341435,36.0023223796,2.3740318763,0.000767318410122,-0.0,0.370546905202,100.0,0.0,-0.0,0.368292786358,100.0,1136093.2612,0.0,0.0,0.0,0.0,0.0,0.0
1402598803983630119,0,4.64072441072,-0.114322152727,-36.9908083857,0.043815185726,-0.0517413155402,0.0,0.322966354582,0.0,2.19731990981,0.0,0.0,0.0,0.0,93.2943341435,36.0023223796,2.3740318763,-0.000767381983555,-0.0,0.370546905202,100.0,0.0,-0.0,0.368292786358,100.0,1136093.2612,0.0,0.0,0.0,0.0,0.0,0.0
1402598804003190169,0,4.64072441072,-0.114322152727,-36.9908083857,0.043815185726,-0.0517413155402,0.0,0.322966354582,0.0,2.19731990981,0.0,0.0,0.0,0.0,93.2943341435,36.0023223796,2.3740318763,-0.000767381983555,-0.0,0.372081128759,100.0,0.0,-0.0,0.368292786358,100.0,1136093.2612,0.0,0.0,0.0,0.0,0.0,0.0
1402598804023708551,0,4.63823455258,-0.114322152727,-36.9777306806,0.043815185726,-0.0690355414952,0.0,0.331446421868,0.0,2.21708022132,0.0,0.0,0.0,0.0,93.2943341435,36.0023223796,2.3740318763,0.000767318410122,-0.0,0.370546905202,100.0,0.0,-0.0,0.368292786358,100.0,1136093.2612,0.0,0.0,0.0,0.0,0.0,0.0
1402598804043194412,0,4.63823455258,-0.114322152727,-36.9777306806,0.043815185726,-0.0690355414952,0.0,0.331446421868,0.0,2.21708022132,0.0,0.0,0.0,0.0,93.2943341435,36.0023223796,2.3740318763,-0.000767381983555,-0.0,0.370546905202,100.0,0.0,-0.0,0.368292786358,100.0,1136093.2612,0.0,0.0,0.0,0.0,0.0,0.0
1402598804063690587,0,4.64297110156,-0.114322152727,-36.9670257104,0.043815185726,-0.0724217661685,0.0,0.335824261015,0.0,2.23508411327,0.0,0.0,0.0,0.0,93.2943341435,36.0023223796,2.3740318763,-0.000767381983555,-0.0,0.370546905202,100.0,0.0,-0.0,0.368292786358,100.0,1136093.2612,0.0,0.0,0.0,0.0,0.0,0.0
1402598804083247462,0,4.64297110156,-0.114322152727,-36.9670257104,0.043815185726,-0.0724217661685,0.0,0.335824261015,0.0,2.23508411327,0.0,0.0,0.0,0.0,93.2943341435,36.0023223796,2.3740318763,0.000767318410122,-0.0,0.370546905202,100.0,0.0,-0.0,0.368292786358,100.0,1136093.2612,0.0,0.0,0.0,0.0,0.0,0.0
1402598804103800498,0,4.64223504853,-0.114322152727,-36.948531111,0.043815185726,-0.0840739182622,0.0,0.356424505158,0.0,2.2545141872,0.0,0.0,0.0,0.0,93.2943341435,36.0023223796,2.3740318763,0.000767318410122,-0.0,0.370546905202,100.0,0.0,-0.0,0.368292786358,100.0,1136093.2612,0.0,0.0,0.0,0.0,0.0,0.0
1402598804123226115,0,4.64223504853,-0.114322152727,-36.948531111,0.043815185726,-0.0840739182622,0.0,0.356424505158,0.0,2.2545141872,0.0,0.0,0.0,0.0,93.2943341435,36.0023223796,2.3740318763,0.000767318410122,-0.0,0.372081128759,100.0,0.0,-0.0,0.368292786358,100.0,1136093.2612,0.0,0.0,0.0,0.0,0.0,0.0
1402598804143745644,0,4.64015980317,-0.114322152727,-36.9394158299,0.043815185726,-0.0986633184124,0.0,0.352016202509,0.0,2.27603332408,0.0,0.0,0.0,0.0,93.2943341435,36.0023223796,2.3740318763,0.000767318410122,-0.0,0.370546905202,100.0,0.0,-0.0,0.368292786358,100.0,1136093.2612,0.0,0.0,0.0,0.0,0.0,0.0
1402598804163231731,0,4.64015980317,-0.114322152727,-36.9394158299,0.043815185726,-0.0986633184124,0.0,0.352016202509,0.0,2.27603332408,0.0,0.0,0.0,0.0,93.2943341435,36.0023223796,2.3740318763,0.000767318410122,-0.0,0.370546905202,100.0,0.0,-0.0,0.368292786358,100.0,1136093.2612,0.0,0.0,0.0,0.0,0.0,0.0
1402598804184252213,0,4.635782856,-0.114322152727,-36.9255920834,0.043815185726,-0.117024020479,0.0,0.36048062446,0.0,2.29688315872,0.0,0.0,0.0,0.0,93.2943341435,36.0023223796,2.3740318763,0.000767318410122,-0.0,0.370546905202,100.0,0.0,-0.0,0.368292786358,100.0,1136093.2612,0.0,0.0,0.0,0.0,0.0,0.0
1402598804203217026,0,4.635782856,-0.114322152727,-36.9255920834,0.043815185726,-0.117024020479,0.0,0.36048062446,0.0,2.29688315872,0.0,0.0,0.0,0.0,93.2943341435,36.0023223796,2.3740318763,-0.000767381983555,-0.0,0.370546905202,100.0,0.0,-0.0,0.368292786358,100.0,1136093.2612,0.0,0.0,0.0,0.0,0.0,0.0
1402598804223771897,0,4.63059424003,-0.114322152727,-36.9104641075,0.043815185726,-0.133944171925,0.0,0.366592973414,0.0,2.31847661427,0.0,0.0,0.0,0.0,93.2943341435,36.0023223796,2.3740318763,0.000767318410122,-0.0,0.370546905202,100.0,0.0,-0.0,0.368292786358,100.0,1136093.2612,0.0,0.0,0.0,0.0,0.0,0.0
1402598804243333374,0,4.63059424003,-0.114322152727,-36.9104641075,0.043815185726,-0.133944171925,0.0,0.366592973414,0.0,2.31847661427,0.0,0.0,0.0,0.0,93.2943341435,36.0023223796,2.3740318763,0.000767318410122,-0.0,0.370546905202,100.0,0.0,-0.0,0.368292786358,100.0,1136093.2612,0.0,0.0,0.0,0.0,0.0,0.0
1402598804264489980,0,4.62052551942,-0.114322152727,-36.8878891265,0.043815185726,-0.161028061103,0.0,0.393240532535,0.0,2.3385237442,0.0,0.0,0.0,0.0,93.2943341435,36.0023223796,2.3740318763,0.000767318410122,-0.0,0.370546905202,100.0,0.0,-0.0,0.368292786358,100.0,1136093.2612,0.0,0.0,0.0,0.0,0.0,0.0
1402598804283261356,0,4.62052551942,-0.114322152727,-36.8878891265,0.043815185726,-0.161028061103,0.0,0.393240532535,0.0,2.3385237442,0.0,0.0,0.0,0.0,93.2943341435,36.0023223796,2.3740318763,0.000767318410122,-0.0,0.370546905202,100.0,0.0,-0.0,0.368292786358,100.0,1136093.2612,0.0,0.0,0.0,0.0,0.0,0.0
1402598804303770827,0,4.61880986106,-0.114322152727,-36.8732651024,0.043815185726,-0.171650721002,0.0,0.387253815351,0.0,2.36686615554,0.0,0.0,0.0,0.0,93.2943341435,36.0023223796,2.3740318763,0.000767318410122,-0.0,0.370546905202,100.0,0.0,-0.0,0.368292786358,100.0,1136093.2612,0.0,0.0,0.0,0.0,0.0,0.0
1402598804323205202,0,4.61880986106,-0.114322152727,-36.8732651024,0.043815185726,-0.171650721002,0.0,0.387253815351,0.0,2.36686615554,0.0,0.0,0.0,0.0,93.2943341435,36.0023223796,2.3740318763,0.000767318410122,-0.0,0.370546905202,100.0,0.0,-0.0,0.368292786358,100.0,1136093.2612,0.0,0.0,0.0,0.0,0.0,0.0
1402598804343770107,0,4.61841289945,-0.114322152727,-36.8594153069,0.043815185726,-0.175375883373,0.0,0.395303771808,0.0,2.38234756801,0.0,0.0,0.0,0.0,93.2943341435,36.0023223796,2.3740318763,0.000767318410122,-0.0,0.370546905202,100.0,0.0,-0.0,0.368292786358,100.0,1136093.2612,0.0,0.0,0.0,0.0,0.0,0.0
1402598804363194800,0,4.61463801905,-0.114322152727,-36.8513542114,0.043815185726,-0.18485640821,0.0,0.395664635704,0.0,2.39356389664,0.0,0.0,0.0,0.0,93.2943341435,36.0023223796,2.3740318763,0.000767318410122,-0.0,0.370546905202,100.0,0.0,-0.0,0.368292786358,100.0,1136093.2612,0.0,0.0,0.0,0.0,0.0,0.0
1402598804383823086,0,4.61463801905,-0.114322152727,-36.8513542114,0.043815185726,-0.18485640821,0.0,0.395664635704,0.0,2.39356389664,0.0,0.0,0.0,0.0,93.2943341435,36.0023223796,2.3740318763,0.000767318410122,-0.0,0.370546905202,100.0,0.0,-0.0,0.368292786358,100.0,1136093.2612,0.0,0.0,0.0,0.0,0.0,0.0
1402598804403051288,0,4.60380286821,-0.114322152727,-36.8403295614,0.043815185726,-0.212919263719,0.0,0.403189223016,0.0,2.40524540299,0.0,0.0,0.0,0.0,93.2943341435,36.0023223796,2.3740318763,-0.000767381983555,-0.0,0.370546905202,100.0,0.0,-0.0,0.368292786358,100.0,1136093.2612,0.0,0.0,0.0,0.0,0.0,0.0
1402598804423866087,0,4.60380286821,-0.114322152727,-36.8403295614,0.043815185726,-0.212919263719,0.0,0.403189223016,0.0,2.40524540299,0.0,0.0,0.0,0.0,93.2943341435,36.0023223796,2.3740318763,0.000767318410122,-0.0,0.370546905202,100.0,0.0,-0.0,0.368292786358,100.0,1136093.2612,0.0,0.0,0.0,0.0,0.0,0.0
1402598804443267781,0,4.60407293594,-0.114322152727,-36.8253349343,0.043815185726,-0.214528109156,0.0,0.400933608777,0.0,2.42806750685,0.0,0.0,0.0,0.0,93.2943341435,36.0023223796,2.3740318763,0.000767318410122,-0.0,0.370546905202,100.0,0.0,-0.0,0.368292786358,100.0,1136093.2612,0.0,0.0,0.0,0.0,0.0,0.0
1402598804463705657,0,4.60407293594,-0.114322152727,-36.8253349343,0.043815185726,-0.214528109156,0.0,0.400933608777,0.0,2.42806750685,0.0,0.0,0.0,0.0,93.2943341435,36.0023223796,2.3740318763,0.000767318410122,-0.0,0.370546905202,100.0,0.0,-0.0,0.368292786358,100.0,1136093.2612,0.0,0.0,0.0,0.0,0.0,0.0
1402598804483271587,0,4.59507256061,-0.114322152727,-36.8088280483,0.043815185726,-0.233150374254,0.0,0.399412523716,0.0,2.45204671176,0.0,0.0,0.0,0.0,93.2943341435,36.0023223796,2.3740318763,0.000767318410122,-0.0,0.370546905202,100.0,0.0,-0.0,0.368292786358,100.0,1136093.2612,0.0,0.0,0.0,0.0,0.0,0.0
1402598804503764469,0,4.59507256061,-0.114322152727,-36.8088280483,0.043815185726,-0.233150374254,0.0,0.399412523716,0.0,2.45204671176,0.0,0.0,0.0,0.0,93.2943341435,36.0023223796,2.3740318763,-0.000767381983555,-0.0,0.370546905202,100.0,0.0,-0.0,0.368292786358,100.0,1136093.2612,0.0,0.0,0.0,0.0,0.0,0.0
1402598804523140903,0,4.58557811809,-0.114322152727,-36.7937308861,0.043815185726,-0.249938615552,0.0,0.396281292113,0.0,2.47729373602,0.0,0.0,0.0,0.0,93.2943341435,36.0023223796,2.3740318763,0.000767318410122,-0.0,0.370546905202,100.0,0.0,-0.0,0.368292786358,100.0,1136093.2612,0.0,0.0,0.0,0.0,0.0,0.0
1402598804543731167,0,4.58557811809,-0.114322152727,-36.7937308861,0.043815185726,-0.249938615552,0.0,0.396281292113,0.0,2.47729373602,0.0,0.0,0.0,0.0,93.2943341435,36.0023223796,2.3740318763,0.000767318410122,-0.0,0.372081128759,100.0,0.0,-0.0,0.368292786358,100.0,1136093.2612,0.0,0.0,0.0,0.0,0.0,0.0
1402598804563182371,0,4.57532460679,-0.114322152727,-36.7775192323,0.043815185726,-0.266567645883,0.0,0.394246041087,0.0,2.50188989667,0.0,0.0,0.0,0.0,93.2943341435,36.0023223796,2.3740318763,0.000767318410122,-0.0,0.370546905202,100.0,0.0,-0.0,0.368292786358,100.0,1136093.2612,0.0,0.0,0.0,0.0,0.0,0.0
1402598804583180740,0,4.57532460679,-0.114322152727,-36.7775192323,0.043815185726,-0.266567645883,0.0,0.394246041087,0.0,2.50188989667,0.0,0.0,0.0,0.0,93.2943341435,36.0023223796,2.3740318763,0.000767318410122,-0.0,0.370546905202,100.0,0.0,-0.0,0.368292786358,100.0,1136093.2612,0.0,0.0,0.0,0.0,0.0,0.0
1402598804603773999,0,4.56651940575,-0.114322152727,-36.7607364853,0.043815185726,-0.276579746898,0.0,0.396139939458,0.0,2.52600016659,0.0,0.0,0.0,0.0,93.2943341435,36.0023223796,2.3740318763,-0.000767381983555,-0.0,0.370546905202,100.0,0.0,-0.0,0.368292786358,100.0,1136093.2612,0.0,0.0,0.0,0.0,0.0,0.0
1402598804623303118,0,4.56651940575,-0.114322152727,-36.7607364853,0.043815185726,-0.276579746898,0.0,0.396139939458,0.0,2.52600016659,0.0,0.0,0.0,0.0,93.2943341435,36.0023223796,2.3740318763,-0.000767381983555,-0.0,0.370546905202,100.0,0.0,-0.0,0.368292786358,100.0,1136093.2612,0.0,0.0,0.0,0.0,0.0,0.0
1402598804643904185,0,4.54994321884,-0.114322152727,-36.7366766956,0.043815185726,-0.301014697321,0.0,0.416408318469,0.0,2.5477029936,0.0,0.0,0.0,0.0,93.2943341435,36.0023223796,2.3740318763,-0.000767381983555,-0.0,0.370546905202,100.0,0.0,-0.0,0.368292786358,100.0,1136093.2612,0.0,0.0,0.0,0.0,0.0,0.0
1402598804663287302,0,4.54994321884,-0.114322152727,-36.7366766956,0.043815185726,-0.301014697321,0.0,0.416408318469,0.0,2.5477029936,0.0,0.0,0.0,0.0,93.2943341435,36.0023223796,2.3740318763,0.000767318410122,-0.0,0.370546905202,100.0,0.0,-0.0,0.368292786358,100.0,1136093.2612,0.0,0.0,0.0,0.0,0.0,0.0
1402598804683841853,0,4.53582220593,-0.114322152727,-36.7200570572,0.043815185726,-0.313979024188,0.0,0.407190792463,0.0,2.58046288859,0.0,0.0,0.0,0.0,93.2943341435,36.0023223796,2.3740318763,0.000767318410122,-0.0,0.370546905202,100.0,0.0,-0.0,0.368292786358,100.0,1136093.2612,0.0,0.0,0.0,0.0,0.0,0.0
1402598804703374431,0,4.53582220593,-0.114322152727,-36.7200570572,0.043815185726,-0.313979024188,0.0,0.407190792463,0.0,2.58046288859,0.0,0.0,0.0,0.0,93.2943341435,36.0023223796,2.3740318763,0.000767318410122,-0.0,0.370546905202,100.0,0.0,-0.0,0.368292786358,100.0,1136093.2612,0.0,0.0,0.0,0.0,0.0,0.0
1402598804723823651,0,4.51809696897,-0.114322152727,-36.6943227803,0.043815185726,-0.333743500638,0.0,0.415350151984,0.0,2.60962047879,0.0,0.0,0.0,0.0,93.2943341435,36.0023223796,2.3740318763,-0.000767381983555,-0.0,0.372081128759,100.0,0.0,-0.0,0.368292786358,100.0,1136093.2612,0.0,0.0,0.0,0.0,0.0,0.0
1402598804743331080,0,4.51809696897,-0.114322152727,-36.6943227803,0.043815185726,-0.333743500638,0.0,0.415350151984,0.0,2.60962047879,0.0,0.0,0.0,0.0,93.2943341435,36.0023223796,2.3740318763,0.000767318410122,-0.0,0.370546905202,100.0,0.0,-0.0,0.368292786358,100.0,1136093.2612,0.0,0.0,0.0,0.0,0.0,0.0
1402598804764015368,0,4.51334295667,-0.114322152727,-36.6896792676,0.043815185726,-0.336393024088,0.0,0.406986673376,0.0,2.62277855086,0.0,0.0,0.0,0.0,93.2943341435,36.0023223796,2.3740318763,0.000767318410122,-0.0,0.370546905202,100.0,0.0,-0.0,0.368292786358,100.0,1136093.2612,0.0,0.0,0.0,0.0,0.0,0.0
1402598804784808102,0,4.51334295667,-0.114322152727,-36.6896792676,0.043815185726,-0.336393024088,0.0,0.406986673376,0.0,2.62277855086,0.0,0.0,0.0,0.0,93.2943341435,36.0023223796,2.3740318763,-0.000767381983555,-0.0,0.370546905202,100.0,0.0,-0.0,0.368292786358,100.0,1136093.2612,0.0,0.0,0.0,0.0,0.0,0.0
1402598804803858741,0,4.49230124382,-0.114322152727,-36.6618489133,0.043815185726,-0.370858499113,0.0,0.426659166163,0.0,2.64310758231,0.0,0.0,0.0,0.0,93.2943341435,36.0023223796,2.3740318763,0.000767318410122,-0.0,0.370546905202,100.0,0.0,-0.0,0.368292786358,100.0,1136093.2612,0.0,0.0,0.0,0.0,0.0,0.0
1402598804823088184,0,4.49230124382,-0.114322152727,-36.6618489133,0.043815185726,-0.370858499113,0.0,0.426659166163,0.0,2.64310758231,0.0,0.0,0.0,0.0,93.2943341435,36.0023223796,2.3740318763,-0.000767381983555,-0.0,0.370546905202,100.0,0.0,-0.0,0.368292786358,100.0,1136093.2612,0.0,0.0,0.0,0.0,0.0,0.0
1402598804843893617,0,4.47480655425,-0.114322152727,-36.6474012217,0.043815185726,-0.391711325083,0.0,0.414353388268,0.0,2.66819295405,0.0,0.0,0.0,0.0,93.2943341435,36.0023223796,2.3740318763,-0.000767381983555,-0.0,0.370546905202,100.0,0.0,-0.0,0.368292786358,100.0,1136093.2612,0.0,0.0,0.0,0.0,0.0,0.0
1402598804863181427,0,4.47480655425,-0.114322152727,-36.6474012217,0.043815185726,-0.391711325083,0.0,0.414353388268,0.0,2.66819295405,0.0,0.0,0.0,0.0,93.2943341435,36.0023223796,2.3740318763,-0.000767381983555,-0.0,0.370546905202,100.0,0.0,-0.0,0.368292786358,100.0,1136093.2612,0.0,0.0,0.0,0.0,0.0,0.0
1402598804884054342,0,4.45865207133,-0.114322152727,-36.6303353531,0.043815185726,-0.408944091764,0.0,0.40831730668,0.0,2.69299592847,0.0,0.0,0.0,0.0,93.2943341435,36.0023223796,2.3740318763,0.000767318410122,-0.0,0.370546905202,100.0,0.0,-0.0,0.368292786358,100.0,1136093.2612,0.0,0.0,0.0,0.0,0.0,0.0
1402598804903264095,0,4.45865207133,-0.114322152727,-36.6303353531,0.043815185726,-0.408944091764,0.0,0.40831730668,0.0,2.69299592847,0.0,0.0,0.0,0.0,93.2943341435,36.0023223796,2.3740318763,-0.000767381983555,-0.0,0.372081128759,100.0,0.0,-0.0,0.368292786358,100.0,1136093.2612,0.0,0.0,0.0,0.0,0.0,0.0
1402598804923936308,0,4.45047194039,-0.114322152727,-36.6295316247,0.043815185726,-0.403749671668,0.0,0.36426953711,0.0,2.72405041425,0.0,0.0,0.0,0.0,93.2943341435,36.0023223796,2.3740318763,0.000767318410122,-0.0,0.370546905202,100.0,0.0,-0.0,0.368292786358,100.0,1136093.2612,0.0,0.0,0.0,0.0,0.0,0.0
1402598804943435008,0,4.45047194039,-0.114322152727,-36.6295316247,0.043815185726,-0.403749671668,0.0,0.36426953711,0.0,2.72405041425,0.0,0.0,0.0,0.0,93.2943341435,36.0023223796,2.3740318763,0.000767318410122,-0.0,0.370546905202,100.0,0.0,-0.0,0.368292786358,100.0,1136093.2612,0.0,0.0,0.0,0.0,0.0,0.0
1402598804963928425,0,4.42136908918,-0.114322152727,-36.6064088106,0.043815185726,-0.439091607855,0.0,0.363608367093,0.0,2.75286269547,0.0,0.0,0.0,0.0,93.2943341435,36.0023223796,2.3740318763,0.000767318410122,-0.0,0.370546905202,100.0,0.0,-0.0,0.368292786358,100.0,1136093.2612,0.0,0.0,0.0,0.0,0.0,0.0
1402598804983202669,0,4.42136908918,-0.114322152727,-36.6064088106,0.043815185726,-0.439091607855,0.0,0.363608367093,0.0,2.75286269547,0.0,0.0,0.0,0.0,93.2943341435,36.0023223796,2.3740318763,0.000767318410122,-0.0,0.370546905202,100.0,0.0,-0.0,0.368292786358,100.0,1136093.2612,0.0,0.0,0.0,0.0,0.0,0.0
1402598805003786798,0,4.39847262295,-0.114322152727,-36.5965341552,0.043815185726,-0.456656921474,0.0,0.330789053023,0.0,2.78689933013,0.0,0.0,0.0,0.0,93.2943341435,36.0023223796,2.3740318763,0.000767318410122,-0.0,0.370546905202,100.0,0.0,-0.0,0.368292786358,100.0,1136093.2612,0.0,0.0,0.0,0.0,0.0,0.0
1402598805023405369,0,4.39847262295,-0.114322152727,-36.5965341552,0.043815185726,-0.456656921474,0.0,0.330789053023,0.0,2.78689933013,0.0,0.0,0.0,0.0,93.2943341435,36.0023223796,2.3740318763,0.000767318410122,-0.0,0.370546905202,100.0,0.0,-0.0,0.368292786358,100.0,1136093.2612,0.0,0.0,0.0,0.0,0.0,0.0
1402598805043656193,0,4.3888437813,-0.114322152727,-36.5896526555,0.043815185726,-0.461516449325,0.0,0.327756164072,0.0,2.79998348895,0.0,0.0,0.0,0.0,93.2943341435,36.0023223796,2.3740318763,-0.000767381983555,-0.0,0.370546905202,100.0,0.0,-0.0,0.368292786358,100.0,1136093.2612,0.0,0.0,0.0,0.0,0.0,0.0
1402598805063144684,0,4.3888437813,-0.114322152727,-36.5896526555,0.043815185726,-0.461516449325,0.0,0.327756164072,0.0,2.79998348895,0.0,0.0,0.0,0.0,93.2943341435,36.0023223796,2.3740318763,-0.000767381983555,-0.0,0.370546905202,100.0,0.0,-0.0,0.368292786358,100.0,1136093.2612,0.0,0.0,0.0,0.0,0.0,0.0
1402598805083749366,0,4.36980538366,-0.114322152727,-36.5751870953,0.043815185726,-0.469839947687,0.0,0.325807191407,0.0,2.82463045102,0.0,0.0,0.0,0.0,93.2943341435,36.0023223796,2.3740318763,0.000767318410122,-0.0,0.370546905202,100.0,0.0,-0.0,0.368292786358,100.0,1136093.2612,0.0,0.0,0.0,0.0,0.0,0.0
1402598805103283910,0,4.36980538366,-0.114322152727,-36.5751870953,0.043815185726,-0.469839947687,0.0,0.325807191407,0.0,2.82463045102,0.0,0.0,0.0,0.0,93.2943341435,36.0023223796,2.3740318763,0.000767318410122,-0.0,0.370546905202,100.0,0.0,-0.0,0.368292786358,100.0,1136093.2612,0.0,0.0,0.0,0.0,0.0,0.0
1402598805124019242,0,4.34567870583,-0.114322152727,-36.560343895,0.043815185726,-0.487931699505,0.0,0.323296058944,0.0,2.84755525846,0.0,0.0,0.0,0.0,93.2943341435,36.0023223796,2.3740318763,0.000767318410122,-0.0,0.372081128759,100.0,0.0,-0.0,0.368292786358,100.0,1136093.2612,0.0,0.0,0.0,0.0,0.0,0.0
1402598805143241999,0,4.34567870583,-0.114322152727,-36.560343895,0.043815185726,-0.487931699505,0.0,0.323296058944,0.0,2.84755525846,0.0,0.0,0.0,0.0,93.2943341435,36.0023223796,2.3740318763,-0.000767381983555,-0.0,0.372081128759,100.0,0.0,-0.0,0.368292786358,100.0,1136093.2612,0.0,0.0,0.0,0.0,0.0,0.0
1402598805163861998,0,4.32556822124,-0.114322152727,-36.5474258696,0.043815185726,-0.496895673471,0.0,0.3118213991,0.0,2.87148084224,0.0,0.0,0.0,0.0,93.2943341435,36.0023223796,2.3740318763,0.000767318410122,-0.0,0.370546905202,100.0,0.0,-0.0,0.368292786358,100.0,1136093.2612,0.0,0.0,0.0,0.0,0.0,0.0
1402598805183207854,0,4.32556822124,-0.114322152727,-36.5474258696,0.043815185726,-0.496895673471,0.0,0.3118213991,0.0,2.87148084224,0.0,0.0,0.0,0.0,93.2943341435,36.0023223796,2.3740318763,-0.000767381983555,-0.0,0.370546905202,100.0,0.0,-0.0,0.368292786358,100.0,1136093.2612,0.0,0.0,0.0,0.0,0.0,0.0
1402598805203554151,0,4.30004867128,-0.114322152727,-36.5287333415,0.043815185726,-0.515504287219,0.0,0.318335951203,0.0,2.89168279043,0.0,0.0,0.0,0.0,93.2943341435,36.0023223796,2.3740318763,-0.000767381983555,-0.0,0.370546905202,100.0,0.0,-0.0,0.368292786358,100.0,1136093.2612,0.0,0.0,0.0,0.0,0.0,0.0
1402598805223066097,0,4.30004867128,-0.114322152727,-36.5287333415,0.043815185726,-0.515504287219,0.0,0.318335951203,0.0,2.89168279043,0.0,0.0,0.0,0.0,93.2943341435,36.0023223796,2.3740318763,0.000767318410122,-0.0,0.370546905202,100.0,0.0,-0.0,0.368292786358,100.0,1136093.2612,0.0,0.0,0.0,0.0,0.0,0.0
1402598805243842573,0,4.27827031415,-0.114322152727,-36.5170044103,0.043815185726,-0.528083947313,0.0,0.305775239769,0.0,2.91478113429,0.0,0.0,0.0,0.0,93.2943341435,36.0023223796,2.3740318763,0.000767318410122,-0.0,0.370546905202,100.0,0.0,-0.0,0.368292786358,100.0,1136093.2612,0.0,0.0,0.0,0.0,0.0,0.0
1402598805263208941,0,4.27827031415,-0.114322152727,-36.5170044103,0.043815185726,-0.528083947313,0.0,0.305775239769,0.0,2.91478113429,0.0,0.0,0.0,0.0,93.2943341435,36.0023223796,2.3740318763,0.000767318410122,-0.0,0.370546905202,100.0,0.0,-0.0,0.368292786358,100.0,1136093.2612,0.0,0.0,0.0,0.0,0.0,0.0
1402598805283814998,0,4.24872698179,-0.114322152727,-36.4966052382,0.043815185726,-0.559479300519,0.0,0.311549569862,0.0,2.93284257048,0.0,0.0,0.0,0.0,93.2943341435,36.0023223796,2.3740318763,-0.000767381983555,-0.0,0.372081128759,100.0,0.0,-0.0,0.368292786358,100.0,1136093.2612,0.0,0.0,0.0,0.0,0.0,0.0
1402598805303235896,0,4.24872698179,-0.114322152727,-36.4966052382,0.043815185726,-0.559479300519,0.0,0.311549569862,0.0,2.93284257048,0.0,0.0,0.0,0.0,93.2943341435,36.0023223796,2.3740318763,0.000767318410122,-0.0,0.370546905202,100.0,0.0,-0.0,0.368292786358,100.0,1136093.2612,0.0,0.0,0.0,0.0,0.0,0.0
1402598805323349223,0,4.21682145518,-0.114322152727,-36.4826881059,0.043815185726,-0.581786881392,0.0,0.286051180961,0.0,2.96079774944,0.0,0.0,0.0,0.0,93.2943341435,36.0023223796,2.3740318763,0.000767318410122,-0.0,0.370546905202,100.0,0.0,-0.0,0.368292786358,100.0,1136093.2612,0.0,0.0,0.0,0.0,0.0,0.0
1402598805343211039,0,4.21682145518,-0.114322152727,-36.4826881059,0.043815185726,-0.581786881392,0.0,0.286051180961,0.0,2.96079774944,0.0,0.0,0.0,0.0,93.2943341435,36.0023223796,2.3740318763,-0.000767381983555,-0.0,0.370546905202,100.0,0.0,-0.0,0.368292786358,100.0,1136093.2612,0.0,0.0,0.0,0.0,0.0,0.0
1402598805363857205,0,4.19860290575,-0.114322152727,-36.4742126175,0.043815185726,-0.591334070753,0.0,0.270691860905,0.0,2.97865156642,0.0,0.0,0.0,0.0,93.2943341435,36.0023223796,2.3740318763,0.000767318410122,-0.0,0.370546905202,100.0,0.0,-0.0,0.368292786358,100.0,1136093.2612,0.0,0.0,0.0,0.0,0.0,0.0
1402598805383182012,0,4.17459198277,-0.114322152727,-36.4595730728,0.043815185726,-0.625904560426,0.0,0.27947324403,0.0,2.98463767563,0.0,0.0,0.0,0.0,93.2943341435,36.0023223796,2.3740318763,-0.000767381983555,-0.0,0.370546905202,100.0,0.0,-0.0,0.368292786358,100.0,1136093.2612,0.0,0.0,0.0,0.0,0.0,0.0
1402598805403817391,0,4.17459198277,-0.114322152727,-36.4595730728,0.043815185726,-0.625904560426,0.0,0.27947324403,0.0,2.98463767563,0.0,0.0,0.0,0.0,93.2943341435,36.0023223796,2.3740318763,0.000767318410122,-0.0,0.370546905202,100.0,0.0,-0.0,0.368292786358,100.0,1136093.2612,0.0,0.0,0.0,0.0,0.0,0.0
1402598805423192344,0,4.16209458585,-0.114322152727,-36.4540617027,0.043815185726,-0.631699206379,0.0,0.270204663061,0.0,2.99630588215,0.0,0.0,0.0,0.0,93.2943341435,36.0023223796,2.3740318763,-0.000767381983555,-0.0,0.370546905202,100.0,0.0,-0.0,0.368292786358,100.0,1136093.2612,0.0,0.0,0.0,0.0,0.0,0.0
1402598805443991426,0,4.16209458585,-0.114322152727,-36.4540617027,0.043815185726,-0.631699206379,0.0,0.270204663061,0.0,2.99630588215,0.0,0.0,0.0,0.0,93.2943341435,36.0023223796,2.3740318763,0.000767318410122,-0.0,0.370546905202,100.0,0.0,-0.0,0.368292786358,100.0,1136093.2612,0.0,0.0,0.0,0.0,0.0,0.0
1402598805463186922,0,4.13532742345,-0.114322152727,-36.4434901851,0.043815185726,-0.645113669619,0.0,0.24686911969,0.0,3.02041258404,0.0,0.0,0.0,0.0,93.2943341435,36.0023223796,2.3740318763,0.000767318410122,-0.0,0.370546905202,100.0,0.0,-0.0,0.368292786358,100.0,1136093.2612,0.0,0.0,0.0,0.0,0.0,0.0
1402598805483742472,0,4.13532742345,-0.114322152727,-36.4434901851,0.043815185726,-0.645113669619,0.0,0.24686911969,0.0,3.02041258404,0.0,0.0,0.0,0.0,93.2943341435,36.0023223796,2.3740318763,0.000767318410122,-0.0,0.370546905202,100.0,0.0,-0.0,0.368292786358,100.0,1136093.2612,0.0,0.0,0.0,0.0,0.0,0.0
1402598805503202939,0,4.09727446419,-0.114322152727,-36.4317160442,0.043815185726,-0.681441880491,0.0,0.224260006667,0.0,3.04075319264,0.0,0.0,0.0,0.0,93.2943341435,36.0023223796,2.3740318763,0.000767318410122,-0.0,0.370546905202,100.0,0.0,-0.0,0.368292786358,100.0,1136093.2612,0.0,0.0,0.0,0.0,0.0,0.0
1402598805523788055,0,4.09727446419,-0.114322152727,-36.4317160442,0.043815185726,-0.681441880491,0.0,0.224260006667,0.0,3.04075319264,0.0,0.0,0.0,0.0,93.2943341435,36.0023223796,2.3740318763,0.000767318410122,-0.0,0.370546905202,100.0,0.0,-0.0,0.368292786358,100.0,1136093.2612,0.0,0.0,0.0,0.0,0.0,0.0
1402598805543342980,0,4.06937783433,-0.114322152727,-36.4228149806,0.043815185726,-0.692871531586,0.0,0.204354299148,0.0,3.06548344748,0.0,0.0,0.0,0.0,93.2943341435,36.0023223796,2.3740318763,0.000767318410122,-0.0,0.370546905202,100.0,0.0,-0.0,0.368292786358,100.0,1136093.2612,0.0,0.0,0.0,0.0,0.0,0.0
1402598805563869029,0,4.06937783433,-0.114322152727,-36.4228149806,0.043815185726,-0.692871531586,0.0,0.204354299148,0.0,3.06548344748,0.0,0.0,0.0,0.0,93.2943341435,36.0023223796,2.3740318763,0.000767318410122,-0.0,0.370546905202,100.0,0.0,-0.0,0.368292786358,100.0,1136093.2612,0.0,0.0,0.0,0.0,0.0,0.0
1402598805583176835,0,4.04532949493,-0.114322152727,-36.4132454587,0.043815185726,-0.688061180212,0.0,0.197625519247,0.0,3.09217795747,0.0,0.0,0.0,0.0,93.2943341435,36.0023223796,2.3740318763,0.000767318410122,-0.0,0.370546905202,100.0,0.0,-0.0,0.368292786358,100.0,1136093.2612,0.0,0.0,0.0,0.0,0.0,0.0
1402598805603838723,0,4.04532949493,-0.114322152727,-36.4132454587,0.043815185726,-0.688061180212,0.0,0.197625519247,0.0,3.09217795747,0.0,0.0,0.0,0.0,93.2943341435,36.0023223796,2.3740318763,0.000767318410122,-0.0,0.370546905202,100.0,0.0,-0.0,0.368292786358,100.0,1136093.2612,0.0,0.0,0.0,0.0,0.0,0.0
1402598805623259433,0,4.01706451875,-0.114322152727,-36.4052477203,0.043815185726,-0.693496633,0.0,0.187331772761,0.0,3.11666687455,0.0,0.0,0.0,0.0,93.2943341435,36.0023223796,2.3740318763,0.000767318410122,-0.0,0.370546905202,100.0,0.0,-0.0,0.368292786358,100.0,1136093.2612,0.0,0.0,0.0,0.0,0.0,0.0
1402598805643665781,0,4.01706451875,-0.114322152727,-36.4052477203,0.043815185726,-0.693496633,0.0,0.187331772761,0.0,3.11666687455,0.0,0.0,0.0,0.0,93.2943341435,36.0023223796,2.3740318763,0.000767318410122,-0.0,0.370546905202,100.0,0.0,-0.0,0.368292786358,100.0,1136093.2612,0.0,0.0,0.0,0.0,0.0,0.0
1402598805663220302,0,3.98533421004,-0.114322152727,-36.3981913758,0.043815185726,-0.704530169715,0.0,0.180758631175,0.0,3.14077756725,0.0,0.0,0.0,0.0,93.2943341435,36.0023223796,2.3740318763,0.000767318410122,-0.0,0.370546905202,100.0,0.0,-0.0,0.368292786358,100.0,1136093.2612,0.0,0.0,0.0,0.0,0.0,0.0
1402598805683784146,0,3.98533421004,-0.114322152727,-36.3981913758,0.043815185726,-0.704530169715,0.0,0.180758631175,0.0,3.14077756725,0.0,0.0,0.0,0.0,93.2943341435,36.0023223796,2.3740318763,-0.000767381983555,-0.0,0.370546905202,100.0,0.0,-0.0,0.368292786358,100.0,1136093.2612,0.0,0.0,0.0,0.0,0.0,0.0
1402598805703409078,0,3.93726473158,-0.114322152727,-36.3904432656,0.043815185726,-0.7366106073,0.0,0.164363375896,0.0,-3.11661534428,0.0,0.0,0.0,0.0,93.2943341435,36.0023223796,2.3740318763,0.000767318410122,-0.0,0.370546905202,100.0,0.0,-0.0,0.368292786358,100.0,1136093.2612,0.0,0.0,0.0,0.0,0.0,0.0
1402598805723637600,0,3.93726473158,-0.114322152727,-36.3904432656,0.043815185726,-0.7366106073,0.0,0.164363375896,0.0,-3.11661534428,0.0,0.0,0.0,0.0,93.2943341435,36.0023223796,2.3740318763,0.000767318410122,-0.0,0.370546905202,100.0,0.0,-0.0,0.368292786358,100.0,1136093.2612,0.0,0.0,0.0,0.0,0.0,0.0
1402598805743381925,0,3.8818149789,-0.114322152727,-36.3780497189,0.043815185726,-0.752156853765,0.0,0.160490517144,0.0,-3.0761495225,0.0,0.0,0.0,0.0,93.2943341435,36.0023223796,2.3740318763,0.000767318410122,-0.0,0.370546905202,100.0,0.0,-0.0,0.368292786358,100.0,1136093.2612,0.0,0.0,0.0,0.0,0.0,0.0
1402598805763831183,0,3.8818149789,-0.114322152727,-36.3780497189,0.043815185726,-0.752156853765,0.0,0.160490517144,0.0,-3.0761495225,0.0,0.0,0.0,0.0,93.2943341435,36.0023223796,2.3740318763,0.000767318410122,-0.0,0.370546905202,100.0,0.0,-0.0,0.368292786358,100.0,1136093.2612,0.0,0.0,0.0,0.0,0.0,0.0
1402598805783371438,0,3.86541098281,-0.114322152727,-36.3754348401,0.043815185726,-0.755238594709,0.0,0.153669043011,0.0,-3.06406069447,0.0,0.0,0.0,0.0,93.2943341435,36.0023223796,2.3740318763,0.000767318410122,-0.0,0.370546905202,100.0,0.0,-0.0,0.368292786358,100.0,1136093.2612,0.0,0.0,0.0,0.0,0.0,0.0
1402598805804016066,0,3.86541098281,-0.114322152727,-36.3754348401,0.043815185726,-0.755238594709,0.0,0.153669043011,0.0,-3.06406069447,0.0,0.0,0.0,0.0,93.2943341435,36.0023223796,2.3740318763,0.000767318410122,-0.0,0.370546905202,100.0,0.0,-0.0,0.368292786358,100.0,1136093.2612,0.0,0.0,0.0,0.0,0.0,0.0
1402598805823409716,0,3.85023399508,-0.114322152727,-36.3725356122,0.043815185726,-0.757846752037,0.0,0.148993924436,0.0,-3.05226540704,0.0,0.0,0.0,0.0,93.2943341435,36.0023223796,2.3740318763,-0.000767381983555,-0.0,0.370546905202,100.0,0.0,-0.0,0.368292786358,100.0,1136093.2612,0.0,0.0,0.0,0.0,0.0,0.0
1402598805843846298,0,3.85023399508,-0.114322152727,-36.3725356122,0.043815185726,-0.757846752037,0.0,0.148993924436,0.0,-3.05226540704,0.0,0.0,0.0,0.0,93.2943341435,36.0023223796,2.3740318763,-0.000767381983555,-0.0,0.370546905202,100.0,0.0,-0.0,0.368292786358,100.0,1136093.2612,0.0,0.0,0.0,0.0,0.0,0.0
1402598805863242459,0,3.82301670141,-0.114322152727,-36.3700177205,0.043815185726,-0.75746267207,0.0,0.12988551276,0.0,-3.02774425508,0.0,0.0,0.0,0.0,93.2943341435,36.0023223796,2.3740318763,0.000767318410122,-0.0,0.370546905202,100.0,0.0,-0.0,0.368292786358,100.0,1136093.2612,0.0,0.0,0.0,0.0,0.0,0.0
1402598805883772965,0,3.82301670141,-0.114322152727,-36.3700177205,0.043815185726,-0.75746267207,0.0,0.12988551276,0.0,-3.02774425508,0.0,0.0,0.0,0.0,93.2943341435,36.0023223796,2.3740318763,-0.000767381983555,-0.0,0.370546905202,100.0,0.0,-0.0,0.368292786358,100.0,1136093.2612,0.0,0.0,0.0,0.0,0.0,0.0
1402598805903257773,0,3.78593912664,-0.114322152727,-36.3631223088,0.043815185726,-0.779529975739,0.0,0.112016037433,0.0,-3.00581453334,0.0,0.0,0.0,0.0,93.2943341435,36.0023223796,2.3740318763,0.000767318410122,-0.0,0.370546905202,100.0,0.0,-0.0,0.368292786358,100.0,1136093.2612,0.0,0.0,0.0,0.0,0.0,0.0
1402598805923888234,0,3.78593912664,-0.114322152727,-36.3631223088,0.043815185726,-0.779529975739,0.0,0.112016037433,0.0,-3.00581453334,0.0,0.0,0.0,0.0,93.2943341435,36.0023223796,2.3740318763,0.000767318410122,-0.0,0.370546905202,100.0,0.0,-0.0,0.368292786358,100.0,1136093.2612,0.0,0.0,0.0,0.0,0.0,0.0
1402598805943273680,0,3.75476229706,-0.114322152727,-36.3552176738,0.043815185726,-0.78488093743,0.0,0.0963623150136,0.0,-2.98111300009,0.0,0.0,0.0,0.0,93.2943341435,36.0023223796,2.3740318763,0.000767318410122,-0.0,0.370546905202,100.0,0.0,-0.0,0.368292786358,100.0,1136093.2612,0.0,0.0,0.0,0.0,0.0,0.0
1402598805963893178,0,3.75476229706,-0.114322152727,-36.3552176738,0.043815185726,-0.78488093743,0.0,0.0963623150136,0.0,-2.98111300009,0.0,0.0,0.0,0.0,93.2943341435,36.0023223796,2.3740318763,0.000767318410122,-0.0,0.370546905202,100.0,0.0,-0.0,0.368292786358,100.0,1136093.2612,0.0,0.0,0.0,0.0,0.0,0.0
1402598805983300894,0,3.71888873779,-0.114322152727,-36.3537837065,0.043815185726,-0.796634061878,0.0,0.0606007845336,0.0,-2.95674896352,0.0,0.0,0.0,0.0,93.2943341435,36.0023223796,2.3740318763,0.000767318410122,-0.0,0.370546905202,100.0,0.0,-0.0,0.368292786358,100.0,1136093.2612,0.0,0.0,0.0,0.0,0.0,0.0
1402598806003808155,0,3.71888873779,-0.114322152727,-36.3537837065,0.043815185726,-0.796634061878,0.0,0.0606007845336,0.0,-2.95674896352,0.0,0.0,0.0,0.0,93.2943341435,36.0023223796,2.3740318763,0.000767318410122,-0.0,0.370546905202,100.0,0.0,-0.0,0.368292786358,100.0,1136093.2612,0.0,0.0,0.0,0.0,0.0,0.0
1402598806023203887,0,3.68706010017,-0.114322152727,-36.351806053,0.043815185726,-0.799076547974,0.0,0.0300208401764,0.0,-2.93160656315,0.0,0.0,0.0,0.0,93.2943341435,36.0023223796,2.3740318763,0.000767318410122,-0.0,0.370546905202,100.0,0.0,-0.0,0.368292786358,100.0,1136093.2612,0.0,0.0,0.0,0.0,0.0,0.0
1402598806043886888,0,3.68706010017,-0.114322152727,-36.351806053,0.043815185726,-0.799076547974,0.0,0.0300208401764,0.0,-2.93160656315,0.0,0.0,0.0,0.0,93.2943341435,36.0023223796,2.3740318763,0.000767318410122,-0.0,0.372081128759,100.0,0.0,-0.0,0.368292786358,100.0,1136093.2612,0.0,0.0,0.0,0.0,0.0,0.0
1402598806063185928,0,3.65496016758,-0.114322152727,-36.3497518975,0.043815185726,-0.796350626639,0.0,0.00350193692852,0.0,-2.90478020956,0.0,0.0,0.0,0.0,93.2943341435,36.0023223796,2.3740318763,0.000767318410122,-0.0,0.370546905202,100.0,0.0,-0.0,0.368292786358,100.0,1136093.2612,0.0,0.0,0.0,0.0,0.0,0.0
1402598806083592731,0,3.65496016758,-0.114322152727,-36.3497518975,0.043815185726,-0.796350626639,0.0,0.00350193692852,0.0,-2.90478020956,0.0,0.0,0.0,0.0,93.2943341435,36.0023223796,2.3740318763,0.000767318410122,-0.0,0.370546905202,100.0,0.0,-0.0,0.368292786358,100.0,1136093.2612,0.0,0.0,0.0,0.0,0.0,0.0
1402598806103194107,0,3.62274916962,-0.114322152727,-36.3563034515,0.043815185726,-0.798196938531,0.0,-0.0405168331615,0.0,-2.88027584057,0.0,0.0,0.0,0.0,93.2943341435,36.0023223796,2.3740318763,0.000767318410122,-0.0,0.370546905202,100.0,0.0,-0.0,0.368292786358,100.0,1136093.2612,0.0,0.0,0.0,0.0,0.0,0.0
1402598806124508025,0,3.62274916962,-0.114322152727,-36.3563034515,0.043815185726,-0.798196938531,0.0,-0.0405168331615,0.0,-2.88027584057,0.0,0.0,0.0,0.0,93.2943341435,36.0023223796,2.3740318763,0.000767318410122,-0.0,0.370546905202,100.0,0.0,-0.0,0.368292786358,100.0,1136093.2612,0.0,0.0,0.0,0.0,0.0,0.0
1402598806143938089,0,3.5820940709,-0.114322152727,-36.353633033,0.043815185726,-0.815647156761,0.0,-0.0541988369465,0.0,-2.85764565036,0.0,0.0,0.0,0.0,93.2943341435,36.0023223796,2.3740318763,-0.000767381983555,-0.0,0.370546905202,100.0,0.0,-0.0,0.368292786358,100.0,1136093.2612,0.0,0.0,0.0,0.0,0.0,0.0
1402598806163847907,0,3.5820940709,-0.114322152727,-36.353633033,0.043815185726,-0.815647156761,0.0,-0.0541988369465,0.0,-2.85764565036,0.0,0.0,0.0,0.0,93.2943341435,36.0023223796,2.3740318763,0.000767318410122,-0.0,0.370546905202,100.0,0.0,-0.0,0.368292786358,100.0,1136093.2612,0.0,0.0,0.0,0.0,0.0,0.0
1402598806183183950,0,3.54083485163,-0.114322152727,-36.3653410045,0.043815185726,-0.815823435138,0.0,-0.104592496128,0.0,-2.82776696142,0.0,0.0,0.0,0.0,93.2943341435,36.0023223796,2.3740318763,0.000767318410122,-0.0,0.370546905202,100.0,0.0,-0.0,0.368292786358,100.0,1136093.2612,0.0,0.0,0.0,0.0,0.0,0.0
1402598806203565588,0,3.54083485163,-0.114322152727,-36.3653410045,0.043815185726,-0.815823435138,0.0,-0.104592496128,0.0,-2.82776696142,0.0,0.0,0.0,0.0,93.2943341435,36.0023223796,2.3740318763,0.000767318410122,-0.0,0.370546905202,100.0,0.0,-0.0,0.368292786358,100.0,1136093.2612,0.0,0.0,0.0,0.0,0.0,0.0
1402598806223247635,0,3.51547569822,-0.114322152727,-36.3687619343,0.043815185726,-0.814712238477,0.0,-0.117276386925,0.0,-2.80948910172,0.0,0.0,0.0,0.0,93.2943341435,36.0023223796,2.3740318763,0.000767318410122,-0.0,0.370546905202,100.0,0.0,-0.0,0.368292786358,100.0,1136093.2612,0.0,0.0,0.0,0.0,0.0,0.0
1402598806243774051,0,3.49830577272,-0.114322152727,-36.371472288,0.043815185726,-0.814388664868,0.0,-0.122591690276,0.0,-2.79725276593,0.0,0.0,0.0,0.0,93.2943341435,36.0023223796,2.3740318763,0.000767318410122,-0.0,0.370546905202,100.0,0.0,-0.0,0.368292786358,100.0,1136093.2612,0.0,0.0,0.0,0.0,0.0,0.0
1402598806263365488,0,3.49830577272,-0.114322152727,-36.371472288,0.043815185726,-0.814388664868,0.0,-0.122591690276,0.0,-2.79725276593,0.0,0.0,0.0,0.0,93.2943341435,36.0023223796,2.3740318763,0.000767318410122,-0.0,0.370546905202,100.0,0.0,-0.0,0.368292786358,100.0,1136093.2612,0.0,0.0,0.0,0.0,0.0,0.0
1402598806283776953,0,3.48125081987,-0.114322152727,-36.3741627526,0.043815185726,-0.81360786981,0.0,-0.129194923361,0.0,-2.78516372978,0.0,0.0,0.0,0.0,93.2943341435,36.0023223796,2.3740318763,0.000767318410122,-0.0,0.370546905202,100.0,0.0,-0.0,0.368292786358,100.0,1136093.2612,0.0,0.0,0.0,0.0,0.0,0.0
1402598806303346251,0,3.48125081987,-0.114322152727,-36.3741627526,0.043815185726,-0.81360786981,0.0,-0.129194923361,0.0,-2.78516372978,0.0,0.0,0.0,0.0,93.2943341435,36.0023223796,2.3740318763,-0.000767381983555,-0.0,0.370546905202,100.0,0.0,-0.0,0.368292786358,100.0,1136093.2612,0.0,0.0,0.0,0.0,0.0,0.0
1402598806323806531,0,3.43783744588,-0.114322152727,-36.3739181282,0.043815185726,-0.834466724241,0.0,-0.1294746119,0.0,-2.76447236879,0.0,0.0,0.0,0.0,93.2943341435,36.0023223796,2.3740318763,0.000767318410122,-0.0,0.370546905202,100.0,0.0,-0.0,0.368292786358,100.0,1136093.2612,0.0,0.0,0.0,0.0,0.0,0.0
1402598806343333406,0,3.43783744588,-0.114322152727,-36.3739181282,0.043815185726,-0.834466724241,0.0,-0.1294746119,0.0,-2.76447236879,0.0,0.0,0.0,0.0,93.2943341435,36.0023223796,2.3740318763,0.000767318410122,-0.0,0.370546905202,100.0,0.0,-0.0,0.368292786358,100.0,1136093.2612,0.0,0.0,0.0,0.0,0.0,0.0
1402598806363874324,0,3.40528710966,-0.114322152727,-36.3860823126,0.043815185726,-0.837570698894,0.0,-0.15697947411,0.0,-2.74266542297,0.0,0.0,0.0,0.0,93.2943341435,36.0023223796,2.3740318763,0.000767318410122,-0.0,0.370546905202,100.0,0.0,-0.0,0.368292786358,100.0,1136093.2612,0.0,0.0,0.0,0.0,0.0,0.0
1402598806383208873,0,3.40528710966,-0.114322152727,-36.3860823126,0.043815185726,-0.837570698894,0.0,-0.15697947411,0.0,-2.74266542297,0.0,0.0,0.0,0.0,93.2943341435,36.0023223796,2.3740318763,0.000767318410122,-0.0,0.370546905202,100.0,0.0,-0.0,0.368292786358,100.0,1136093.2612,0.0,0.0,0.0,0.0,0.0,0.0
1402598806403888349,0,3.37300935148,-0.114322152727,-36.4002000068,0.043815185726,-0.837524055929,0.0,-0.189526625739,0.0,-2.7211967842,0.0,0.0,0.0,0.0,93.2943341435,36.0023223796,2.3740318763,0.000767318410122,-0.0,0.370546905202,100.0,0.0,-0.0,0.368292786358,100.0,1136093.2612,0.0,0.0,0.0,0.0,0.0,0.0
1402598806423210831,0,3.37300935148,-0.114322152727,-36.4002000068,0.043815185726,-0.837524055929,0.0,-0.189526625739,0.0,-2.7211967842,0.0,0.0,0.0,0.0,93.2943341435,36.0023223796,2.3740318763,0.000767318410122,-0.0,0.370546905202,100.0,0.0,-0.0,0.368292786358,100.0,1136093.2612,0.0,0.0,0.0,0.0,0.0,0.0
1402598806443793674,0,3.32905282272,-0.114322152727,-36.4079997045,0.043815185726,-0.845073716811,0.0,-0.199152494564,0.0,-2.69265612851,0.0,0.0,0.0,0.0,93.2943341435,36.0023223796,2.3740318763,0.000767318410122,-0.0,0.370546905202,100.0,0.0,-0.0,0.368292786358,100.0,1136093.2612,0.0,0.0,0.0,0.0,0.0,0.0
1402598806463222555,0,3.32905282272,-0.114322152727,-36.4079997045,0.043815185726,-0.845073716811,0.0,-0.199152494564,0.0,-2.69265612851,0.0,0.0,0.0,0.0,93.2943341435,36.0023223796,2.3740318763,0.000767318410122,-0.0,0.370546905202,100.0,0.0,-0.0,0.368292786358,100.0,1136093.2612,0.0,0.0,0.0,0.0,0.0,0.0
1402598806483707296,0,3.28327604181,-0.114322152727,-36.4188874864,0.043815185726,-0.854660431455,0.0,-0.222251424833,0.0,-2.66451030438,0.0,0.0,0.0,0.0,93.2943341435,36.0023223796,2.3740318763,0.000767318410122,-0.0,0.370546905202,100.0,0.0,-0.0,0.368292786358,100.0,1136093.2612,0.0,0.0,0.0,0.0,0.0,0.0
1402598806503287778,0,3.28327604181,-0.114322152727,-36.4188874864,0.043815185726,-0.854660431455,0.0,-0.222251424833,0.0,-2.66451030438,0.0,0.0,0.0,0.0,93.2943341435,36.0023223796,2.3740318763,0.000767318410122,-0.0,0.370546905202,100.0,0.0,-0.0,0.368292786358,100.0,1136093.2612,0.0,0.0,0.0,0.0,0.0,0.0
1402598806523823012,0,3.26626855378,-0.114322152727,-36.4233997112,0.043815185726,-0.854580081916,0.0,-0.232573374444,0.0,-2.65290551082,0.0,0.0,0.0,0.0,93.2943341435,36.0023223796,2.3740318763,0.000767318410122,-0.0,0.370546905202,100.0,0.0,-0.0,0.368292786358,100.0,1136093.2612,0.0,0.0,0.0,0.0,0.0,0.0
1402598806543256972,0,3.26626855378,-0.114322152727,-36.4233997112,0.043815185726,-0.854580081916,0.0,-0.232573374444,0.0,-2.65290551082,0.0,0.0,0.0,0.0,93.2943341435,36.0023223796,2.3740318763,0.000767318410122,-0.0,0.370546905202,100.0,0.0,-0.0,0.368292786358,100.0,1136093.2612,0.0,0.0,0.0,0.0,0.0,0.0
1402598806563890957,0,3.23103542894,-0.114322152727,-36.4334717502,0.043815185726,-0.853020566804,0.0,-0.256992260508,0.0,-2.62894563992,0.0,0.0,0.0,0.0,93.2943341435,36.0023223796,2.3740318763,0.000767318410122,-0.0,0.370546905202,100.0,0.0,-0.0,0.368292786358,100.0,1136093.2612,0.0,0.0,0.0,0.0,0.0,0.0
1402598806583065007,0,3.23103542894,-0.114322152727,-36.4334717502,0.043815185726,-0.853020566804,0.0,-0.256992260508,0.0,-2.62894563992,0.0,0.0,0.0,0.0,93.2943341435,36.0023223796,2.3740318763,0.000767318410122,-0.0,0.370546905202,100.0,0.0,-0.0,0.368292786358,100.0,1136093.2612,0.0,0.0,0.0,0.0,0.0,0.0
1402598806603789881,0,3.19639305382,-0.114322152727,-36.4523462774,0.043815185726,-0.850417240881,0.0,-0.298668221447,0.0,-2.6061459553,0.0,0.0,0.0,0.0,93.2943341435,36.0023223796,2.3740318763,0.000767318410122,-0.0,0.370546905202,100.0,0.0,-0.0,0.368292786358,100.0,1136093.2612,0.0,0.0,0.0,0.0,0.0,0.0
1402598806623229796,0,3.19639305382,-0.114322152727,-36.4523462774,0.043815185726,-0.850417240881,0.0,-0.298668221447,0.0,-2.6061459553,0.0,0.0,0.0,0.0,93.2943341435,36.0023223796,2.3740318763,0.000767318410122,-0.0,0.370546905202,100.0,0.0,-0.0,0.368292786358,100.0,1136093.2612,0.0,0.0,0.0,0.0,0.0,0.0
1402598806643863732,0,3.16549285229,-0.114322152727,-36.4635106612,0.043815185726,-0.837883063537,0.0,-0.308532639161,0.0,-2.58079479178,0.0,0.0,0.0,0.0,93.2943341435,36.0023223796,2.3740318763,-0.000767381983555,-0.0,0.370546905202,100.0,0.0,-0.0,0.368292786358,100.0,1136093.2612,0.0,0.0,0.0,0.0,0.0,0.0
1402598806663185688,0,3.16549285229,-0.114322152727,-36.4635106612,0.043815185726,-0.837883063537,0.0,-0.308532639161,0.0,-2.58079479178,0.0,0.0,0.0,0.0,93.2943341435,36.0023223796,2.3740318763,0.000767318410122,-0.0,0.370546905202,100.0,0.0,-0.0,0.368292786358,100.0,1136093.2612,0.0,0.0,0.0,0.0,0.0,0.0
1402598806683724123,0,3.13167693081,-0.114322152727,-36.4763491998,0.043815185726,-0.830949659636,0.0,-0.326704946045,0.0,-2.55702429256,0.0,0.0,0.0,0.0,93.2943341435,36.0023223796,2.3740318763,0.000767318410122,-0.0,0.370546905202,100.0,0.0,-0.0,0.368292786358,100.0,1136093.2612,0.0,0.0,0.0,0.0,0.0,0.0
1402598806703334410,0,3.13167693081,-0.114322152727,-36.4763491998,0.043815185726,-0.830949659636,0.0,-0.326704946045,0.0,-2.55702429256,0.0,0.0,0.0,0.0,93.2943341435,36.0023223796,2.3740318763,0.000767318410122,-0.0,0.370546905202,100.0,0.0,-0.0,0.368292786358,100.0,1136093.2612,0.0,0.0,0.0,0.0,0.0,0.0
1402598806723883216,0,3.09422845795,-0.114322152727,-36.4890357705,0.043815185726,-0.830595516464,0.0,-0.340636384065,0.0,-2.5335532648,0.0,0.0,0.0,0.0,93.2943341435,36.0023223796,2.3740318763,0.000767318410122,-0.0,0.370546905202,100.0,0.0,-0.0,0.368292786358,100.0,1136093.2612,0.0,0.0,0.0,0.0,0.0,0.0
1402598806743359202,0,3.09422845795,-0.114322152727,-36.4890357705,0.043815185726,-0.830595516464,0.0,-0.340636384065,0.0,-2.5335532648,0.0,0.0,0.0,0.0,93.2943341435,36.0023223796,2.3740318763,0.000767318410122,-0.0,0.370546905202,100.0,0.0,-0.0,0.368292786358,100.0,1136093.2612,0.0,0.0,0.0,0.0,0.0,0.0
1402598806763850880,0,3.05910732256,-0.114322152727,-36.50696486,0.043815185726,-0.827772478806,0.0,-0.365730929305,0.0,-2.51172800353,0.0,0.0,0.0,0.0,93.2943341435,36.0023223796,2.3740318763,0.000767318410122,-0.0,0.370546905202,100.0,0.0,-0.0,0.368292786358,100.0,1136093.2612,0.0,0.0,0.0,0.0,0.0,0.0
1402598806783278105,0,3.05910732256,-0.114322152727,-36.50696486,0.043815185726,-0.827772478806,0.0,-0.365730929305,0.0,-2.51172800353,0.0,0.0,0.0,0.0,93.2943341435,36.0023223796,2.3740318763,-0.000767381983555,-0.0,0.370546905202,100.0,0.0,-0.0,0.368292786358,100.0,1136093.2612,0.0,0.0,0.0,0.0,0.0,0.0
1402598806803756005,0,3.01020818834,-0.114322152727,-36.5269196925,0.043815185726,-0.832605931339,0.0,-0.388143442331,0.0,-2.484518016,0.0,0.0,0.0,0.0,93.2943341435,36.0023223796,2.3740318763,-0.000767381983555,-0.0,0.370546905202,100.0,0.0,-0.0,0.368292786358,100.0,1136093.2612,0.0,0.0,0.0,0.0,0.0,0.0
1402598806823478064,0,3.01020818834,-0.114322152727,-36.5269196925,0.043815185726,-0.832605931339,0.0,-0.388143442331,0.0,-2.484518016,0.0,0.0,0.0,0.0,93.2943341435,36.0023223796,2.3740318763,-0.000767381983555,-0.0,0.370546905202,100.0,0.0,-0.0,0.368292786358,100.0,1136093.2612,0.0,0.0,0.0,0.0,0.0,0.0
1402598806843850753,0,2.99445893376,-0.114322152727,-36.5414973781,0.043815185726,-0.809680029759,0.0,-0.400033611225,0.0,-2.46585761109,0.0,0.0,0.0,0.0,93.2943341435,36.0023223796,2.3740318763,0.000767318410122,-0.0,0.370546905202,100.0,0.0,-0.0,0.368292786358,100.0,1136093.2612,0.0,0.0,0.0,0.0,0.0,0.0
1402598806863189371,0,2.97715403249,-0.114322152727,-36.5501750731,0.043815185726,-0.805829602562,0.0,-0.410410134932,0.0,-2.45472503812,0.0,0.0,0.0,0.0,93.2943341435,36.0023223796,2.3740318763,0.000767318410122,-0.0,0.370546905202,100.0,0.0,-0.0,0.368292786358,100.0,1136093.2612,0.0,0.0,0.0,0.0,0.0,0.0
1402598806883735214,0,2.97715403249,-0.114322152727,-36.5501750731,0.043815185726,-0.805829602562,0.0,-0.410410134932,0.0,-2.45472503812,0.0,0.0,0.0,0.0,93.2943341435,36.0023223796,2.3740318763,0.000767318410122,-0.0,0.370546905202,100.0,0.0,-0.0,0.368292786358,100.0,1136093.2612,0.0,0.0,0.0,0.0,0.0,0.0
1402598806903190607,0,2.957397968,-0.114322152727,-36.5603933976,0.043815185726,-0.810907224746,0.0,-0.421893001859,0.0,-2.44456348342,0.0,0.0,0.0,0.0,93.2943341435,36.0023223796,2.3740318763,-0.000767381983555,-0.0,0.370546905202,100.0,0.0,-0.0,0.368292786358,100.0,1136093.2612,0.0,0.0,0.0,0.0,0.0,0.0
1402598806923795481,0,2.957397968,-0.114322152727,-36.5603933976,0.043815185726,-0.810907224746,0.0,-0.421893001859,0.0,-2.44456348342,0.0,0.0,0.0,0.0,93.2943341435,36.0023223796,2.3740318763,-0.000767381983555,-0.0,0.372081128759,100.0,0.0,-0.0,0.368292786358,100.0,1136093.2612,0.0,0.0,0.0,0.0,0.0,0.0
1402598806943203959,0,2.92513355187,-0.114322152727,-36.586991602,0.043815185726,-0.799812433052,0.0,-0.466192324807,0.0,-2.42510801107,0.0,0.0,0.0,0.0,93.2943341435,36.0023223796,2.3740318763,0.000767318410122,-0.0,0.370546905202,100.0,0.0,-0.0,0.368292786358,100.0,1136093.2612,0.0,0.0,0.0,0.0,0.0,0.0
1402598806963830208,0,2.92513355187,-0.114322152727,-36.586991602,0.043815185726,-0.799812433052,0.0,-0.466192324807,0.0,-2.42510801107,0.0,0.0,0.0,0.0,93.2943341435,36.0023223796,2.3740318763,0.000767318410122,-0.0,0.370546905202,100.0,0.0,-0.0,0.368292786358,100.0,1136093.2612,0.0,0.0,0.0,0.0,0.0,0.0
1402598806983318491,0,2.89187950727,-0.114322152727,-36.6068470697,0.043815185726,-0.792733745925,0.0,-0.48442389743,0.0,-2.40267564342,0.0,0.0,0.0,0.0,93.2943341435,36.0023223796,2.3740318763,0.000767318410122,-0.0,0.370546905202,100.0,0.0,-0.0,0.368292786358,100.0,1136093.2612,0.0,0.0,0.0,0.0,0.0,0.0
1402598807003753539,0,2.89187950727,-0.114322152727,-36.6068470697,0.043815185726,-0.792733745925,0.0,-0.48442389743,0.0,-2.40267564342,0.0,0.0,0.0,0.0,93.2943341435,36.0023223796,2.3740318763,0.000767318410122,-0.0,0.370546905202,100.0,0.0,-0.0,0.368292786358,100.0,1136093.2612,0.0,0.0,0.0,0.0,0.0,0.0
1402598807023202140,0,2.85651620068,-0.114322152727,-36.6285141091,0.043815185726,-0.788074253734,0.0,-0.505156786752,0.0,-2.3809769438,0.0,0.0,0.0,0.0,93.2943341435,36.0023223796,2.3740318763,0.000767318410122,-0.0,0.370546905202,100.0,0.0,-0.0,0.368292786358,100.0,1136093.2612,0.0,0.0,0.0,0.0,0.0,0.0
1402598807043765816,0,2.85651620068,-0.114322152727,-36.6285141091,0.043815185726,-0.788074253734,0.0,-0.505156786752,0.0,-2.3809769438,0.0,0.0,0.0,0.0,93.2943341435,36.0023223796,2.3740318763,0.000767318410122,-0.0,0.370546905202,100.0,0.0,-0.0,0.368292786358,100.0,1136093.2612,0.0,0.0,0.0,0.0,0.0,0.0
1402598807063263133,0,2.82389995371,-0.114322152727,-36.6506804347,0.043815185726,-0.780445144838,0.0,-0.520987305851,0.0,-2.35882773664,0.0,0.0,0.0,0.0,93.2943341435,36.0023223796,2.3740318763,-0.000767381983555,-0.0,0.370546905202,100.0,0.0,-0.0,0.368292786358,100.0,1136093.2612,0.0,0.0,0.0,0.0,0.0,0.0
1402598807083776145,0,2.82389995371,-0.114322152727,-36.6506804347,0.043815185726,-0.780445144838,0.0,-0.520987305851,0.0,-2.35882773664,0.0,0.0,0.0,0.0,93.2943341435,36.0023223796,2.3740318763,0.000767318410122,-0.0,0.370546905202,100.0,0.0,-0.0,0.368292786358,100.0,1136093.2612,0.0,0.0,0.0,0.0,0.0,0.0
1402598807103115298,0,2.77943506035,-0.114322152727,-36.6774737351,0.043815185726,-0.780992853217,0.0,-0.536126274184,0.0,-2.33194700977,0.0,0.0,0.0,0.0,93.2943341435,36.0023223796,2.3740318763,0.000767318410122,-0.0,0.370546905202,100.0,0.0,-0.0,0.368292786358,100.0,1136093.2612,0.0,0.0,0.0,0.0,0.0,0.0
