rosbagTimestamp,transforms,-,header,seq,stamp,secs,nsecs,frame_id,child_frame_id,transform,translation,x,y,z,rotation,x,y,z,w
1402416021207061717,,errorv,,0,,1402416021,130665063,/enu,/base_link,,,7.2900235828,21.6789556775,-24.516946852,,-0.0131176599391,0.0200852600191,0.788477082148,0.614596127758
1402416021207093272,,errorv,,0,,1402416021,140666007,/enu,/base_link,,,7.28471505803,21.6742922841,-24.5365105559,,-0.0122135024094,0.0188727443098,0.789841863615,0.612898425812
1402416021207123869,,errorv,,0,,1402416021,150667905,/enu,/base_link,,,7.28010056421,21.6780668655,-24.5369551937,,-0.0122811654051,0.0188198397106,0.790712699691,0.611774805919
1402416021207400270,,errorv,,0,,1402416021,161663055,/enu,/base_link,,,7.27508424135,21.6822894817,-24.5375826859,,-0.0124352675659,0.0186778882447,0.791697128875,0.610501561622
1402416021207424701,,errorv,,0,,1402416021,307190123,base_link,imu,,,0.13,0.0,-0.1,,1.0,0.0,0.0,0.0
1402416021207651030,,errorv,,0,,1402416021,307145455,/base_link,/gps,,,-0.84,0.0,-0.14,,0.0,0.0,0.0,1.0
1402416021217687960,,errorv,,0,,1402416021,217490311,base_link,/z_drive,,,0.0,0.0,0.0,,0.0,0.0,0.0,1.0
1402416021217712842,,errorv,,0,,1402416021,217510675,/z_drive,port,,,-0.3,0.3048,0.0,,0.0,0.0,0.0,1.0
1402416021217831415,,errorv,,0,,1402416021,217520263,/z_drive,starboard,,,-0.3,-0.3048,0.0,,0.0,0.0,0.0,1.0
1402416021237654253,,errorv,,0,,1402416021,237459433,base_link,/z_drive,,,0.0,0.0,0.0,,0.0,0.0,0.0,1.0
1402416021237712450,,errorv,,0,,1402416021,237474356,/z_drive,port,,,-0.3,0.3048,0.0,,0.0,0.0,0.0,1.0
1402416021237737268,,errorv,,0,,1402416021,237483044,/z_drive,starboard,,,-0.3,-0.3048,0.0,,0.0,0.0,0.0,1.0
1402416021247171312,,errorv,,0,,1402416021,171668052,/enu,/base_link,,,7.2702565164,21.6859627948,-24.5377816474,,-0.0125985596701,0.0186137589328,0.792585015285,0.609347025773
1402416021247201411,,errorv,,0,,1402416021,181665897,/enu,/base_link,,,7.26538774595,21.6898087279,-24.5381940744,,-0.012885875017,0.0184565971384,0.79349238788,0.608163743266
1402416021247224186,,errorv,,0,,1402416021,191700935,/enu,/base_link,,,7.26414112751,21.6882525893,-24.5253474725,,-0.0125334024797,0.0182697106324,0.794418162844,0.606966979365
1402416021247285659,,errorv,,0,,1402416021,201698064,/enu,/base_link,,,7.25937792304,21.6921390185,-24.5259844778,,-0.0127535222649,0.0182134465657,0.79534578295,0.605748052888
1402416021257661762,,errorv,,0,,1402416021,257504198,base_link,/z_drive,,,0.0,0.0,0.0,,0.0,0.0,0.0,1.0
1402416021257726624,,errorv,,0,,1402416021,257526568,/z_drive,port,,,-0.3,0.3048,0.0,,0.0,0.0,0.0,1.0
1402416021257752469,,errorv,,0,,1402416021,257537131,/z_drive,starboard,,,-0.3,-0.3048,0.0,,0.0,0.0,0.0,1.0
1402416021277729929,,errorv,,0,,1402416021,277510368,base_link,/z_drive,,,0.0,0.0,0.0,,0.0,0.0,0.0,1.0
1402416021277760236,,errorv,,0,,1402416021,277543786,/z_drive,port,,,-0.3,0.3048,0.0,,0.0,0.0,0.0,1.0
1402416021277780653,,errorv,,0,,1402416021,277554587,/z_drive,starboard,,,-0.3,-0.3048,0.0,,0.0,0.0,0.0,1.0
1402416021287193900,,errorv,,0,,1402416021,211668968,/enu,/base_link,,,7.25459250732,21.695903968,-24.5263995847,,-0.012909783727,0.018036919083,0.796265964067,0.604539925483
1402416021287223814,,errorv,,0,,1402416021,222664117,/enu,/base_link,,,7.24894584852,21.7001314852,-24.526867695,,-0.013196185236,0.0179395028716,0.797294481426,0.603179529509
1402416021287251634,,errorv,,0,,1402416021,232583999,/enu,/base_link,,,7.2441180053,21.7039380461,-24.5274036492,,-0.013475258424,0.0176613654587,0.798242411605,0.601926528653
1402416021287280439,,errorv,,0,,1402416021,242667913,/enu,/base_link,,,7.23903372807,21.7075617554,-24.5275557913,,-0.0136653210791,0.0175115850292,0.799168211138,0.60069690668
1402416021297750884,,errorv,,0,,1402416021,297549286,base_link,/z_drive,,,0.0,0.0,0.0,,0.0,0.0,0.0,1.0
1402416021297838464,,errorv,,0,,1402416021,297584061,/z_drive,port,,,-0.3,0.3048,0.0,,0.0,0.0,0.0,1.0
1402416021297886277,,errorv,,0,,1402416021,297624912,/z_drive,starboard,,,-0.3,-0.3048,0.0,,0.0,0.0,0.0,1.0
1402416021307473488,,errorv,,0,,1402416021,407253930,base_link,imu,,,0.13,0.0,-0.1,,1.0,0.0,0.0,0.0
1402416021307504000,,errorv,,0,,1402416021,407253925,/base_link,/gps,,,-0.84,0.0,-0.14,,0.0,0.0,0.0,1.0
1402416021317720673,,errorv,,0,,1402416021,317476854,base_link,/z_drive,,,0.0,0.0,0.0,,0.0,0.0,0.0,1.0
1402416021317751687,,errorv,,0,,1402416021,317497747,/z_drive,port,,,-0.3,0.3048,0.0,,0.0,0.0,0.0,1.0
1402416021317829640,,errorv,,0,,1402416021,317506743,/z_drive,starboard,,,-0.3,-0.3048,0.0,,0.0,0.0,0.0,1.0
1402416021327315304,,errorv,,0,,1402416021,252585887,/enu,/base_link,,,7.23376501033,21.7114937084,-24.5281527629,,-0.0138843460106,0.0173391828221,0.800110680458,0.599440970148
1402416021327339688,,errorv,,0,,1402416021,263669013,/enu,/base_link,,,7.22831592561,21.7156095687,-24.5283163382,,-0.0142066050997,0.0170927489576,0.801175965695,0.598015954885
1402416021327491374,,errorv,,0,,1402416021,273570060,/enu,/base_link,,,7.21973530416,21.7148380588,-24.5075540447,,-0.0147961519968,0.0167305039333,0.802154446991,0.59669875758
1402416021327516951,,errorv,,0,,1402416021,283569097,/enu,/base_link,,,7.21450767814,21.7185167739,-24.5075373637,,-0.0150565953522,0.0165767207893,0.803139954417,0.595369402038
1402416021337820190,,errorv,,0,,1402416021,337496039,base_link,/z_drive,,,0.0,0.0,0.0,,0.0,0.0,0.0,1.0
1402416021337847423,,errorv,,0,,1402416021,337515121,/z_drive,port,,,-0.3,0.3048,0.0,,0.0,0.0,0.0,1.0
1402416021337865932,,errorv,,0,,1402416021,337524280,/z_drive,starboard,,,-0.3,-0.3048,0.0,,0.0,0.0,0.0,1.0
1402416021357751723,,errorv,,0,,1402416021,357591944,base_link,/z_drive,,,0.0,0.0,0.0,,0.0,0.0,0.0,1.0
1402416021357888276,,errorv,,0,,1402416021,357609801,/z_drive,port,,,-0.3,0.3048,0.0,,0.0,0.0,0.0,1.0
1402416021357957331,,errorv,,0,,1402416021,357641577,/z_drive,starboard,,,-0.3,-0.3048,0.0,,0.0,0.0,0.0,1.0
1402416021367473557,,errorv,,0,,1402416021,293570041,/enu,/base_link,,,7.20925850682,21.7223069497,-24.5078060296,,-0.0152959840236,0.0162462149116,0.804138017598,0.594023688102
1402416021367497918,,errorv,,0,,1402416021,304569959,/enu,/base_link,,,7.20331067003,21.7265749639,-24.508258308,,-0.0156044812993,0.016052500526,0.805223985917,0.592548014843
1402416021367569357,,errorv,,0,,1402416021,314560890,/enu,/base_link,,,7.20567927357,21.7281753328,-24.5068651963,,-0.0151149717205,0.015813022454,0.806152489051,0.591303348838
1402416021367589193,,errorv,,0,,1402416021,324544906,/enu,/base_link,,,7.20023954703,21.7319747773,-24.5071321608,,-0.0153864067451,0.0156065302526,0.807139085399,0.589954397832
1402416021377926897,,errorv,,0,,1402416021,377574001,base_link,/z_drive,,,0.0,0.0,0.0,,0.0,0.0,0.0,1.0
1402416021378006539,,errorv,,0,,1402416021,377591787,/z_drive,port,,,-0.3,0.3048,0.0,,0.0,0.0,0.0,1.0
1402416021378028939,,errorv,,0,,1402416021,377599910,/z_drive,starboard,,,-0.3,-0.3048,0.0,,0.0,0.0,0.0,1.0
1402416021397866137,,errorv,,0,,1402416021,397661323,base_link,/z_drive,,,0.0,0.0,0.0,,0.0,0.0,0.0,1.0
1402416021397898679,,errorv,,0,,1402416021,397686148,/z_drive,port,,,-0.3,0.3048,0.0,,0.0,0.0,0.0,1.0
1402416021397916250,,errorv,,0,,1402416021,397696436,/z_drive,starboard,,,-0.3,-0.3048,0.0,,0.0,0.0,0.0,1.0
1402416021407152310,,errorv,,0,,1402416021,335541963,/enu,/base_link,,,7.19446369063,21.7360853488,-24.5074418554,,-0.0156430180651,0.0153062120648,0.808217634262,0.588477078165
1402416021407447383,,errorv,,0,,1402416021,345539093,/enu,/base_link,,,7.18901173941,21.7398264492,-24.5075991229,,-0.0158538738173,0.0152110118948,0.809207527999,0.587111962432
1402416021407474345,,errorv,,0,,1402416021,355541944,/enu,/base_link,,,7.18939672714,21.7401981654,-24.518882142,,-0.0151831320946,0.0144727378091,0.810350562776,0.585569788982
1402416021407500107,,errorv,,0,,1402416021,365514993,/enu,/base_link,,,7.18397297055,21.7438140536,-24.519126561,,-0.0154022267921,0.0142522894237,0.811372725834,0.584152328959
1402416021408320823,,errorv,,0,,1402416021,507410640,base_link,imu,,,0.13,0.0,-0.1,,1.0,0.0,0.0,0.0
1402416021408348300,,errorv,,0,,1402416021,507524068,/base_link,/gps,,,-0.84,0.0,-0.14,,0.0,0.0,0.0,1.0
1402416021417823343,,errorv,,0,,1402416021,417565008,base_link,/z_drive,,,0.0,0.0,0.0,,0.0,0.0,0.0,1.0
1402416021417852396,,errorv,,0,,1402416021,417583884,/z_drive,port,,,-0.3,0.3048,0.0,,0.0,0.0,0.0,1.0
1402416021417877813,,errorv,,0,,1402416021,417592159,/z_drive,starboard,,,-0.3,-0.3048,0.0,,0.0,0.0,0.0,1.0
1402416021437709590,,errorv,,0,,1402416021,437545284,base_link,/z_drive,,,0.0,0.0,0.0,,0.0,0.0,0.0,1.0
1402416021437738686,,errorv,,0,,1402416021,437567386,/z_drive,port,,,-0.3,0.3048,0.0,,0.0,0.0,0.0,1.0
1402416021437762962,,errorv,,0,,1402416021,437576597,/z_drive,starboard,,,-0.3,-0.3048,0.0,,0.0,0.0,0.0,1.0
1402416021447330590,,errorv,,0,,1402416021,375518083,/enu,/base_link,,,7.17844341502,21.7475101353,-24.5195537706,,-0.0156556961229,0.0139661885503,0.81239539004,0.582729418339
1402416021447355462,,errorv,,0,,1402416021,386531114,/enu,/base_link,,,7.17238635633,21.7513974668,-24.5196940753,,-0.0158968027536,0.0136571054051,0.813522336412,0.581155902743
1402416021447418006,,errorv,,0,,1402416021,396502017,/enu,/base_link,,,7.16822338386,21.7569225091,-24.5256058558,,-0.0161884414335,0.0135304658045,0.814506864727,0.579770151156
1402416021447447281,,errorv,,0,,1402416021,406503915,/enu,/base_link,,,7.162773501,21.7604920111,-24.5256945265,,-0.0163927544802,0.0133345169963,0.815538296194,0.578317175689
1402416021447469939,,errorv,,0,,1402416021,416515111,/enu,/base_link,,,7.15712838286,21.7641191804,-24.526005764,,-0.0165892207992,0.0130636061856,0.816569832586,0.576860337046
1402416021457646657,,errorv,,0,,1402416021,457503505,base_link,/z_drive,,,0.0,0.0,0.0,,0.0,0.0,0.0,1.0
1402416021457735897,,errorv,,0,,1402416021,457573528,/z_drive,port,,,-0.3,0.3048,0.0,,0.0,0.0,0.0,1.0
1402416021457837708,,errorv,,0,,1402416021,457590431,/z_drive,starboard,,,-0.3,-0.3048,0.0,,0.0,0.0,0.0,1.0
1402416021477877003,,errorv,,0,,1402416021,477684949,base_link,/z_drive,,,0.0,0.0,0.0,,0.0,0.0,0.0,1.0
1402416021477910336,,errorv,,0,,1402416021,477718496,/z_drive,port,,,-0.3,0.3048,0.0,,0.0,0.0,0.0,1.0
1402416021478029286,,errorv,,0,,1402416021,477729372,/z_drive,starboard,,,-0.3,-0.3048,0.0,,0.0,0.0,0.0,1.0
1402416021487161358,,errorv,,0,,1402416021,428045988,/enu,/base_link,,,7.15069999892,21.7682837092,-24.526254383,,-0.0167763372947,0.0128464374457,0.817749935776,0.575185679664
1402416021487180413,,errorv,,0,,1402416021,437601089,/enu,/base_link,,,7.14862674193,21.7754517496,-24.5077225116,,-0.017371503417,0.0134727855633,0.818479576995,0.574114881326
1402416021487317071,,errorv,,0,,1402416021,447509050,/enu,/base_link,,,7.14316129641,21.7791660033,-24.5078980174,,-0.0175799977864,0.0132178600827,0.819511242264,0.572640860972
1402416021495336075,,errorv,,0,,1402416021,458861112,/enu,/base_link,,,7.13683872846,21.7833471356,-24.5079146467,,-0.0177268591514,0.0130092522998,0.820693579598,0.570945326827
1402416021495363828,,errorv,,0,,1402416021,468514919,/enu,/base_link,,,7.13153578145,21.7869631863,-24.5079960195,,-0.0178971812065,0.0128176172084,0.82168723282,0.569513380892
1402416021497778682,,errorv,,0,,1402416021,497544067,base_link,/z_drive,,,0.0,0.0,0.0,,0.0,0.0,0.0,1.0
1402416021497892349,,errorv,,0,,1402416021,497579855,/z_drive,port,,,-0.3,0.3048,0.0,,0.0,0.0,0.0,1.0
1402416021498004028,,errorv,,0,,1402416021,497590293,/z_drive,starboard,,,-0.3,-0.3048,0.0,,0.0,0.0,0.0,1.0
1402416021507727063,,errorv,,0,,1402416021,607514705,base_link,imu,,,0.13,0.0,-0.1,,1.0,0.0,0.0,0.0
1402416021507995492,,errorv,,0,,1402416021,607733383,/base_link,/gps,,,-0.84,0.0,-0.14,,0.0,0.0,0.0,1.0
1402416021517677094,,errorv,,0,,1402416021,517479138,base_link,/z_drive,,,0.0,0.0,0.0,,0.0,0.0,0.0,1.0
1402416021517700775,,errorv,,0,,1402416021,517500072,/z_drive,port,,,-0.3,0.3048,0.0,,0.0,0.0,0.0,1.0
1402416021517720345,,errorv,,0,,1402416021,517508948,/z_drive,starboard,,,-0.3,-0.3048,0.0,,0.0,0.0,0.0,1.0
1402416021535115165,,errorv,,0,,1402416021,478506088,/enu,/base_link,,,7.12576610687,21.790715423,-24.5081158051,,-0.0179959567397,0.0126380123933,0.822727037765,0.568011133265
1402416021535166945,,errorv,,0,,1402416021,488487958,/enu,/base_link,,,7.12212527616,21.790136593,-24.510491072,,-0.0176612224608,0.0120438614695,0.823880446226,0.566360341964
1402416021537682187,,errorv,,0,,1402416021,537473316,base_link,/z_drive,,,0.0,0.0,0.0,,0.0,0.0,0.0,1.0
1402416021537719121,,errorv,,0,,1402416021,537490681,/z_drive,port,,,-0.3,0.3048,0.0,,0.0,0.0,0.0,1.0
1402416021537957964,,errorv,,0,,1402416021,537558050,/z_drive,starboard,,,-0.3,-0.3048,0.0,,0.0,0.0,0.0,1.0
1402416021557643794,,errorv,,0,,1402416021,557480186,base_link,/z_drive,,,0.0,0.0,0.0,,0.0,0.0,0.0,1.0
1402416021557666630,,errorv,,0,,1402416021,557501216,/z_drive,port,,,-0.3,0.3048,0.0,,0.0,0.0,0.0,1.0
1402416021557905253,,errorv,,0,,1402416021,557513081,/z_drive,starboard,,,-0.3,-0.3048,0.0,,0.0,0.0,0.0,1.0
1402416021575223829,,errorv,,0,,1402416021,498507976,/enu,/base_link,,,7.11647951516,21.7936149084,-24.5104486949,,-0.017774128496,0.0118826464671,0.824944218918,0.564809630534
1402416021575249846,,errorv,,0,,1402416021,509473085,/enu,/base_link,,,7.11032095597,21.7975626177,-24.510461509,,-0.0179133422277,0.0117003726046,0.826112607455,0.563098724252
1402416021575272188,,errorv,,0,,1402416021,519478082,/enu,/base_link,,,7.10447785952,21.8010472217,-24.5105493268,,-0.0180288353342,0.0115125142184,0.827167876081,0.561547618545
1402416021575320073,,errorv,,0,,1402416021,529460906,/enu,/base_link,,,7.09864640557,21.8046216348,-24.5106700903,,-0.0181387329052,0.0114731497213,0.828240534816,0.559961578765
1402416021577716765,,errorv,,0,,1402416021,577487217,base_link,/z_drive,,,0.0,0.0,0.0,,0.0,0.0,0.0,1.0
1402416021577746945,,errorv,,0,,1402416021,577507071,/z_drive,port,,,-0.3,0.3048,0.0,,0.0,0.0,0.0,1.0
1402416021577764979,,errorv,,0,,1402416021,577519282,/z_drive,starboard,,,-0.3,-0.3048,0.0,,0.0,0.0,0.0,1.0
1402416021597770772,,errorv,,0,,1402416021,597551378,base_link,/z_drive,,,0.0,0.0,0.0,,0.0,0.0,0.0,1.0
1402416021597803553,,errorv,,0,,1402416021,597575743,/z_drive,port,,,-0.3,0.3048,0.0,,0.0,0.0,0.0,1.0
1402416021597833591,,errorv,,0,,1402416021,597585571,/z_drive,starboard,,,-0.3,-0.3048,0.0,,0.0,0.0,0.0,1.0
1402416021607835905,,errorv,,0,,1402416021,707619413,base_link,imu,,,0.13,0.0,-0.1,,1.0,0.0,0.0,0.0
1402416021608032575,,errorv,,0,,1402416021,707837426,/base_link,/gps,,,-0.84,0.0,-0.14,,0.0,0.0,0.0,1.0
1402416021615173205,,errorv,,0,,1402416021,539452075,/enu,/base_link,,,7.09268632348,21.8081031476,-24.5106888041,,-0.0182675377639,0.0112421012891,0.829307756457,0.558380298097
1402416021615229280,,errorv,,0,,1402416021,549443960,/enu,/base_link,,,7.08688678335,21.8116382892,-24.5107385313,,-0.0183001288511,0.0112063505683,0.830391459051,0.556767049785
1402416021615278188,,errorv,,0,,1402416021,559443950,/enu,/base_link,,,7.08093870874,21.8152540144,-24.5109418223,,-0.0183969069039,0.0111679508348,0.831477975738,0.555140708788
1402416021615331987,,errorv,,0,,1402416021,569444894,/enu,/base_link,,,7.07504325747,21.8186411223,-24.5107692127,,-0.0185240712978,0.0111873208749,0.832566471814,0.553502278808
1402416021617738077,,errorv,,0,,1402416021,617506148,base_link,/z_drive,,,0.0,0.0,0.0,,0.0,0.0,0.0,1.0
1402416021617758371,,errorv,,0,,1402416021,617610040,/z_drive,port,,,-0.3,0.3048,0.0,,0.0,0.0,0.0,1.0
1402416021617945491,,errorv,,0,,1402416021,617623156,/z_drive,starboard,,,-0.3,-0.3048,0.0,,0.0,0.0,0.0,1.0
1402416021637676881,,errorv,,0,,1402416021,637492045,base_link,/z_drive,,,0.0,0.0,0.0,,0.0,0.0,0.0,1.0
1402416021637700533,,errorv,,0,,1402416021,637511547,/z_drive,port,,,-0.3,0.3048,0.0,,0.0,0.0,0.0,1.0
1402416021637714457,,errorv,,0,,1402416021,637518659,/z_drive,starboard,,,-0.3,-0.3048,0.0,,0.0,0.0,0.0,1.0
1402416021655198222,,errorv,,0,,1402416021,580445051,/enu,/base_link,,,7.06847097438,21.8226366451,-24.5112296083,,-0.0186230662674,0.0110045139922,0.833785954584,0.551663904939
1402416021655226508,,errorv,,0,,1402416021,590436935,/enu,/base_link,,,7.06329336454,21.8276286573,-24.5101030153,,-0.0188691664142,0.0112671177034,0.834856247582,0.550029137856
1402416021655250989,,errorv,,0,,1402416021,600435972,/enu,/base_link,,,7.05734425896,21.8311438472,-24.5102501891,,-0.0188804140773,0.0111961583023,0.835971822919,0.54833319003
1402416021655271961,,errorv,,0,,1402416021,610434055,/enu,/base_link,,,7.05127337838,21.8346506125,-24.510274909,,-0.0188517339793,0.0112885410467,0.837082799875,0.546634765744
1402416021657689729,,errorv,,0,,1402416021,657497488,base_link,/z_drive,,,0.0,0.0,0.0,,0.0,0.0,0.0,1.0
1402416021657722755,,errorv,,0,,1402416021,657527874,/z_drive,port,,,-0.3,0.3048,0.0,,0.0,0.0,0.0,1.0
1402416021657746240,,errorv,,0,,1402416021,657540276,/z_drive,starboard,,,-0.3,-0.3048,0.0,,0.0,0.0,0.0,1.0
1402416021677641193,,errorv,,0,,1402416021,677464336,base_link,/z_drive,,,0.0,0.0,0.0,,0.0,0.0,0.0,1.0
1402416021677678758,,errorv,,0,,1402416021,677480341,/z_drive,port,,,-0.3,0.3048,0.0,,0.0,0.0,0.0,1.0
1402416021677750745,,errorv,,0,,1402416021,677486642,/z_drive,starboard,,,-0.3,-0.3048,0.0,,0.0,0.0,0.0,1.0
1402416021695099501,,errorv,,0,,1402416021,620434999,/enu,/base_link,,,7.04525108031,21.8381130517,-24.5102039328,,-0.0188897045599,0.0113231475922,0.838195052462,0.544925700824
1402416021695187409,,errorv,,0,,1402416021,631437063,/enu,/base_link,,,7.03840065196,21.8419455798,-24.5103859997,,-0.0188382825826,0.0113261663922,0.839436311481,0.543013366347
1402416021695215545,,errorv,,0,,1402416021,641416072,/enu,/base_link,,,7.03107374753,21.8313891226,-24.4901111526,,-0.0183010737256,0.0106178242876,0.840745826187,0.541016439914
1402416021695287894,,errorv,,0,,1402416021,651417016,/enu,/base_link,,,7.02493653503,21.8346209774,-24.4898988702,,-0.0183321247263,0.0107537115881,0.841897541647,0.539218712823
1402416021697932592,,errorv,,0,,1402416021,697530686,base_link,/z_drive,,,0.0,0.0,0.0,,0.0,0.0,0.0,1.0
1402416021697957446,,errorv,,0,,1402416021,697550005,/z_drive,port,,,-0.3,0.3048,0.0,,0.0,0.0,0.0,1.0
1402416021697994026,,errorv,,0,,1402416021,697558767,/z_drive,starboard,,,-0.3,-0.3048,0.0,,0.0,0.0,0.0,1.0
1402416021707925052,,errorv,,0,,1402416021,807721885,base_link,imu,,,0.13,0.0,-0.1,,1.0,0.0,0.0,0.0
1402416021708106624,,errorv,,0,,1402416021,807932624,/base_link,/gps,,,-0.84,0.0,-0.14,,0.0,0.0,0.0,1.0
1402416021717747307,,errorv,,0,,1402416021,717485043,base_link,/z_drive,,,0.0,0.0,0.0,,0.0,0.0,0.0,1.0
1402416021717789392,,errorv,,0,,1402416021,717519406,/z_drive,port,,,-0.3,0.3048,0.0,,0.0,0.0,0.0,1.0
1402416021717846564,,errorv,,0,,1402416021,717659542,/z_drive,starboard,,,-0.3,-0.3048,0.0,,0.0,0.0,0.0,1.0
1402416021735331938,,errorv,,0,,1402416021,661400079,/enu,/base_link,,,7.01890699277,21.8379544128,-24.4901609234,,-0.0183584397798,0.0107922119123,0.843032588029,0.537440742195
1402416021735358010,,errorv,,0,,1402416021,671395063,/enu,/base_link,,,7.01259946008,21.8413302893,-24.4903023617,,-0.0183019843967,0.0108742567015,0.844180636813,0.535635921442
1402416021735444611,,errorv,,0,,1402416021,681401014,/enu,/base_link,,,7.00635775626,21.8444793257,-24.4901752051,,-0.0182951523872,0.0110758845682,0.845329092657,0.533817700425
1402416021735475815,,errorv,,0,,1402416021,692399024,/enu,/base_link,,,7.01286838141,21.8550282601,-24.5000634519,,-0.0175872720402,0.0119519277364,0.846402125999,0.53211961098
1402416021737701642,,errorv,,0,,1402416021,737495811,base_link,/z_drive,,,0.0,0.0,0.0,,0.0,0.0,0.0,1.0
1402416021737730027,,errorv,,0,,1402416021,737510762,/z_drive,port,,,-0.3,0.3048,0.0,,0.0,0.0,0.0,1.0
1402416021737765493,,errorv,,0,,1402416021,737515294,/z_drive,starboard,,,-0.3,-0.3048,0.0,,0.0,0.0,0.0,1.0
1402416021757657722,,errorv,,0,,1402416021,757469219,base_link,/z_drive,,,0.0,0.0,0.0,,0.0,0.0,0.0,1.0
1402416021757687537,,errorv,,0,,1402416021,757485113,/z_drive,port,,,-0.3,0.3048,0.0,,0.0,0.0,0.0,1.0
1402416021757711134,,errorv,,0,,1402416021,757489369,/z_drive,starboard,,,-0.3,-0.3048,0.0,,0.0,0.0,0.0,1.0
1402416021775248873,,errorv,,0,,1402416021,702395915,/enu,/base_link,,,7.00671975844,21.8582867671,-24.5000446985,,-0.0176140771983,0.0121340723195,0.847554121002,0.53027777678
1402416021775272102,,errorv,,0,,1402416021,712377071,/enu,/base_link,,,7.00060864499,21.8614684162,-24.4998748111,,-0.0176230577315,0.0121976863255,0.848692997847,0.528451359815
1402416021775324005,,errorv,,0,,1402416021,722389936,/enu,/base_link,,,6.99443376137,21.8647263164,-24.4999040023,,-0.0176827714074,0.0123188904676,0.84985181301,0.526580915394
1402416021775342513,,errorv,,0,,1402416021,733375072,/enu,/base_link,,,6.98205821419,21.8568168826,-24.5100255491,,-0.0173082818428,0.0110009734498,0.851397041587,0.524120672689
1402416021775395221,,errorv,,0,,1402416021,743375062,/enu,/base_link,,,6.97591833879,21.8599154558,-24.5103126046,,-0.0173275138633,0.0112062328933,0.852555322123,0.522229451801
1402416021777738152,,errorv,,0,,1402416021,777499585,base_link,/z_drive,,,0.0,0.0,0.0,,0.0,0.0,0.0,1.0
1402416021777821134,,errorv,,0,,1402416021,777520510,/z_drive,port,,,-0.3,0.3048,0.0,,0.0,0.0,0.0,1.0
1402416021777847277,,errorv,,0,,1402416021,777525761,/z_drive,starboard,,,-0.3,-0.3048,0.0,,0.0,0.0,0.0,1.0
1402416021797685941,,errorv,,0,,1402416021,797515945,base_link,/z_drive,,,0.0,0.0,0.0,,0.0,0.0,0.0,1.0
1402416021797775057,,errorv,,0,,1402416021,797535198,/z_drive,port,,,-0.3,0.3048,0.0,,0.0,0.0,0.0,1.0
1402416021797798000,,errorv,,0,,1402416021,797539561,/z_drive,starboard,,,-0.3,-0.3048,0.0,,0.0,0.0,0.0,1.0
1402416021808041684,,errorv,,0,,1402416021,907824593,base_link,imu,,,0.13,0.0,-0.1,,1.0,0.0,0.0,0.0
1402416021808214582,,errorv,,0,,1402416021,908031119,/base_link,/gps,,,-0.84,0.0,-0.14,,0.0,0.0,0.0,1.0
1402416021815502273,,errorv,,0,,1402416021,753385066,/enu,/base_link,,,6.96946570094,21.8627561865,-24.510316626,,-0.017352825985,0.0113497510203,0.85372056823,0.520318415938
1402416021815528484,,errorv,,0,,1402416021,763380050,/enu,/base_link,,,6.96313761689,21.8654789638,-24.5101293496,,-0.0173929251524,0.011455741008,0.854885967923,0.518397756555
1402416021815592405,,errorv,,0,,1402416021,774367094,/enu,/base_link,,,6.95609294868,21.8685983741,-24.5100528705,,-0.0174300358802,0.0117239919916,0.856156649279,0.516289195854
1402416021817737950,,errorv,,0,,1402416021,817561847,base_link,/z_drive,,,0.0,0.0,0.0,,0.0,0.0,0.0,1.0
1402416021817767657,,errorv,,0,,1402416021,817587466,/z_drive,port,,,-0.3,0.3048,0.0,,0.0,0.0,0.0,1.0
1402416021817847576,,errorv,,0,,1402416021,817597576,/z_drive,starboard,,,-0.3,-0.3048,0.0,,0.0,0.0,0.0,1.0
1402416021823395812,,errorv,,0,,1402416021,784360885,/enu,/base_link,,,6.95382669216,21.8786284979,-24.5131638112,,-0.0177574948168,0.0124907804405,0.857184342897,0.514551896386
1402416021823417925,,errorv,,0,,1402416021,794334888,/enu,/base_link,,,6.94757476931,21.8815255562,-24.5132015154,,-0.0177634917284,0.0126557140164,0.858310054303,0.512667672031
1402416021837939681,,errorv,,0,,1402416021,837650339,base_link,/z_drive,,,0.0,0.0,0.0,,0.0,0.0,0.0,1.0
1402416021837969283,,errorv,,0,,1402416021,837686115,/z_drive,port,,,-0.3,0.3048,0.0,,0.0,0.0,0.0,1.0
1402416021838027221,,errorv,,0,,1402416021,837692269,/z_drive,starboard,,,-0.3,-0.3048,0.0,,0.0,0.0,0.0,1.0
1402416021857759513,,errorv,,0,,1402416021,857489274,base_link,/z_drive,,,0.0,0.0,0.0,,0.0,0.0,0.0,1.0
1402416021857798631,,errorv,,0,,1402416021,857505725,/z_drive,port,,,-0.3,0.3048,0.0,,0.0,0.0,0.0,1.0
1402416021857919954,,errorv,,0,,1402416021,857509824,/z_drive,starboard,,,-0.3,-0.3048,0.0,,0.0,0.0,0.0,1.0
1402416021863035163,,errorv,,0,,1402416021,804773092,/enu,/base_link,,,6.94074749732,21.884644519,-24.5133223307,,-0.0177677009952,0.012807838196,0.85950269381,0.510661715244
1402416021863065868,,errorv,,0,,1402416021,814347028,/enu,/base_link,,,6.93451799921,21.8875919738,-24.5134906852,,-0.017809715669,0.0130928676653,0.860599028073,0.508803207265
1402416021877862039,,errorv,,0,,1402416021,877517906,base_link,/z_drive,,,0.0,0.0,0.0,,0.0,0.0,0.0,1.0
1402416021877931838,,errorv,,0,,1402416021,877545454,/z_drive,port,,,-0.3,0.3048,0.0,,0.0,0.0,0.0,1.0
1402416021877950739,,errorv,,0,,1402416021,877552114,/z_drive,starboard,,,-0.3,-0.3048,0.0,,0.0,0.0,0.0,1.0
1402416021897761548,,errorv,,0,,1402416021,897491411,base_link,/z_drive,,,0.0,0.0,0.0,,0.0,0.0,0.0,1.0
1402416021897794252,,errorv,,0,,1402416021,897515705,/z_drive,port,,,-0.3,0.3048,0.0,,0.0,0.0,0.0,1.0
1402416021897969292,,errorv,,0,,1402416021,897526642,/z_drive,starboard,,,-0.3,-0.3048,0.0,,0.0,0.0,0.0,1.0
1402416021903071285,,errorv,,0,,1402416021,825346946,/enu,/base_link,,,6.92738741323,21.8906710239,-24.5134321085,,-0.0179086018763,0.0131519798728,0.861862326523,0.506655343922
1402416021903204499,,errorv,,0,,1402416021,835320949,/enu,/base_link,,,6.9214177564,21.8778744848,-24.4883606541,,-0.0172848408008,0.0124884578077,0.863114079348,0.504558578098
1402416021903233564,,errorv,,0,,1402416021,845308065,/enu,/base_link,,,6.91474687689,21.8804537971,-24.4883014723,,-0.0174621845522,0.0125109268174,0.864264815062,0.502578230991
1402416021903261306,,errorv,,0,,1402416021,856317043,/enu,/base_link,,,6.90771378759,21.8834083241,-24.4885285273,,-0.017522567788,0.0126565133577,0.865535207027,0.500381432194
1402416021908135761,,errorv,,0,,1402416022,7930264,base_link,imu,,,0.13,0.0,-0.1,,1.0,0.0,0.0,0.0
1402416021908350160,,errorv,,0,,1402416022,8170080,/base_link,/gps,,,-0.84,0.0,-0.14,,0.0,0.0,0.0,1.0
1402416021917895593,,errorv,,0,,1402416021,917665736,base_link,/z_drive,,,0.0,0.0,0.0,,0.0,0.0,0.0,1.0
1402416021917929058,,errorv,,0,,1402416021,917705396,/z_drive,port,,,-0.3,0.3048,0.0,,0.0,0.0,0.0,1.0
1402416021917953176,,errorv,,0,,1402416021,917712616,/z_drive,starboard,,,-0.3,-0.3048,0.0,,0.0,0.0,0.0,1.0
1402416021937643876,,errorv,,0,,1402416021,937450810,base_link,/z_drive,,,0.0,0.0,0.0,,0.0,0.0,0.0,1.0
1402416021937706775,,errorv,,0,,1402416021,937472787,/z_drive,port,,,-0.3,0.3048,0.0,,0.0,0.0,0.0,1.0
1402416021937837564,,errorv,,0,,1402416021,937483578,/z_drive,starboard,,,-0.3,-0.3048,0.0,,0.0,0.0,0.0,1.0
1402416021943159005,,errorv,,0,,1402416021,866321086,/enu,/base_link,,,6.90107786708,21.8860432175,-24.488471696,,-0.0176910345607,0.0128755720259,0.866683478616,0.498378365135
1402416021943189328,,errorv,,0,,1402416021,876319885,/enu,/base_link,,,6.89463787684,21.8886464559,-24.4886675988,,-0.0177694833811,0.0129494529312,0.867835006869,0.49636575021
1402416021943210058,,errorv,,0,,1402416021,886307001,/enu,/base_link,,,6.87799325745,21.8936172932,-24.500603247,,-0.0189465466176,0.0124973315327,0.869040167116,0.49422063192
1402416021943269441,,errorv,,0,,1402416021,897308111,/enu,/base_link,,,6.87053783313,21.8965438928,-24.5007402519,,-0.0191202641655,0.0126974194736,0.87029479885,0.491996091582
1402416021957749759,,errorv,,0,,1402416021,957526323,base_link,/z_drive,,,0.0,0.0,0.0,,0.0,0.0,0.0,1.0
1402416021957850221,,errorv,,0,,1402416021,957631774,/z_drive,port,,,-0.3,0.3048,0.0,,0.0,0.0,0.0,1.0
1402416021958006553,,errorv,,0,,1402416021,957676252,/z_drive,starboard,,,-0.3,-0.3048,0.0,,0.0,0.0,0.0,1.0
1402416021977715189,,errorv,,0,,1402416021,977510481,base_link,/z_drive,,,0.0,0.0,0.0,,0.0,0.0,0.0,1.0
1402416021977740613,,errorv,,0,,1402416021,977523892,/z_drive,port,,,-0.3,0.3048,0.0,,0.0,0.0,0.0,1.0
1402416021977799517,,errorv,,0,,1402416021,977528083,/z_drive,starboard,,,-0.3,-0.3048,0.0,,0.0,0.0,0.0,1.0
1402416021983029431,,errorv,,0,,1402416021,907294988,/enu,/base_link,,,6.86375865804,21.8991532236,-24.5009710781,,-0.0192666020188,0.0127687141128,0.871441133737,0.489955210625
1402416021983223052,,errorv,,0,,1402416021,917290925,/enu,/base_link,,,6.85681016191,21.9015165926,-24.500839113,,-0.0193796957604,0.0128316697203,0.87257763362,0.487922175096
1402416021983283815,,errorv,,0,,1402416021,928277015,/enu,/base_link,,,6.8491012398,21.9042553249,-24.5007964647,,-0.0195968749913,0.0130353291613,0.873814701406,0.485689108681
1402416021983310468,,errorv,,0,,1402416021,938256978,/enu,/base_link,,,6.83890510472,21.9102717274,-24.5021763004,,-0.0204008158061,0.0130553765462,0.874933921709,0.483636223313
1402416021997674394,,errorv,,0,,1402416021,997500898,base_link,/z_drive,,,0.0,0.0,0.0,,0.0,0.0,0.0,1.0
1402416021998764220,,errorv,,0,,1402416021,997519690,/z_drive,port,,,-0.3,0.3048,0.0,,0.0,0.0,0.0,1.0
1402416021998790835,,errorv,,0,,1402416021,997529992,/z_drive,starboard,,,-0.3,-0.3048,0.0,,0.0,0.0,0.0,1.0
1402416022008239344,,errorv,,0,,1402416022,108048223,base_link,imu,,,0.13,0.0,-0.1,,1.0,0.0,0.0,0.0
1402416022008451114,,errorv,,0,,1402416022,108269266,/base_link,/gps,,,-0.84,0.0,-0.14,,0.0,0.0,0.0,1.0
1402416022017657578,,errorv,,0,,1402416022,17485794,base_link,/z_drive,,,0.0,0.0,0.0,,0.0,0.0,0.0,1.0
1402416022017686086,,errorv,,0,,1402416022,17503164,/z_drive,port,,,-0.3,0.3048,0.0,,0.0,0.0,0.0,1.0
1402416022017707440,,errorv,,0,,1402416022,17512790,/z_drive,starboard,,,-0.3,-0.3048,0.0,,0.0,0.0,0.0,1.0
1402416022023149682,,errorv,,0,,1402416021,948251962,/enu,/base_link,,,6.83180099199,21.9129130127,-24.5024022882,,-0.0205788337636,0.01324317075,0.876064749891,0.481572096396
1402416022023181780,,errorv,,0,,1402416021,958247900,/enu,/base_link,,,6.82485375799,21.9154636207,-24.5024814579,,-0.0206780543712,0.0133048049526,0.877198761131,0.479497376117
1402416022023240585,,errorv,,0,,1402416021,969264984,/enu,/base_link,,,6.81707469255,21.9181049977,-24.502370347,,-0.0208456325761,0.0134217691012,0.878463864349,0.477165123149
1402416022023264492,,errorv,,0,,1402416021,979243993,/enu,/base_link,,,6.80996870558,21.9205827625,-24.5024165825,,-0.0210180490186,0.0133750894594,0.879603816691,0.475054180342
1402416022037822711,,errorv,,0,,1402416022,37656957,base_link,/z_drive,,,0.0,0.0,0.0,,0.0,0.0,0.0,1.0
1402416022037854358,,errorv,,0,,1402416022,37682144,/z_drive,port,,,-0.3,0.3048,0.0,,0.0,0.0,0.0,1.0
1402416022037877496,,errorv,,0,,1402416022,37691226,/z_drive,starboard,,,-0.3,-0.3048,0.0,,0.0,0.0,0.0,1.0
1402416022057674041,,errorv,,0,,1402416022,57498003,base_link,/z_drive,,,0.0,0.0,0.0,,0.0,0.0,0.0,1.0
1402416022057700765,,errorv,,0,,1402416022,57533121,/z_drive,port,,,-0.3,0.3048,0.0,,0.0,0.0,0.0,1.0
1402416022057719785,,errorv,,0,,1402416022,57544850,/z_drive,starboard,,,-0.3,-0.3048,0.0,,0.0,0.0,0.0,1.0
1402416022063182955,,errorv,,0,,1402416021,989286899,/enu,/base_link,,,6.80272926157,21.9229052339,-24.5021580154,,-0.0212015855945,0.0134178708914,0.880731179302,0.472951417498
1402416022063246453,,errorv,,0,,1402416022,237941,/enu,/base_link,,,6.79494655611,21.9253946225,-24.5019193582,,-0.0213757400268,0.013364133774,0.881982157937,0.470608064899
1402416022063260693,,errorv,,0,,1402416022,10221958,/enu,/base_link,,,6.78789175092,21.9279536385,-24.5021748907,,-0.0215506149746,0.013323165733,0.883117094423,0.46846799441
1402416022063409387,,errorv,,0,,1402416022,20261049,/enu,/base_link,,,6.78060199963,21.9303638608,-24.5021320645,,-0.021671748801,0.0133730790753,0.884236396119,0.466344820748
1402416022077790573,,errorv,,0,,1402416022,77490038,base_link,/z_drive,,,0.0,0.0,0.0,,0.0,0.0,0.0,1.0
1402416022077822010,,errorv,,0,,1402416022,77520551,/z_drive,port,,,-0.3,0.3048,0.0,,0.0,0.0,0.0,1.0
1402416022077859591,,errorv,,0,,1402416022,77530991,/z_drive,starboard,,,-0.3,-0.3048,0.0,,0.0,0.0,0.0,1.0
1402416022097870361,,errorv,,0,,1402416022,97694246,base_link,/z_drive,,,0.0,0.0,0.0,,0.0,0.0,0.0,1.0
1402416022097901760,,errorv,,0,,1402416022,97712793,/z_drive,port,,,-0.3,0.3048,0.0,,0.0,0.0,0.0,1.0
1402416022097926537,,errorv,,0,,1402416022,97717340,/z_drive,starboard,,,-0.3,-0.3048,0.0,,0.0,0.0,0.0,1.0
1402416022103038927,,errorv,,0,,1402416022,31234979,/enu,/base_link,,,6.77267370198,21.9329214073,-24.5020811613,,-0.021911076255,0.0132336567909,0.885463325397,0.464003743996
1402416022103318115,,errorv,,0,,1402416022,41233062,/enu,/base_link,,,6.78132007524,21.9355821592,-24.5065774917,,-0.0207621634252,0.0134733250555,0.886585643804,0.461901827537
1402416022103341354,,errorv,,0,,1402416022,51233053,/enu,/base_link,,,6.77440364234,21.937561916,-24.5063080284,,-0.0208806640738,0.0133764499232,0.887696633526,0.459760541241
1402416022103353294,,errorv,,0,,1402416022,62196016,/enu,/base_link,,,6.76687178107,21.9401184696,-24.5066458002,,-0.0210523873096,0.0134759980515,0.888916543791,0.457386677374
1402416022103376844,,errorv,,0,,1402416022,72195053,/enu,/base_link,,,6.7598526225,21.9421128924,-24.5065875839,,-0.0211844770961,0.0132531709122,0.890032757024,0.455211228789
1402416022108345893,,errorv,,0,,1402416022,208159092,base_link,imu,,,0.13,0.0,-0.1,,1.0,0.0,0.0,0.0
1402416022108551303,,errorv,,0,,1402416022,208366466,/base_link,/gps,,,-0.84,0.0,-0.14,,0.0,0.0,0.0,1.0
1402416022117773348,,errorv,,0,,1402416022,117535750,base_link,/z_drive,,,0.0,0.0,0.0,,0.0,0.0,0.0,1.0
1402416022117812837,,errorv,,0,,1402416022,117554858,/z_drive,port,,,-0.3,0.3048,0.0,,0.0,0.0,0.0,1.0
1402416022117836989,,errorv,,0,,1402416022,117559428,/z_drive,starboard,,,-0.3,-0.3048,0.0,,0.0,0.0,0.0,1.0
1402416022137799392,,errorv,,0,,1402416022,137494696,base_link,/z_drive,,,0.0,0.0,0.0,,0.0,0.0,0.0,1.0
1402416022138786327,,errorv,,0,,1402416022,137514824,/z_drive,port,,,-0.3,0.3048,0.0,,0.0,0.0,0.0,1.0
1402416022138810260,,errorv,,0,,1402416022,137522439,/z_drive,starboard,,,-0.3,-0.3048,0.0,,0.0,0.0,0.0,1.0
1402416022143121783,,errorv,,0,,1402416022,82195043,/enu,/base_link,,,6.75271931983,21.9443064827,-24.5066294799,,-0.0213221599154,0.0132811870348,0.891117779341,0.453076239623
1402416022143149179,,errorv,,0,,1402416022,93193054,/enu,/base_link,,,6.73831558614,21.9480291234,-24.521345519,,-0.0221557408627,0.0127300963172,0.892335263117,0.450649360359
1402416022143204006,,errorv,,0,,1402416022,103197097,/enu,/base_link,,,6.73141240831,21.9503569535,-24.5219623191,,-0.022249665085,0.0126231021991,0.893424491364,0.448484434429
1402416022151333328,,errorv,,0,,1402416022,113167047,/enu,/base_link,,,6.72399517568,21.9521936814,-24.5218239746,,-0.0222724121825,0.0124620990305,0.894520552644,0.446297677164
1402416022151362160,,errorv,,0,,1402416022,124166965,/enu,/base_link,,,6.71585852403,21.95435596,-24.5219220265,,-0.0224298244132,0.0125344894906,0.895719018334,0.443877494072
1402416022157766037,,errorv,,0,,1402416022,157518130,base_link,/z_drive,,,0.0,0.0,0.0,,0.0,0.0,0.0,1.0
1402416022157791297,,errorv,,0,,1402416022,157530940,/z_drive,port,,,-0.3,0.3048,0.0,,0.0,0.0,0.0,1.0
1402416022157861574,,errorv,,0,,1402416022,157534891,/z_drive,starboard,,,-0.3,-0.3048,0.0,,0.0,0.0,0.0,1.0
1402416022177662642,,errorv,,0,,1402416022,177456381,base_link,/z_drive,,,0.0,0.0,0.0,,0.0,0.0,0.0,1.0
1402416022177691887,,errorv,,0,,1402416022,177472392,/z_drive,port,,,-0.3,0.3048,0.0,,0.0,0.0,0.0,1.0
1402416022177713713,,errorv,,0,,1402416022,177481857,/z_drive,starboard,,,-0.3,-0.3048,0.0,,0.0,0.0,0.0,1.0
1402416022191092086,,errorv,,0,,1402416022,134169101,/enu,/base_link,,,6.71450798618,21.9551378708,-24.504004375,,-0.0222354179917,0.012685784558,0.896785499027,0.441724377629
1402416022191118688,,errorv,,0,,1402416022,144166946,/enu,/base_link,,,6.70720977616,21.9570231875,-24.5039831858,,-0.0223570225456,0.0126381705388,0.897866131279,0.439518885248
1402416022197810874,,errorv,,0,,1402416022,197533566,base_link,/z_drive,,,0.0,0.0,0.0,,0.0,0.0,0.0,1.0
1402416022197913979,,errorv,,0,,1402416022,197567614,/z_drive,port,,,-0.3,0.3048,0.0,,0.0,0.0,0.0,1.0
1402416022197942737,,errorv,,0,,1402416022,197727956,/z_drive,starboard,,,-0.3,-0.3048,0.0,,0.0,0.0,0.0,1.0
1402416022208434719,,errorv,,0,,1402416022,308255156,base_link,imu,,,0.13,0.0,-0.1,,1.0,0.0,0.0,0.0
1402416022208650802,,errorv,,0,,1402416022,308462493,/base_link,/gps,,,-0.84,0.0,-0.14,,0.0,0.0,0.0,1.0
1402416022217764367,,errorv,,0,,1402416022,217492027,base_link,/z_drive,,,0.0,0.0,0.0,,0.0,0.0,0.0,1.0
1402416022217794815,,errorv,,0,,1402416022,217507872,/z_drive,port,,,-0.3,0.3048,0.0,,0.0,0.0,0.0,1.0
1402416022217818071,,errorv,,0,,1402416022,217517512,/z_drive,starboard,,,-0.3,-0.3048,0.0,,0.0,0.0,0.0,1.0
1402416022231127287,,errorv,,0,,1402416022,154169082,/enu,/base_link,,,6.69999463799,21.9590438557,-24.5041041271,,-0.0224480888474,0.0126074047648,0.898950579976,0.437292798263
1402416022231163291,,errorv,,0,,1402416022,164150953,/enu,/base_link,,,6.69268570463,21.9606554044,-24.5037638465,,-0.0224945320214,0.0123992487694,0.900047528556,0.435034137739
1402416022231185021,,errorv,,0,,1402416022,175138950,/enu,/base_link,,,6.68457558465,21.9627042462,-24.5037684652,,-0.0226287713139,0.0124552337595,0.901216435769,0.432598823115
1402416022231204946,,errorv,,0,,1402416022,185142040,/enu,/base_link,,,6.67824010956,21.9612898457,-24.5120965219,,-0.0224865285783,0.011832553423,0.902350590911,0.430253132232
1402416022237774307,,errorv,,0,,1402416022,237511720,base_link,/z_drive,,,0.0,0.0,0.0,,0.0,0.0,0.0,1.0
1402416022237800219,,errorv,,0,,1402416022,237536412,/z_drive,port,,,-0.3,0.3048,0.0,,0.0,0.0,0.0,1.0
1402416022237868572,,errorv,,0,,1402416022,237545690,/z_drive,starboard,,,-0.3,-0.3048,0.0,,0.0,0.0,0.0,1.0
1402416022257769794,,errorv,,0,,1402416022,257485845,base_link,/z_drive,,,0.0,0.0,0.0,,0.0,0.0,0.0,1.0
1402416022257800352,,errorv,,0,,1402416022,257505107,/z_drive,port,,,-0.3,0.3048,0.0,,0.0,0.0,0.0,1.0
1402416022257822859,,errorv,,0,,1402416022,257512870,/z_drive,starboard,,,-0.3,-0.3048,0.0,,0.0,0.0,0.0,1.0
1402416022271099443,,errorv,,0,,1402416022,195144891,/enu,/base_link,,,6.67073825905,21.9628339545,-24.512040563,,-0.0225096848074,0.0117647685285,0.903402423458,0.428040845716
1402416022271256267,,errorv,,0,,1402416022,205138921,/enu,/base_link,,,6.6632883055,21.964372816,-24.5120555056,,-0.0225913902966,0.0115896679702,0.904473575265,0.425773249897
1402416022271285895,,errorv,,0,,1402416022,216139078,/enu,/base_link,,,6.65533465687,21.9662385984,-24.5123219874,,-0.0226460325795,0.011625501406,0.905645629565,0.423270597344
1402416022271312349,,errorv,,0,,1402416022,226139068,/enu,/base_link,,,6.64781250458,21.9678078266,-24.5124852505,,-0.022675446212,0.0115106574341,0.906686458586,0.421037996766
1402416022277863751,,errorv,,0,,1402416022,277684173,base_link,/z_drive,,,0.0,0.0,0.0,,0.0,0.0,0.0,1.0
1402416022277890541,,errorv,,0,,1402416022,277703638,/z_drive,port,,,-0.3,0.3048,0.0,,0.0,0.0,0.0,1.0
1402416022277910751,,errorv,,0,,1402416022,277710392,/z_drive,starboard,,,-0.3,-0.3048,0.0,,0.0,0.0,0.0,1.0
1402416022297836081,,errorv,,0,,1402416022,297698144,base_link,/z_drive,,,0.0,0.0,0.0,,0.0,0.0,0.0,1.0
1402416022297867500,,errorv,,0,,1402416022,297714521,/z_drive,port,,,-0.3,0.3048,0.0,,0.0,0.0,0.0,1.0
1402416022297893735,,errorv,,0,,1402416022,297719067,/z_drive,starboard,,,-0.3,-0.3048,0.0,,0.0,0.0,0.0,1.0
1402416022308545999,,errorv,,0,,1402416022,408351848,base_link,imu,,,0.13,0.0,-0.1,,1.0,0.0,0.0,0.0
1402416022308746406,,errorv,,0,,1402416022,408559044,/base_link,/gps,,,-0.84,0.0,-0.14,,0.0,0.0,0.0,1.0
1402416022311205612,,errorv,,0,,1402416022,236140966,/enu,/base_link,,,6.64012764869,21.9691797958,-24.5124841275,,-0.0226933699916,0.0114501974821,0.907740840747,0.418760635658
1402416022311228880,,errorv,,0,,1402416022,246140956,/enu,/base_link,,,6.63285982405,21.9706564978,-24.5125303011,,-0.0226814501242,0.0114261431934,0.908790465004,0.416479154089
1402416022311255592,,errorv,,0,,1402416022,256141901,/enu,/base_link,,,6.62525374935,21.9720708786,-24.5126552787,,-0.022715485895,0.0112140849036,0.90984748237,0.414168818026
1402416022311275977,,errorv,,0,,1402416022,267143011,/enu,/base_link,,,6.61702462186,21.9736614776,-24.5128319196,,-0.0227481553797,0.0110350242441,0.910987149109,0.411659038314
1402416022317821026,,errorv,,0,,1402416022,317533061,base_link,/z_drive,,,0.0,0.0,0.0,,0.0,0.0,0.0,1.0
1402416022317852880,,errorv,,0,,1402416022,317554756,/z_drive,port,,,-0.3,0.3048,0.0,,0.0,0.0,0.0,1.0
1402416022317874964,,errorv,,0,,1402416022,317563486,/z_drive,starboard,,,-0.3,-0.3048,0.0,,0.0,0.0,0.0,1.0
1402416022337776030,,errorv,,0,,1402416022,337505773,base_link,/z_drive,,,0.0,0.0,0.0,,0.0,0.0,0.0,1.0
1402416022337802960,,errorv,,0,,1402416022,337525603,/z_drive,port,,,-0.3,0.3048,0.0,,0.0,0.0,0.0,1.0
1402416022337823205,,errorv,,0,,1402416022,337534908,/z_drive,starboard,,,-0.3,-0.3048,0.0,,0.0,0.0,0.0,1.0
1402416022351135111,,errorv,,0,,1402416022,277115106,/enu,/base_link,,,6.60546487614,21.9697086314,-24.4879415472,,-0.02314282323,0.0108707833873,0.911998632798,0.409395566141
1402416022351367355,,errorv,,0,,1402416022,287113904,/enu,/base_link,,,6.5977084625,21.9710231185,-24.4877179607,,-0.023166464737,0.0107874939119,0.913033320048,0.407083654017
1402416022351391488,,errorv,,0,,1402416022,298137903,/enu,/base_link,,,6.58908760156,21.9723894715,-24.4876106462,,-0.0230854526204,0.0105782466122,0.914185718916,0.404499238448
1402416022351417736,,errorv,,0,,1402416022,308125019,/enu,/base_link,,,6.58144934698,21.9736040431,-24.4874007429,,-0.0230799434591,0.0107319607287,0.915219666563,0.402150597618
1402416022357764098,,errorv,,0,,1402416022,357536043,base_link,/z_drive,,,0.0,0.0,0.0,,0.0,0.0,0.0,1.0
1402416022357794695,,errorv,,0,,1402416022,357554871,/z_drive,port,,,-0.3,0.3048,0.0,,0.0,0.0,0.0,1.0
1402416022357818550,,errorv,,0,,1402416022,357562506,/z_drive,starboard,,,-0.3,-0.3048,0.0,,0.0,0.0,0.0,1.0
1402416022377630552,,errorv,,0,,1402416022,377469244,base_link,/z_drive,,,0.0,0.0,0.0,,0.0,0.0,0.0,1.0
1402416022377686547,,errorv,,0,,1402416022,377481408,/z_drive,port,,,-0.3,0.3048,0.0,,0.0,0.0,0.0,1.0
1402416022377787846,,errorv,,0,,1402416022,377485481,/z_drive,starboard,,,-0.3,-0.3048,0.0,,0.0,0.0,0.0,1.0
1402416022391160365,,errorv,,0,,1402416022,318140029,/enu,/base_link,,,6.57221442059,21.9768495166,-24.4876634162,,-0.0234467095188,0.010499554695,0.916211579957,0.399870418906
1402416022391185861,,errorv,,0,,1402416022,328109025,/enu,/base_link,,,6.56449742488,21.9781897383,-24.4877170965,,-0.023408517399,0.0105322413535,0.91722480497,0.39754216173
1402416022391240325,,errorv,,0,,1402416022,338099956,/enu,/base_link,,,6.55669005118,21.9792419128,-24.4874737836,,-0.0233544283756,0.0103957386904,0.918237217615,0.395204898095
1402416022391308272,,errorv,,0,,1402416022,349102020,/enu,/base_link,,,6.54803272213,21.9805681644,-24.4873889872,,-0.023277507272,0.010614236646,0.919347841473,0.392613094553
1402416022397685631,,errorv,,0,,1402416022,397506416,base_link,/z_drive,,,0.0,0.0,0.0,,0.0,0.0,0.0,1.0
1402416022397721209,,errorv,,0,,1402416022,397521151,/z_drive,port,,,-0.3,0.3048,0.0,,0.0,0.0,0.0,1.0
1402416022397752669,,errorv,,0,,1402416022,397527602,/z_drive,starboard,,,-0.3,-0.3048,0.0,,0.0,0.0,0.0,1.0
1402416022408624431,,errorv,,0,,1402416022,508449770,base_link,imu,,,0.13,0.0,-0.1,,1.0,0.0,0.0,0.0
1402416022408837133,,errorv,,0,,1402416022,508657494,/base_link,/gps,,,-0.84,0.0,-0.14,,0.0,0.0,0.0,1.0
1402416022417710682,,errorv,,0,,1402416022,417499435,base_link,/z_drive,,,0.0,0.0,0.0,,0.0,0.0,0.0,1.0
1402416022417737435,,errorv,,0,,1402416022,417525187,/z_drive,port,,,-0.3,0.3048,0.0,,0.0,0.0,0.0,1.0
1402416022417769607,,errorv,,0,,1402416022,417533927,/z_drive,starboard,,,-0.3,-0.3048,0.0,,0.0,0.0,0.0,1.0
1402416022431361837,,errorv,,0,,1402416022,359083890,/enu,/base_link,,,6.54949779159,21.9739101569,-24.4747546209,,-0.0222017986054,0.0101271987391,0.920480523077,0.390025802507
1402416022431392276,,errorv,,0,,1402416022,369091033,/enu,/base_link,,,6.54185061986,21.9749260134,-24.474723362,,-0.0221626413318,0.0101306351939,0.921500526327,0.387611877449
1402416022431417797,,errorv,,0,,1402416022,379087924,/enu,/base_link,,,6.53416330379,21.9758460056,-24.4746583133,,-0.0220608500502,0.0100206269177,0.922521927801,0.38518333123
1402416022431450391,,errorv,,0,,1402416022,389089107,/enu,/base_link,,,6.52634535188,21.976734658,-24.4746053597,,-0.021980197123,0.00983788001195,0.923543537429,0.382736752251
1402416022437686396,,errorv,,0,,1402416022,437510185,base_link,/z_drive,,,0.0,0.0,0.0,,0.0,0.0,0.0,1.0
1402416022437722032,,errorv,,0,,1402416022,437529269,/z_drive,port,,,-0.3,0.3048,0.0,,0.0,0.0,0.0,1.0
1402416022437748318,,errorv,,0,,1402416022,437540756,/z_drive,starboard,,,-0.3,-0.3048,0.0,,0.0,0.0,0.0,1.0
1402416022457625278,,errorv,,0,,1402416022,457459124,base_link,/z_drive,,,0.0,0.0,0.0,,0.0,0.0,0.0,1.0
1402416022457655525,,errorv,,0,,1402416022,457473197,/z_drive,port,,,-0.3,0.3048,0.0,,0.0,0.0,0.0,1.0
1402416022457672220,,errorv,,0,,1402416022,457477521,/z_drive,starboard,,,-0.3,-0.3048,0.0,,0.0,0.0,0.0,1.0
1402416022471152572,,errorv,,0,,1402416022,400070905,/enu,/base_link,,,6.51786982923,21.9746404317,-24.470270302,,-0.0219519766837,0.00966011151816,0.92466479541,0.380026063704
1402416022471180126,,errorv,,0,,1402416022,410058021,/enu,/base_link,,,6.50991832735,21.9754124574,-24.4701791415,,-0.02179672863,0.00949021206114,0.925658918926,0.37761144621
1402416022471250076,,errorv,,0,,1402416022,420061111,/enu,/base_link,,,6.50206638166,21.9762434342,-24.4700195006,,-0.0216940326517,0.00952795173331,0.926647311611,0.375184417276
1402416022471278157,,errorv,,0,,1402416022,430062055,/enu,/base_link,,,6.4942896058,21.9769143853,-24.469899479,,-0.0215712506224,0.00930283111006,0.927646447521,0.372720011377
1402416022471299006,,errorv,,0,,1402416022,441028118,/enu,/base_link,,,6.48472641761,21.979431558,-24.4896558923,,-0.0216550529002,0.00909362021065,0.928728596509,0.370015619646
1402416022478263609,,errorv,,0,,1402416022,478073482,base_link,/z_drive,,,0.0,0.0,0.0,,0.0,0.0,0.0,1.0
1402416022478299670,,errorv,,0,,1402416022,478094113,/z_drive,port,,,-0.3,0.3048,0.0,,0.0,0.0,0.0,1.0
1402416022478334517,,errorv,,0,,1402416022,478098762,/z_drive,starboard,,,-0.3,-0.3048,0.0,,0.0,0.0,0.0,1.0
1402416022497806664,,errorv,,0,,1402416022,497523335,base_link,/z_drive,,,0.0,0.0,0.0,,0.0,0.0,0.0,1.0
1402416022497834839,,errorv,,0,,1402416022,497637068,/z_drive,port,,,-0.3,0.3048,0.0,,0.0,0.0,0.0,1.0
1402416022497856995,,errorv,,0,,1402416022,497648083,/z_drive,starboard,,,-0.3,-0.3048,0.0,,0.0,0.0,0.0,1.0
1402416022508756092,,errorv,,0,,1402416022,608558666,base_link,imu,,,0.13,0.0,-0.1,,1.0,0.0,0.0,0.0
1402416022508941686,,errorv,,0,,1402416022,608756559,/base_link,/gps,,,-0.84,0.0,-0.14,,0.0,0.0,0.0,1.0
1402416022511061750,,errorv,,0,,1402416022,451029062,/enu,/base_link,,,6.47698318036,21.9799865028,-24.4896455089,,-0.0215118313216,0.00884308905856,0.929713857329,0.367547526694
1402416022511129465,,errorv,,0,,1402416022,461024045,/enu,/base_link,,,6.46896539142,21.9804269312,-24.4891263799,,-0.0213658675777,0.0088815692847,0.930684395178,0.365090638065
1402416022511153392,,errorv,,0,,1402416022,471025943,/enu,/base_link,,,6.46074098338,21.9809773292,-24.4890961797,,-0.0212958202473,0.00878633020108,0.931644234812,0.362640742585
1402416022517806017,,errorv,,0,,1402416022,517624666,base_link,/z_drive,,,0.0,0.0,0.0,,0.0,0.0,0.0,1.0
1402416022517835928,,errorv,,0,,1402416022,517647988,/z_drive,port,,,-0.3,0.3048,0.0,,0.0,0.0,0.0,1.0
1402416022517891963,,errorv,,0,,1402416022,517655234,/z_drive,starboard,,,-0.3,-0.3048,0.0,,0.0,0.0,0.0,1.0
1402416022519208666,,errorv,,0,,1402416022,482024908,/enu,/base_link,,,6.45226229093,21.9818342241,-24.4897679489,,-0.0209980233151,0.00858717322996,0.932705939031,0.359923567954
1402416022519276550,,errorv,,0,,1402416022,492027044,/enu,/base_link,,,6.45481400939,21.9819682388,-24.4784495671,,-0.0203157605795,0.00920386905246,0.933698001826,0.357366198811
1402416022537857877,,errorv,,0,,1402416022,537619030,base_link,/z_drive,,,0.0,0.0,0.0,,0.0,0.0,0.0,1.0
1402416022537890943,,errorv,,0,,1402416022,537702070,/z_drive,port,,,-0.3,0.3048,0.0,,0.0,0.0,0.0,1.0
1402416022537959757,,errorv,,0,,1402416022,537716251,/z_drive,starboard,,,-0.3,-0.3048,0.0,,0.0,0.0,0.0,1.0
1402416022557665598,,errorv,,0,,1402416022,557482753,base_link,/z_drive,,,0.0,0.0,0.0,,0.0,0.0,0.0,1.0
1402416022557694241,,errorv,,0,,1402416022,557500328,/z_drive,port,,,-0.3,0.3048,0.0,,0.0,0.0,0.0,1.0
1402416022557706789,,errorv,,0,,1402416022,557512231,/z_drive,starboard,,,-0.3,-0.3048,0.0,,0.0,0.0,0.0,1.0
1402416022559017143,,errorv,,0,,1402416022,501998901,/enu,/base_link,,,6.44690100228,21.9822996373,-24.4783526942,,-0.0200722351263,0.00893420307814,0.934648822084,0.354892751081
1402416022559106195,,errorv,,0,,1402416022,512017011,/enu,/base_link,,,6.43920738008,21.9828237085,-24.478727616,,-0.0199615820265,0.00877888702971,0.935596533215,0.352396925955
1402416022577788784,,errorv,,0,,1402416022,577518773,base_link,/z_drive,,,0.0,0.0,0.0,,0.0,0.0,0.0,1.0
1402416022577817042,,errorv,,0,,1402416022,577533446,/z_drive,port,,,-0.3,0.3048,0.0,,0.0,0.0,0.0,1.0
1402416022577837685,,errorv,,0,,1402416022,577537556,/z_drive,starboard,,,-0.3,-0.3048,0.0,,0.0,0.0,0.0,1.0
1402416022597706364,,errorv,,0,,1402416022,597471312,base_link,/z_drive,,,0.0,0.0,0.0,,0.0,0.0,0.0,1.0
1402416022597731563,,errorv,,0,,1402416022,597491950,/z_drive,port,,,-0.3,0.3048,0.0,,0.0,0.0,0.0,1.0
1402416022597805739,,errorv,,0,,1402416022,597501564,/z_drive,starboard,,,-0.3,-0.3048,0.0,,0.0,0.0,0.0,1.0
1402416022599101982,,errorv,,0,,1402416022,522998094,/enu,/base_link,,,6.43071995154,21.9832023505,-24.4788439409,,-0.019717984349,0.0085166999689,0.936632923175,0.349653305631
1402416022599237312,,errorv,,0,,1402416022,532996892,/enu,/base_link,,,6.42692237094,21.9886499803,-24.4922082498,,-0.0197732071776,0.00884176961308,0.937552020663,0.347170061986
1402416022599292088,,errorv,,0,,1402416022,543004035,/enu,/base_link,,,6.41916332434,21.9889727274,-24.492347776,,-0.0194829907623,0.00869366401668,0.938481799634,0.344669036952
1402416022599317474,,errorv,,0,,1402416022,553004980,/enu,/base_link,,,6.41139950143,21.9894050352,-24.4924962308,,-0.0194218412226,0.00880137763355,0.939386909577,0.342195210298
1402416022608863977,,errorv,,0,,1402416022,708667938,base_link,imu,,,0.13,0.0,-0.1,,1.0,0.0,0.0,0.0
1402416022609026900,,errorv,,0,,1402416022,708859635,/base_link,/gps,,,-0.84,0.0,-0.14,,0.0,0.0,0.0,1.0
1402416022617666172,,errorv,,0,,1402416022,617482088,base_link,/z_drive,,,0.0,0.0,0.0,,0.0,0.0,0.0,1.0
1402416022617730834,,errorv,,0,,1402416022,617501949,/z_drive,port,,,-0.3,0.3048,0.0,,0.0,0.0,0.0,1.0
1402416022617756114,,errorv,,0,,1402416022,617510923,/z_drive,starboard,,,-0.3,-0.3048,0.0,,0.0,0.0,0.0,1.0
1402416022637695676,,errorv,,0,,1402416022,637475001,base_link,/z_drive,,,0.0,0.0,0.0,,0.0,0.0,0.0,1.0
1402416022637843808,,errorv,,0,,1402416022,637495480,/z_drive,port,,,-0.3,0.3048,0.0,,0.0,0.0,0.0,1.0
1402416022637924016,,errorv,,0,,1402416022,637507481,/z_drive,starboard,,,-0.3,-0.3048,0.0,,0.0,0.0,0.0,1.0
1402416022639209006,,errorv,,0,,1402416022,563000917,/enu,/base_link,,,6.40359939666,21.9897286861,-24.4926967539,,-0.0192194912883,0.00877871288865,0.940280275075,0.339744830217
1402416022639231205,,errorv,,0,,1402416022,573998928,/enu,/base_link,,,6.39503373458,21.9899815944,-24.4928175532,,-0.019076266886,0.00857829841471,0.941272021373,0.33700072792
1402416022639255472,,errorv,,0,,1402416022,583971977,/enu,/base_link,,,6.3939981752,21.9746926688,-24.4574664428,,-0.018232377194,0.00785626184743,0.942248404458,0.334325894703
1402416022639276869,,errorv,,0,,1402416022,593964099,/enu,/base_link,,,6.38616279094,21.9747640517,-24.4574644006,,-0.0181897109632,0.00775032067139,0.943133315036,0.331826184944
1402416022657821850,,errorv,,0,,1402416022,657504705,base_link,/z_drive,,,0.0,0.0,0.0,,0.0,0.0,0.0,1.0
1402416022657850629,,errorv,,0,,1402416022,657522620,/z_drive,port,,,-0.3,0.3048,0.0,,0.0,0.0,0.0,1.0
1402416022657873534,,errorv,,0,,1402416022,657535408,/z_drive,starboard,,,-0.3,-0.3048,0.0,,0.0,0.0,0.0,1.0
1402416022677600374,,errorv,,0,,1402416022,677460239,base_link,/z_drive,,,0.0,0.0,0.0,,0.0,0.0,0.0,1.0
1402416022677636431,,errorv,,0,,1402416022,677473613,/z_drive,port,,,-0.3,0.3048,0.0,,0.0,0.0,0.0,1.0
1402416022677741225,,errorv,,0,,1402416022,677477930,/z_drive,starboard,,,-0.3,-0.3048,0.0,,0.0,0.0,0.0,1.0
1402416022679189189,,errorv,,0,,1402416022,604980945,/enu,/base_link,,,6.37755662348,21.9744718358,-24.4570308109,,-0.0180911054423,0.0077742918528,0.944095305586,0.32908407172
1402416022679351437,,errorv,,0,,1402416022,615011930,/enu,/base_link,,,6.36977017428,21.9742699165,-24.4568374175,,-0.0180460152195,0.00761852470616,0.944961938202,0.326593378324
1402416022679379158,,errorv,,0,,1402416022,624977111,/enu,/base_link,,,6.36223343705,21.9742773552,-24.4569162562,,-0.0179218370254,0.00773490988529,0.945822567168,0.324096668237
1402416022679398275,,errorv,,0,,1402416022,634963989,/enu,/base_link,,,6.3463086895,21.9770820927,-24.437964581,,-0.0191270648774,0.00795737572966,0.94650813725,0.32201425695
1402416022697793380,,errorv,,0,,1402416022,697526744,base_link,/z_drive,,,0.0,0.0,0.0,,0.0,0.0,0.0,1.0
1402416022697916928,,errorv,,0,,1402416022,697549991,/z_drive,port,,,-0.3,0.3048,0.0,,0.0,0.0,0.0,1.0
1402416022698011440,,errorv,,0,,1402416022,697559979,/z_drive,starboard,,,-0.3,-0.3048,0.0,,0.0,0.0,0.0,1.0
1402416022708965262,,errorv,,0,,1402416022,808774547,base_link,imu,,,0.13,0.0,-0.1,,1.0,0.0,0.0,0.0
1402416022709137435,,errorv,,0,,1402416022,808961626,/base_link,/gps,,,-0.84,0.0,-0.14,,0.0,0.0,0.0,1.0
1402416022717794453,,errorv,,0,,1402416022,717493471,base_link,/z_drive,,,0.0,0.0,0.0,,0.0,0.0,0.0,1.0
1402416022717857710,,errorv,,0,,1402416022,717511015,/z_drive,port,,,-0.3,0.3048,0.0,,0.0,0.0,0.0,1.0
1402416022717880899,,errorv,,0,,1402416022,717520462,/z_drive,starboard,,,-0.3,-0.3048,0.0,,0.0,0.0,0.0,1.0
1402416022719270226,,errorv,,0,,1402416022,645979881,/enu,/base_link,,,6.33755549582,21.976889974,-24.4379772836,,-0.0189792164508,0.00792882551855,0.947437005805,0.319280508487
1402416022719293610,,errorv,,0,,1402416022,655946016,/enu,/base_link,,,6.32966858894,21.9767469596,-24.4378682284,,-0.0190292592606,0.00793926029119,0.948266138352,0.316806228305
1402416022719313151,,errorv,,0,,1402416022,665946006,/enu,/base_link,,,6.3216273822,21.9766051035,-24.4378259788,,-0.0190038836911,0.00812659681887,0.949087239541,0.31433457107
1402416022719356976,,errorv,,0,,1402416022,676949024,/enu,/base_link,,,6.31264060764,21.9763939303,-24.4377814223,,-0.0189891951057,0.00796228859666,0.949987758765,0.311607558678
1402416022737910875,,errorv,,0,,1402416022,737745150,base_link,/z_drive,,,0.0,0.0,0.0,,0.0,0.0,0.0,1.0
1402416022737971328,,errorv,,0,,1402416022,737768869,/z_drive,port,,,-0.3,0.3048,0.0,,0.0,0.0,0.0,1.0
1402416022737999956,,errorv,,0,,1402416022,737779493,/z_drive,starboard,,,-0.3,-0.3048,0.0,,0.0,0.0,0.0,1.0
1402416022757689960,,errorv,,0,,1402416022,757482622,base_link,/z_drive,,,0.0,0.0,0.0,,0.0,0.0,0.0,1.0
1402416022757718997,,errorv,,0,,1402416022,757514611,/z_drive,port,,,-0.3,0.3048,0.0,,0.0,0.0,0.0,1.0
1402416022757744670,,errorv,,0,,1402416022,757529111,/z_drive,starboard,,,-0.3,-0.3048,0.0,,0.0,0.0,0.0,1.0
1402416022762850837,,errorv,,0,,1402416022,686948060,/enu,/base_link,,,6.30546678633,21.9808720268,-24.4728856014,,-0.0189620081927,0.00746507400062,0.950798127453,0.309140155509
1402416022762877084,,errorv,,0,,1402416022,696948051,/enu,/base_link,,,6.29719895905,21.9802173371,-24.4724186638,,-0.0190661380201,0.00744172689867,0.951597667883,0.306664281523
1402416022762908897,,errorv,,0,,1402416022,706948041,/enu,/base_link,,,6.28917780855,21.9797268335,-24.4725970061,,-0.018977184759,0.00719259894744,0.95239707938,0.304184049824
1402416022762942276,,errorv,,0,,1402416022,716944932,/enu,/base_link,,,6.28094547452,21.9793184164,-24.4726453483,,-0.019065410463,0.00728644910755,0.953184387211,0.301700085783
1402416022762963964,,errorv,,0,,1402416022,727945089,/enu,/base_link,,,6.27205611195,21.9787480394,-24.4727489889,,-0.0190002054041,0.00707507371014,0.95403780617,0.298999665426
1402416022777849924,,errorv,,0,,1402416022,777703306,base_link,/z_drive,,,0.0,0.0,0.0,,0.0,0.0,0.0,1.0
1402416022777880015,,errorv,,0,,1402416022,777721919,/z_drive,port,,,-0.3,0.3048,0.0,,0.0,0.0,0.0,1.0
1402416022777900156,,errorv,,0,,1402416022,777726483,/z_drive,starboard,,,-0.3,-0.3048,0.0,,0.0,0.0,0.0,1.0
1402416022797862589,,errorv,,0,,1402416022,797516647,base_link,/z_drive,,,0.0,0.0,0.0,,0.0,0.0,0.0,1.0
1402416022797894436,,errorv,,0,,1402416022,797540894,/z_drive,port,,,-0.3,0.3048,0.0,,0.0,0.0,0.0,1.0
1402416022797919260,,errorv,,0,,1402416022,797551000,/z_drive,starboard,,,-0.3,-0.3048,0.0,,0.0,0.0,0.0,1.0
1402416022799121862,,errorv,,0,,1402416022,737993001,/enu,/base_link,,,6.26381629652,21.9730522923,-24.4499836585,,-0.0192315832341,0.00690399804875,0.95478397549,0.296597439579
1402416022799554855,,errorv,,0,,1402416022,747946023,/enu,/base_link,,,6.25560123028,21.9722729561,-24.4500053896,,-0.0191920129107,0.00668653555818,0.955549961922,0.294127909511
1402416022799576061,,errorv,,0,,1402416022,758950948,/enu,/base_link,,,6.24658742155,21.9714471705,-24.4499034742,,-0.0193081504494,0.00669258371913,0.956379018678,0.291413069854
1402416022809048064,,errorv,,0,,1402416022,768917083,/enu,/base_link,,,6.23860484471,21.9706834101,-24.4498764525,,-0.0193379824317,0.00649343932469,0.957127069876,0.288949216631
1402416022809078307,,errorv,,0,,1402416022,778934955,/enu,/base_link,,,6.23017200819,21.9698516153,-24.4499986842,,-0.0194197238614,0.00626490504634,0.957862943208,0.286499925511
1402416022809103500,,errorv,,0,,1402416022,908871169,base_link,imu,,,0.13,0.0,-0.1,,1.0,0.0,0.0,0.0
1402416022809261006,,errorv,,0,,1402416022,909071129,/base_link,/gps,,,-0.84,0.0,-0.14,,0.0,0.0,0.0,1.0
1402416022817694626,,errorv,,0,,1402416022,817518907,base_link,/z_drive,,,0.0,0.0,0.0,,0.0,0.0,0.0,1.0
1402416022817719446,,errorv,,0,,1402416022,817538134,/z_drive,port,,,-0.3,0.3048,0.0,,0.0,0.0,0.0,1.0
1402416022817787810,,errorv,,0,,1402416022,817551283,/z_drive,starboard,,,-0.3,-0.3048,0.0,,0.0,0.0,0.0,1.0
1402416022837695687,,errorv,,0,,1402416022,837485623,base_link,/z_drive,,,0.0,0.0,0.0,,0.0,0.0,0.0,1.0
1402416022837732693,,errorv,,0,,1402416022,837505534,/z_drive,port,,,-0.3,0.3048,0.0,,0.0,0.0,0.0,1.0
1402416022837814742,,errorv,,0,,1402416022,837515498,/z_drive,starboard,,,-0.3,-0.3048,0.0,,0.0,0.0,0.0,1.0
1402416022847112097,,errorv,,0,,1402416022,788917064,/enu,/base_link,,,6.21536286492,21.9695433235,-24.4517545428,,-0.0202900653053,0.00600210731334,0.958455094011,0.284457590374
1402416022847149087,,errorv,,0,,1402416022,799900054,/enu,/base_link,,,6.20607231393,21.96825928,-24.4515039696,,-0.020317643258,0.00569219379563,0.959257633154,0.281743829637
1402416022857666717,,errorv,,0,,1402416022,857490827,base_link,/z_drive,,,0.0,0.0,0.0,,0.0,0.0,0.0,1.0
1402416022857730822,,errorv,,0,,1402416022,857510074,/z_drive,port,,,-0.3,0.3048,0.0,,0.0,0.0,0.0,1.0
1402416022857798157,,errorv,,0,,1402416022,857525094,/z_drive,starboard,,,-0.3,-0.3048,0.0,,0.0,0.0,0.0,1.0
1402416022877762327,,errorv,,0,,1402416022,877510220,base_link,/z_drive,,,0.0,0.0,0.0,,0.0,0.0,0.0,1.0
1402416022877792035,,errorv,,0,,1402416022,877521959,/z_drive,port,,,-0.3,0.3048,0.0,,0.0,0.0,0.0,1.0
1402416022877813584,,errorv,,0,,1402416022,877526253,/z_drive,starboard,,,-0.3,-0.3048,0.0,,0.0,0.0,0.0,1.0
1402416022887236053,,errorv,,0,,1402416022,809894084,/enu,/base_link,,,6.1976847524,21.9675100401,-24.4518004254,,-0.020377553594,0.00565494512481,0.959969474251,0.279305183287
1402416022887297833,,errorv,,0,,1402416022,819899082,/enu,/base_link,,,6.18938787832,21.9662884896,-24.4513654274,,-0.0204103479123,0.00541199875539,0.960680082727,0.27685358336
1402416022887321602,,errorv,,0,,1402416022,830890893,/enu,/base_link,,,6.18003977312,21.9651192836,-24.4511758527,,-0.020573014293,0.00540222791439,0.961443805451,0.274177635807
