rosbagTimestamp,control_method,x_current,x_desired,y_current,y_desired,z_current,z_desired,x_velocity_current,x_velocity_desired,y_velocity_current,y_velocity_desired,z_velocity_current,z_velocity_desired,yaw_current,yaw_desired,yaw_velocity_current,yaw_velocity_desired,roll_current,roll_desired,roll_velocity_current,roll_velocity_desired,pitch_current,pitch_desired,pitch_velocity_current,pitch_velocity_desired,required_force_x,required_force_y,required_moment_z,resultant_force_x,resultant_force_y,resultant_moment_z,current_port_servo_angle,current_port_thruster_force,current_starboard_servo_angle,current_starboard_thruster_force,estimated_port_servo_angle,estimated_port_thruster_force,estimated_starboard_servo_angle,estimated_starboard_thruster_force,cost_value,step,user_defined_1,user_defined_2,user_defined_3,user_defined_4,user_defined_5
1402753321968889871,3,-8.52821656977,-0.00591572024346,-2.61658821409,-0.122189614607,7.72679350324,0.10862951003,0.00267940559523,0.0,-0.0367746784634,0.0,0.0611010342986,0.0,-1.46851834855,0.0,0.00449264295683,0.0,5.48868990907e-05,0.0,-0.00725589144451,0.0,0.0738096341833,0.0,0.00057231169303,0.0,0.0,0.0,0.0,150.0,-0.0,0.0,0.00537022749826,0.0,0.00230154196664,0.0,-0.0,75.0,-0.0,75.0,1181250.0,0.0,0.0,0.0,0.0,0.0,0.0
1402753321988423431,3,-8.522165737,-0.00591572024346,-2.60177009664,-0.122189614607,7.70315392763,0.10862951003,0.00326593386294,0.0,-0.0245560012341,0.0,0.0642561636783,0.0,-1.46838214929,0.0,0.00375989142956,0.0,-0.000155669995669,0.0,-0.00325353826998,0.0,0.0720158208112,0.0,0.00160034560966,0.0,0.0,0.0,0.0,150.0,-0.0,0.0,0.00537022749826,0.0,0.00230154196664,0.0,-0.0,75.0,-0.0,75.0,1181250.0,0.0,0.0,0.0,0.0,0.0,0.0
1402753322008109499,3,-8.522165737,-0.00591572024346,-2.60177009664,-0.122189614607,7.70315392763,0.10862951003,0.00326593386294,0.0,-0.0245560012341,0.0,0.0642561636783,0.0,-1.46838214929,0.0,0.00375989142956,0.0,-0.000155669995669,0.0,-0.00325353826998,0.0,0.0720158208112,0.0,0.00160034560966,0.0,0.0,0.0,0.0,150.0,-0.0,0.0,0.00537022749826,0.0,0.00230154196664,0.0,-0.0,75.0,-0.0,75.0,1181250.0,0.0,0.0,0.0,0.0,0.0,0.0
1402753322028033838,3,-8.51427223402,-0.00591572024346,-2.58934475317,-0.122189614607,7.67411444013,0.10862951003,0.00802789083943,0.0,-0.022106024831,0.0,0.0647133669581,0.0,-1.46809890413,0.0,0.00314637339949,0.0,-0.000538005672661,0.0,-0.00510680415477,0.0,0.0715979912481,0.0,-0.00411137397903,0.0,0.0,0.0,0.0,150.0,-0.0,0.0,0.00537022749826,0.0,0.00230154196664,0.0,-0.0,75.0,-0.0,75.0,1181250.0,0.0,0.0,0.0,0.0,0.0,0.0
1402753322048062944,3,-8.51427223402,-0.00591572024346,-2.58934475317,-0.122189614607,7.67411444013,0.10862951003,0.00802789083943,0.0,-0.022106024831,0.0,0.0647133669581,0.0,-1.46809890413,0.0,0.00314637339949,0.0,-0.000538005672661,0.0,-0.00510680415477,0.0,0.0715979912481,0.0,-0.00411137397903,0.0,0.0,0.0,0.0,150.0,-0.0,0.0,0.00537022749826,0.0,0.00230154196664,0.0,-0.0,75.0,-0.0,75.0,1181250.0,0.0,0.0,0.0,0.0,0.0,0.0
1402753322068813884,3,-8.5093250342,-0.00591572024346,-2.57300216928,-0.122189614607,7.64283802603,0.10862951003,0.00295787290947,0.0,-0.0125837816194,0.0,0.0653277173039,0.0,-1.46753719843,0.0,0.0129455690034,0.0,3.54629333752e-05,0.0,-0.00616506834722,0.0,0.0702293441904,0.0,0.00287911182598,0.0,0.0,0.0,0.0,150.0,-0.0,0.0,0.00537022749826,0.0,0.00230154196664,0.0,-0.0,75.0,-0.0,75.0,1181250.0,0.0,0.0,0.0,0.0,0.0,0.0
1402753322088104866,3,-8.5093250342,-0.00591572024346,-2.57300216928,-0.122189614607,7.64283802603,0.10862951003,0.00295787290947,0.0,-0.0125837816194,0.0,0.0653277173039,0.0,-1.46753719843,0.0,0.0129455690034,0.0,3.54629333752e-05,0.0,-0.00616506834722,0.0,0.0702293441904,0.0,0.00287911182598,0.0,0.0,0.0,0.0,150.0,-0.0,0.0,0.00537022749826,0.0,0.00230154196664,0.0,-0.0,75.0,-0.0,75.0,1181250.0,0.0,0.0,0.0,0.0,0.0,0.0
1402753322107987319,3,-8.50105676989,-0.00591572024346,-2.56076275811,-0.122189614607,7.60957967995,0.10862951003,0.00724885312294,0.0,-0.0161947430814,0.0,0.063523900208,0.0,-1.46727516103,0.0,0.0100980341705,0.0,-0.000295255154442,0.0,-0.00583216655685,0.0,0.0705678895822,0.0,-0.00457056906134,0.0,0.0,0.0,0.0,150.0,-0.0,0.0,0.00537022749826,0.0,0.00230154196664,0.0,-0.0,75.0,-0.0,75.0,1181250.0,0.0,0.0,0.0,0.0,0.0,0.0
1402753322128810159,3,-8.50087223415,-0.00591572024346,-2.56112596786,-0.122189614607,7.61093118853,0.10862951003,0.00852264033377,0.0,-0.0158335304384,0.0,0.0641131952234,0.0,-1.46709077592,0.0,0.00708012470097,0.0,-0.000395313329602,0.0,-0.00632855255167,0.0,0.0704042574959,0.0,0.00126961551484,0.0,0.0,0.0,0.0,150.0,-0.0,0.0,0.00537022749826,0.0,0.00230154196664,0.0,-0.0,75.0,-0.0,75.0,1181250.0,0.0,0.0,0.0,0.0,0.0,0.0
1402753322148073194,3,-8.50087223415,-0.00591572024346,-2.56112596786,-0.122189614607,7.61093118853,0.10862951003,0.00852264033377,0.0,-0.0158335304384,0.0,0.0641131952234,0.0,-1.46709077592,0.0,0.00708012470097,0.0,-0.000395313329602,0.0,-0.00632855255167,0.0,0.0704042574959,0.0,0.00126961551484,0.0,0.0,0.0,0.0,150.0,-0.0,0.0,0.00537022749826,0.0,0.00230154196664,0.0,-0.0,75.0,-0.0,75.0,1181250.0,0.0,0.0,0.0,0.0,0.0,0.0
1402753322168138931,3,-8.50067114167,-0.00591572024346,-2.56131859889,-0.122189614607,7.61204356372,0.10862951003,0.00889415551707,0.0,-0.0159339033708,0.0,0.0648518624845,0.0,-1.46690251413,0.0,0.00644163884741,0.0,-0.000387685858763,0.0,-0.00537964296376,0.0,0.0702599598124,0.0,0.00174754146767,0.0,0.0,0.0,0.0,150.0,-0.0,0.0,0.00537022749826,0.0,0.00230154196664,0.0,-0.0,75.0,-0.0,75.0,1181250.0,0.0,0.0,0.0,0.0,0.0,0.0
1402753322188079349,3,-8.50067114167,-0.00591572024346,-2.56131859889,-0.122189614607,7.61204356372,0.10862951003,0.00889415551707,0.0,-0.0159339033708,0.0,0.0648518624845,0.0,-1.46690251413,0.0,0.00644163884741,0.0,-0.000387685858763,0.0,-0.00537964296376,0.0,0.0702599598124,0.0,0.00174754146767,0.0,0.0,0.0,0.0,150.0,-0.0,0.0,0.00537022749826,0.0,0.00230154196664,0.0,-0.0,75.0,-0.0,75.0,1181250.0,0.0,0.0,0.0,0.0,0.0,0.0
1402753322207997221,3,-8.49666348849,-0.00591572024346,-2.55125041081,-0.122189614607,7.59483542322,0.10862951003,0.00223063298645,0.0,-0.0168041352502,0.0,0.0700236173921,0.0,-1.46643234001,0.0,0.0110223775747,0.0,0.000387565321949,0.0,0.000590759001115,0.0,0.0699747906895,0.0,0.00616803872367,0.0,0.0,0.0,0.0,150.0,-0.0,0.0,0.00537022749826,0.0,0.00230154196664,0.0,-0.0,75.0,-0.0,75.0,1181250.0,0.0,0.0,0.0,0.0,0.0,0.0
1402753322228048231,3,-8.49666348849,-0.00591572024346,-2.55125041081,-0.122189614607,7.59483542322,0.10862951003,0.00223063298645,0.0,-0.0168041352502,0.0,0.0700236173921,0.0,-1.46643234001,0.0,0.0110223775747,0.0,0.000387565321949,0.0,0.000590759001115,0.0,0.0699747906895,0.0,0.00616803872367,0.0,0.0,0.0,0.0,150.0,-0.0,0.0,0.00537022749826,0.0,0.00230154196664,0.0,-0.0,75.0,-0.0,75.0,1181250.0,0.0,0.0,0.0,0.0,0.0,0.0
1402753322248068712,3,-8.48879357951,-0.00591572024346,-2.53761627628,-0.122189614607,7.55059399839,0.10862951003,0.00308433235843,0.0,-0.0246949269408,0.0,0.0635053816211,0.0,-1.46612886439,0.0,0.0152484305365,0.0,0.000265457115146,0.0,0.00259979709451,0.0,0.0711007144781,0.0,0.0018341491043,0.0,0.0,0.0,0.0,150.0,-0.0,0.0,0.00537022749826,0.0,0.00230154196664,0.0,-0.0,75.0,-0.0,75.0,1181250.0,0.0,0.0,0.0,0.0,0.0,0.0
1402753322268744145,3,-8.48879357951,-0.00591572024346,-2.53761627628,-0.122189614607,7.55059399839,0.10862951003,0.00308433235843,0.0,-0.0246949269408,0.0,0.0635053816211,0.0,-1.46612886439,0.0,0.0152484305365,0.0,0.000265457115146,0.0,0.00259979709451,0.0,0.0711007144781,0.0,0.0018341491043,0.0,0.0,0.0,0.0,150.0,-0.0,0.0,0.00537022749826,0.0,0.00230154196664,0.0,-0.0,75.0,-0.0,75.0,1181250.0,0.0,0.0,0.0,0.0,0.0,0.0
1402753322288090314,3,-8.47859845914,-0.00591572024346,-2.52754072834,-0.122189614607,7.53073936112,0.10862951003,0.0113445325776,0.0,-0.0272745020327,0.0,0.0655850257468,0.0,-1.46585525713,0.0,0.0143093962042,0.0,-0.000687353311351,0.0,0.00339969258321,0.0,0.0714760375857,0.0,-0.000356574530342,0.0,0.0,0.0,0.0,150.0,-0.0,0.0,0.00537022749826,0.0,0.00230154196664,0.0,-0.0,75.0,-0.0,75.0,1181250.0,0.0,0.0,0.0,0.0,0.0,0.0
1402753322308165044,3,-8.47859845914,-0.00591572024346,-2.52754072834,-0.122189614607,7.53073936112,0.10862951003,0.0113445325776,0.0,-0.0272745020327,0.0,0.0655850257468,0.0,-1.46585525713,0.0,0.0143093962042,0.0,-0.000687353311351,0.0,0.00339969258321,0.0,0.0714760375857,0.0,-0.000356574530342,0.0,0.0,0.0,0.0,150.0,-0.0,0.0,0.00537022749826,0.0,0.00230154196664,0.0,-0.0,75.0,-0.0,75.0,1181250.0,0.0,0.0,0.0,0.0,0.0,0.0
1402753322328730875,3,-8.47080656666,-0.00591572024346,-2.5132247984,-0.122189614607,7.49257778882,0.10862951003,0.0125608906961,0.0,-0.0307630669828,0.0,0.0619966043889,0.0,-1.46557999733,0.0,0.00836293767454,0.0,-0.000784153078531,0.0,0.0126808750221,0.0,0.0720797297669,0.0,0.00427672969036,0.0,0.0,0.0,0.0,150.0,-0.0,0.0,0.00537022749826,0.0,0.00230154196664,0.0,-0.0,75.0,-0.0,75.0,1181250.0,0.0,0.0,0.0,0.0,0.0,0.0
1402753322348085031,3,-8.47080656666,-0.00591572024346,-2.5132247984,-0.122189614607,7.49257778882,0.10862951003,0.0125608906961,0.0,-0.0307630669828,0.0,0.0619966043889,0.0,-1.46557999733,0.0,0.00836293767454,0.0,-0.000784153078531,0.0,0.0126808750221,0.0,0.0720797297669,0.0,0.00427672969036,0.0,0.0,0.0,0.0,150.0,-0.0,0.0,0.00537022749826,0.0,0.00230154196664,0.0,-0.0,75.0,-0.0,75.0,1181250.0,0.0,0.0,0.0,0.0,0.0,0.0
1402753322368137124,3,-8.47023876462,-0.00591572024346,-2.51485901967,-0.122189614607,7.49573626976,0.10862951003,0.0130079525462,0.0,-0.0318639159319,0.0,0.0609826675891,0.0,-1.46511619838,0.0,0.0110697171807,0.0,-0.00103904944981,0.0,0.011748915434,0.0,0.0726478185668,0.0,0.0109969689842,0.0,0.0,0.0,0.0,150.0,-0.0,0.0,0.00537022749826,0.0,0.00230154196664,0.0,-0.0,75.0,-0.0,75.0,1181250.0,0.0,0.0,0.0,0.0,0.0,0.0
1402753322387928503,3,-8.47023876462,-0.00591572024346,-2.51485901967,-0.122189614607,7.49573626976,0.10862951003,0.0130079525462,0.0,-0.0318639159319,0.0,0.0609826675891,0.0,-1.46511619838,0.0,0.0110697171807,0.0,-0.00103904944981,0.0,0.011748915434,0.0,0.0726478185668,0.0,0.0109969689842,0.0,0.0,0.0,0.0,150.0,-0.0,0.0,0.00537022749826,0.0,0.00230154196664,0.0,-0.0,75.0,-0.0,75.0,1181250.0,0.0,0.0,0.0,0.0,0.0,0.0
1402753322409143922,3,-8.45790009438,-0.00591572024346,-2.48310262921,-0.122189614607,7.44262518618,0.10862951003,0.00570695403416,0.0,-0.014986957612,0.0,0.063014999697,0.0,-1.46458382559,0.0,0.00678053181599,0.0,-0.000507209936113,0.0,0.0144219549649,0.0,0.0710952358799,0.0,0.00871651565715,0.0,0.0,0.0,0.0,150.0,-0.0,0.0,0.00537022749826,0.0,0.00230154196664,0.0,-0.0,75.0,-0.0,75.0,1181250.0,0.0,0.0,0.0,0.0,0.0,0.0
1402753322428109592,3,-8.45790009438,-0.00591572024346,-2.48310262921,-0.122189614607,7.44262518618,0.10862951003,0.00570695403416,0.0,-0.014986957612,0.0,0.063014999697,0.0,-1.46458382559,0.0,0.00678053181599,0.0,-0.000507209936113,0.0,0.0144219549649,0.0,0.0710952358799,0.0,0.00871651565715,0.0,0.0,0.0,0.0,150.0,-0.0,0.0,0.00537022749826,0.0,0.00230154196664,0.0,-0.0,75.0,-0.0,75.0,1181250.0,0.0,0.0,0.0,0.0,0.0,0.0
1402753322448000919,3,-8.45785203135,-0.00591572024346,-2.48316899077,-0.122189614607,7.44317157344,0.10862951003,0.00564949308736,0.0,-0.0148568038187,0.0,0.0630980382481,0.0,-1.46446975048,0.0,0.0111077178239,0.0,-0.000626915083539,0.0,0.0134771998858,0.0,0.0712419691489,0.0,0.0134284014994,0.0,0.0,0.0,0.0,150.0,-0.0,0.0,0.00537022749826,0.0,0.00230154196664,0.0,-0.0,75.0,-0.0,75.0,1181250.0,0.0,0.0,0.0,0.0,0.0,0.0
1402753322468789448,3,-8.45785203135,-0.00591572024346,-2.48316899077,-0.122189614607,7.44317157344,0.10862951003,0.00564949308736,0.0,-0.0148568038187,0.0,0.0630980382481,0.0,-1.46446975048,0.0,0.0111077178239,0.0,-0.000626915083539,0.0,0.0134771998858,0.0,0.0712419691489,0.0,0.0134284014994,0.0,0.0,0.0,0.0,150.0,-0.0,0.0,0.00537022749826,0.0,0.00230154196664,0.0,-0.0,75.0,-0.0,75.0,1181250.0,0.0,0.0,0.0,0.0,0.0,0.0
1402753322488093210,3,-8.45048517077,-0.00591572024346,-2.47212049341,-0.122189614607,7.4048443319,0.10862951003,0.00751696318113,0.0,-0.0246432314404,0.0,0.059378774392,0.0,-1.46428674598,0.0,0.00710919219219,0.0,-0.000953116750761,0.0,0.0115949423708,0.0,0.0729626073243,0.0,0.0112786891797,0.0,0.0,0.0,0.0,150.0,-0.0,0.0,0.00537022749826,0.0,0.00230154196664,0.0,-0.0,75.0,-0.0,75.0,1181250.0,0.0,0.0,0.0,0.0,0.0,0.0
1402753322508077581,3,-8.45048517077,-0.00591572024346,-2.47212049341,-0.122189614607,7.4048443319,0.10862951003,0.00751696318113,0.0,-0.0246432314404,0.0,0.059378774392,0.0,-1.46428674598,0.0,0.00710919219219,0.0,-0.000953116750761,0.0,0.0115949423708,0.0,0.0729626073243,0.0,0.0112786891797,0.0,0.0,0.0,0.0,150.0,-0.0,0.0,0.00537022749826,0.0,0.00230154196664,0.0,-0.0,75.0,-0.0,75.0,1181250.0,0.0,0.0,0.0,0.0,0.0,0.0
1402753322528015340,3,-8.45013072666,-0.00591572024346,-2.47317217335,-0.122189614607,7.40745175428,0.10862951003,0.00730049013641,0.0,-0.0245524208215,0.0,0.0603406934317,0.0,-1.46389238486,0.0,0.0098988574591,0.0,-0.00117055325204,0.0,0.00734286834668,0.0,0.0733958861137,0.0,0.00950454580445,0.0,0.0,0.0,0.0,150.0,-0.0,0.0,0.00537022749826,0.0,0.00230154196664,0.0,-0.0,75.0,-0.0,75.0,1181250.0,0.0,0.0,0.0,0.0,0.0,0.0
1402753322548070691,3,-8.45013072666,-0.00591572024346,-2.47317217335,-0.122189614607,7.40745175428,0.10862951003,0.00730049013641,0.0,-0.0245524208215,0.0,0.0603406934317,0.0,-1.46389238486,0.0,0.0098988574591,0.0,-0.00117055325204,0.0,0.00734286834668,0.0,0.0733958861137,0.0,0.00950454580445,0.0,0.0,0.0,0.0,150.0,-0.0,0.0,0.00537022749826,0.0,0.00230154196664,0.0,-0.0,75.0,-0.0,75.0,1181250.0,0.0,0.0,0.0,0.0,0.0,0.0
1402753322568132419,3,-8.44087055911,-0.00591572024346,-2.45793538799,-0.122189614607,7.36843760342,0.10862951003,0.010487973679,0.0,-0.0247423629193,0.0,0.0585427945396,0.0,-1.46352087494,0.0,0.00727697941645,0.0,-0.00188699252618,0.0,0.00923541260399,0.0,0.0739489432718,0.0,0.00121343258138,0.0,0.0,0.0,0.0,150.0,-0.0,0.0,0.00537022749826,0.0,0.00230154196664,0.0,-0.0,75.0,-0.0,75.0,1181250.0,0.0,0.0,0.0,0.0,0.0,0.0
1402753322588409688,3,-8.44087055911,-0.00591572024346,-2.45793538799,-0.122189614607,7.36843760342,0.10862951003,0.010487973679,0.0,-0.0247423629193,0.0,0.0585427945396,0.0,-1.46352087494,0.0,0.00727697941645,0.0,-0.00188699252618,0.0,0.00923541260399,0.0,0.0739489432718,0.0,0.00121343258138,0.0,0.0,0.0,0.0,150.0,-0.0,0.0,0.00537022749826,0.0,0.00230154196664,0.0,-0.0,75.0,-0.0,75.0,1181250.0,0.0,0.0,0.0,0.0,0.0,0.0
1402753322608015355,3,-8.43486855547,-0.00591572024346,-2.44447229782,-0.122189614607,7.34496830263,0.10862951003,0.00570077431641,0.0,-0.019754074791,0.0,0.0615985168317,0.0,-1.4631526135,0.0,0.0127480271467,0.0,-0.00149205079351,0.0,0.00172476051264,0.0,0.0734368042922,0.0,-0.00222387160326,0.0,0.0,0.0,0.0,150.0,-0.0,0.0,0.00537022749826,0.0,0.00230154196664,0.0,-0.0,75.0,-0.0,75.0,1181250.0,0.0,0.0,0.0,0.0,0.0,0.0
1402753322628036216,3,-8.43477622033,-0.00591572024346,-2.44486041758,-0.122189614607,7.34617952824,0.10862951003,0.00685227065634,0.0,-0.0190260441951,0.0,0.0623313565431,0.0,-1.46302709226,0.0,0.00430201871265,0.0,-0.00145760229109,0.0,-0.00393778209156,0.0,0.0733952273389,0.0,-0.000317461841453,0.0,0.0,0.0,0.0,150.0,-0.0,0.0,0.00537022749826,0.0,0.00230154196664,0.0,-0.0,75.0,-0.0,75.0,1181250.0,0.0,0.0,0.0,0.0,0.0,0.0
1402753322648114991,3,-8.43477622033,-0.00591572024346,-2.44486041758,-0.122189614607,7.34617952824,0.10862951003,0.00685227065634,0.0,-0.0190260441951,0.0,0.0623313565431,0.0,-1.46302709226,0.0,0.00430201871265,0.0,-0.00145760229109,0.0,-0.00393778209156,0.0,0.0733952273389,0.0,-0.000317461841453,0.0,0.0,0.0,0.0,150.0,-0.0,0.0,0.00537022749826,0.0,0.00230154196664,0.0,-0.0,75.0,-0.0,75.0,1181250.0,0.0,0.0,0.0,0.0,0.0,0.0
1402753322668278194,3,-8.42620491651,-0.00591572024346,-2.42439379015,-0.122189614607,7.31102447946,0.10862951003,0.00912764021542,0.0,-0.00367543173475,0.0,0.0617568571983,0.0,-1.46281924013,0.0,0.00802361354859,0.0,-0.00185678921766,0.0,-0.00239136898164,0.0,0.0716889133107,0.0,0.00393192537753,0.0,0.0,0.0,0.0,150.0,-0.0,0.0,0.00537022749826,0.0,0.00230154196664,0.0,-0.0,75.0,-0.0,75.0,1181250.0,0.0,0.0,0.0,0.0,0.0,0.0
1402753322687946016,3,-8.42620491651,-0.00591572024346,-2.42439379015,-0.122189614607,7.31102447946,0.10862951003,0.00912764021542,0.0,-0.00367543173475,0.0,0.0617568571983,0.0,-1.46281924013,0.0,0.00802361354859,0.0,-0.00185678921766,0.0,-0.00239136898164,0.0,0.0716889133107,0.0,0.00393192537753,0.0,0.0,0.0,0.0,150.0,-0.0,0.0,0.00537022749826,0.0,0.00230154196664,0.0,-0.0,75.0,-0.0,75.0,1181250.0,0.0,0.0,0.0,0.0,0.0,0.0
1402753322708275358,3,-8.41890549486,-0.00591572024346,-2.4161767067,-0.122189614607,7.27748454625,0.10862951003,0.00820388755977,0.0,-0.0197199753417,0.0,0.0622486029757,0.0,-1.46234596726,0.0,0.0137265036911,0.0,-0.00178271772822,0.0,-0.00459196081493,0.0,0.0734643565438,0.0,-0.00331724864202,0.0,0.0,0.0,0.0,150.0,-0.0,0.0,0.00537022749826,75.0,0.00230154196664,75.0,-0.0,75.0,-0.0,75.0,1181250.0,0.0,0.0,0.0,0.0,0.0,0.0
1402753322728122403,3,-8.41890549486,-0.00591572024346,-2.4161767067,-0.122189614607,7.27748454625,0.10862951003,0.00820388755977,0.0,-0.0197199753417,0.0,0.0622486029757,0.0,-1.46234596726,0.0,0.0137265036911,0.0,-0.00178271772822,0.0,-0.00459196081493,0.0,0.0734643565438,0.0,-0.00331724864202,0.0,0.0,0.0,0.0,150.0,-0.0,0.0,0.00537022749826,75.0,0.00230154196664,75.0,-0.0,75.0,-0.0,75.0,1181250.0,0.0,0.0,0.0,0.0,0.0,0.0
1402753322747989758,3,-8.40990282389,-0.00591572024346,-2.3989476879,-0.122189614607,7.23555223582,0.10862951003,0.0129962559531,0.0,-0.0182065265147,0.0,0.0600578510685,0.0,-1.46207185077,0.0,0.00686526614858,0.0,-0.0019844540553,0.0,-0.00296480152504,0.0,0.0730336015602,0.0,0.00305163303433,0.0,0.0,0.0,0.0,150.0,-0.0,0.0,0.00537022749826,75.0,0.00230154196664,75.0,-0.0,75.0,-0.0,75.0,1181250.0,0.0,0.0,0.0,0.0,0.0,0.0
1402753322767932655,3,-8.40990282389,-0.00591572024346,-2.3989476879,-0.122189614607,7.23555223582,0.10862951003,0.0129962559531,0.0,-0.0182065265147,0.0,0.0600578510685,0.0,-1.46207185077,0.0,0.00686526614858,0.0,-0.0019844540553,0.0,-0.00296480152504,0.0,0.0730336015602,0.0,0.00305163303433,0.0,0.0,0.0,0.0,150.0,-0.0,0.0,0.00537022749826,75.0,0.00230154196664,75.0,-0.0,75.0,-0.0,75.0,1181250.0,0.0,0.0,0.0,0.0,0.0,0.0
1402753322787956707,3,-8.40947888018,-0.00591572024346,-2.39959925276,-0.122189614607,7.23786986997,0.10862951003,0.0123790770613,0.0,-0.0174115199004,0.0,0.0601489781808,0.0,-1.46153720855,0.0,0.00614973952293,0.0,-0.00182178816873,0.0,-0.0135597087619,0.0,0.0725416901913,0.0,-0.00674585985672,0.0,0.0,0.0,0.0,150.0,-0.0,0.0,0.00537022749826,75.0,0.00230154196664,75.0,-0.0,75.0,-0.0,75.0,1181250.0,0.0,0.0,0.0,0.0,0.0,0.0
1402753322807909308,3,-8.40947888018,-0.00591572024346,-2.39959925276,-0.122189614607,7.23786986997,0.10862951003,0.0123790770613,0.0,-0.0174115199004,0.0,0.0601489781808,0.0,-1.46153720855,0.0,0.00614973952293,0.0,-0.00182178816873,0.0,-0.0135597087619,0.0,0.0725416901913,0.0,-0.00674585985672,0.0,0.0,0.0,0.0,150.0,-0.0,0.0,0.00537022749826,75.0,-0.00690451462821,75.0,-0.0,75.0,-0.0,75.0,1181250.0,0.0,0.0,0.0,0.0,0.0,0.0
1402753322828673411,3,-8.40893051682,-0.00591572024346,-2.3862258468,-0.122189614607,7.21389972964,0.10862951003,-0.00533151962726,0.0,-0.0146640731691,0.0,0.065297206126,0.0,-1.46092488542,0.0,0.00944668748642,0.0,0.000466621016753,0.0,-0.00859962041553,0.0,0.0713050697664,0.0,-0.0155720992099,0.0,0.0,0.0,0.0,150.0,-0.0,0.0,0.00537022749826,75.0,-0.00690451462821,75.0,-0.0,75.0,-0.0,75.0,1181250.0,0.0,0.0,0.0,0.0,0.0,0.0
1402753322848591580,3,-8.40893051682,-0.00591572024346,-2.3862258468,-0.122189614607,7.21389972964,0.10862951003,-0.00533151962726,0.0,-0.0146640731691,0.0,0.065297206126,0.0,-1.46092488542,0.0,0.00944668748642,0.0,0.000466621016753,0.0,-0.00859962041553,0.0,0.0713050697664,0.0,-0.0155720992099,0.0,0.0,0.0,0.0,150.0,-0.0,0.0,0.00537022749826,75.0,-0.00383606751517,75.0,-0.0,75.0,-0.0,75.0,1181250.0,0.0,0.0,0.0,0.0,0.0,0.0
1402753322867952181,3,-8.39756551904,-0.00591572024346,-2.37313039638,-0.122189614607,7.18589174078,0.10862951003,0.00410389439635,0.0,-0.019883662719,0.0,0.0683150719711,0.0,-1.46060528496,0.0,0.0140991964984,0.0,-0.000399849838892,0.0,-0.0102531249678,0.0,0.0712263919563,0.0,-0.006510075806,0.0,0.0,0.0,0.0,150.0,-0.0,0.0,0.00537022749826,75.0,-0.00383606751517,75.0,-0.0,75.0,-0.0,75.0,1181250.0,0.0,0.0,0.0,0.0,0.0,0.0
1402753322888210078,3,-8.39756551904,-0.00591572024346,-2.37313039638,-0.122189614607,7.18589174078,0.10862951003,0.00410389439635,0.0,-0.019883662719,0.0,0.0683150719711,0.0,-1.46060528496,0.0,0.0140991964984,0.0,-0.000399849838892,0.0,-0.0102531249678,0.0,0.0712263919563,0.0,-0.006510075806,0.0,0.0,0.0,0.0,150.0,-0.0,0.0,0.00537022749826,75.0,-0.00383606751517,75.0,-0.0,75.0,-0.0,75.0,1181250.0,0.0,0.0,0.0,0.0,0.0,0.0
1402753322908262853,3,-8.39055550331,-0.00591572024346,-2.35048029576,-0.122189614607,7.13772776079,0.10862951003,0.00394785204863,0.0,-0.0686306076659,0.0,0.0815447945887,0.0,-1.46033047597,0.0,0.00345702756687,0.0,0.000454013842069,0.0,-0.0200148502325,0.0,0.0687087951228,0.0,-0.0498183163724,0.0,0.0,0.0,0.0,150.0,-0.0,0.0,0.00537022749826,75.0,-0.00383606751517,75.0,-0.0,75.0,-0.0,75.0,1181250.0,0.0,0.0,0.0,0.0,0.0,0.0
1402753322927983138,3,-8.39055550331,-0.00591572024346,-2.35048029576,-0.122189614607,7.13772776079,0.10862951003,0.00394785204863,0.0,-0.0686306076659,0.0,0.0815447945887,0.0,-1.46033047597,0.0,0.00345702756687,0.0,0.000454013842069,0.0,-0.0200148502325,0.0,0.0687087951228,0.0,-0.0498183163724,0.0,0.0,0.0,0.0,150.0,-0.0,0.0,0.00537022749826,75.0,-0.00383606751517,75.0,-0.0,75.0,-0.0,75.0,1181250.0,0.0,0.0,0.0,0.0,0.0,0.0
1402753322947837653,3,-8.37869547756,-0.00591572024346,-2.34617170178,-0.122189614607,7.09964259285,0.10862951003,0.0245420613253,0.0,-0.152965986945,0.0,0.0887997802781,0.0,-1.45980928143,0.0,-5.67022379099e-05,0.0,4.62164210515e-05,0.0,-0.0711270795182,0.0,0.0673685465202,0.0,0.00820918170397,0.0,0.0,0.0,0.0,150.0,-0.0,0.0,0.00537022749826,75.0,-0.00230160554007,75.0,-0.0,75.0,-0.0,75.0,1181250.0,0.0,0.0,0.0,0.0,0.0,0.0
1402753322968110530,3,-8.37869547756,-0.00591572024346,-2.34617170178,-0.122189614607,7.09964259285,0.10862951003,0.0245420613253,0.0,-0.152965986945,0.0,0.0887997802781,0.0,-1.45980928143,0.0,-5.67022379099e-05,0.0,4.62164210515e-05,0.0,-0.0711270795182,0.0,0.0673685465202,0.0,0.00820918170397,0.0,0.0,0.0,0.0,150.0,-0.0,0.0,0.00537022749826,75.0,0.000767318410122,75.0,-0.0,75.0,-0.0,75.0,1181250.0,0.0,0.0,0.0,0.0,0.0,0.0
1402753322987976922,3,-8.3737558718,-0.00591572024346,-2.3282544657,-0.122189614607,7.05733177821,0.10862951003,0.0179004987958,0.0,-0.166438276204,0.0,0.0740828855542,0.0,-1.46111533199,0.0,-0.00568497269421,0.0,0.00166434209026,0.0,-0.118672313859,0.0,0.0638557991186,0.0,-0.0431184923094,0.0,0.0,0.0,0.0,150.0,-0.0,0.0,0.00537022749826,75.0,0.00690445105478,75.0,-0.0,75.0,-0.0,75.0,1181250.0,0.0,0.0,0.0,0.0,0.0,0.0
1402753323008779777,3,-8.3737558718,-0.00591572024346,-2.3282544657,-0.122189614607,7.05733177821,0.10862951003,0.0179004987958,0.0,-0.166438276204,0.0,0.0740828855542,0.0,-1.46111533199,0.0,-0.00568497269421,0.0,0.00166434209026,0.0,-0.118672313859,0.0,0.0638557991186,0.0,-0.0431184923094,0.0,0.0,0.0,0.0,150.0,-0.0,0.0,0.00537022749826,75.0,0.00383600394174,75.0,-0.0,75.0,-0.0,75.0,1181250.0,0.0,0.0,0.0,0.0,0.0,0.0
1402753323027930789,3,-8.36371646053,-0.00591572024346,-2.31874863589,-0.122189614607,7.01864358143,0.10862951003,0.0257987779597,0.0,-0.219954123158,0.0,0.0809531774536,0.0,-1.46094224258,0.0,-0.0147698521771,0.0,0.00168564836485,0.0,-0.122197242604,0.0,0.0593503944034,0.0,-0.0290885583263,0.0,0.0,0.0,0.0,150.0,-0.0,0.0,0.00537022749826,75.0,0.00383600394174,75.0,-0.0,75.0,-0.0,75.0,1181250.0,0.0,0.0,0.0,0.0,0.0,0.0
1402753323047952216,3,-8.36371646053,-0.00591572024346,-2.31874863589,-0.122189614607,7.01864358143,0.10862951003,0.0257987779597,0.0,-0.219954123158,0.0,0.0809531774536,0.0,-1.46094224258,0.0,-0.0147698521771,0.0,0.00168564836485,0.0,-0.122197242604,0.0,0.0593503944034,0.0,-0.0290885583263,0.0,0.0,0.0,0.0,150.0,-0.0,0.0,0.00537022749826,75.0,0.00383600394174,75.0,-0.0,75.0,-0.0,75.0,1181250.0,0.0,0.0,0.0,0.0,0.0,0.0
1402753323068286667,3,-8.3625419422,-0.00591572024346,-2.32868656098,-0.122189614607,7.02180356887,0.10862951003,0.0318489988155,0.0,-0.270073153127,0.0,0.0830051655089,0.0,-1.46117390048,0.0,-0.0106994936105,0.0,0.00260488252284,0.0,-0.140965832569,0.0,0.0537134967912,0.0,-0.0302001496205,0.0,0.0,0.0,0.0,150.0,-0.0,0.0,0.00537022749826,75.0,0.00383600394174,75.0,-0.0,75.0,-0.0,75.0,1181250.0,0.0,0.0,0.0,0.0,0.0,0.0
1402753323088074230,3,-8.3625419422,-0.00591572024346,-2.32868656098,-0.122189614607,7.02180356887,0.10862951003,0.0318489988155,0.0,-0.270073153127,0.0,0.0830051655089,0.0,-1.46117390048,0.0,-0.0106994936105,0.0,0.00260488252284,0.0,-0.140965832569,0.0,0.0537134967912,0.0,-0.0302001496205,0.0,0.0,0.0,0.0,150.0,-0.0,0.0,0.00537022749826,75.0,0.00383600394174,75.0,-0.0,75.0,-0.0,75.0,1181250.0,0.0,0.0,0.0,0.0,0.0,0.0
1402753323107976482,3,-8.35164853193,-0.00591572024346,-2.31824483243,-0.122189614607,6.97915593811,0.10862951003,0.0389101385646,0.0,-0.310988715679,0.0,0.0776764581042,0.0,-1.46092250053,0.0,-0.0093620122407,0.0,0.00276632348016,0.0,-0.12180971161,0.0,0.0473317178011,0.0,-0.0305866940079,0.0,0.0,0.0,0.0,150.0,-0.0,0.0,0.00537022749826,75.0,0.00230154196664,75.0,-0.0,75.0,-0.0,75.0,1181250.0,0.0,0.0,0.0,0.0,0.0,0.0
1402753323128663438,3,-8.35164853193,-0.00591572024346,-2.31824483243,-0.122189614607,6.97915593811,0.10862951003,0.0389101385646,0.0,-0.310988715679,0.0,0.0776764581042,0.0,-1.46092250053,0.0,-0.0093620122407,0.0,0.00276632348016,0.0,-0.12180971161,0.0,0.0473317178011,0.0,-0.0305866940079,0.0,0.0,0.0,0.0,150.0,-0.0,0.0,0.00537022749826,75.0,0.00230154196664,75.0,-0.0,75.0,-0.0,75.0,1181250.0,0.0,0.0,0.0,0.0,0.0,0.0
1402753323148060754,3,-8.34013534364,-0.00591572024346,-2.31785350602,-0.122189614607,6.94517136638,0.10862951003,0.0503624067399,0.0,-0.371679109034,0.0,0.0676410275352,0.0,-1.46044695441,0.0,-0.0110809159814,0.0,0.00310528475743,0.0,-0.0884749000198,0.0,0.0419072416919,0.0,-0.0163608406362,0.0,0.0,0.0,0.0,150.0,-0.0,0.0,0.00537022749826,75.0,0.00230154196664,75.0,-0.0,75.0,-0.0,75.0,1181250.0,0.0,0.0,0.0,0.0,0.0,0.0
1402753323167991678,3,-8.34013534364,-0.00591572024346,-2.31785350602,-0.122189614607,6.94517136638,0.10862951003,0.0503624067399,0.0,-0.371679109034,0.0,0.0676410275352,0.0,-1.46044695441,0.0,-0.0110809159814,0.0,0.00310528475743,0.0,-0.0884749000198,0.0,0.0419072416919,0.0,-0.0163608406362,0.0,0.0,0.0,0.0,150.0,-0.0,0.0,0.00537022749826,75.0,0.00230154196664,75.0,-0.0,75.0,-0.0,75.0,1181250.0,0.0,0.0,0.0,0.0,0.0,0.0
1402753323188095914,3,-8.33653556362,-0.00591572024346,-2.32425163344,-0.122189614607,6.91851055965,0.10862951003,0.0462747521703,0.0,-0.431328429489,0.0,0.0619707832875,0.0,-1.46377752591,0.0,-0.00403860803108,0.0,0.00429956147199,0.0,-0.0550850780292,0.0,0.038237969925,0.0,0.00233350117727,0.0,0.0,0.0,0.0,150.0,-0.0,0.0,0.00537022749826,75.0,0.00230154196664,75.0,-0.0,75.0,-0.0,75.0,1181250.0,0.0,0.0,0.0,0.0,0.0,0.0
1402753323208930137,3,-8.33653556362,-0.00591572024346,-2.32425163344,-0.122189614607,6.91851055965,0.10862951003,0.0462747521703,0.0,-0.431328429489,0.0,0.0619707832875,0.0,-1.46377752591,0.0,-0.00403860803108,0.0,0.00429956147199,0.0,-0.0550850780292,0.0,0.038237969925,0.0,0.00233350117727,0.0,0.0,0.0,0.0,150.0,-0.0,0.0,0.00537022749826,75.0,0.00230154196664,75.0,-0.0,75.0,-0.0,75.0,1181250.0,0.0,0.0,0.0,0.0,0.0,0.0
1402753323227970106,3,-8.33115770444,-0.00591572024346,-2.31890955652,-0.122189614607,6.88496251005,0.10862951003,0.0455630620516,0.0,-0.456396443551,0.0,0.0562926738383,0.0,-1.46476462529,0.0,-0.00260224118862,0.0,0.00443648542074,0.0,-0.0228442135762,0.0,0.0378923552504,0.0,0.00520679701201,0.0,0.0,0.0,0.0,150.0,-0.0,0.0,0.00537022749826,75.0,0.00230154196664,75.0,-0.0,75.0,-0.0,75.0,1181250.0,0.0,0.0,0.0,0.0,0.0,0.0
1402753323247975745,3,-8.33115770444,-0.00591572024346,-2.31890955652,-0.122189614607,6.88496251005,0.10862951003,0.0455630620516,0.0,-0.456396443551,0.0,0.0562926738383,0.0,-1.46476462529,0.0,-0.00260224118862,0.0,0.00443648542074,0.0,-0.0228442135762,0.0,0.0378923552504,0.0,0.00520679701201,0.0,0.0,0.0,0.0,150.0,-0.0,0.0,0.00537022749826,75.0,0.00230154196664,75.0,-0.0,75.0,-0.0,75.0,1181250.0,0.0,0.0,0.0,0.0,0.0,0.0
1402753323268181804,3,-8.32922890451,-0.00591572024346,-2.33912398497,-0.122189614607,6.88727911054,0.10862951003,0.0503193352913,0.0,-0.504093818117,0.0,0.0487312502738,0.0,-1.46512890058,0.0,-0.0122820990378,0.0,0.00424427724098,0.0,0.0154215807198,0.0,0.0379959263564,0.0,0.0176464399133,0.0,0.0,0.0,0.0,150.0,-0.0,0.0,0.00537022749826,75.0,0.00383600394174,75.0,-0.0,75.0,-0.0,75.0,1181250.0,0.0,0.0,0.0,0.0,0.0,0.0
1402753323288046988,3,-8.32922890451,-0.00591572024346,-2.33912398497,-0.122189614607,6.88727911054,0.10862951003,0.0503193352913,0.0,-0.504093818117,0.0,0.0487312502738,0.0,-1.46512890058,0.0,-0.0122820990378,0.0,0.00424427724098,0.0,0.0154215807198,0.0,0.0379959263564,0.0,0.0176464399133,0.0,0.0,0.0,0.0,150.0,-0.0,0.0,0.00537022749826,75.0,0.00230154196664,75.0,-0.0,75.0,-0.0,75.0,1181250.0,0.0,0.0,0.0,0.0,0.0,0.0
1402753323308624092,3,-8.31786190415,-0.00591572024346,-2.34459456723,-0.122189614607,6.85293757679,0.10862951003,0.0623805109525,0.0,-0.546204351017,0.0,0.0340161291279,0.0,-1.46362287107,0.0,-0.0118986484526,0.0,0.00279013018413,0.0,0.0536642051049,0.0,0.0391071728645,0.0,0.0148941735963,0.0,0.0,0.0,0.0,150.0,-0.0,0.0,0.00537022749826,75.0,0.00230154196664,75.0,-0.0,75.0,-0.0,75.0,1181250.0,0.0,0.0,0.0,0.0,0.0,0.0
1402753323331223631,3,-8.31786190415,-0.00591572024346,-2.34459456723,-0.122189614607,6.85293757679,0.10862951003,0.0623805109525,0.0,-0.546204351017,0.0,0.0340161291279,0.0,-1.46362287107,0.0,-0.0118986484526,0.0,0.00279013018413,0.0,0.0536642051049,0.0,0.0391071728645,0.0,0.0148941735963,0.0,0.0,0.0,0.0,150.0,-0.0,0.0,0.00537022749826,75.0,0.00230154196664,75.0,-0.0,75.0,-0.0,75.0,1181250.0,0.0,0.0,0.0,0.0,0.0,0.0
1402753323347967120,3,-8.3144061709,-0.00591572024346,-2.35892812406,-0.122189614607,6.83394888989,0.10862951003,0.0575628947402,0.0,-0.59097119546,0.0,0.0243635708042,0.0,-1.46652457141,0.0,-0.0191429694188,0.0,0.00300370838413,0.0,0.0755966084182,0.0,0.0415626247776,0.0,0.0159168657376,0.0,0.0,0.0,0.0,150.0,-0.0,0.0,0.00537022749826,75.0,0.00383600394174,75.0,-0.0,75.0,-0.0,75.0,1181250.0,0.0,0.0,0.0,0.0,0.0,0.0
1402753323367969413,3,-8.3144061709,-0.00591572024346,-2.35892812406,-0.122189614607,6.83394888989,0.10862951003,0.0575628947402,0.0,-0.59097119546,0.0,0.0243635708042,0.0,-1.46652457141,0.0,-0.0191429694188,0.0,0.00300370838413,0.0,0.0755966084182,0.0,0.0415626247776,0.0,0.0159168657376,0.0,0.0,0.0,0.0,150.0,-0.0,0.0,0.00537022749826,75.0,0.00230154196664,75.0,-0.0,75.0,-0.0,75.0,1181250.0,0.0,0.0,0.0,0.0,0.0,0.0
1402753323388172462,3,-8.31502001833,-0.00591572024346,-2.38833628495,-0.122189614607,6.80022787469,0.10862951003,0.0454672203766,0.0,-0.66458183148,0.0,0.0151205424716,0.0,-1.47163342795,0.0,-0.0140611513266,0.0,0.0037334716525,0.0,0.0807344941613,0.0,0.0478825010922,0.0,0.022689955097,0.0,0.0,0.0,0.0,150.0,-0.0,0.0,0.00537022749826,75.0,0.00230154196664,75.0,-0.0,75.0,-0.0,75.0,1181250.0,0.0,0.0,0.0,0.0,0.0,0.0
1402753323408003987,3,-8.31502001833,-0.00591572024346,-2.38833628495,-0.122189614607,6.80022787469,0.10862951003,0.0454672203766,0.0,-0.66458183148,0.0,0.0151205424716,0.0,-1.47163342795,0.0,-0.0140611513266,0.0,0.0037334716525,0.0,0.0807344941613,0.0,0.0478825010922,0.0,0.022689955097,0.0,0.0,0.0,0.0,150.0,-0.0,0.0,0.00537022749826,75.0,0.00230154196664,75.0,-0.0,75.0,-0.0,75.0,1181250.0,0.0,0.0,0.0,0.0,0.0,0.0
1402753323427935172,3,-8.30052458333,-0.00591572024346,-2.38314172714,-0.122189614607,6.77586227432,0.10862951003,0.0618158871214,0.0,-0.658060559456,0.0,0.008349377475,0.0,-1.46846735666,0.0,-0.0124273976952,0.0,0.00154048453978,0.0,0.0727397746477,0.0,0.0468098325692,0.0,0.0283757484437,0.0,0.0,0.0,0.0,150.0,-0.0,0.0,0.00537022749826,75.0,0.00230154196664,75.0,-0.0,75.0,-0.0,75.0,1181250.0,0.0,0.0,0.0,0.0,0.0,0.0
1402753323447910453,3,-8.29915832675,-0.00591572024346,-2.39718607533,-0.122189614607,6.77610820803,0.10862951003,0.0634664365423,0.0,-0.67912475163,0.0,0.011220037003,0.0,-1.46898437724,0.0,-0.0285362582666,0.0,0.00114526478767,0.0,0.0889094038852,0.0,0.0486415039335,0.0,0.0279115766344,0.0,0.0,0.0,0.0,150.0,-0.0,0.0,0.00537022749826,75.0,0.00230154196664,75.0,-0.0,75.0,-0.0,75.0,1181250.0,0.0,0.0,0.0,0.0,0.0,0.0
1402753323468110014,3,-8.29915832675,-0.00591572024346,-2.39718607533,-0.122189614607,6.77610820803,0.10862951003,0.0634664365423,0.0,-0.67912475163,0.0,0.011220037003,0.0,-1.46898437724,0.0,-0.0285362582666,0.0,0.00114526478767,0.0,0.0889094038852,0.0,0.0486415039335,0.0,0.0279115766344,0.0,0.0,0.0,0.0,150.0,-0.0,0.0,0.00537022749826,75.0,0.00230154196664,75.0,-0.0,75.0,-0.0,75.0,1181250.0,0.0,0.0,0.0,0.0,0.0,0.0
1402753323488176207,3,-8.30233235752,-0.00591572024346,-2.4041651964,-0.122189614607,6.7483538707,0.10862951003,0.0436389693276,0.0,-0.707538131058,0.0,0.0121761041739,0.0,-1.47484250518,0.0,-0.0244367757659,0.0,0.00269706131077,0.0,0.0807823191412,0.0,0.0509604382578,0.0,0.0193390387151,0.0,0.0,0.0,0.0,150.0,-0.0,0.0,0.00537022749826,75.0,0.00383600394174,75.0,-0.0,75.0,-0.0,75.0,1181250.0,0.0,0.0,0.0,0.0,0.0,0.0
1402753323508710941,3,-8.30233235752,-0.00591572024346,-2.4041651964,-0.122189614607,6.7483538707,0.10862951003,0.0436389693276,0.0,-0.707538131058,0.0,0.0121761041739,0.0,-1.47484250518,0.0,-0.0244367757659,0.0,0.00269706131077,0.0,0.0807823191412,0.0,0.0509604382578,0.0,0.0193390387151,0.0,0.0,0.0,0.0,150.0,-0.0,0.0,0.00537022749826,75.0,0.00230154196664,75.0,-0.0,75.0,-0.0,75.0,1181250.0,0.0,0.0,0.0,0.0,0.0,0.0
1402753323528183583,3,-8.30062968432,-0.00591572024346,-2.43379624111,-0.122189614607,6.748643165,0.10862951003,0.0409509296463,0.0,-0.743549381572,0.0,0.0164674496357,0.0,-1.47567638461,0.0,-0.0192156893783,0.0,0.00190097523168,0.0,0.0721168164932,0.0,0.0539963074433,0.0,0.0239029512175,0.0,0.0,0.0,0.0,150.0,-0.0,0.0,0.00537022749826,75.0,0.00230154196664,75.0,-0.0,75.0,-0.0,75.0,1181250.0,0.0,0.0,0.0,0.0,0.0,0.0
1402753323548230028,3,-8.30062968432,-0.00591572024346,-2.43379624111,-0.122189614607,6.748643165,0.10862951003,0.0409509296463,0.0,-0.743549381572,0.0,0.0164674496357,0.0,-1.47567638461,0.0,-0.0192156893783,0.0,0.00190097523168,0.0,0.0721168164932,0.0,0.0539963074433,0.0,0.0239029512175,0.0,0.0,0.0,0.0,150.0,-0.0,0.0,0.00537022749826,75.0,0.00230154196664,75.0,-0.0,75.0,-0.0,75.0,1181250.0,0.0,0.0,0.0,0.0,0.0,0.0
1402753323567957012,3,-8.3030357099,-0.00591572024346,-2.46023811363,-0.122189614607,6.70435957722,0.10862951003,0.0221652877257,0.0,-0.797575614977,0.0,0.00405645751845,0.0,-1.48111539078,0.0,-0.0250381371113,0.0,0.0031970275007,0.0,0.0475473015711,0.0,0.0589352029661,0.0,0.0372851548607,0.0,0.0,0.0,0.0,150.0,-0.0,0.0,0.00537022749826,75.0,0.00383600394174,75.0,-0.0,75.0,-0.0,75.0,1181250.0,0.0,0.0,0.0,0.0,0.0,0.0
1402753323588117071,3,-8.3030357099,-0.00591572024346,-2.46023811363,-0.122189614607,6.70435957722,0.10862951003,0.0221652877257,0.0,-0.797575614977,0.0,0.00405645751845,0.0,-1.48111539078,0.0,-0.0250381371113,0.0,0.0031970275007,0.0,0.0475473015711,0.0,0.0589352029661,0.0,0.0372851548607,0.0,0.0,0.0,0.0,150.0,-0.0,0.0,0.00537022749826,75.0,0.00230154196664,75.0,-0.0,75.0,-0.0,75.0,1181250.0,0.0,0.0,0.0,0.0,0.0,0.0
1402753323607959686,3,-8.30230984092,-0.00591572024346,-2.49458570712,-0.122189614607,6.70472704497,0.10862951003,0.0189936110108,0.0,-0.830838308275,0.0,0.00466436971458,0.0,-1.48224440409,0.0,-0.0302946134718,0.0,0.00255228995098,0.0,0.0314360255307,0.0,0.0606465857122,0.0,0.0242778797121,0.0,0.0,0.0,0.0,150.0,-0.0,0.0,0.00537022749826,75.0,0.00230154196664,75.0,-0.0,75.0,-0.0,75.0,1181250.0,0.0,0.0,0.0,0.0,0.0,0.0
1402753323628135932,3,-8.30230984092,-0.00591572024346,-2.49458570712,-0.122189614607,6.70472704497,0.10862951003,0.0189936110108,0.0,-0.830838308275,0.0,0.00466436971458,0.0,-1.48224440409,0.0,-0.0302946134718,0.0,0.00255228995098,0.0,0.0314360255307,0.0,0.0606465857122,0.0,0.0242778797121,0.0,0.0,0.0,0.0,150.0,-0.0,0.0,0.00537022749826,75.0,0.00383600394174,75.0,-0.0,75.0,-0.0,75.0,1181250.0,0.0,0.0,0.0,0.0,0.0,0.0
1402753323647934330,3,-8.28905584279,-0.00591572024346,-2.51781619692,-0.122189614607,6.70143617083,0.10862951003,0.0367783374662,0.0,-0.84889737039,0.0,0.0225879075745,0.0,-1.47963370724,0.0,-0.0319018312399,0.0,0.000282140966778,0.0,0.0129044421681,0.0,0.0601923059085,0.0,0.00842247981723,0.0,0.0,0.0,0.0,150.0,-0.0,0.0,0.00537022749826,75.0,0.00230154196664,75.0,-0.0,75.0,-0.0,75.0,1181250.0,0.0,0.0,0.0,0.0,0.0,0.0
1402753323667958419,3,-8.28905584279,-0.00591572024346,-2.51781619692,-0.122189614607,6.70143617083,0.10862951003,0.0367783374662,0.0,-0.84889737039,0.0,0.0225879075745,0.0,-1.47963370724,0.0,-0.0319018312399,0.0,0.000282140966778,0.0,0.0129044421681,0.0,0.0601923059085,0.0,0.00842247981723,0.0,0.0,0.0,0.0,150.0,-0.0,0.0,0.00537022749826,75.0,0.00383600394174,75.0,-0.0,75.0,-0.0,75.0,1181250.0,0.0,0.0,0.0,0.0,0.0,0.0
1402753323688050325,3,-8.28113603316,-0.00591572024346,-2.54820089038,-0.122189614607,6.65897491178,0.10862951003,0.0362475220457,0.0,-0.893558714835,0.0,0.0326930883225,0.0,-1.48137055293,0.0,-0.0282024440076,0.0,2.66616691756e-05,0.0,0.00326557773821,0.0,0.061078651037,0.0,0.00466965937448,0.0,0.0,0.0,0.0,150.0,-0.0,0.0,0.00537022749826,75.0,0.00383600394174,75.0,-0.0,75.0,-0.0,75.0,1181250.0,0.0,0.0,0.0,0.0,0.0,0.0
1402753323708484690,3,-8.28113603316,-0.00591572024346,-2.54820089038,-0.122189614607,6.65897491178,0.10862951003,0.0362475220457,0.0,-0.893558714835,0.0,0.0326930883225,0.0,-1.48137055293,0.0,-0.0282024440076,0.0,2.66616691756e-05,0.0,0.00326557773821,0.0,0.061078651037,0.0,0.00466965937448,0.0,0.0,0.0,0.0,150.0,-0.0,0.0,0.00537022749826,75.0,0.00383600394174,75.0,-0.0,75.0,-0.0,75.0,1181250.0,0.0,0.0,0.0,0.0,0.0,0.0
1402753323728035131,3,-8.27815449184,-0.00591572024346,-2.56959361916,-0.122189614607,6.64834104099,0.10862951003,0.0324027100162,0.0,-0.899028404232,0.0,0.0335316414349,0.0,-1.48344202063,0.0,-0.031254758929,0.0,0.000561977810965,0.0,-0.0137901618062,0.0,0.0577238902787,0.0,-0.00918884340556,0.0,0.0,0.0,0.0,150.0,-0.0,0.0,0.00537022749826,75.0,0.00230154196664,75.0,-0.0,75.0,-0.0,75.0,1181250.0,0.0,0.0,0.0,0.0,0.0,0.0
1402753323748140036,3,-8.27714595158,-0.00591572024346,-2.59778929025,-0.122189614607,6.64963750074,0.10862951003,0.0302391298135,0.0,-0.920255410972,0.0,0.0411715100833,0.0,-1.48410518766,0.0,-0.0238374046111,0.0,0.000557734907005,0.0,-0.0201044236934,0.0,0.0570669950999,0.0,-0.031050015248,0.0,0.0,0.0,0.0,150.0,-0.0,0.0,0.00537022749826,75.0,0.00230154196664,75.0,-0.0,75.0,-0.0,75.0,1181250.0,0.0,0.0,0.0,0.0,0.0,0.0
1402753323767921088,3,-8.27714595158,-0.00591572024346,-2.59778929025,-0.122189614607,6.64963750074,0.10862951003,0.0302391298135,0.0,-0.920255410972,0.0,0.0411715100833,0.0,-1.48410518766,0.0,-0.0238374046111,0.0,0.000557734907005,0.0,-0.0201044236934,0.0,0.0570669950999,0.0,-0.031050015248,0.0,0.0,0.0,0.0,150.0,-0.0,0.0,0.00537022749826,75.0,0.00230154196664,75.0,-0.0,75.0,-0.0,75.0,1181250.0,0.0,0.0,0.0,0.0,0.0,0.0
1402753323787991230,3,-8.26732223048,-0.00591572024346,-2.6144387457,-0.122189614607,6.63311071442,0.10862951003,0.0502833522239,0.0,-0.959421787905,0.0,0.0427955923329,0.0,-1.48108707797,0.0,-0.024564517589,0.0,-0.000925582130707,0.0,-0.0268010482342,0.0,0.0606771634093,0.0,-0.0151532731301,0.0,0.0,0.0,0.0,150.0,-0.0,0.0,0.00537022749826,75.0,0.00230154196664,75.0,-0.0,75.0,-0.0,75.0,1181250.0,0.0,0.0,0.0,0.0,0.0,0.0
1402753323808210127,3,-8.26574841037,-0.00591572024346,-2.64443767667,-0.122189614607,6.63469984817,0.10862951003,0.0485327286148,0.0,-0.982136916485,0.0,0.051618503854,0.0,-1.48170548611,0.0,-0.0191676028302,0.0,-0.00078114385932,0.0,-0.0190669162872,0.0,0.0598838513399,0.0,-0.02600855945,0.0,0.0,0.0,0.0,150.0,-0.0,0.0,0.00537022749826,75.0,0.00230154196664,75.0,-0.0,75.0,-0.0,75.0,1181250.0,0.0,0.0,0.0,0.0,0.0,0.0
1402753323828474387,3,-8.26574841037,-0.00591572024346,-2.64443767667,-0.122189614607,6.63469984817,0.10862951003,0.0485327286148,0.0,-0.982136916485,0.0,0.051618503854,0.0,-1.48170548611,0.0,-0.0191676028302,0.0,-0.00078114385932,0.0,-0.0190669162872,0.0,0.0598838513399,0.0,-0.02600855945,0.0,0.0,0.0,0.0,150.0,-0.0,0.0,0.00537022749826,75.0,0.00230154196664,75.0,-0.0,75.0,-0.0,75.0,1181250.0,0.0,0.0,0.0,0.0,0.0,0.0
1402753323847929474,3,-8.26610442579,-0.00591572024346,-2.66393412703,-0.122189614607,6.61474044597,0.10862951003,0.0433543202877,0.0,-0.97576801692,0.0,0.0566523491623,0.0,-1.48461056128,0.0,-0.0210909598108,0.0,0.000427293489699,0.0,-0.0380311250509,0.0,0.0548620065061,0.0,0.00429523897752,0.0,0.0,0.0,0.0,150.0,-0.0,0.0,0.00537022749826,75.0,0.00383600394174,75.0,-0.0,75.0,-0.0,75.0,1181250.0,0.0,0.0,0.0,0.0,0.0,0.0
1402753323868028559,3,-8.26610442579,-0.00591572024346,-2.66393412703,-0.122189614607,6.61474044597,0.10862951003,0.0433543202877,0.0,-0.97576801692,0.0,0.0566523491623,0.0,-1.48461056128,0.0,-0.0210909598108,0.0,0.000427293489699,0.0,-0.0380311250509,0.0,0.0548620065061,0.0,0.00429523897752,0.0,0.0,0.0,0.0,150.0,-0.0,0.0,0.00537022749826,75.0,0.00230154196664,75.0,-0.0,75.0,-0.0,75.0,1181250.0,0.0,0.0,0.0,0.0,0.0,0.0
1402753323888023999,3,-8.26287668405,-0.00591572024346,-2.70899524412,-0.122189614607,6.60333786311,0.10862951003,0.042975259829,0.0,-1.02513438193,0.0,0.0631273298781,0.0,-1.48561484549,0.0,-0.018978564285,0.0,0.000642633225508,0.0,-0.0352821200515,0.0,0.0563176869461,0.0,0.00470165196746,0.0,0.0,0.0,0.0,150.0,-0.0,0.0,0.00537022749826,75.0,0.00230154196664,75.0,-0.0,75.0,-0.0,75.0,1181250.0,0.0,0.0,0.0,0.0,0.0,0.0
1402753323908047982,3,-8.26287668405,-0.00591572024346,-2.70899524412,-0.122189614607,6.60333786311,0.10862951003,0.042975259829,0.0,-1.02513438193,0.0,0.0631273298781,0.0,-1.48561484549,0.0,-0.018978564285,0.0,0.000642633225508,0.0,-0.0352821200515,0.0,0.0563176869461,0.0,0.00470165196746,0.0,0.0,0.0,0.0,150.0,-0.0,0.0,0.00537022749826,75.0,0.00230154196664,75.0,-0.0,75.0,-0.0,75.0,1181250.0,0.0,0.0,0.0,0.0,0.0,0.0
1402753323928025543,3,-8.26111138832,-0.00591572024346,-2.73365020118,-0.122189614607,6.59655770263,0.10862951003,0.0357768481223,0.0,-1.02208990173,0.0,0.0638949546061,0.0,-1.48746259632,0.0,-0.0175804381065,0.0,0.00145115646072,0.0,-0.0283532622635,0.0,0.0515615159739,0.0,0.0162775129849,0.0,0.0,0.0,0.0,150.0,-0.0,0.0,0.00537022749826,75.0,0.00230154196664,75.0,-0.0,75.0,-0.0,75.0,1181250.0,0.0,0.0,0.0,0.0,0.0,0.0
1402753323947794161,3,-8.26111138832,-0.00591572024346,-2.73365020118,-0.122189614607,6.59655770263,0.10862951003,0.0357768481223,0.0,-1.02208990173,0.0,0.0638949546061,0.0,-1.48746259632,0.0,-0.0175804381065,0.0,0.00145115646072,0.0,-0.0283532622635,0.0,0.0515615159739,0.0,0.0162775129849,0.0,0.0,0.0,0.0,150.0,-0.0,0.0,0.00537022749826,75.0,0.00383600394174,75.0,-0.0,75.0,-0.0,75.0,1181250.0,0.0,0.0,0.0,0.0,0.0,0.0
1402753323968049329,3,-8.26126620793,-0.00591572024346,-2.79014544815,-0.122189614607,6.56973761368,0.10862951003,0.0229905487624,0.0,-1.0823322198,0.0,0.0483458328966,0.0,-1.4891870054,0.0,-0.0179202098848,0.0,0.00328961874923,0.0,-0.0168324004362,0.0,0.0541246385241,0.0,0.00223872940382,0.0,0.0,0.0,0.0,150.0,-0.0,0.0,0.00537022749826,75.0,0.00230154196664,75.0,-0.0,75.0,-0.0,75.0,1181250.0,0.0,0.0,0.0,0.0,0.0,0.0
1402753323988050699,3,-8.26126620793,-0.00591572024346,-2.79014544815,-0.122189614607,6.56973761368,0.10862951003,0.0229905487624,0.0,-1.0823322198,0.0,0.0483458328966,0.0,-1.4891870054,0.0,-0.0179202098848,0.0,0.00328961874923,0.0,-0.0168324004362,0.0,0.0541246385241,0.0,0.00223872940382,0.0,0.0,0.0,0.0,150.0,-0.0,0.0,0.00537022749826,75.0,0.00230154196664,75.0,-0.0,75.0,-0.0,75.0,1181250.0,0.0,0.0,0.0,0.0,0.0,0.0
1402753324008186400,3,-8.26065082987,-0.00591572024346,-2.82290193767,-0.122189614607,6.57098182675,0.10862951003,0.0209875996883,0.0,-1.10489832365,0.0,0.0416059075901,0.0,-1.48964899621,0.0,-0.0175833511873,0.0,0.0038865938685,0.0,0.00905899723103,0.0,0.0540044262767,0.0,-0.0176412801957,0.0,0.0,0.0,0.0,150.0,-0.0,0.0,0.00537022749826,75.0,0.00230154196664,75.0,-0.0,75.0,-0.0,75.0,1181250.0,0.0,0.0,0.0,0.0,0.0,0.0
1402753324028373577,3,-8.24475776122,-0.00591572024346,-2.83808965467,-0.122189614607,6.57628610047,0.10862951003,0.0489253995337,0.0,-1.1035726968,0.0,0.043562182514,0.0,-1.48759358787,0.0,-0.0220872287079,0.0,0.00121275263587,0.0,0.000867295786247,0.0,0.0529208455763,0.0,-0.0363984088025,0.0,0.0,0.0,0.0,150.0,-0.0,0.0,0.00537022749826,75.0,0.00230154196664,75.0,-0.0,75.0,-0.0,75.0,1181250.0,0.0,0.0,0.0,0.0,0.0,0.0
1402753324048260642,3,-8.24475776122,-0.00591572024346,-2.83808965467,-0.122189614607,6.57628610047,0.10862951003,0.0489253995337,0.0,-1.1035726968,0.0,0.043562182514,0.0,-1.48759358787,0.0,-0.0220872287079,0.0,0.00121275263587,0.0,0.000867295786247,0.0,0.0529208455763,0.0,-0.0363984088025,0.0,0.0,0.0,0.0,150.0,-0.0,0.0,0.00537022749826,75.0,0.00230154196664,75.0,-0.0,75.0,-0.0,75.0,1181250.0,0.0,0.0,0.0,0.0,0.0,0.0
1402753324067936016,3,-8.24366398841,-0.00591572024346,-2.86024978417,-0.122189614607,6.5770901838,0.10862951003,0.0506884435042,0.0,-1.11546843823,0.0,0.0383383718453,0.0,-1.48791943604,0.0,-0.0171755045818,0.0,0.00138959053595,0.0,-0.00384337281906,0.0,0.0529620083686,0.0,-0.00652890879964,0.0,0.0,0.0,0.0,150.0,-0.0,0.0,0.00537022749826,75.0,0.00230154196664,75.0,-0.0,75.0,-0.0,75.0,1181250.0,0.0,0.0,0.0,0.0,0.0,0.0
1402753324088827267,3,-8.24366398841,-0.00591572024346,-2.86024978417,-0.122189614607,6.5770901838,0.10862951003,0.0506884435042,0.0,-1.11546843823,0.0,0.0383383718453,0.0,-1.48791943604,0.0,-0.0171755045818,0.0,0.00138959053595,0.0,-0.00384337281906,0.0,0.0529620083686,0.0,-0.00652890879964,0.0,0.0,0.0,0.0,150.0,-0.0,0.0,0.00537022749826,75.0,0.00383600394174,75.0,-0.0,75.0,-0.0,75.0,1181250.0,0.0,0.0,0.0,0.0,0.0,0.0
1402753324108839512,3,-8.2462165131,-0.00591572024346,-2.90295038883,-0.122189614607,6.54937002969,0.10862951003,0.0369404886023,0.0,-1.1499465327,0.0,0.0268925962441,0.0,-1.4897163943,0.0,-0.0145332318557,0.0,0.00358546518407,0.0,0.00562613527821,0.0,0.0543347945567,0.0,-0.00420897343239,0.0,0.0,0.0,0.0,150.0,-0.0,0.0,0.00537022749826,75.0,0.00230154196664,75.0,-0.0,75.0,-0.0,75.0,1181250.0,0.0,0.0,0.0,0.0,0.0,0.0
1402753324128029556,3,-8.2462165131,-0.00591572024346,-2.90295038883,-0.122189614607,6.54937002969,0.10862951003,0.0369404886023,0.0,-1.1499465327,0.0,0.0268925962441,0.0,-1.4897163943,0.0,-0.0145332318557,0.0,0.00358546518407,0.0,0.00562613527821,0.0,0.0543347945567,0.0,-0.00420897343239,0.0,0.0,0.0,0.0,150.0,-0.0,0.0,0.00537022749826,75.0,0.00230154196664,75.0,-0.0,75.0,-0.0,75.0,1181250.0,0.0,0.0,0.0,0.0,0.0,0.0
1402753324147973248,3,-8.24208222002,-0.00591572024346,-2.93834550805,-0.122189614607,6.53447875175,0.10862951003,0.032981416267,0.0,-1.15891557878,0.0,0.026619449641,0.0,-1.49041883353,0.0,-0.0125321846291,0.0,0.00409248624268,0.0,0.0259397284086,0.0,0.0535603294575,0.0,-0.0102407469422,0.0,0.0,0.0,0.0,150.0,-0.0,0.0,0.00537022749826,75.0,0.00230154196664,75.0,-0.0,75.0,-0.0,75.0,1181250.0,0.0,0.0,0.0,0.0,0.0,0.0
1402753324167998795,3,-8.24208222002,-0.00591572024346,-2.93834550805,-0.122189614607,6.53447875175,0.10862951003,0.032981416267,0.0,-1.15891557878,0.0,0.026619449641,0.0,-1.49041883353,0.0,-0.0125321846291,0.0,0.00409248624268,0.0,0.0259397284086,0.0,0.0535603294575,0.0,-0.0102407469422,0.0,0.0,0.0,0.0,150.0,-0.0,0.0,0.00537022749826,75.0,0.00230154196664,75.0,-0.0,75.0,-0.0,75.0,1181250.0,0.0,0.0,0.0,0.0,0.0,0.0
1402753324188120063,3,-8.24166670901,-0.00591572024346,-2.99060126366,-0.122189614607,6.51451584604,0.10862951003,0.0250939895206,0.0,-1.20509024186,0.0,0.0209962630825,0.0,-1.49115502437,0.0,-0.00994180338795,0.0,0.00540016572883,0.0,0.0246984482656,0.0,0.0573315304884,0.0,-0.0072447653352,0.0,0.0,0.0,0.0,150.0,-0.0,0.0,0.00537022749826,75.0,0.00230154196664,75.0,-0.0,75.0,-0.0,75.0,1181250.0,0.0,0.0,0.0,0.0,0.0,0.0
1402753324208010476,3,-8.24166670901,-0.00591572024346,-2.99060126366,-0.122189614607,6.51451584604,0.10862951003,0.0250939895206,0.0,-1.20509024186,0.0,0.0209962630825,0.0,-1.49115502437,0.0,-0.00994180338795,0.0,0.00540016572883,0.0,0.0246984482656,0.0,0.0573315304884,0.0,-0.0072447653352,0.0,0.0,0.0,0.0,150.0,-0.0,0.0,0.00537022749826,75.0,0.00230154196664,75.0,-0.0,75.0,-0.0,75.0,1181250.0,0.0,0.0,0.0,0.0,0.0,0.0
1402753324228158664,3,-8.24061507103,-0.00591572024346,-3.04182702118,-0.122189614607,6.51581278067,0.10862951003,0.0234392532558,0.0,-1.22571846821,0.0,0.0250458783033,0.0,-1.49156423748,0.0,-0.0137749786591,0.0,0.0060030432706,0.0,0.0195672803019,0.0,0.0581422870544,0.0,-0.0387277375446,0.0,0.0,0.0,0.0,150.0,-0.0,0.0,0.00537022749826,75.0,0.00230154196664,75.0,-0.0,75.0,-0.0,75.0,1181250.0,0.0,0.0,0.0,0.0,0.0,0.0
1402753324248158488,3,-8.24061507103,-0.00591572024346,-3.04182702118,-0.122189614607,6.51581278067,0.10862951003,0.0234392532558,0.0,-1.22571846821,0.0,0.0250458783033,0.0,-1.49156423748,0.0,-0.0137749786591,0.0,0.0060030432706,0.0,0.0195672803019,0.0,0.0581422870544,0.0,-0.0387277375446,0.0,0.0,0.0,0.0,150.0,-0.0,0.0,0.00537022749826,75.0,0.00230154196664,75.0,-0.0,75.0,-0.0,75.0,1181250.0,0.0,0.0,0.0,0.0,0.0,0.0
1402753324268066361,3,-8.23222874104,-0.00591572024346,-3.07684053407,-0.122189614607,6.51569227122,0.10862951003,0.0308415713209,0.0,-1.22145221018,0.0,0.0304094483699,0.0,-1.4916948958,0.0,-0.00954307439799,0.0,0.00514915054367,0.0,0.0252561186839,0.0,0.0563832945298,0.0,-0.0256655716941,0.0,0.0,0.0,0.0,150.0,-0.0,0.0,0.00537022749826,75.0,0.00230154196664,75.0,-0.0,75.0,-0.0,75.0,1181250.0,0.0,0.0,0.0,0.0,0.0,0.0
1402753324287909169,3,-8.23222874104,-0.00591572024346,-3.07684053407,-0.122189614607,6.51569227122,0.10862951003,0.0308415713209,0.0,-1.22145221018,0.0,0.0304094483699,0.0,-1.4916948958,0.0,-0.00954307439799,0.0,0.00514915054367,0.0,0.0252561186839,0.0,0.0563832945298,0.0,-0.0256655716941,0.0,0.0,0.0,0.0,150.0,-0.0,0.0,0.00537022749826,75.0,0.00230154196664,75.0,-0.0,75.0,-0.0,75.0,1181250.0,0.0,0.0,0.0,0.0,0.0,0.0
1402753324308179068,3,-8.2278386187,-0.00591572024346,-3.12718490282,-0.122189614607,6.50794487307,0.10862951003,0.0367817733071,0.0,-1.24670493734,0.0,0.0363871868025,0.0,-1.49181918308,0.0,-0.00430459119616,0.0,0.00493059533596,0.0,0.0224511378632,0.0,0.058369805086,0.0,0.00811192869609,0.0,0.0,0.0,0.0,150.0,-0.0,0.0,0.00537022749826,75.0,0.00383600394174,75.0,-0.0,75.0,-0.0,75.0,1181250.0,0.0,0.0,0.0,0.0,0.0,0.0
1402753324328924842,3,-8.2278386187,-0.00591572024346,-3.12718490282,-0.122189614607,6.50794487307,0.10862951003,0.0367817733071,0.0,-1.24670493734,0.0,0.0363871868025,0.0,-1.49181918308,0.0,-0.00430459119616,0.0,0.00493059533596,0.0,0.0224511378632,0.0,0.058369805086,0.0,0.00811192869609,0.0,0.0,0.0,0.0,150.0,-0.0,0.0,0.00537022749826,75.0,0.00230154196664,75.0,-0.0,75.0,-0.0,75.0,1181250.0,0.0,0.0,0.0,0.0,0.0,0.0
1402753324348212947,3,-8.22702328882,-0.00591572024346,-3.17337270149,-0.122189614607,6.50342388966,0.10862951003,0.0305693980049,0.0,-1.25801520919,0.0,0.0390469319892,0.0,-1.49204189644,0.0,-0.00616164473137,0.0,0.00573725989508,0.0,0.0186887926513,0.0,0.0585086665159,0.0,0.00825225896778,0.0,0.0,0.0,0.0,150.0,-0.0,0.0,0.00537022749826,75.0,0.00383600394174,75.0,-0.0,75.0,-0.0,75.0,1181250.0,0.0,0.0,0.0,0.0,0.0,0.0
1402753324367938516,3,-8.22702328882,-0.00591572024346,-3.17337270149,-0.122189614607,6.50342388966,0.10862951003,0.0305693980049,0.0,-1.25801520919,0.0,0.0390469319892,0.0,-1.49204189644,0.0,-0.00616164473137,0.0,0.00573725989508,0.0,0.0186887926513,0.0,0.0585086665159,0.0,0.00825225896778,0.0,0.0,0.0,0.0,150.0,-0.0,0.0,0.00537022749826,75.0,0.00230154196664,75.0,-0.0,75.0,-0.0,75.0,1181250.0,0.0,0.0,0.0,0.0,0.0,0.0
1402753324388220354,3,-8.22336764554,-0.00591572024346,-3.24128274654,-0.122189614607,6.50693897999,0.10862951003,0.0300692243545,0.0,-1.28905533637,0.0,0.0487711260012,0.0,-1.49234332805,0.0,-0.00848309301564,0.0,0.00551803648483,0.0,0.0191229409946,0.0,0.0605522266987,0.0,-0.00277485523736,0.0,0.0,0.0,0.0,150.0,-0.0,0.0,0.00537022749826,75.0,0.00230154196664,75.0,-0.0,75.0,-0.0,75.0,1181250.0,0.0,0.0,0.0,0.0,0.0,0.0
1402753324408161448,3,-8.22336764554,-0.00591572024346,-3.24128274654,-0.122189614607,6.50693897999,0.10862951003,0.0300692243545,0.0,-1.28905533637,0.0,0.0487711260012,0.0,-1.49234332805,0.0,-0.00848309301564,0.0,0.00551803648483,0.0,0.0191229409946,0.0,0.0605522266987,0.0,-0.00277485523736,0.0,0.0,0.0,0.0,150.0,-0.0,0.0,0.00537022749826,75.0,0.00230154196664,75.0,-0.0,75.0,-0.0,75.0,1181250.0,0.0,0.0,0.0,0.0,0.0,0.0
1402753324429868624,3,-8.22659584172,-0.00591572024346,-3.30293566077,-0.122189614607,6.48453510438,0.10862951003,0.00940762313601,0.0,-1.31120733666,0.0,0.0453158465213,0.0,-1.49214518193,0.0,-0.0125500773284,0.0,0.00770106402378,0.0,0.00935385034275,0.0,0.061673948721,0.0,-0.0202641090573,0.0,0.0,0.0,0.0,150.0,-0.0,0.0,0.00537022749826,75.0,0.00383600394174,75.0,-0.0,75.0,-0.0,75.0,1181250.0,0.0,0.0,0.0,0.0,0.0,0.0
1402753324447903819,3,-8.22659584172,-0.00591572024346,-3.30293566077,-0.122189614607,6.48453510438,0.10862951003,0.00940762313601,0.0,-1.31120733666,0.0,0.0453158465213,0.0,-1.49214518193,0.0,-0.0125500773284,0.0,0.00770106402378,0.0,0.00935385034275,0.0,0.061673948721,0.0,-0.0202641090573,0.0,0.0,0.0,0.0,150.0,-0.0,0.0,0.00537022749826,75.0,0.00230154196664,75.0,-0.0,75.0,-0.0,75.0,1181250.0,0.0,0.0,0.0,0.0,0.0,0.0
1402753324468006302,3,-8.2263559736,-0.00591572024346,-3.33069938491,-0.122189614607,6.48558831987,0.10862951003,0.00961272033011,0.0,-1.32039137411,0.0,0.0456570422932,0.0,-1.49231653094,0.0,-0.00961650808043,0.0,0.00774418349788,0.0,0.0148092601436,0.0,0.062011188438,0.0,0.0017410955302,0.0,0.0,0.0,0.0,150.0,-0.0,0.0,0.00537022749826,75.0,0.00230154196664,75.0,-0.0,75.0,-0.0,75.0,1181250.0,0.0,0.0,0.0,0.0,0.0,0.0
1402753324488229293,3,-8.2263559736,-0.00591572024346,-3.33069938491,-0.122189614607,6.48558831987,0.10862951003,0.00961272033011,0.0,-1.32039137411,0.0,0.0456570422932,0.0,-1.49231653094,0.0,-0.00961650808043,0.0,0.00774418349788,0.0,0.0148092601436,0.0,0.062011188438,0.0,0.0017410955302,0.0,0.0,0.0,0.0,150.0,-0.0,0.0,0.00537022749826,75.0,0.00230154196664,75.0,-0.0,75.0,-0.0,75.0,1181250.0,0.0,0.0,0.0,0.0,0.0,0.0
1402753324507949658,3,-8.21733345101,-0.00591572024346,-3.38075057375,-0.122189614607,6.48936979409,0.10862951003,0.0228818667672,0.0,-1.32845056868,0.0,0.0597132309497,0.0,-1.49345053774,0.0,-0.0136814420971,0.0,0.00574017547038,0.0,0.00810608667892,0.0,0.062041911848,0.0,-0.00608820549724,0.0,0.0,0.0,0.0,150.0,-0.0,0.0,0.00537022749826,75.0,0.00230154196664,75.0,-0.0,75.0,-0.0,75.0,1181250.0,0.0,0.0,0.0,0.0,0.0,0.0
1402753324528506082,3,-8.21733345101,-0.00591572024346,-3.38075057375,-0.122189614607,6.48936979409,0.10862951003,0.0228818667672,0.0,-1.32845056868,0.0,0.0597132309497,0.0,-1.49345053774,0.0,-0.0136814420971,0.0,0.00574017547038,0.0,0.00810608667892,0.0,0.062041911848,0.0,-0.00608820549724,0.0,0.0,0.0,0.0,150.0,-0.0,0.0,0.00537022749826,75.0,0.00230154196664,75.0,-0.0,75.0,-0.0,75.0,1181250.0,0.0,0.0,0.0,0.0,0.0,0.0
1402753324548069592,3,-8.21644464572,-0.00591572024346,-3.43545017839,-0.122189614607,6.49179731364,0.10862951003,0.0205070513604,0.0,-1.3443272731,0.0,0.0682718544461,0.0,-1.49376788703,0.0,-0.00829955294959,0.0,0.00555328764352,0.0,0.0160248399841,0.0,0.0624734251227,0.0,0.0143893117018,0.0,0.0,0.0,0.0,150.0,-0.0,0.0,0.00537022749826,75.0,0.00230154196664,75.0,-0.0,75.0,-0.0,75.0,1181250.0,0.0,0.0,0.0,0.0,0.0,0.0
1402753324567983695,3,-8.21644464572,-0.00591572024346,-3.43545017839,-0.122189614607,6.49179731364,0.10862951003,0.0205070513604,0.0,-1.3443272731,0.0,0.0682718544461,0.0,-1.49376788703,0.0,-0.00829955294959,0.0,0.00555328764352,0.0,0.0160248399841,0.0,0.0624734251227,0.0,0.0143893117018,0.0,0.0,0.0,0.0,150.0,-0.0,0.0,0.00537022749826,75.0,0.00230154196664,75.0,-0.0,75.0,-0.0,75.0,1181250.0,0.0,0.0,0.0,0.0,0.0,0.0
1402753324588635264,3,-8.21608693765,-0.00591572024346,-3.48843533398,-0.122189614607,6.49249647497,0.10862951003,0.0112850624847,0.0,-1.35639743189,0.0,0.0712863907013,0.0,-1.49375907831,0.0,-0.00692869117815,0.0,0.00618633779291,0.0,0.00838768420437,0.0,0.0624233332734,0.0,0.0185968346141,0.0,0.0,0.0,0.0,150.0,-0.0,0.0,0.00537022749826,75.0,0.00230154196664,75.0,-0.0,75.0,-0.0,75.0,1181250.0,0.0,0.0,0.0,0.0,0.0,0.0
1402753324607905391,3,-8.21608693765,-0.00591572024346,-3.48843533398,-0.122189614607,6.49249647497,0.10862951003,0.0112850624847,0.0,-1.35639743189,0.0,0.0712863907013,0.0,-1.49375907831,0.0,-0.00692869117815,0.0,0.00618633779291,0.0,0.00838768420437,0.0,0.0624233332734,0.0,0.0185968346141,0.0,0.0,0.0,0.0,150.0,-0.0,0.0,0.00537022749826,75.0,0.00383600394174,75.0,-0.0,75.0,-0.0,75.0,1181250.0,0.0,0.0,0.0,0.0,0.0,0.0
1402753324628002108,3,-8.2096833884,-0.00591572024346,-3.54529887306,-0.122189614607,6.48422710927,0.10862951003,0.0173719301172,0.0,-1.38089445867,0.0,0.0605998426299,0.0,-1.49453243215,0.0,-0.0115772320287,0.0,0.00516291849982,0.0,0.0046814644309,0.0,0.0641280540989,0.0,-0.0109056836664,0.0,0.0,0.0,0.0,150.0,-0.0,0.0,0.00537022749826,75.0,0.00230154196664,75.0,-0.0,75.0,-0.0,75.0,1181250.0,0.0,0.0,0.0,0.0,0.0,0.0
1402753324648014918,3,-8.2096833884,-0.00591572024346,-3.54529887306,-0.122189614607,6.48422710927,0.10862951003,0.0173719301172,0.0,-1.38089445867,0.0,0.0605998426299,0.0,-1.49453243215,0.0,-0.0115772320287,0.0,0.00516291849982,0.0,0.0046814644309,0.0,0.0641280540989,0.0,-0.0109056836664,0.0,0.0,0.0,0.0,150.0,-0.0,0.0,0.00537022749826,75.0,0.00383600394174,75.0,-0.0,75.0,-0.0,75.0,1181250.0,0.0,0.0,0.0,0.0,0.0,0.0
1402753324667895643,3,-8.20797359818,-0.00591572024346,-3.59234279517,-0.122189614607,6.47820405413,0.10862951003,0.013474976218,0.0,-1.38010986124,0.0,0.0535915817001,0.0,-1.49451987733,0.0,-0.00729088938266,0.0,0.00525318930215,0.0,0.00625977306411,0.0,0.0625496370902,0.0,0.00590931723808,0.0,0.0,0.0,0.0,150.0,-0.0,0.0,0.00537022749826,75.0,0.00230154196664,75.0,-0.0,75.0,-0.0,75.0,1181250.0,0.0,0.0,0.0,0.0,0.0,0.0
1402753324688061338,3,-8.20797359818,-0.00591572024346,-3.59234279517,-0.122189614607,6.47820405413,0.10862951003,0.013474976218,0.0,-1.38010986124,0.0,0.0535915817001,0.0,-1.49451987733,0.0,-0.00729088938266,0.0,0.00525318930215,0.0,0.00625977306411,0.0,0.0625496370902,0.0,0.00590931723808,0.0,0.0,0.0,0.0,150.0,-0.0,0.0,0.00537022749826,75.0,0.00230154196664,75.0,-0.0,75.0,-0.0,75.0,1181250.0,0.0,0.0,0.0,0.0,0.0,0.0
1402753324708053337,3,-8.2073556912,-0.00591572024346,-3.64625408566,-0.122189614607,6.4756904113,0.10862951003,0.00445112207476,0.0,-1.38779467416,0.0,0.0496648862193,0.0,-1.49444318782,0.0,-0.00832476740393,0.0,0.00558897368038,0.0,-0.0194512265145,0.0,0.0620508928937,0.0,-0.0156410309124,0.0,0.0,0.0,0.0,150.0,-0.0,0.0,0.00537022749826,75.0,0.00230154196664,75.0,-0.0,75.0,-0.0,75.0,1181250.0,0.0,0.0,0.0,0.0,0.0,0.0
1402753324727983438,3,-8.2073556912,-0.00591572024346,-3.64625408566,-0.122189614607,6.4756904113,0.10862951003,0.00445112207476,0.0,-1.38779467416,0.0,0.0496648862193,0.0,-1.49444318782,0.0,-0.00832476740393,0.0,0.00558897368038,0.0,-0.0194512265145,0.0,0.0620508928937,0.0,-0.0156410309124,0.0,0.0,0.0,0.0,150.0,-0.0,0.0,0.00537022749826,75.0,0.00230154196664,75.0,-0.0,75.0,-0.0,75.0,1181250.0,0.0,0.0,0.0,0.0,0.0,0.0
1402753324747970354,3,-8.20273267891,-0.00591572024346,-3.72223988894,-0.122189614607,6.46749636116,0.10862951003,0.00873257730529,0.0,-1.42640694625,0.0,0.0577352603058,0.0,-1.4952006104,0.0,-0.0086718174559,0.0,0.00483442984398,0.0,0.00435668937325,0.0,0.063954537866,0.0,0.0136293409032,0.0,0.0,0.0,0.0,150.0,-0.0,0.0,0.00537022749826,75.0,0.00230154196664,75.0,-0.0,75.0,-0.0,75.0,1181250.0,0.0,0.0,0.0,0.0,0.0,0.0
