rosbagTimestamp,header,seq,stamp,secs,nsecs,frame_id,child_frame_id,pose,pose,position,x,y,z,orientation,x,y,z,w,covariance,twist,twist,linear,x,y,z,angular,x,y,z,covariance
1402416200027155324,,220514,,1402416199,995249032,/enu,/base_link,,,,7.73614067613,21.1837898223,-21.8796783226,,-0.0032717581674,0.00464407927841,-0.860643597121,-0.50917612558,"[0.026812386409000428, -0.004787565232521432, -0.006278598851398712, 1.8011080571235704e-06, 1.056199357995093e-06, -5.200534209311589e-05, -0.004787565232521432, 0.03180815452801143, 0.00415100361765945, 3.376288473168815e-07, -5.664011656422064e-07, -4.6956324829650065e-05, -0.006278598851398712, 0.00415100361765945, 0.22227050296459674, -7.6272693045292e-07, 2.8211067308615727e-06, -2.131075482777731e-06, 1.8011080571235704e-06, 3.376288473168815e-07, -7.6272693045292e-07, 4.20710853430427e-06, -7.312926675587361e-08, -2.0270900695282893e-06, 1.056199357995093e-06, -5.664011656422064e-07, 2.8211067308615727e-06, -7.312926675587361e-08, 4.214667377818677e-06, -1.6706207004401413e-06, -5.200534209311589e-05, -4.6956324829650065e-05, -2.131075482777731e-06, -2.0270900695282893e-06, -1.6706207004401413e-06, 0.00010299131543472381]",,,,1.77825831502,0.354004606625,0.109544921725,,-0.00274557391083,0.0234038542693,0.0328623944601,"[0.00018868626785782148, -8.010496259526499e-05, -1.292586827666504e-05, -1.5722130967287853e-09, 1.0871897121221188e-08, 2.139293221736005e-08, -8.010496259526499e-05, 0.0005159676669170963, 2.753574447267464e-05, -4.576687109275781e-09, -5.365831337587898e-09, -1.0098778927294917e-07, -1.292586827666504e-05, 2.753574447267464e-05, 0.00020612183487390027, -7.359382683254704e-10, 1.977331951765196e-09, 3.0581997594942686e-09, -1.5722130967287853e-09, -4.576687109275781e-09, -7.359382683254704e-10, 2.3636238212955305e-09, 5.364335727822059e-12, 1.1214571524763579e-11, 1.0871897121221188e-08, -5.365831337587898e-09, 1.977331951765196e-09, 5.364335727822059e-12, 2.3374985416120195e-09, 1.8901860858217226e-12, 2.139293221736005e-08, -1.0098778927294917e-07, 3.0581997594942686e-09, 1.1214571524763579e-11, 1.8901860858217226e-12, 2.3589667601870295e-09]"
1402416200027213760,,220515,,1402416200,6246089,/enu,/base_link,,,,7.72357041078,21.1993174788,-21.8787147378,,-0.00326428791048,0.00453102074031,-0.860747896078,-0.509000858224,"[0.026814358835308055, -0.004787043309692384, -0.00628006816529782, 1.7915679827759824e-06, 1.2659706032180634e-06, -5.200847137034477e-05, -0.004787043309692384, 0.03181193384124729, 0.004144696882337909, 1.2826867163761717e-07, -5.579122236485083e-07, -4.692853858984687e-05, -0.00628006816529782, 0.004144696882337909, 0.2222915380383475, -7.574611941386533e-07, 2.8262234342957977e-06, -2.111126429342063e-06, 1.7915679827759824e-06, 1.2826867163761717e-07, -7.574611941386533e-07, 4.255429621901638e-06, -7.311434178248832e-08, -2.0267094883929014e-06, 1.2659706032180634e-06, -5.579122236485083e-07, 2.8262234342957977e-06, -7.311434178248832e-08, 4.263053930799596e-06, -1.6714619209276912e-06, -5.200847137034477e-05, -4.692853858984687e-05, -2.111126429342063e-06, -2.0267094883929014e-06, -1.6714619209276912e-06, 0.00010302608884875737]",,,,1.77906024151,0.346337732365,0.110868588309,,0.0171350231881,0.0115859436498,0.0350713620778,"[0.00019301832194443166, -8.056749915650742e-05, -1.2241123718108126e-05, -1.5848804458214936e-09, 1.1120252901117801e-08, 2.1515795649969372e-08, -8.056749915650742e-05, 0.0005204179972343566, 2.762806718039471e-05, -4.836441879682096e-09, -5.3757938764742796e-09, -1.0099251572755717e-07, -1.2241123718108126e-05, 2.762806718039471e-05, 0.0002066895986685927, -7.454547690431577e-10, 2.022670050097165e-09, 3.0785643447350644e-09, -1.5848804458214936e-09, -4.836441879682096e-09, -7.454547690431577e-10, 2.3636238169832274e-09, 5.3643247579685154e-12, 1.1214539167406212e-11, 1.1120252901117801e-08, -5.3757938764742796e-09, 2.022670050097165e-09, 5.3643247579685154e-12, 2.3374985133831377e-09, 1.8900779011651614e-12, 2.1515795649969372e-08, -1.0099251572755717e-07, 3.0785643447350644e-09, 1.1214539167406212e-11, 1.8900779011651614e-12, 2.3589620273587776e-09]"
1402416200027466814,,220516,,1402416200,16246080,/enu,/base_link,,,,7.71184518024,21.2130769182,-21.8773617788,,-0.00313949039335,0.00452126273263,-0.860846392742,-0.508835130359,"[0.026816192169113923, -0.00478656558584123, -0.0062813693927650785, 1.7827921761413233e-06, 1.4606302818958175e-06, -5.201362419147094e-05, -0.00478656558584123, 0.031815407429842256, 0.004138980637549988, -6.588658855079801e-08, -5.50036275642246e-07, -4.690406356680137e-05, -0.0062813693927650785, 0.004138980637549988, 0.2223106895442714, -7.522137259571181e-07, 2.8312678586265007e-06, -2.093094254602414e-06, 1.7827921761413233e-06, -6.588658855079801e-08, -7.522137259571181e-07, 4.295369765500015e-06, -7.309930319913656e-08, -2.0263191607952394e-06, 1.4606302818958175e-06, -5.50036275642246e-07, 2.8312678586265007e-06, -7.309930319913656e-08, 4.303060628382061e-06, -1.6723091104664164e-06, -5.201362419147094e-05, -4.690406356680137e-05, -2.093094254602414e-06, -2.0263191607952394e-06, -1.6723091104664164e-06, 0.00010305236302562683]",,,,1.78038990527,0.352576970688,0.101931894547,,-0.0109187083605,0.0224098243744,0.03639674822,"[0.000197002517672173, -8.097970301160183e-05, -1.1631645898802537e-05, -1.5965835401283904e-09, 1.1348528901813924e-08, 2.1625343488817665e-08, -8.097970301160183e-05, 0.0005244831055956, 2.779281084666541e-05, -5.075163898850125e-09, -5.385655618710983e-09, -1.0099647831609471e-07, -1.1631645898802537e-05, 2.779281084666541e-05, 0.00020717011129659212, -7.556487867472764e-10, 2.063626572121515e-09, 3.0712522040203302e-09, -1.5965835401283904e-09, -5.075163898850125e-09, -7.556487867472764e-10, 2.3636238125664564e-09, 5.3643134701754555e-12, 1.1214503449321938e-11, 1.1348528901813924e-08, -5.385655618710983e-09, 2.063626572121515e-09, 5.3643134701754555e-12, 2.3374984846876368e-09, 1.889970890332524e-12, 2.1625343488817665e-08, -1.0099647831609471e-07, 3.0712522040203302e-09, 1.1214503449321938e-11, 1.889970890332524e-12, 2.358957291690727e-09]"
1402416200028517195,,220517,,1402416200,27303934,/enu,/base_link,,,,7.69899060446,21.2284644349,-21.8760805731,,-0.00305786881857,0.00443191603577,-0.860957084004,-0.508649100128,"[0.026818285667919963, -0.004786027328968124, -0.006282799292846676, 1.7730758198933327e-06, 1.6810215056050425e-06, -5.202230764009562e-05, -0.004786027328968124, 0.031819304259337905, 0.004132627808835481, -2.857271314232339e-07, -5.412811564068469e-07, -4.687477752749971e-05, -0.006282799292846676, 0.004132627808835481, 0.22233185707198871, -7.468962264604042e-07, 2.8365143706713754e-06, -2.0730733275157516e-06, 1.7730758198933327e-06, -2.857271314232339e-07, -7.468962264604042e-07, 4.344224400189353e-06, -7.30840447026141e-08, -2.025935829396983e-06, 1.6810215056050425e-06, -5.412811564068469e-07, 2.8365143706713754e-06, -7.30840447026141e-08, 4.351982609617704e-06, -1.6731720941857458e-06, -5.202230764009562e-05, -4.687477752749971e-05, -2.0730733275157516e-06, -2.025935829396983e-06, -1.6731720941857458e-06, 0.00010308766344929931]",,,,1.78134488193,0.347795127609,0.105433662854,,0.00653203801725,0.0208635556807,0.0372803423149,"[0.00020154168211872372, -8.144018202888095e-05, -1.0934189843342827e-05, -1.6097782455631176e-09, 1.1603391508202927e-08, 2.174626332667037e-08, -8.144018202888095e-05, 0.0005291498112956792, 2.791638807921429e-05, -5.341731791156013e-09, -5.3965483665953485e-09, -1.010022352676439e-07, -1.0934189843342827e-05, 2.791638807921429e-05, 0.0002077492830312967, -7.659138632045284e-10, 2.109887517828104e-09, 3.082259160083443e-09, -1.6097782455631176e-09, -5.341731791156013e-09, -7.659138632045284e-10, 2.3636238080302186e-09, 5.364301965683569e-12, 1.1214464672429445e-11, 1.1603391508202927e-08, -5.3965483665953485e-09, 2.109887517828104e-09, 5.364301965683569e-12, 2.337498455416198e-09, 1.889865062092651e-12, 2.174626332667037e-08, -1.010022352676439e-07, 3.082259160083443e-09, 1.1214464672429445e-11, 1.889865062092651e-12, 2.358952553738343e-09]"
1402416200038556580,,220518,,1402416200,37219047,/enu,/base_link,,,,7.68975552643,21.2437731412,-21.8757246744,,-0.00314471180541,0.00431499480406,-0.861029042654,-0.508527756679,"[0.026805108934031235, -0.004789195243862145, -0.006273302135256282, 1.757774747147035e-06, 8.768516644561317e-07, -5.185669285741707e-05, -0.004789195243862145, 0.031804738095638135, 0.004153104180324872, 5.246969441995368e-07, -5.541399319332998e-07, -4.709342884739567e-05, -0.006273302135256282, 0.004153104180324872, 0.22224848299297617, -8.344338472418273e-07, 2.76964228767696e-06, -2.110700404482319e-06, 1.757774747147035e-06, 5.246969441995368e-07, -8.344338472418273e-07, 4.1738581120592555e-06, -7.458900016629112e-08, -1.966025164144029e-06, 8.768516644561317e-07, -5.541399319332998e-07, 2.76964228767696e-06, -7.458900016629112e-08, 4.1816114696282044e-06, -1.635948620765537e-06, -5.185669285741707e-05, -4.709342884739567e-05, -2.110700404482319e-06, -1.966025164144029e-06, -1.635948620765537e-06, 0.00010308930713140596]",,,,1.77974187208,0.341033352559,0.10447232899,,0.00377099764073,0.0277111312659,0.0389370002077,"[0.00018560694225460645, -7.957145374912389e-05, -1.3344212332554877e-05, -1.5462440821465734e-09, 1.0675202790344034e-08, 2.1315669596274088e-08, -7.957145374912389e-05, 0.0005115413587476674, 2.743928939422479e-05, -4.423855947041726e-09, -5.255201683574428e-09, -1.0085913130155526e-07, -1.3344212332554877e-05, 2.743928939422479e-05, 0.00020551315319314244, -7.288882415396113e-10, 1.9450872637771587e-09, 3.0265003724967504e-09, -1.5462440821465734e-09, -4.423855947041726e-09, -7.288882415396113e-10, 2.3635566270514454e-09, 5.365474722760459e-12, 1.1218047184998023e-11, 1.0675202790344034e-08, -5.255201683574428e-09, 1.9450872637771587e-09, 5.365474722760459e-12, 2.337430520351983e-09, 1.866818382768222e-12, 2.1315669596274088e-08, -1.0085913130155526e-07, 3.0265003724967504e-09, 1.1218047184998023e-11, 1.866818382768222e-12, 2.358939756775698e-09]"
1402416200075049027,,220519,,1402416200,48221111,/enu,/base_link,,,,7.67701372878,21.2590738152,-21.8744882176,,-0.00293347515245,0.00429952725005,-0.861128109818,-0.508361374684,"[0.02680710570284598, -0.004788660572875076, -0.006274756362835099, 1.7484321261564247e-06, 1.0828751843495335e-06, -5.186730596909958e-05, -0.004788660572875076, 0.03180845552170368, 0.004146814716343313, 3.192627959029818e-07, -5.456395323013941e-07, -4.7068856187384585e-05, -0.006274756362835099, 0.004146814716343313, 0.22226963872664626, -8.288830487216714e-07, 2.7746399655634058e-06, -2.091211333878119e-06, 1.7484321261564247e-06, 3.192627959029818e-07, -8.288830487216714e-07, 4.222224818143105e-06, -7.457455878717318e-08, -1.9656546816388152e-06, 1.0828751843495335e-06, -5.456395323013941e-07, 2.7746399655634058e-06, -7.457455878717318e-08, 4.230041952336602e-06, -1.6367873746999132e-06, -5.186730596909958e-05, -4.7068856187384585e-05, -2.091211333878119e-06, -1.9656546816388152e-06, -1.6367873746999132e-06, 0.00010312408508248706]",,,,1.78219071518,0.349390996772,0.0967724954545,,-0.0169931816749,0.0344484446763,0.0334146243889,"[0.00018987623528498402, -8.002803225705702e-05, -1.2696566018461678e-05, -1.5581055757534366e-09, 1.0921545574549663e-08, 2.143541901732907e-08, -8.002803225705702e-05, 0.00051590373881671, 2.7626714954345014e-05, -4.68189400392111e-09, -5.265354970877551e-09, -1.0086504982239999e-07, -1.2696566018461678e-05, 2.7626714954345014e-05, 0.00020609657365703888, -7.403692056737329e-10, 1.991303923300094e-09, 3.0146049628172726e-09, -1.5581055757534366e-09, -4.68189400392111e-09, -7.403692056737329e-10, 2.3635566228173725e-09, 5.3654638514198e-12, 1.1218017373574202e-11, 1.0921545574549663e-08, -5.265354970877551e-09, 1.991303923300094e-09, 5.3654638514198e-12, 2.3374304927970825e-09, 1.866713506657406e-12, 2.143541901732907e-08, -1.0086504982239999e-07, 3.0146049628172726e-09, 1.1218017373574202e-11, 1.866713506657406e-12, 2.3589350110093477e-09]"
1402416200075142710,,220520,,1402416200,58207988,/enu,/base_link,,,,7.66536409906,21.2728216258,-21.8730556505,,-0.00282132754876,0.00421139346691,-0.861229195132,-0.508191477425,"[0.026808911770138288, -0.004788197370415952, -0.006275990950531466, 1.7398635266344553e-06, 1.2737118865007448e-06, -5.187831386931721e-05, -0.004788197370415952, 0.03181187846386798, 0.004141056088706864, 1.2897268880526973e-07, -5.378151108287785e-07, -4.7043391917724867e-05, -0.006275990950531466, 0.004141056088706864, 0.2222888734851225, -8.23380627879983e-07, 2.7793730964442034e-06, -2.073458872806546e-06, 1.7398635266344553e-06, 1.2897268880526973e-07, -8.23380627879983e-07, 4.262061654977788e-06, -7.456000300750488e-08, -1.965274482065574e-06, 1.2737118865007448e-06, -5.378151108287785e-07, 2.7793730964442034e-06, -7.456000300750488e-08, 4.269943632375556e-06, -1.637632049694776e-06, -5.187831386931721e-05, -4.7043391917724867e-05, -2.073458872806546e-06, -1.965274482065574e-06, -1.637632049694776e-06, 0.00010315021265815835]",,,,1.78007951005,0.343651659249,0.101350952628,,0.00388144529924,0.0282633699556,0.0372803095296,"[0.00019378651742393, -8.042649626425414e-05, -1.207963233130409e-05, -1.5692985281665225e-09, 1.1147369480668171e-08, 2.153971411176605e-08, -8.042649626425414e-05, 0.0005199110464538054, 2.7739449043807726e-05, -4.918587937418123e-09, -5.274816421891554e-09, -1.0086902121240959e-07, -1.207963233130409e-05, 2.7739449043807726e-05, 0.0002065667595037564, -7.497456129334845e-10, 2.033776012573186e-09, 3.023565779188625e-09, -1.5692985281665225e-09, -4.918587937418123e-09, -7.497456129334845e-10, 2.363556618384482e-09, 5.365452806352181e-12, 1.1217984120897123e-11, 1.1147369480668171e-08, -5.274816421891554e-09, 2.033776012573186e-09, 5.365452806352181e-12, 2.3374304646390963e-09, 1.866609934788542e-12, 2.153971411176605e-08, -1.0086902121240959e-07, 3.023565779188625e-09, 1.1217984120897123e-11, 1.866609934788542e-12, 2.3589302626475816e-09]"
1402416200114817930,,220521,,1402416200,69219112,/enu,/base_link,,,,7.65251126742,21.2881161162,-21.871798651,,-0.00266192129547,0.00411863293112,-0.861332309,-0.508018311196,"[0.026810958212776154, -0.004787659570842771, -0.006277487886627942, 1.730339279344e-06, 1.489313710526613e-06, -5.189167931162881e-05, -0.004787659570842771, 0.03181574240980887, 0.004134723139830968, -8.601182258384832e-08, -5.291131799046374e-07, -4.701553481857762e-05, -0.006277487886627942, 0.004134723139830968, 0.22230999374203186, -8.178791156058407e-07, 2.7844024578508377e-06, -2.0537453102185376e-06, 1.730339279344e-06, -8.601182258384832e-08, -8.178791156058407e-07, 4.3105051127305816e-06, -7.454524184917855e-08, -1.9649009906824706e-06, 1.489313710526613e-06, -5.291131799046374e-07, 2.7844024578508377e-06, -7.454524184917855e-08, 4.318452715388228e-06, -1.6384921791039197e-06, -5.189167931162881e-05, -4.701553481857762e-05, -2.0537453102185376e-06, -1.9649009906824706e-06, -1.6384921791039197e-06, 0.00010318505507408002]",,,,1.78138384954,0.348427804272,0.096151632663,,-9.46741892154e-05,0.0334544146565,0.0347400232819,"[0.00019823609089422256, -8.088259838923554e-05, -1.1395330457461066e-05, -1.5816445632167455e-09, 1.1399093022682333e-08, 2.1658213995142716e-08, -8.088259838923554e-05, 0.0005244778278383568, 2.787342391473153e-05, -5.182267334704748e-09, -5.285222866231591e-09, -1.0087462593299508e-07, -1.1395330457461066e-05, 2.787342391473153e-05, 0.0002071426797531223, -7.604928763319943e-10, 2.0811625006329167e-09, 3.030329691215779e-09, -1.5816445632167455e-09, -5.182267334704748e-09, -7.604928763319943e-10, 2.3635566138551667e-09, 5.365441451969265e-12, 1.1217947717197276e-11, 1.1399093022682333e-08, -5.285222866231591e-09, 2.0811625006329167e-09, 5.365441451969265e-12, 2.337430436074875e-09, 1.866507502313112e-12, 2.1658213995142716e-08, -1.0087462593299508e-07, 3.030329691215779e-09, 1.1217947717197276e-11, 1.866507502313112e-12, 2.358925511760748e-09]"
1402416200154872305,,220522,,1402416200,79220056,/enu,/base_link,,,,7.64082981834,21.3020644688,-21.870767028,,-0.00253221978679,0.0040110795161,-0.861421277239,-0.507868961665,"[0.02681286354134998, -0.004787179661834194, -0.006278768158414489, 1.7216106248958813e-06, 1.6891295524906982e-06, -5.190599819740969e-05, -0.004787179661834194, 0.031819266866438635, 0.004128944926204487, -2.852046205410401e-07, -5.210956731418927e-07, -4.698805505220439e-05, -0.006278768158414489, 0.004128944926204487, 0.2223293292891596, -8.12379347271786e-07, 2.789240036632573e-06, -2.0360489729162324e-06, 1.7216106248958813e-06, -2.852046205410401e-07, -8.12379347271786e-07, 4.3504512659839506e-06, -7.453036789599254e-08, -1.964517754878923e-06, 1.6891295524906982e-06, -5.210956731418927e-07, 2.789240036632573e-06, -7.453036789599254e-08, 4.3584655782875416e-06, -1.6393582850060903e-06, -5.190599819740969e-05, -4.698805505220439e-05, -2.0360489729162324e-06, -1.964517754878923e-06, -1.6393582850060903e-06, 0.00010321128030702699]",,,,1.78228258049,0.343065192213,0.0991102274382,,0.00542771386933,0.0332335190391,0.0326415282651,"[0.00020232569374059353, -8.13003587849736e-05, -1.075909753874864e-05, -1.5929560824236567e-09, 1.1630219691654857e-08, 2.1767408973922407e-08, -8.13003587849736e-05, 0.0005286573309184417, 2.7978623487111456e-05, -5.424268354709857e-09, -5.294501355342853e-09, -1.008775143009939e-07, -1.075909753874864e-05, 2.7978623487111456e-05, 0.00020761379121872982, -7.698625502445189e-10, 2.124623623809341e-09, 3.042090373015033e-09, -1.5929560824236567e-09, -5.424268354709857e-09, -7.698625502445189e-10, 2.3635566091814176e-09, 5.365429777441621e-12, 1.1217908080640027e-11, 1.1630219691654857e-08, -5.294501355342853e-09, 2.124623623809341e-09, 5.365429777441621e-12, 2.3374304068677956e-09, 1.8664062037165687e-12, 2.1767408973922407e-08, -1.008775143009939e-07, 3.042090373015033e-09, 1.1217908080640027e-11, 1.8664062037165687e-12, 2.3589207580865447e-09]"
1402416200154896529,,220523,,1402416200,89221000,/enu,/base_link,,,,7.6255404377,21.32416064,-21.8774827028,,-0.00172793185063,0.00374174607883,-0.861633017733,-0.507515079914,"[0.02679968879072145, -0.004790303857227942, -0.006269351799012947, 1.704656102938398e-06, 8.793672858021644e-07, -5.1741231629419466e-05, -0.004790303857227942, 0.03180470459351327, 0.004149388182656898, 5.258627891742204e-07, -5.322326575069401e-07, -4.721042869732677e-05, -0.006269351799012947, 0.004149388182656898, 0.22224596457698148, -8.887771840526429e-07, 2.7128207361770806e-06, -2.073093371821264e-06, 1.704656102938398e-06, 5.258627891742204e-07, -8.887771840526429e-07, 4.178898907023875e-06, -7.606806489453165e-08, -1.9051829200575342e-06, 8.793672858021644e-07, -5.322326575069401e-07, 2.7128207361770806e-06, -7.606806489453165e-08, 4.1867075406033025e-06, -1.5979447979544011e-06, -5.1741231629419466e-05, -4.721042869732677e-05, -2.073093371821264e-06, -1.9051829200575342e-06, -1.5979447979544011e-06, 0.00010321253244131895]",,,,1.79681406193,0.347851491322,0.0935922160863,,0.00200357063874,0.0288163536072,0.0348507596381,"[0.00018671917161356216, -8.098359077142137e-05, -1.2958231602405382e-05, -1.5501838615717171e-09, 1.0706540436323066e-08, 2.160916300234898e-08, -8.098359077142137e-05, 0.0005171448896323121, 2.755416610260479e-05, -4.447856168329853e-09, -5.2022241273949186e-09, -1.0171338994866991e-07, -1.2958231602405382e-05, 2.755416610260479e-05, 0.000205591483049869, -7.541388390436082e-10, 2.008609600317954e-09, 2.9732098566100307e-09, -1.5501838615717171e-09, -4.447856168329853e-09, -7.541388390436082e-10, 2.3634886405141025e-09, 5.366702410865784e-12, 1.1222712175940592e-11, 1.0706540436323066e-08, -5.2022241273949186e-09, 2.008609600317954e-09, 5.366702410865784e-12, 2.337361852483849e-09, 1.842928612269243e-12, 2.160916300234898e-08, -1.0171338994866991e-07, 2.9732098566100307e-09, 1.1222712175940592e-11, 1.842928612269243e-12, 2.3589075908969114e-09]"
1402416200154926829,,220524,,1402416200,100204944,/enu,/base_link,,,,7.61262445495,21.3395691629,-21.8764084439,,-0.00161568064647,0.00361137362268,-0.86175571355,-0.507308030412,"[0.026801652484968283, -0.004789798817212692, -0.006270716348535852, 1.6954126833329662e-06, 1.0854090018511292e-06, -5.175851664864337e-05, -0.004789798817212692, 0.03180843538726067, 0.004143086451150934, 3.204858205176615e-07, -5.236882867955043e-07, -4.718399483444979e-05, -0.006270716348535852, 0.004143086451150934, 0.2222670474736094, -8.829923936600801e-07, 2.717536908552809e-06, -2.0537877483415704e-06, 1.6954126833329662e-06, 3.204858205176615e-07, -8.829923936600801e-07, 4.227106425084855e-06, -7.605395798675486e-08, -1.904821791698813e-06, 1.0854090018511292e-06, -5.236882867955043e-07, 2.717536908552809e-06, -7.605395798675486e-08, 4.2349778333484165e-06, -1.5987898326075835e-06, -5.175851664864337e-05, -4.718399483444979e-05, -2.0537877483415704e-06, -1.904821791698813e-06, -1.5987898326075835e-06, 0.00010324710009982952]",,,,1.79889754345,0.346877241468,0.0899095444557,,0.0101767049641,0.0295894878507,0.0419194286419,"[0.0001909719214573242, -8.140019464432832e-05, -1.2264354128937803e-05, -1.5622282865815774e-09, 1.0952332826034373e-08, 2.1714788665082906e-08, -8.140019464432832e-05, 0.0005215552295070161, 2.7656937774226614e-05, -4.706052521397628e-09, -5.212940388716652e-09, -1.0172146664529155e-07, -1.2264354128937803e-05, 2.7656937774226614e-05, 0.0002061652491763035, -7.643810275923414e-10, 2.056948875886003e-09, 2.9908969381989793e-09, -1.5622282865815774e-09, -4.706052521397628e-09, -7.643810275923414e-10, 2.363488636149931e-09, 5.366691494042309e-12, 1.1222681664993808e-11, 1.0952332826034373e-08, -5.212940388716652e-09, 2.056948875886003e-09, 5.366691494042309e-12, 2.337361825096343e-09, 1.842828245594554e-12, 2.1714788665082906e-08, -1.0172146664529155e-07, 2.9908969381989793e-09, 1.1222681664993808e-11, 1.842828245594554e-12, 2.3589028292913835e-09]"
1402416200154960893,,220525,,1402416200,110202074,/enu,/base_link,,,,7.60079384099,21.3536630001,-21.8754072391,,-0.0014960855721,0.00353344659556,-0.861844521923,-0.50715805871,"[0.026803477113701166, -0.004789344070810657, -0.006271995732476349, 1.6869127092348265e-06, 1.2769322788814729e-06, -5.177613289393594e-05, -0.004789344070810657, 0.031811923822555044, 0.0041373344761177, 1.2963136219860108e-07, -5.15770072450646e-07, -4.7159497067991274e-05, -0.006271995732476349, 0.0041373344761177, 0.22228605948419078, -8.772518433637659e-07, 2.7221653456736935e-06, -2.0364495374247003e-06, 1.6869127092348265e-06, 1.2963136219860108e-07, -8.772518433637659e-07, 4.267025528849308e-06, -7.603973545798166e-08, -1.9044510875737465e-06, 1.2769322788814729e-06, -5.15770072450646e-07, 2.7221653456736935e-06, -7.603973545798166e-08, 4.274960770879448e-06, -1.5996410843810448e-06, -5.177613289393594e-05, -4.7159497067991274e-05, -2.0364495374247003e-06, -1.9044510875737465e-06, -1.5996410843810448e-06, 0.00010327326187851754]",,,,1.79945450882,0.345730773253,0.0958329801049,,0.00134088395711,0.0284850101569,0.0327522768804,"[0.0001949013689589899, -8.180445480931401e-05, -1.163197464040198e-05, -1.573002937860437e-09, 1.1178846621320045e-08, 2.181972287365192e-08, -8.180445480931401e-05, 0.0005255809462175525, 2.7778928990378917e-05, -4.943486814451708e-09, -5.222040505866478e-09, -1.0172555740877932e-07, -1.163197464040198e-05, 2.7778928990378917e-05, 0.0002066445165234977, -7.73990152390619e-10, 2.100498324263797e-09, 2.9978927599907217e-09, -1.573002937860437e-09, -4.943486814451708e-09, -7.73990152390619e-10, 2.3634886316581352e-09, 5.366680305977841e-12, 1.1222647770846402e-11, 1.1178846621320045e-08, -5.222040505866478e-09, 2.100498324263797e-09, 5.366680305977841e-12, 2.3373617971654217e-09, 1.8427291671826703e-12, 2.181972287365192e-08, -1.0172555740877932e-07, 2.9978927599907217e-09, 1.1222647770846402e-11, 1.8427291671826703e-12, 2.3588980649862748e-09]"
1402416200194898239,,220526,,1402416200,121186017,/enu,/base_link,,,,7.58807724467,21.3688960524,-21.8740086731,,-0.0013552922023,0.00345390657304,-0.861977353412,-0.506933206564,"[0.02680556860822768, -0.004788804435946692, -0.006273410167947866, 1.677554788294466e-06, 1.4925886244474438e-06, -5.1799138999359484e-05, -0.004788804435946692, 0.031815735528547225, 0.004131039269133161, -8.530168373535325e-08, -5.070391134206626e-07, -4.712922777761016e-05, -0.006273410167947866, 0.004131039269133161, 0.22230738541235245, -8.71369666253778e-07, 2.7268934875054164e-06, -2.0171874340496123e-06, 1.677554788294466e-06, -8.530168373535325e-08, -8.71369666253778e-07, 4.3152299626041164e-06, -7.602532181409262e-08, -1.9040868229682912e-06, 1.4925886244474438e-06, -5.070391134206626e-07, 2.7268934875054164e-06, -7.602532181409262e-08, 4.323229814340442e-06, -1.6005074549959497e-06, -5.1799138999359484e-05, -4.712922777761016e-05, -2.0171874340496123e-06, -1.9040868229682912e-06, -1.6005074549959497e-06, 0.00010330781318716668]",,,,1.79977046485,0.344707833538,0.0909187656522,,-0.000426280289385,0.0293685921368,0.0456746773161,"[0.00019932589589736685, -8.220719702468985e-05, -1.092558882891166e-05, -1.5857088508359652e-09, 1.1429610346959652e-08, 2.1921147018436875e-08, -8.220719702468985e-05, 0.0005301797889365784, 2.7920987226990712e-05, -5.2067876303701596e-09, -5.233869015748871e-09, -1.0173488832223073e-07, -1.092558882891166e-05, 2.7920987226990712e-05, 0.0002072263433674266, -7.846859140227311e-10, 2.1484987410484154e-09, 3.0038815201197504e-09, -1.5857088508359652e-09, -5.2067876303701596e-09, -7.846859140227311e-10, 2.3634886270354364e-09, 5.366668814744369e-12, 1.1222610775032725e-11, 1.1429610346959652e-08, -5.233869015748871e-09, 2.1484987410484154e-09, 5.366668814744369e-12, 2.337361768736507e-09, 1.842631210168956e-12, 2.1921147018436875e-08, -1.0173488832223073e-07, 3.0038815201197504e-09, 1.1222610775032725e-11, 1.842631210168956e-12, 2.3588932982995716e-09]"
1402416200194930022,,220527,,1402416200,131176948,/enu,/base_link,,,,7.57632361429,21.3828343947,-21.8729030741,,-0.00129566685519,0.00337742730767,-0.862085264128,-0.506750344455,"[0.026807507217538013, -0.004788358014031267, -0.00627466269653377, 1.6688882584769852e-06, 1.6927096571413318e-06, -5.181937373129636e-05, -0.004788358014031267, 0.03181927505264615, 0.0041252434140687695, -2.847383967136359e-07, -4.989804080927577e-07, -4.7099482317967525e-05, -0.00627466269653377, 0.0041252434140687695, 0.22232663461007404, -8.656732143232248e-07, 2.7314488873651726e-06, -1.999676236049048e-06, 1.6688882584769852e-06, -2.847383967136359e-07, -8.656732143232248e-07, 4.355096253446905e-06, -7.601079297468656e-08, -1.903712928828571e-06, 1.6927096571413318e-06, -4.989804080927577e-07, 2.7314488873651726e-06, -7.601079297468656e-08, 4.36316178909815e-06, -1.6013800866985102e-06, -5.181937373129636e-05, -4.7099482317967525e-05, -1.999676236049048e-06, -1.903712928828571e-06, -1.6013800866985102e-06, 0.00010333390827875246]",,,,1.79738513948,0.34500155559,0.0949290173588,,0.00719461526032,0.0179924725736,0.0402627499281,"[0.0002034023863897395, -8.258517902711152e-05, -1.0267214579552967e-05, -1.5973365831492456e-09, 1.1660506132286223e-08, 2.201867818109239e-08, -8.258517902711152e-05, 0.0005343908503055395, 2.80353032925337e-05, -5.448792052912849e-09, -5.244097891770101e-09, -1.017403929041017e-07, -1.0267214579552967e-05, 2.80353032925337e-05, 0.0002077051363735194, -7.938614980808197e-10, 2.1913513405474584e-09, 3.014650370087483e-09, -1.5973365831492456e-09, -5.448792052912849e-09, -7.938614980808197e-10, 2.363488622250206e-09, 5.3666570954423875e-12, 1.1222570432899888e-11, 1.1660506132286223e-08, -5.244097891770101e-09, 2.1913513405474584e-09, 5.3666570954423875e-12, 2.337361739891801e-09, 1.842534496247299e-12, 2.201867818109239e-08, -1.017403929041017e-07, 3.014650370087483e-09, 1.1222570432899888e-11, 1.842534496247299e-12, 2.358888528969702e-09]"
1402416200194948375,,220528,,1402416200,141185998,/enu,/base_link,,,,7.54779426409,21.4077803328,-21.8834566227,,0.000774991700415,0.00363839480007,-0.862529741177,-0.505992694666,"[0.02679431784129426, -0.004791447408424846, -0.006265340688333112, 1.6475641711301907e-06, 8.7819582320233e-07, -5.162371855519338e-05, -0.004791447408424846, 0.03180476120974525, 0.0041456632117397195, 5.208725885694479e-07, -5.112354778165826e-07, -4.736028799531614e-05, -0.006265340688333112, 0.0041456632117397195, 0.22224330272241197, -9.33259188618992e-07, 2.649201122193312e-06, -2.032804880902544e-06, 1.6475641711301907e-06, 5.208725885694479e-07, -9.33259188618992e-07, 4.1838337901985314e-06, -7.776754031588137e-08, -1.8392213142893375e-06, 8.7819582320233e-07, -5.112354778165826e-07, 2.649201122193312e-06, -7.776754031588137e-08, 4.191438990541771e-06, -1.550723310886677e-06, -5.162371855519338e-05, -4.736028799531614e-05, -2.032804880902544e-06, -1.8392213142893375e-06, -1.550723310886677e-06, 0.00010332813974150047]",,,,1.83004293563,0.364727711966,0.0938380466677,,0.000897524439897,0.0230747220576,0.0422515848751,"[0.00018930067985109336, -8.650423744113752e-05, -1.2338604389166877e-05, -1.6269684973293065e-09, 1.0778917061144564e-08, 2.2964597542978065e-08, -8.650423744113752e-05, 0.000529180735418031, 2.8477450914422736e-05, -4.419597923937121e-09, -5.198030933767519e-09, -1.0357350280685484e-07, -1.2338604389166877e-05, 2.8477450914422736e-05, 0.0002060269067916692, -8.422079980929564e-10, 2.1132206811829295e-09, 2.764148912881418e-09, -1.6269684973293065e-09, -4.419597923937121e-09, -8.422079980929564e-10, 2.3634205027412785e-09, 5.368218526320709e-12, 1.1229317605232302e-11, 1.0778917061144564e-08, -5.198030933767519e-09, 2.1132206811829295e-09, 5.368218526320709e-12, 2.33729304328259e-09, 1.8162206347524805e-12, 2.2964597542978065e-08, -1.0357350280685484e-07, 2.764148912881418e-09, 1.1229317605232302e-11, 1.8162206347524805e-12, 2.358873023272986e-09]"
1402416200194965665,,220529,,1402416200,152189970,/enu,/base_link,,,,7.53439632978,21.4232622539,-21.8821845574,,0.000809071655905,0.00353718180631,-0.862625215755,-0.505830575284,"[0.02679628011262133, -0.004790907831018833, -0.006266764326521068, 1.6383376038589102e-06, 1.0854604666813402e-06, -5.16457420865919e-05, -0.004790907831018833, 0.0318085140540703, 0.004139303934277489, 3.1427249834567354e-07, -5.025661392598535e-07, -4.7332388444176564e-05, -0.006266764326521068, 0.004139303934277489, 0.2222645349025994, -9.272615980473742e-07, 2.653630431838567e-06, -2.013822247335338e-06, 1.6383376038589102e-06, 3.1427249834567354e-07, -9.272615980473742e-07, 4.232217891963404e-06, -7.775376095591828e-08, -1.838872071232247e-06, 1.0854604666813402e-06, -5.025661392598535e-07, 2.653630431838567e-06, -7.775376095591828e-08, 4.2398846295251095e-06, -1.5515759934049558e-06, -5.16457420865919e-05, -4.7332388444176564e-05, -2.013822247335338e-06, -1.838872071232247e-06, -1.5515759934049558e-06, 0.0001033628349213817]",,,,1.83115147136,0.367451909602,0.0994438835696,,0.0127154349222,0.0145702443114,0.0320904042878,"[0.00019358792973593706, -8.694477945641724e-05, -1.1610554286784164e-05, -1.6386711757387108e-09, 1.1025739501655927e-08, 2.307643221833118e-08, -8.694477945641724e-05, 0.0005336171198457154, 2.8599872581401166e-05, -4.6784529660326655e-09, -5.207990980743347e-09, -1.0358154792638296e-07, -1.1610554286784164e-05, 2.8599872581401166e-05, 0.00020661889985993992, -8.532701837889604e-10, 2.1619959534361618e-09, 2.7823910453218084e-09, -1.6386711757387108e-09, -4.6784529660326655e-09, -8.532701837889604e-10, 2.3634204982814548e-09, 5.368207516500041e-12, 1.1229286312155598e-11, 1.1025739501655927e-08, -5.207990980743347e-09, 2.1619959534361618e-09, 5.368207516500041e-12, 2.3372930160365865e-09, 1.816125152725631e-12, 2.307643221833118e-08, -1.0358154792638296e-07, 2.7823910453218084e-09, 1.1229286312155598e-11, 1.816125152725631e-12, 2.358868245180658e-09]"
1402416200234855952,,220530,,1402416200,162166118,/enu,/base_link,,,,7.52205317573,21.4375042617,-21.8813479221,,0.000918071220271,0.00342073943929,-0.862717155609,-0.505674366668,"[0.02679816182257591, -0.004790407737018897, -0.006268031008964153, 1.6298833462469728e-06, 1.2774538241903874e-06, -5.1668549927188836e-05, -0.004790407737018897, 0.03181192560229257, 0.00413363797873609, 1.2301518816024565e-07, -4.945528521777886e-07, -4.730771589816468e-05, -0.006268031008964153, 0.00413363797873609, 0.22228364898995695, -9.213079852221088e-07, 2.6580416564933316e-06, -1.99667670273293e-06, 1.6298833462469728e-06, 1.2301518816024565e-07, -9.213079852221088e-07, 4.271969577026867e-06, -7.773986685130293e-08, -1.83851273968496e-06, 1.2774538241903874e-06, -4.945528521777886e-07, 2.6580416564933316e-06, -7.773986685130293e-08, 4.279698917380035e-06, -1.5524349661694512e-06, -5.1668549927188836e-05, -4.730771589816468e-05, -1.99667670273293e-06, -1.83851273968496e-06, -1.5524349661694512e-06, 0.00010338877545983077]",,,,1.83286904847,0.367116195227,0.0960112145562,,0.00907065870982,0.0305851696635,0.0342993717433,"[0.00019751771519970558, -8.733770581007089e-05, -1.094374890467921e-05, -1.6494257890902604e-09, 1.1251693097963796e-08, 2.3174912678721253e-08, -8.733770581007089e-05, 0.0005376686266934432, 2.87101858394186e-05, -4.915702717608596e-09, -5.217450490190426e-09, -1.0358774475160435e-07, -1.094374890467921e-05, 2.87101858394186e-05, 0.00020710327364926851, -8.636831924815712e-10, 2.207844499937283e-09, 2.798920798255967e-09, -1.6494257890902604e-09, -4.915702717608596e-09, -8.636831924815712e-10, 2.363420493686864e-09, 5.368196250808295e-12, 1.1229251483511034e-11, 1.1251693097963796e-08, -5.217450490190426e-09, 2.207844499937283e-09, 5.368196250808295e-12, 2.3372929882878803e-09, 1.8160309827487223e-12, 2.3174912678721253e-08, -1.0358774475160435e-07, 2.798920798255967e-09, 1.1229251483511034e-11, 1.8160309827487223e-12, 2.358863464195129e-09]"
1402416200234885034,,220531,,1402416200,172148942,/enu,/base_link,,,,7.5099765961,21.4517422393,-21.8804447442,,0.00100350444486,0.00335316466829,-0.862816128073,-0.505505764954,"[0.02679999247317978, -0.004789953648214672, -0.006269334318387775, 1.6213694785302632e-06, 1.4737145891707066e-06, -5.169335088877943e-05, -0.004789953648214672, 0.03181539443421472, 0.004127951839681165, -7.24755838049206e-08, -4.864308092277781e-07, -4.728273793263848e-05, -0.006269334318387775, 0.004127951839681165, 0.2223027462573191, -9.153249307411518e-07, 2.6625041094730314e-06, -1.9794198059817982e-06, 1.6213694785302632e-06, -7.24755838049206e-08, -9.153249307411518e-07, 4.311773174545431e-06, -7.772584002033915e-08, -1.8381520602528802e-06, 1.4737145891707066e-06, -4.864308092277781e-07, 2.6625041094730314e-06, -7.772584002033915e-08, 4.319565940403748e-06, -1.5533036137284294e-06, -5.169335088877943e-05, -4.728273793263848e-05, -1.9794198059817982e-06, -1.8381520602528802e-06, -1.5533036137284294e-06, 0.00010341476314061461]",,,,1.83596610015,0.367847189689,0.102590641398,,0.00299603175766,0.0215284530793,0.0369501311194,"[0.00020152130476483278, -8.771877787165892e-05, -1.0271743057494255e-05, -1.6605742810809458e-09, 1.1479891632449216e-08, 2.3270826630160095e-08, -8.771877787165892e-05, 0.0005418069998065082, 2.884947822590056e-05, -5.155113098244771e-09, -5.22751377834639e-09, -1.0359484147408027e-07, -1.0271743057494255e-05, 2.884947822590056e-05, 0.0002075950124297082, -8.742389397716477e-10, 2.252619135523213e-09, 2.8071781660653236e-09, -1.6605742810809458e-09, -5.155113098244771e-09, -8.742389397716477e-10, 2.363420488964579e-09, 5.368184659013384e-12, 1.1229213763990629e-11, 1.1479891632449216e-08, -5.22751377834639e-09, 2.252619135523213e-09, 5.368184659013384e-12, 2.337292960102082e-09, 1.815937926599617e-12, 2.3270826630160095e-08, -1.0359484147408027e-07, 2.8071781660653236e-09, 1.1229213763990629e-11, 1.815937926599617e-12, 2.3588586811685843e-09]"
1402416200234916306,,220532,,1402416200,183159112,/enu,/base_link,,,,7.48510850215,21.4874636147,-21.9756751604,,0.00248038836492,0.00519512896296,-0.863053735234,-0.505079309026,"[0.026787081315546964, -0.004793025383894478, -0.006260119682185242, 1.602148984527933e-06, 7.078603880569326e-07, -5.144538016231221e-05, -0.004793025383894478, 0.03180144471073202, 0.004147572528267899, 6.813808718097449e-07, -4.994694602561508e-07, -4.752126138515038e-05, -0.006260119682185242, 0.004147572528267899, 0.22222178633786402, -9.76366880994714e-07, 2.5775687843934163e-06, -2.009207363664774e-06, 1.602148984527933e-06, 6.813808718097449e-07, -9.76366880994714e-07, 4.156631726662525e-06, -7.911030510734855e-08, -1.7829380342545527e-06, 7.078603880569326e-07, -4.994694602561508e-07, 2.5775687843934163e-06, -7.911030510734855e-08, 4.163376662526082e-06, -1.4980232807147396e-06, -5.144538016231221e-05, -4.752126138515038e-05, -2.009207363664774e-06, -1.7829380342545527e-06, -1.4980232807147396e-06, 0.00010341924491882487]",,,,1.84754018951,0.412236325691,0.0929488688267,,0.0117186326354,0.0112569491925,0.0408161254372,"[0.00019110406768800884, -9.505147439536776e-05, -1.262622789888378e-05, -1.7597441736135635e-09, 1.0758621162912326e-08, 2.552838609497552e-08, -9.505147439536776e-05, 0.0005307161245452033, 3.0721257985732155e-05, -4.308339473109968e-09, -5.136168833039585e-09, -1.0424457928743561e-07, -1.262622789888378e-05, 3.0721257985732155e-05, 0.00020602303591906563, -9.711155175163143e-10, 2.092403768149697e-09, 2.2619977930284146e-09, -1.7597441736135635e-09, -4.308339473109968e-09, -9.711155175163143e-10, 2.363354309228999e-09, 5.369755922920763e-12, 1.1238485329340895e-11, 1.0758621162912326e-08, -5.136168833039585e-09, 2.092403768149697e-09, 5.369755922920763e-12, 2.3372267639398404e-09, 1.7915803500604546e-12, 2.552838609497552e-08, -1.0424457928743561e-07, 2.2619977930284146e-09, 1.1238485329340895e-11, 1.7915803500604546e-12, 2.358843687699235e-09]"
1402416200234935216,,220533,,1402416200,193161010,/enu,/base_link,,,,7.47249188584,21.5015467143,-21.9747918875,,0.00254689480359,0.00513728960644,-0.863171615847,-0.504878087442,"[0.026788856668515843, -0.004792535128711528, -0.0062614295351444416, 1.5938739084111035e-06, 8.934349630809621e-07, -5.1469703836541287e-05, -0.004792535128711528, 0.03180482969286284, 0.004141912615362802, 4.965870701397439e-07, -4.914356747363634e-07, -4.7504098410181755e-05, -0.0062614295351444416, 0.004141912615362802, 0.22224077956661475, -9.702076171317357e-07, 2.581978131103414e-06, -1.9921498457568517e-06, 1.5938739084111035e-06, 4.965870701397439e-07, -9.702076171317357e-07, 4.1965924522701645e-06, -7.909688953164693e-08, -1.7825923230701156e-06, 8.934349630809621e-07, -4.914356747363634e-07, 2.581978131103414e-06, -7.909688953164693e-08, 4.2033971634372615e-06, -1.498873000042739e-06, -5.1469703836541287e-05, -4.7504098410181755e-05, -1.9921498457568517e-06, -1.7825923230701156e-06, -1.498873000042739e-06, 0.00010344535573118203]",,,,1.84745590578,0.415396801084,0.0873384512214,,0.00321415491337,0.0171106805202,0.0442400203131,"[0.00019490829050863729, -9.539916135049316e-05, -1.1964210428054206e-05, -1.7705270016070692e-09, 1.0980779684612449e-08, 2.5613231483318505e-08, -9.539916135049316e-05, 0.0005346844658053328, 3.089486271108981e-05, -4.541914473916286e-09, -5.1467442301669254e-09, -1.0425632758209752e-07, -1.1964210428054206e-05, 3.089486271108981e-05, 0.00020652325026123748, -9.838534718395901e-10, 2.137164332380812e-09, 2.2702298143963733e-09, -1.7705270016070692e-09, -4.541914473916286e-09, -9.838534718395901e-10, 2.3633543047602878e-09, 5.3697450257570574e-12, 1.123845538091488e-11, 1.0980779684612449e-08, -5.1467442301669254e-09, 2.137164332380812e-09, 5.3697450257570574e-12, 2.3372267372334413e-09, 1.7914884395494367e-12, 2.5613231483318505e-08, -1.0425632758209752e-07, 2.2702298143963733e-09, 1.123845538091488e-11, 1.7914884395494367e-12, 2.3588388943276228e-09]"
1402416200274861969,,220534,,1402416200,204149007,/enu,/base_link,,,,7.45851826123,21.5169817035,-21.9738141696,,0.00253578747601,0.00493610781066,-0.86328643323,-0.504683800832,"[0.026790829101851932, -0.004792023027300856, -0.006262813831324112, 1.5847165317152687e-06, 1.1025362899314966e-06, -5.150024457596696e-05, -0.004792023027300856, 0.031808516809494966, 0.004135646444665208, 2.88376137580115e-07, -4.825583716623212e-07, -4.748298399510554e-05, -0.006262813831324112, 0.004135646444665208, 0.22226188264198304, -9.638722857030015e-07, 2.586521949100119e-06, -1.9735362563217294e-06, 1.5847165317152687e-06, 2.88376137580115e-07, -9.638722857030015e-07, 4.2448359430249435e-06, -7.908330216561207e-08, -1.7822532591684188e-06, 1.1025362899314966e-06, -4.825583716623212e-07, 2.586521949100119e-06, -7.908330216561207e-08, 4.251701168483761e-06, -1.4997376829591406e-06, -5.150024457596696e-05, -4.748298399510554e-05, -1.9735362563217294e-06, -1.7822532591684188e-06, -1.4997376829591406e-06, 0.00010347985366766899]",,,,1.85076023596,0.410749924418,0.0970879984186,,0.0325932595565,0.0165584416236,0.0390489887974,"[0.00019922802176802924, -9.581071079631851e-05, -1.1199976471685205e-05, -1.782348052956698e-09, 1.1227428070983721e-08, 2.5713155503045194e-08, -9.581071079631851e-05, 0.0005392068484320513, 3.0979787579020876e-05, -4.801224365425241e-09, -5.157377460243477e-09, -1.0426878241737687e-07, -1.1199976471685205e-05, 3.0979787579020876e-05, 0.00020710850698024612, -9.9631654920834e-10, 2.1881135649288e-09, 2.3126709171800987e-09, -1.782348052956698e-09, -4.801224365425241e-09, -9.9631654920834e-10, 2.363354300202478e-09, 5.369733898722573e-12, 1.1238422335836587e-11, 1.1227428070983721e-08, -5.157377460243477e-09, 2.1881135649288e-09, 5.369733898722573e-12, 2.337226710081403e-09, 1.7913977902313398e-12, 2.5713155503045194e-08, -1.0426878241737687e-07, 2.3126709171800987e-09, 1.1238422335836587e-11, 1.7913977902313398e-12, 2.3588340986845114e-09]"
1402416200274935779,,220535,,1402416200,214148044,/enu,/base_link,,,,7.44564192456,21.5311293636,-21.9730152211,,0.00259214202438,0.00485156415107,-0.86338701027,-0.504512253193,"[0.026792691522909178, -0.004791545057425333, -0.006264044469913698, 1.5762696783253385e-06, 1.2967283656960812e-06, -5.152858391691363e-05, -0.004791545057425333, 0.031811990601214195, 0.00412998827399344, 9.507179731752451e-08, -4.742925685713589e-07, -4.746592059477475e-05, -0.006264044469913698, 0.00412998827399344, 0.22228078671261436, -9.576938354899954e-07, 2.591067884557595e-06, -1.9566020538979817e-06, 1.5762696783253385e-06, 9.507179731752451e-08, -9.576938354899954e-07, 4.284770607769831e-06, -7.906960188406843e-08, -1.7819041938505347e-06, 1.2967283656960812e-06, -4.742925685713589e-07, 2.591067884557595e-06, -7.906960188406843e-08, 4.291697404645498e-06, -1.5006088829264138e-06, -5.152858391691363e-05, -4.746592059477475e-05, -1.9566020538979817e-06, -1.7819041938505347e-06, -1.5006088829264138e-06, 0.00010350592482803218]",,,,1.85007973221,0.417195575438,0.085625374695,,0.00884699069705,0.0181047102225,0.0373922865642,"[0.00020320657499406223, -9.61838773520488e-05, -1.0515983088184206e-05, -1.7932367970572255e-09, 1.1454652514815049e-08, 2.5805184164736454e-08, -9.61838773520488e-05, 0.0005433349992858622, 3.113510480564454e-05, -5.039766692972107e-09, -5.167509058560264e-09, -1.0427867323640146e-07, -1.0515983088184206e-05, 3.113510480564454e-05, 0.0002076059939204663, -1.008782514774157e-09, 2.2334799823196174e-09, 2.327087157416039e-09, -1.7932367970572255e-09, -5.039766692972107e-09, -1.008782514774157e-09, 2.3633542954793333e-09, 5.36972246141535e-12, 1.12383858398491e-11, 1.1454652514815049e-08, -5.167509058560264e-09, 2.2334799823196174e-09, 5.36972246141535e-12, 2.337226682409383e-09, 1.791308368340228e-12, 2.5805184164736454e-08, -1.0427867323640146e-07, 2.327087157416039e-09, 1.12383858398491e-11, 1.791308368340228e-12, 2.3588293000222305e-09]"
1402416200274974663,,220536,,1402416200,224148988,/enu,/base_link,,,,7.43311110376,21.5450892409,-21.9719966925,,0.00257426694683,0.00470363736772,-0.863485549753,-0.50434507464,"[0.02679457652096261, -0.004791086826709414, -0.006265293875688778, 1.5677881279001524e-06, 1.4950402349063838e-06, -5.15590960595785e-05, -0.004791086826709414, 0.03181548862324096, 0.004124187864315423, -1.0234420668812013e-07, -4.6595007488665616e-07, -4.744667969328541e-05, -0.006265293875688778, 0.004124187864315423, 0.2223003520114726, -9.514706202649699e-07, 2.595586240792852e-06, -1.939748265281984e-06, 1.5677881279001524e-06, -1.0234420668812013e-07, -9.514706202649699e-07, 4.324719103858679e-06, -7.905577421492645e-08, -1.781553658710507e-06, 1.4950402349063838e-06, -4.6595007488665616e-07, 2.595586240792852e-06, -7.905577421492645e-08, 4.3317082938024755e-06, -1.501489805223144e-06, -5.15590960595785e-05, -4.744667969328541e-05, -1.939748265281984e-06, -1.781553658710507e-06, -1.501489805223144e-06, 0.00010353200448772335]",,,,1.85262134694,0.412128377295,0.0932139014922,,0.0272917668888,0.0116987398547,0.0365087179762,"[0.00020726522724619258, -9.656084408646056e-05, -9.806285868078257e-06, -1.804337221747012e-09, 1.1684164993627675e-08, 2.5898440272818472e-08, -9.656084408646056e-05, 0.0005475563336853064, 3.123503957670814e-05, -5.280655593533853e-09, -5.17734839635523e-09, -1.0428788162850543e-07, -9.806285868078257e-06, 3.123503957670814e-05, 0.00020809423703323286, -1.0201139855842037e-09, 2.2792279557108574e-09, 2.359047597596331e-09, -1.804337221747012e-09, -5.280655593533853e-09, -1.0201139855842037e-09, 2.3633542906162496e-09, 5.3697107761731136e-12, 1.1238346416543338e-11, 1.1684164993627675e-08, -5.17734839635523e-09, 2.2792279557108574e-09, 5.3697107761731136e-12, 2.337226654254131e-09, 1.791220146057674e-12, 2.5898440272818472e-08, -1.0428788162850543e-07, 2.359047597596331e-09, 1.1238346416543338e-11, 1.791220146057674e-12, 2.3588244991502697e-09]"
1402416200275003395,,220537,,1402416200,235142946,/enu,/base_link,,,,7.41883939125,21.5606074269,-21.971091857,,0.00254039014178,0.00458587949471,-0.863612161484,-0.50412949791,"[0.026796791226207945, -0.004790524238532643, -0.006266755721197606, 1.5583464092195718e-06, 1.7184228136977262e-06, -5.15934001356241e-05, -0.004790524238532643, 0.03181935489639951, 0.004117909609800202, -3.2470300572360626e-07, -4.5668060236164283e-07, -4.7426372559899234e-05, -0.006266755721197606, 0.004117909609800202, 0.22232138870905063, -9.451912140587693e-07, 2.6003685012592866e-06, -1.921157371672165e-06, 1.5583464092195718e-06, -3.2470300572360626e-07, -9.451912140587693e-07, 4.373010531186072e-06, -7.904177821558701e-08, -1.7812097406573735e-06, 1.7184228136977262e-06, -4.5668060236164283e-07, 2.6003685012592866e-06, -7.904177821558701e-08, 4.3800628721162745e-06, -1.50238572953438e-06, -5.15934001356241e-05, -4.7426372559899234e-05, -1.921157371672165e-06, -1.7812097406573735e-06, -1.50238572953438e-06, 0.00010356653224240026]",,,,1.85037754586,0.419117174125,0.0903376690931,,0.0215484832476,0.00529276957082,0.0432460456967,"[0.00021184405600868024, -9.69532067323119e-05, -9.021375080866737e-06, -1.817203274364402e-09, 1.1938795287596463e-08, 2.5994012017409123e-08, -9.69532067323119e-05, 0.0005523643900067941, 3.1373706932806774e-05, -5.547856099364895e-09, -5.18938961015662e-09, -1.0430185717947388e-07, -9.021375080866737e-06, 3.1373706932806774e-05, 0.00020869149153955442, -1.032842399229304e-09, 2.328401507451414e-09, 2.3857943792068107e-09, -1.817203274364402e-09, -5.547856099364895e-09, -1.032842399229304e-09, 2.363354285605634e-09, 5.369698824486727e-12, 1.123830378426069e-11, 1.1938795287596463e-08, -5.18938961015662e-09, 2.328401507451414e-09, 5.369698824486727e-12, 2.3372266256594544e-09, 1.7911331211485562e-12, 2.5994012017409123e-08, -1.0430185717947388e-07, 2.3857943792068107e-09, 1.123830378426069e-11, 1.7911331211485562e-12, 2.3588196958192144e-09]"
1402416200275041620,,220538,,1402416200,245183944,/enu,/base_link,,,,7.40614401042,21.5747447372,-21.9704598866,,0.00249103658564,0.00449291531713,-0.863735810686,-0.503918701564,"[0.026798688399366263, -0.00479007065587827, -0.006268004444894011, 1.5495201413081574e-06, 1.926419019311084e-06, -5.162051682141941e-05, -0.00479007065587827, 0.03182297221211351, 0.004112164719424844, -5.317034324928149e-07, -4.480205395469099e-07, -4.741178549028402e-05, -0.006268004444894011, 0.004112164719424844, 0.2223406400064696, -9.392452285085679e-07, 2.6052542907888243e-06, -1.904165617574232e-06, 1.5495201413081574e-06, -5.317034324928149e-07, -9.392452285085679e-07, 4.4132770515497875e-06, -7.902766801307692e-08, -1.7808561024754603e-06, 1.926419019311084e-06, -4.480205395469099e-07, 2.6052542907888243e-06, -7.902766801307692e-08, 4.420393620906169e-06, -1.5032884842643787e-06, -5.162051682141941e-05, -4.741178549028402e-05, -1.904165617574232e-06, -1.7808561024754603e-06, -1.5032884842643787e-06, 0.00010359292124937393]",,,,1.84939944469,0.425720200003,0.0883002575474,,0.0208857966523,0.000653963440831,0.0463385964916,"[0.00021606858328897453, -9.729600478004447e-05, -8.294264668117348e-06, -1.8294250798509019e-09, 1.217379814945344e-08, 2.6078047875792173e-08, -9.729600478004447e-05, 0.0005567963623114451, 3.150802073751341e-05, -5.794380166834531e-09, -5.200962711887123e-09, -1.0431383721973297e-07, -8.294264668117348e-06, 3.150802073751341e-05, 0.0002091901124510862, -1.0445010644834356e-09, 2.3727283489777617e-09, 2.408349083678352e-09, -1.8294250798509019e-09, -5.794380166834531e-09, -1.0445010644834356e-09, 2.363354280443497e-09, 5.3696865821635416e-12, 1.1238257838013452e-11, 1.217379814945344e-08, -5.200962711887123e-09, 2.3727283489777617e-09, 5.3696865821635416e-12, 2.337226596514864e-09, 1.7910474073424607e-12, 2.6078047875792173e-08, -1.0431383721973297e-07, 2.408349083678352e-09, 1.1238257838013452e-11, 1.7910474073424607e-12, 2.3588148896568033e-09]"
1402416200314895018,,220539,,1402416200,256149053,/enu,/base_link,,,,7.39200540266,21.5899882849,-21.9692382036,,0.00253681428065,0.00438446755148,-0.863861264467,-0.503704334676,"[0.026800921237926767, -0.004789503814794888, -0.006269324854064669, 1.5398393525691755e-06, 2.1590144037002932e-06, -5.165278060047653e-05, -0.004789503814794888, 0.031826930347520946, 0.00410588653597679, -7.631235490933043e-07, -4.3842082698770597e-07, -4.739878186051731e-05, -0.006269324854064669, 0.00410588653597679, 0.22236181381842987, -9.332140850880344e-07, 2.6105012673920995e-06, -1.8857126156758644e-06, 1.5398393525691755e-06, -7.631235490933043e-07, -9.332140850880344e-07, 4.461311688751984e-06, -7.901339235823366e-08, -1.7805085331613378e-06, 2.1590144037002932e-06, -4.3842082698770597e-07, 2.6105012673920995e-06, -7.901339235823366e-08, 4.4684932655942945e-06, -1.504205972340877e-06, -5.165278060047653e-05, -4.739878186051731e-05, -1.8857126156758644e-06, -1.7805085331613378e-06, -1.504205972340877e-06, 0.00010362717579215327]",,,,1.85339235968,0.422470396127,0.0928447937232,,0.0128231100209,0.0170002321063,0.0432460726364,"[0.00022082291361085263, -9.769211863959886e-05, -7.500443261056924e-06, -1.842645972772936e-09, 1.2432709485288118e-08, 2.6173389050982477e-08, -9.769211863959886e-05, 0.0005617789803313135, 3.166804778656734e-05, -6.066051949917977e-09, -5.21364508419902e-09, -1.0432793835184901e-07, -7.500443261056924e-06, 3.166804778656734e-05, 0.0002097888062919415, -1.0578698137857447e-09, 2.4229349919740352e-09, 2.428453676984647e-09, -1.842645972772936e-09, -6.066051949917977e-09, -1.0578698137857447e-09, 2.3633542751241667e-09, 5.369674070057975e-12, 1.1238208801260893e-11, 1.2432709485288118e-08, -5.21364508419902e-09, 2.4229349919740352e-09, 5.369674070057975e-12, 2.3372265668993565e-09, 1.790962875585158e-12, 2.6173389050982477e-08, -1.0432793835184901e-07, 2.428453676984647e-09, 1.1238208801260893e-11, 1.790962875585158e-12, 2.358810081154593e-09]"
1402416200314928086,,220540,,1402416200,266136884,/enu,/base_link,,,,7.37922142676,21.6041986472,-21.9687028826,,0.00245980074363,0.00430688620778,-0.863965209247,-0.50352707705,"[0.026802973946572835, -0.0047890660651055345, -0.006270616214671744, 1.530868079128211e-06, 2.375174816875127e-06, -5.1681434100873746e-05, -0.0047890660651055345, 0.03183062649400732, 0.004100044784242664, -9.781972536771413e-07, -4.295580333486224e-07, -4.738501484849509e-05, -0.006270616214671744, 0.004100044784242664, 0.22238135694583508, -9.273726583757806e-07, 2.615552892298591e-06, -1.8689144588765583e-06, 1.530868079128211e-06, -9.781972536771413e-07, -9.273726583757806e-07, 4.501148611855557e-06, -7.899900439783936e-08, -1.780151110655705e-06, 2.375174816875127e-06, -4.295580333486224e-07, 2.615552892298591e-06, -7.899900439783936e-08, 4.508396282360528e-06, -1.5051301283202507e-06, -5.1681434100873746e-05, -4.738501484849509e-05, -1.8689144588765583e-06, -1.780151110655705e-06, -1.5051301283202507e-06, 0.00010365311621986237]",,,,1.85045290256,0.427909534837,0.0992492282945,,0.0211066921824,-0.00564155920463,0.0386072809839,"[0.00022520823814435665, -9.805743619846537e-05, -6.763762212099217e-06, -1.8549127620770708e-09, 1.2671478992456442e-08, 2.6265051177979357e-08, -9.805743619846537e-05, 0.0005663491043783641, 3.1807093266368575e-05, -6.315942357813102e-09, -5.224675487818027e-09, -1.0433778789280428e-07, -6.763762212099217e-06, 3.1807093266368575e-05, 0.00021028321001712592, -1.0692154927933022e-09, 2.4663479327294114e-09, 2.4495121807873154e-09, -1.8549127620770708e-09, -6.315942357813102e-09, -1.0692154927933022e-09, 2.3633542697190294e-09, 5.369661284829294e-12, 1.12381563808964e-11, 1.2671478992456442e-08, -5.224675487818027e-09, 2.4663479327294114e-09, 5.369661284829294e-12, 2.3372265366732683e-09, 1.790879682970991e-12, 2.6265051177979357e-08, -1.0433778789280428e-07, 2.4495121807873154e-09, 1.12381563808964e-11, 1.790879682970991e-12, 2.358805269692938e-09]"
1402416200314948787,,220541,,1402416200,276130914,/enu,/base_link,,,,7.37743273589,21.6149383693,-22.0687554258,,0.000668568333363,0.00730483512343,-0.863698988291,-0.503954611077,"[0.026790105853127095, -0.0047925335573481016, -0.006260881809864665, 1.5648298627358081e-06, 1.6237320241132262e-06, -5.139177923315175e-05, -0.0047925335573481016, 0.03181609972197041, 0.004119696623622326, -1.1811324971288639e-07, -5.23135851943902e-07, -4.752083176087799e-05, -0.006260881809864665, 0.004119696623622326, 0.22230514709025434, -1.2541016422765398e-06, 2.7505679733853553e-06, -1.8997921752985856e-06, 1.5648298627358081e-06, -1.1811324971288639e-07, -1.2541016422765398e-06, 4.335253279448516e-06, -7.579637562133e-08, -1.7462050813546248e-06, 1.6237320241132262e-06, -5.23135851943902e-07, 2.7505679733853553e-06, -7.579637562133e-08, 4.3525450059838685e-06, -1.4554402521279553e-06, -5.139177923315175e-05, -4.752083176087799e-05, -1.8997921752985856e-06, -1.7462050813546248e-06, -1.4554402521279553e-06, 0.00010366005426578537]",,,,1.7953512807,0.460431348827,0.0622247164715,,0.0116063801805,0.0171069775745,0.0465586927238,"[0.00021448686085333947, -9.985493110031451e-05, -1.0181809732244185e-05, -1.9590064030822155e-09, 1.1950825291343498e-08, 2.8120005744431358e-08, -9.985493110031451e-05, 0.0005306553909046928, 3.354787672016722e-05, -5.6972398567992675e-09, -4.935657696859792e-09, -1.0112989419786776e-07, -1.0181809732244185e-05, 3.354787672016722e-05, 0.00020811121890166684, -1.0869420279956937e-09, 2.0966689962198624e-09, 1.8336586877455559e-09, -1.9590064030822155e-09, -5.6972398567992675e-09, -1.0869420279956937e-09, 2.363288944023086e-09, 5.368730630682262e-12, 1.1248555608759146e-11, 1.1950825291343498e-08, -4.935657696859792e-09, 2.0966689962198624e-09, 5.368730630682262e-12, 2.3371619273088253e-09, 1.7734173566056049e-12, 2.8120005744431358e-08, -1.0112989419786776e-07, 1.8336586877455559e-09, 1.1248555608759146e-11, 1.7734173566056049e-12, 2.3587939034808425e-09]"
1402416200323114020,,220542,,1402416200,286128997,/enu,/base_link,,,,7.36470289826,21.6283203943,-22.0681825232,,0.000518836891743,0.00719734010248,-0.863804662784,-0.50377518166,"[0.026792016384418707, -0.0047920781304587965, -0.006262055795983594, 1.556462529750437e-06, 1.8294009971697563e-06, -5.1416545948284346e-05, -0.0047920781304587965, 0.03181965755888311, 0.004113933850591566, -3.2157865658570374e-07, -5.14965142944955e-07, -4.750905180114842e-05, -0.006262055795983594, 0.004113933850591566, 0.2223245606883583, -1.248778150587305e-06, 2.7557956122172713e-06, -1.8830513969509407e-06, 1.556462529750437e-06, -3.2157865658570374e-07, -1.248778150587305e-06, 4.375177262152735e-06, -7.578254435436379e-08, -1.745858064160265e-06, 1.8294009971697563e-06, -5.14965142944955e-07, 2.7557956122172713e-06, -7.578254435436379e-08, 4.3925313152323565e-06, -1.4563475264122723e-06, -5.1416545948284346e-05, -4.750905180114842e-05, -1.8830513969509407e-06, -1.745858064160265e-06, -1.4563475264122723e-06, 0.00010368604634641368]",,,,1.79509490288,0.463223619143,0.071805105742,,0.0336959326063,-0.0152542167006,0.0389378115178,"[0.00021869692398681772, -0.00010019083059907785, -9.49634081430229e-06, -1.97078579605661e-09, 1.2184169939737791e-08, 2.82104032261656e-08, -0.00010019083059907785, 0.0005350448883280259, 3.368397373362477e-05, -5.941541394267203e-09, -4.945458534126901e-09, -1.0114133105525413e-07, -9.49634081430229e-06, 3.368397373362477e-05, 0.00020858632186459463, -1.0989851948240491e-09, 2.136835581603206e-09, 1.8633159435826092e-09, -1.97078579605661e-09, -5.941541394267203e-09, -1.0989851948240491e-09, 2.363288938875306e-09, 5.368718580228779e-12, 1.124851061090257e-11, 1.2184169939737791e-08, -4.945458534126901e-09, 2.136835581603206e-09, 5.368718580228779e-12, 2.337161898713372e-09, 1.7733345431732712e-12, 2.82104032261656e-08, -1.0114133105525413e-07, 1.8633159435826092e-09, 1.124851061090257e-11, 1.7733345431732712e-12, 2.358789081817497e-09]"
1402416200323139420,,220543,,1402416200,297132968,/enu,/base_link,,,,7.3504788873,21.6430265073,-22.0674701762,,0.000540815725623,0.00711093928402,-0.863919228744,-0.503579892636,"[0.02679421408679874, -0.004791549738766515, -0.0062634313490739155, 1.5472165596636306e-06, 2.0613833945516492e-06, -5.14469199519636e-05, -0.004791549738766515, 0.03182360937770527, 0.004107693948044525, -5.510188958676647e-07, -5.058264562875757e-07, -4.75002988696066e-05, -0.0062634313490739155, 0.004107693948044525, 0.22234579943118205, -1.243388337426275e-06, 2.761504854293926e-06, -1.8649332017411407e-06, 1.5472165596636306e-06, -5.510188958676647e-07, -1.243388337426275e-06, 4.423555267454585e-06, -7.576854434517525e-08, -1.7455176775734158e-06, 2.0613833945516492e-06, -5.058264562875757e-07, 2.761504854293926e-06, -7.576854434517525e-08, 4.440972423582468e-06, -1.4572702449716074e-06, -5.14469199519636e-05, -4.75002988696066e-05, -1.8649332017411407e-06, -1.7455176775734158e-06, -1.4572702449716074e-06, 0.00010372059914351471]",,,,1.79660870683,0.463437284447,0.065416389023,,0.0116063802301,0.0111427983741,0.0390482727795,"[0.0002234717558547744, -0.00010057421647583029, -8.755735006337394e-06, -1.983644942859049e-09, 1.2443263012338468e-08, 2.831005104935755e-08, -0.00010057421647583029, 0.0005400173515229979, 3.388490482277681e-05, -6.212966849874142e-09, -4.956918759326679e-09, -1.0115604804893846e-07, -8.755735006337394e-06, 3.388490482277681e-05, 0.00020917468823049713, -1.1140571837553735e-09, 2.183269365594846e-09, 1.8795794338052335e-09, -1.983644942859049e-09, -6.212966849874142e-09, -1.1140571837553735e-09, 2.363288933675694e-09, 5.368706277751531e-12, 1.1248462555748863e-11, 1.2443263012338468e-08, -4.956918759326679e-09, 2.183269365594846e-09, 5.368706277751531e-12, 2.337161869662149e-09, 1.7732529742173095e-12, 2.831005104935755e-08, -1.0115604804893846e-07, 1.8795794338052335e-09, 1.1248462555748863e-11, 1.7732529742173095e-12, 2.3587842576616633e-09]"
