rosbagTimestamp,transforms,-,header,seq,stamp,secs,nsecs,frame_id,child_frame_id,transform,translation,x,y,z,rotation,x,y,z,w
1402416200017694081,,errorv,,0,,1402416200,17502166,base_link,/z_drive,,,0.0,0.0,0.0,,0.0,0.0,0.0,1.0
1402416200017725593,,errorv,,0,,1402416200,17525843,/z_drive,port,,,-0.3,0.3048,0.0,,0.0,0.0,0.0,1.0
1402416200017797931,,errorv,,0,,1402416200,17532081,/z_drive,starboard,,,-0.3,-0.3048,0.0,,0.0,0.0,0.0,1.0
1402416200027225235,,errorv,,0,,1402416199,954282045,/enu,/base_link,,,7.7798391987,21.123104513,-21.8900445807,,0.0033361013755,-0.0053034965832,0.860232760714,0.509863060779
1402416200027246739,,errorv,,0,,1402416199,964247941,/enu,/base_link,,,7.76818228179,21.1366404941,-21.8882459386,,0.00334402280196,-0.00529606775369,0.860329819463,0.509699294605
1402416200027269855,,errorv,,0,,1402416199,974244117,/enu,/base_link,,,7.75663663402,21.150502558,-21.8871413837,,0.0031756711557,-0.00535545181,0.860428647218,0.509532901093
1402416200027293299,,errorv,,0,,1402416199,985246896,/enu,/base_link,,,7.74793240764,21.1700236418,-21.8811993696,,0.00337993820232,-0.00469155915571,0.860553739184,0.509326837372
1402416200037678609,,errorv,,0,,1402416200,37511453,base_link,/z_drive,,,0.0,0.0,0.0,,0.0,0.0,0.0,1.0
1402416200037805172,,errorv,,0,,1402416200,37535664,/z_drive,port,,,-0.3,0.3048,0.0,,0.0,0.0,0.0,1.0
1402416200037833360,,errorv,,0,,1402416200,37677308,/z_drive,starboard,,,-0.3,-0.3048,0.0,,0.0,0.0,0.0,1.0
1402416200057639320,,errorv,,0,,1402416200,57465847,base_link,/z_drive,,,0.0,0.0,0.0,,0.0,0.0,0.0,1.0
1402416200057671689,,errorv,,0,,1402416200,57478295,/z_drive,port,,,-0.3,0.3048,0.0,,0.0,0.0,0.0,1.0
1402416200057696326,,errorv,,0,,1402416200,57482416,/z_drive,starboard,,,-0.3,-0.3048,0.0,,0.0,0.0,0.0,1.0
1402416200067063214,,errorv,,0,,1402416199,995249032,/enu,/base_link,,,7.73614067613,21.1837898223,-21.8796783226,,0.0032717581674,-0.00464407927841,0.860643597121,0.50917612558
1402416200067085576,,errorv,,0,,1402416200,6246089,/enu,/base_link,,,7.72357041078,21.1993174788,-21.8787147378,,0.00326428791048,-0.00453102074031,0.860747896078,0.509000858224
1402416200067101455,,errorv,,0,,1402416200,16246080,/enu,/base_link,,,7.71184518024,21.2130769182,-21.8773617788,,0.00313949039335,-0.00452126273263,0.860846392742,0.508835130359
1402416200067350753,,errorv,,0,,1402416200,27303934,/enu,/base_link,,,7.69899060446,21.2284644349,-21.8760805731,,0.00305786881857,-0.00443191603577,0.860957084004,0.508649100128
1402416200067443327,,errorv,,0,,1402416200,37219047,/enu,/base_link,,,7.68975552643,21.2437731412,-21.8757246744,,0.00314471180541,-0.00431499480406,0.861029042654,0.508527756679
1402416200077702210,,errorv,,0,,1402416200,77466824,base_link,/z_drive,,,0.0,0.0,0.0,,0.0,0.0,0.0,1.0
1402416200077730029,,errorv,,0,,1402416200,77485282,/z_drive,port,,,-0.3,0.3048,0.0,,0.0,0.0,0.0,1.0
1402416200077746142,,errorv,,0,,1402416200,77492316,/z_drive,starboard,,,-0.3,-0.3048,0.0,,0.0,0.0,0.0,1.0
1402416200096313562,,errorv,,0,,1402416200,196122419,/base_link,/gps,,,-0.84,0.0,-0.14,,0.0,0.0,0.0,1.0
1402416200096344404,,errorv,,0,,1402416200,196122417,base_link,imu,,,0.13,0.0,-0.1,,1.0,0.0,0.0,0.0
1402416200097670864,,errorv,,0,,1402416200,97502541,base_link,/z_drive,,,0.0,0.0,0.0,,0.0,0.0,0.0,1.0
1402416200097699100,,errorv,,0,,1402416200,97519874,/z_drive,port,,,-0.3,0.3048,0.0,,0.0,0.0,0.0,1.0
1402416200097721119,,errorv,,0,,1402416200,97524408,/z_drive,starboard,,,-0.3,-0.3048,0.0,,0.0,0.0,0.0,1.0
1402416200107030124,,errorv,,0,,1402416200,48221111,/enu,/base_link,,,7.67701372878,21.2590738152,-21.8744882176,,0.00293347515245,-0.00429952725005,0.861128109818,0.508361374684
1402416200107125660,,errorv,,0,,1402416200,58207988,/enu,/base_link,,,7.66536409906,21.2728216258,-21.8730556505,,0.00282132754876,-0.00421139346691,0.861229195132,0.508191477425
1402416200107143713,,errorv,,0,,1402416200,69219112,/enu,/base_link,,,7.65251126742,21.2881161162,-21.871798651,,0.00266192129547,-0.00411863293112,0.861332309,0.508018311196
1402416200115298857,,errorv,,0,,1402416200,79220056,/enu,/base_link,,,7.64082981834,21.3020644688,-21.870767028,,0.00253221978679,-0.0040110795161,0.861421277239,0.507868961665
1402416200115450788,,errorv,,0,,1402416200,89221000,/enu,/base_link,,,7.6255404377,21.32416064,-21.8774827028,,0.00172793185063,-0.00374174607883,0.861633017733,0.507515079914
1402416200117670646,,errorv,,0,,1402416200,117503799,base_link,/z_drive,,,0.0,0.0,0.0,,0.0,0.0,0.0,1.0
1402416200117698540,,errorv,,0,,1402416200,117523039,/z_drive,port,,,-0.3,0.3048,0.0,,0.0,0.0,0.0,1.0
1402416200117722551,,errorv,,0,,1402416200,117533870,/z_drive,starboard,,,-0.3,-0.3048,0.0,,0.0,0.0,0.0,1.0
1402416200137791759,,errorv,,0,,1402416200,137485395,base_link,/z_drive,,,0.0,0.0,0.0,,0.0,0.0,0.0,1.0
1402416200137820911,,errorv,,0,,1402416200,137511899,/z_drive,port,,,-0.3,0.3048,0.0,,0.0,0.0,0.0,1.0
1402416200137850621,,errorv,,0,,1402416200,137522001,/z_drive,starboard,,,-0.3,-0.3048,0.0,,0.0,0.0,0.0,1.0
1402416200155136908,,errorv,,0,,1402416200,100204944,/enu,/base_link,,,7.61262445495,21.3395691629,-21.8764084439,,0.00161568064647,-0.00361137362268,0.86175571355,0.507308030412
1402416200155167268,,errorv,,0,,1402416200,110202074,/enu,/base_link,,,7.60079384099,21.3536630001,-21.8754072391,,0.0014960855721,-0.00353344659556,0.861844521923,0.50715805871
1402416200157693000,,errorv,,0,,1402416200,157464585,base_link,/z_drive,,,0.0,0.0,0.0,,0.0,0.0,0.0,1.0
1402416200157721187,,errorv,,0,,1402416200,157497109,/z_drive,port,,,-0.3,0.3048,0.0,,0.0,0.0,0.0,1.0
1402416200157747037,,errorv,,0,,1402416200,157502678,/z_drive,starboard,,,-0.3,-0.3048,0.0,,0.0,0.0,0.0,1.0
1402416200177747334,,errorv,,0,,1402416200,177492913,base_link,/z_drive,,,0.0,0.0,0.0,,0.0,0.0,0.0,1.0
1402416200177776318,,errorv,,0,,1402416200,177507015,/z_drive,port,,,-0.3,0.3048,0.0,,0.0,0.0,0.0,1.0
1402416200177798490,,errorv,,0,,1402416200,177511036,/z_drive,starboard,,,-0.3,-0.3048,0.0,,0.0,0.0,0.0,1.0
1402416200195302855,,errorv,,0,,1402416200,121186017,/enu,/base_link,,,7.58807724467,21.3688960524,-21.8740086731,,0.0013552922023,-0.00345390657304,0.861977353412,0.506933206564
1402416200195331842,,errorv,,0,,1402416200,131176948,/enu,/base_link,,,7.57632361429,21.3828343947,-21.8729030741,,0.00129566685519,-0.00337742730767,0.862085264128,0.506750344455
1402416200195352714,,errorv,,0,,1402416200,141185998,/enu,/base_link,,,7.54779426409,21.4077803328,-21.8834566227,,-0.000774991700415,-0.00363839480007,0.862529741177,0.505992694666
1402416200195453469,,errorv,,0,,1402416200,152189970,/enu,/base_link,,,7.53439632978,21.4232622539,-21.8821845574,,-0.000809071655905,-0.00353718180631,0.862625215755,0.505830575284
1402416200196462093,,errorv,,0,,1402416200,296227089,base_link,imu,,,0.13,0.0,-0.1,,1.0,0.0,0.0,0.0
1402416200196486232,,errorv,,0,,1402416200,296227091,/base_link,/gps,,,-0.84,0.0,-0.14,,0.0,0.0,0.0,1.0
1402416200197771783,,errorv,,0,,1402416200,197526075,base_link,/z_drive,,,0.0,0.0,0.0,,0.0,0.0,0.0,1.0
1402416200197799809,,errorv,,0,,1402416200,197542194,/z_drive,port,,,-0.3,0.3048,0.0,,0.0,0.0,0.0,1.0
1402416200197821492,,errorv,,0,,1402416200,197546572,/z_drive,starboard,,,-0.3,-0.3048,0.0,,0.0,0.0,0.0,1.0
1402416200217711020,,errorv,,0,,1402416200,217537143,base_link,/z_drive,,,0.0,0.0,0.0,,0.0,0.0,0.0,1.0
1402416200217739755,,errorv,,0,,1402416200,217555430,/z_drive,port,,,-0.3,0.3048,0.0,,0.0,0.0,0.0,1.0
1402416200217764330,,errorv,,0,,1402416200,217560639,/z_drive,starboard,,,-0.3,-0.3048,0.0,,0.0,0.0,0.0,1.0
1402416200235263370,,errorv,,0,,1402416200,162166118,/enu,/base_link,,,7.52205317573,21.4375042617,-21.8813479221,,-0.000918071220271,-0.00342073943929,0.862717155609,0.505674366668
1402416200235309940,,errorv,,0,,1402416200,172148942,/enu,/base_link,,,7.5099765961,21.4517422393,-21.8804447442,,-0.00100350444486,-0.00335316466829,0.862816128073,0.505505764954
1402416200237714677,,errorv,,0,,1402416200,183159112,/enu,/base_link,,,7.48510850215,21.4874636147,-21.9756751604,,-0.00248038836492,-0.00519512896296,0.863053735234,0.505079309026
1402416200237742732,,errorv,,0,,1402416200,193161010,/enu,/base_link,,,7.47249188584,21.5015467143,-21.9747918875,,-0.00254689480359,-0.00513728960644,0.863171615847,0.504878087442
1402416200237763850,,errorv,,0,,1402416200,237477982,base_link,/z_drive,,,0.0,0.0,0.0,,0.0,0.0,0.0,1.0
1402416200237787818,,errorv,,0,,1402416200,237494168,/z_drive,port,,,-0.3,0.3048,0.0,,0.0,0.0,0.0,1.0
1402416200237806707,,errorv,,0,,1402416200,237510576,/z_drive,starboard,,,-0.3,-0.3048,0.0,,0.0,0.0,0.0,1.0
1402416200257684395,,errorv,,0,,1402416200,257480689,base_link,/z_drive,,,0.0,0.0,0.0,,0.0,0.0,0.0,1.0
1402416200257758460,,errorv,,0,,1402416200,257496730,/z_drive,port,,,-0.3,0.3048,0.0,,0.0,0.0,0.0,1.0
1402416200257790445,,errorv,,0,,1402416200,257503350,/z_drive,starboard,,,-0.3,-0.3048,0.0,,0.0,0.0,0.0,1.0
1402416200275065326,,errorv,,0,,1402416200,204149007,/enu,/base_link,,,7.45851826123,21.5169817035,-21.9738141696,,-0.00253578747601,-0.00493610781066,0.86328643323,0.504683800832
1402416200275177899,,errorv,,0,,1402416200,214148044,/enu,/base_link,,,7.44564192456,21.5311293636,-21.9730152211,,-0.00259214202438,-0.00485156415107,0.86338701027,0.504512253193
1402416200275204155,,errorv,,0,,1402416200,224148988,/enu,/base_link,,,7.43311110376,21.5450892409,-21.9719966925,,-0.00257426694683,-0.00470363736772,0.863485549753,0.50434507464
1402416200275228821,,errorv,,0,,1402416200,235142946,/enu,/base_link,,,7.41883939125,21.5606074269,-21.971091857,,-0.00254039014178,-0.00458587949471,0.863612161484,0.50412949791
1402416200275250523,,errorv,,0,,1402416200,245183944,/enu,/base_link,,,7.40614401042,21.5747447372,-21.9704598866,,-0.00249103658564,-0.00449291531713,0.863735810686,0.503918701564
1402416200277620735,,errorv,,0,,1402416200,277483120,base_link,/z_drive,,,0.0,0.0,0.0,,0.0,0.0,0.0,1.0
1402416200277773340,,errorv,,0,,1402416200,277501175,/z_drive,port,,,-0.3,0.3048,0.0,,0.0,0.0,0.0,1.0
1402416200277800450,,errorv,,0,,1402416200,277509388,/z_drive,starboard,,,-0.3,-0.3048,0.0,,0.0,0.0,0.0,1.0
1402416200296615008,,errorv,,0,,1402416200,396340517,base_link,imu,,,0.13,0.0,-0.1,,1.0,0.0,0.0,0.0
1402416200296651465,,errorv,,0,,1402416200,396340592,/base_link,/gps,,,-0.84,0.0,-0.14,,0.0,0.0,0.0,1.0
1402416200297896621,,errorv,,0,,1402416200,297528349,base_link,/z_drive,,,0.0,0.0,0.0,,0.0,0.0,0.0,1.0
1402416200297923900,,errorv,,0,,1402416200,297556088,/z_drive,port,,,-0.3,0.3048,0.0,,0.0,0.0,0.0,1.0
1402416200297995082,,errorv,,0,,1402416200,297564370,/z_drive,starboard,,,-0.3,-0.3048,0.0,,0.0,0.0,0.0,1.0
1402416200315209224,,errorv,,0,,1402416200,256149053,/enu,/base_link,,,7.39200540266,21.5899882849,-21.9692382036,,-0.00253681428065,-0.00438446755148,0.863861264467,0.503704334676
1402416200315240214,,errorv,,0,,1402416200,266136884,/enu,/base_link,,,7.37922142676,21.6041986472,-21.9687028826,,-0.00245980074363,-0.00430688620778,0.863965209247,0.50352707705
1402416200315277359,,errorv,,0,,1402416200,276130914,/enu,/base_link,,,7.37743273589,21.6149383693,-22.0687554258,,-0.000668568333363,-0.00730483512343,0.863698988291,0.503954611077
1402416200317833616,,errorv,,0,,1402416200,317500809,base_link,/z_drive,,,0.0,0.0,0.0,,0.0,0.0,0.0,1.0
1402416200317862096,,errorv,,0,,1402416200,317522513,/z_drive,port,,,-0.3,0.3048,0.0,,0.0,0.0,0.0,1.0
1402416200318008555,,errorv,,0,,1402416200,317527185,/z_drive,starboard,,,-0.3,-0.3048,0.0,,0.0,0.0,0.0,1.0
1402416200323430244,,errorv,,0,,1402416200,286128997,/enu,/base_link,,,7.36470289826,21.6283203943,-22.0681825232,,-0.000518836891743,-0.00719734010248,0.863804662784,0.50377518166
1402416200323453232,,errorv,,0,,1402416200,297132968,/enu,/base_link,,,7.3504788873,21.6430265073,-22.0674701762,,-0.000540815725623,-0.00711093928402,0.863919228744,0.503579892636
1402416200337788787,,errorv,,0,,1402416200,337553545,base_link,/z_drive,,,0.0,0.0,0.0,,0.0,0.0,0.0,1.0
1402416200337819757,,errorv,,0,,1402416200,337581187,/z_drive,port,,,-0.3,0.3048,0.0,,0.0,0.0,0.0,1.0
1402416200337842091,,errorv,,0,,1402416200,337592829,/z_drive,starboard,,,-0.3,-0.3048,0.0,,0.0,0.0,0.0,1.0
1402416200357727903,,errorv,,0,,1402416200,357532040,base_link,/z_drive,,,0.0,0.0,0.0,,0.0,0.0,0.0,1.0
1402416200357806948,,errorv,,0,,1402416200,357553186,/z_drive,port,,,-0.3,0.3048,0.0,,0.0,0.0,0.0,1.0
1402416200357833656,,errorv,,0,,1402416200,357563069,/z_drive,starboard,,,-0.3,-0.3048,0.0,,0.0,0.0,0.0,1.0
1402416200363059243,,errorv,,0,,1402416200,307101964,/enu,/base_link,,,7.33759605894,21.6562859388,-22.0665975714,,-0.000295232230112,-0.00693884963898,0.864034189285,0.5033852252
1402416200363154586,,errorv,,0,,1402416200,317106008,/enu,/base_link,,,7.3302399275,21.6995472133,-22.1506138283,,-0.000607392401919,-0.00667713363039,0.864193218137,0.503115422827
1402416200377675770,,errorv,,0,,1402416200,377492121,base_link,/z_drive,,,0.0,0.0,0.0,,0.0,0.0,0.0,1.0
1402416200377702869,,errorv,,0,,1402416200,377511145,/z_drive,port,,,-0.3,0.3048,0.0,,0.0,0.0,0.0,1.0
1402416200377723439,,errorv,,0,,1402416200,377521556,/z_drive,starboard,,,-0.3,-0.3048,0.0,,0.0,0.0,0.0,1.0
1402416200396681511,,errorv,,0,,1402416200,496465973,/base_link,/gps,,,-0.84,0.0,-0.14,,0.0,0.0,0.0,1.0
1402416200396710271,,errorv,,0,,1402416200,496465962,base_link,imu,,,0.13,0.0,-0.1,,1.0,0.0,0.0,0.0
1402416200397661105,,errorv,,0,,1402416200,397499759,base_link,/z_drive,,,0.0,0.0,0.0,,0.0,0.0,0.0,1.0
1402416200397690785,,errorv,,0,,1402416200,397518948,/z_drive,port,,,-0.3,0.3048,0.0,,0.0,0.0,0.0,1.0
1402416200397715380,,errorv,,0,,1402416200,397528925,/z_drive,starboard,,,-0.3,-0.3048,0.0,,0.0,0.0,0.0,1.0
1402416200403112433,,errorv,,0,,1402416200,328104019,/enu,/base_link,,,7.3160886135,21.7142803031,-22.1497888014,,-0.000639979033895,-0.006695693313,0.864322127073,0.502893645585
1402416200403140987,,errorv,,0,,1402416200,338093996,/enu,/base_link,,,7.30303505872,21.7276777586,-22.1491320813,,-0.000372980539187,-0.00654663889717,0.864422263136,0.502723734669
1402416200403168478,,errorv,,0,,1402416200,349106073,/enu,/base_link,,,7.28861338907,21.7422832842,-22.1481062711,,-0.0003484000128,-0.00656748796765,0.864545474417,0.502511561444
1402416200403211804,,errorv,,0,,1402416200,359096050,/enu,/base_link,,,7.28218370717,21.7677353452,-22.2067160485,,0.000204039684169,-0.00706085229681,0.864585039039,0.502436874645
1402416200417817047,,errorv,,0,,1402416200,417616062,base_link,/z_drive,,,0.0,0.0,0.0,,0.0,0.0,0.0,1.0
1402416200417853462,,errorv,,0,,1402416200,417662879,/z_drive,port,,,-0.3,0.3048,0.0,,0.0,0.0,0.0,1.0
1402416200417897957,,errorv,,0,,1402416200,417673912,/z_drive,starboard,,,-0.3,-0.3048,0.0,,0.0,0.0,0.0,1.0
1402416200437766350,,errorv,,0,,1402416200,437567018,base_link,/z_drive,,,0.0,0.0,0.0,,0.0,0.0,0.0,1.0
1402416200437797721,,errorv,,0,,1402416200,437588459,/z_drive,port,,,-0.3,0.3048,0.0,,0.0,0.0,0.0,1.0
1402416200437833402,,errorv,,0,,1402416200,437598903,/z_drive,starboard,,,-0.3,-0.3048,0.0,,0.0,0.0,0.0,1.0
1402416200443083931,,errorv,,0,,1402416200,369076967,/enu,/base_link,,,7.26892571967,21.780809401,-22.2059110798,,0.000322669131854,-0.00709255552599,0.864704614428,0.502230545992
1402416200443349464,,errorv,,0,,1402416200,380094051,/enu,/base_link,,,7.25458831921,21.7954689314,-22.205438996,,0.000536316383878,-0.00694415495558,0.864826548943,0.502022441052
1402416200443366679,,errorv,,0,,1402416200,390075922,/enu,/base_link,,,7.24157123834,21.8087128805,-22.2045725213,,0.000648022029071,-0.00691445091963,0.864940764013,0.501825911232
1402416200443422106,,errorv,,0,,1402416200,401077985,/enu,/base_link,,,7.24713175507,21.8425398643,-22.3006323818,,0.00228436227168,-0.00755278882298,0.864765078652,0.502114624179
1402416200457721866,,errorv,,0,,1402416200,457548492,base_link,/z_drive,,,0.0,0.0,0.0,,0.0,0.0,0.0,1.0
1402416200457754632,,errorv,,0,,1402416200,457583263,/z_drive,port,,,-0.3,0.3048,0.0,,0.0,0.0,0.0,1.0
1402416200457846216,,errorv,,0,,1402416200,457593890,/z_drive,starboard,,,-0.3,-0.3048,0.0,,0.0,0.0,0.0,1.0
1402416200477700790,,errorv,,0,,1402416200,477459498,base_link,/z_drive,,,0.0,0.0,0.0,,0.0,0.0,0.0,1.0
1402416200477729090,,errorv,,0,,1402416200,477475916,/z_drive,port,,,-0.3,0.3048,0.0,,0.0,0.0,0.0,1.0
1402416200477753372,,errorv,,0,,1402416200,477522333,/z_drive,starboard,,,-0.3,-0.3048,0.0,,0.0,0.0,0.0,1.0
1402416200483232745,,errorv,,0,,1402416200,411078929,/enu,/base_link,,,7.23425507818,21.8556493253,-22.3000531495,,0.00236239642924,-0.00752229718776,0.864872683085,0.501929353776
1402416200483253864,,errorv,,0,,1402416200,422049045,/enu,/base_link,,,7.21994047908,21.8698842325,-22.2992365374,,0.00269337035488,-0.00747767612049,0.864983506165,0.501737345807
1402416200483276767,,errorv,,0,,1402416200,432060003,/enu,/base_link,,,7.20704769507,21.8830184034,-22.2987925034,,0.00271517235853,-0.00751791064751,0.865085536051,0.501560688426
1402416200483429657,,errorv,,0,,1402416200,442049026,/enu,/base_link,,,7.19372388845,21.8969839585,-22.2784429066,,0.00274244521853,-0.00704237687996,0.865245654893,0.501291173481
1402416200483452914,,errorv,,0,,1402416200,453051090,/enu,/base_link,,,7.17942597964,21.911520454,-22.2777924635,,0.00276128553126,-0.00706891409857,0.865357319461,0.501097910004
1402416200496811393,,errorv,,0,,1402416200,596571322,base_link,imu,,,0.13,0.0,-0.1,,1.0,0.0,0.0,0.0
1402416200496841798,,errorv,,0,,1402416200,596571334,/base_link,/gps,,,-0.84,0.0,-0.14,,0.0,0.0,0.0,1.0
1402416200497654744,,errorv,,0,,1402416200,497519930,base_link,/z_drive,,,0.0,0.0,0.0,,0.0,0.0,0.0,1.0
1402416200497829063,,errorv,,0,,1402416200,497535490,/z_drive,port,,,-0.3,0.3048,0.0,,0.0,0.0,0.0,1.0
1402416200497856951,,errorv,,0,,1402416200,497581186,/z_drive,starboard,,,-0.3,-0.3048,0.0,,0.0,0.0,0.0,1.0
1402416200517647324,,errorv,,0,,1402416200,517502304,base_link,/z_drive,,,0.0,0.0,0.0,,0.0,0.0,0.0,1.0
1402416200517676475,,errorv,,0,,1402416200,517521630,/z_drive,port,,,-0.3,0.3048,0.0,,0.0,0.0,0.0,1.0
1402416200517715072,,errorv,,0,,1402416200,517531710,/z_drive,starboard,,,-0.3,-0.3048,0.0,,0.0,0.0,0.0,1.0
1402416200523051119,,errorv,,0,,1402416200,463062047,/enu,/base_link,,,7.16633899827,21.9246179682,-22.2771257857,,0.00275824255504,-0.00714861696351,0.86547571726,0.500892276049
1402416200523082716,,errorv,,0,,1402416200,473057985,/enu,/base_link,,,7.1534629471,21.937722949,-22.2766143449,,0.00304182603714,-0.00712747458079,0.865594979522,0.500684808864
1402416200523112828,,errorv,,0,,1402416200,484055042,/enu,/base_link,,,7.14929002801,21.9596826902,-22.2821528029,,0.00353047270904,-0.00654297886728,0.865654935243,0.500585914983
1402416200531280830,,errorv,,0,,1402416200,494030952,/enu,/base_link,,,7.13660638024,21.9728917768,-22.2816814975,,0.00375939212248,-0.00653767825198,0.865768855306,0.500387264942
1402416200531483254,,errorv,,0,,1402416200,504026889,/enu,/base_link,,,7.12363671838,21.9858011456,-22.2808413085,,0.00380705449544,-0.00666044946094,0.865873013736,0.500205026796
1402416200537795728,,errorv,,0,,1402416200,537526111,base_link,/z_drive,,,0.0,0.0,0.0,,0.0,0.0,0.0,1.0
1402416200537828997,,errorv,,0,,1402416200,537541553,/z_drive,port,,,-0.3,0.3048,0.0,,0.0,0.0,0.0,1.0
1402416200537852420,,errorv,,0,,1402416200,537545917,/z_drive,starboard,,,-0.3,-0.3048,0.0,,0.0,0.0,0.0,1.0
1402416200557723785,,errorv,,0,,1402416200,557505037,base_link,/z_drive,,,0.0,0.0,0.0,,0.0,0.0,0.0,1.0
1402416200557753626,,errorv,,0,,1402416200,557522108,/z_drive,port,,,-0.3,0.3048,0.0,,0.0,0.0,0.0,1.0
1402416200557775621,,errorv,,0,,1402416200,557531776,/z_drive,starboard,,,-0.3,-0.3048,0.0,,0.0,0.0,0.0,1.0
1402416200571025380,,errorv,,0,,1402416200,515057086,/enu,/base_link,,,7.10938281753,22.0004186931,-22.2805017704,,0.00401656016597,-0.00661183250947,0.865998368163,0.499986977085
1402416200571056795,,errorv,,0,,1402416200,525038957,/enu,/base_link,,,7.09636308825,22.0133157383,-22.2796088457,,0.00410025676812,-0.00674018938037,0.866113923097,0.499784383468
1402416200577689600,,errorv,,0,,1402416200,577472181,base_link,/z_drive,,,0.0,0.0,0.0,,0.0,0.0,0.0,1.0
1402416200577714296,,errorv,,0,,1402416200,577523768,/z_drive,port,,,-0.3,0.3048,0.0,,0.0,0.0,0.0,1.0
1402416200577734553,,errorv,,0,,1402416200,577535788,/z_drive,starboard,,,-0.3,-0.3048,0.0,,0.0,0.0,0.0,1.0
1402416200596944918,,errorv,,0,,1402416200,696683833,base_link,imu,,,0.13,0.0,-0.1,,1.0,0.0,0.0,0.0
1402416200596986085,,errorv,,0,,1402416200,696683973,/base_link,/gps,,,-0.84,0.0,-0.14,,0.0,0.0,0.0,1.0
1402416200597666654,,errorv,,0,,1402416200,597446467,base_link,/z_drive,,,0.0,0.0,0.0,,0.0,0.0,0.0,1.0
1402416200597701085,,errorv,,0,,1402416200,597481335,/z_drive,port,,,-0.3,0.3048,0.0,,0.0,0.0,0.0,1.0
1402416200597723145,,errorv,,0,,1402416200,597486747,/z_drive,starboard,,,-0.3,-0.3048,0.0,,0.0,0.0,0.0,1.0
1402416200611252183,,errorv,,0,,1402416200,536010980,/enu,/base_link,,,7.08878741632,22.0361086737,-22.2671891586,,0.00423634668832,-0.00568601365826,0.866233301131,0.499589422053
1402416200611383285,,errorv,,0,,1402416200,546004056,/enu,/base_link,,,7.07571958736,22.0492968969,-22.2666642591,,0.00431707535922,-0.00574427742015,0.866336846589,0.49940848449
1402416200611411746,,errorv,,0,,1402416200,555999040,/enu,/base_link,,,7.06292558511,22.0626082413,-22.2662768632,,0.00445597625821,-0.00587835797435,0.866452138712,0.499205649513
1402416200611448770,,errorv,,0,,1402416200,566997051,/enu,/base_link,,,7.048600425,22.0770572371,-22.2656646314,,0.00445950127131,-0.00599306960924,0.866574221507,0.498992299124
1402416200617687158,,errorv,,0,,1402416200,617514069,base_link,/z_drive,,,0.0,0.0,0.0,,0.0,0.0,0.0,1.0
1402416200617715889,,errorv,,0,,1402416200,617533534,/z_drive,port,,,-0.3,0.3048,0.0,,0.0,0.0,0.0,1.0
1402416200617803155,,errorv,,0,,1402416200,617547247,/z_drive,starboard,,,-0.3,-0.3048,0.0,,0.0,0.0,0.0,1.0
1402416200637762146,,errorv,,0,,1402416200,637566438,base_link,/z_drive,,,0.0,0.0,0.0,,0.0,0.0,0.0,1.0
1402416200637797507,,errorv,,0,,1402416200,637605572,/z_drive,port,,,-0.3,0.3048,0.0,,0.0,0.0,0.0,1.0
1402416200637840114,,errorv,,0,,1402416200,637611465,/z_drive,starboard,,,-0.3,-0.3048,0.0,,0.0,0.0,0.0,1.0
1402416200651116780,,errorv,,0,,1402416200,576996088,/enu,/base_link,,,7.03560179211,22.0902851264,-22.2651372025,,0.0046605407993,-0.00605139223725,0.866693751494,0.498782117896
1402416200651142522,,errorv,,0,,1402416200,587995052,/enu,/base_link,,,7.02140544589,22.1088351755,-22.2576923092,,0.00428189116681,-0.00580055154714,0.866848256835,0.498519928018
1402416200651213724,,errorv,,0,,1402416200,598020076,/enu,/base_link,,,7.00835317421,22.122159805,-22.2572136384,,0.00420985718236,-0.00592741847815,0.866954417673,0.498334406288
1402416200651239140,,errorv,,0,,1402416200,608995914,/enu,/base_link,,,6.99400183302,22.1366564196,-22.2564804203,,0.00434847368302,-0.00599301330217,0.867081570622,0.498111156726
1402416200657673697,,errorv,,0,,1402416200,657499908,base_link,/z_drive,,,0.0,0.0,0.0,,0.0,0.0,0.0,1.0
1402416200657742577,,errorv,,0,,1402416200,657519350,/z_drive,port,,,-0.3,0.3048,0.0,,0.0,0.0,0.0,1.0
1402416200657769470,,errorv,,0,,1402416200,657529092,/z_drive,starboard,,,-0.3,-0.3048,0.0,,0.0,0.0,0.0,1.0
1402416200677701335,,errorv,,0,,1402416200,677577439,base_link,/z_drive,,,0.0,0.0,0.0,,0.0,0.0,0.0,1.0
1402416200677895342,,errorv,,0,,1402416200,677591589,/z_drive,port,,,-0.3,0.3048,0.0,,0.0,0.0,0.0,1.0
1402416200677929236,,errorv,,0,,1402416200,677637340,/z_drive,starboard,,,-0.3,-0.3048,0.0,,0.0,0.0,0.0,1.0
1402416200691014449,,errorv,,0,,1402416200,618979930,/enu,/base_link,,,6.98103327401,22.1500514238,-22.2561846934,,0.0043318244824,-0.00611626634471,0.867204091098,0.497896466111
1402416200691228917,,errorv,,0,,1402416200,628994941,/enu,/base_link,,,6.96796533396,22.1633379861,-22.2557598287,,0.00442864639265,-0.00614210165062,0.867335627641,0.497666123724
1402416200691257601,,errorv,,0,,1402416200,639981031,/enu,/base_link,,,6.96134558011,22.1820140591,-22.2642168707,,0.00476326788918,-0.00607420430827,0.867412460051,0.497529938265
1402416200691278326,,errorv,,0,,1402416200,649972915,/enu,/base_link,,,6.94837718805,22.1951513218,-22.2635697482,,0.00476059767374,-0.00612241335037,0.867535369383,0.497315026552
1402416200691323385,,errorv,,0,,1402416200,660969018,/enu,/base_link,,,6.93409706048,22.2096019065,-22.2629018703,,0.00470038136504,-0.00626074032933,0.86765750667,0.497100755044
1402416200696983358,,errorv,,0,,1402416200,796796709,base_link,imu,,,0.13,0.0,-0.1,,1.0,0.0,0.0,0.0
1402416200697073935,,errorv,,0,,1402416200,796796726,/base_link,/gps,,,-0.84,0.0,-0.14,,0.0,0.0,0.0,1.0
1402416200697680197,,errorv,,0,,1402416200,697483893,base_link,/z_drive,,,0.0,0.0,0.0,,0.0,0.0,0.0,1.0
1402416200697708002,,errorv,,0,,1402416200,697513325,/z_drive,port,,,-0.3,0.3048,0.0,,0.0,0.0,0.0,1.0
1402416200697731180,,errorv,,0,,1402416200,697523267,/z_drive,starboard,,,-0.3,-0.3048,0.0,,0.0,0.0,0.0,1.0
1402416200717677195,,errorv,,0,,1402416200,717486313,base_link,/z_drive,,,0.0,0.0,0.0,,0.0,0.0,0.0,1.0
1402416200717714384,,errorv,,0,,1402416200,717500897,/z_drive,port,,,-0.3,0.3048,0.0,,0.0,0.0,0.0,1.0
1402416200717783042,,errorv,,0,,1402416200,717505360,/z_drive,starboard,,,-0.3,-0.3048,0.0,,0.0,0.0,0.0,1.0
1402416200731145024,,errorv,,0,,1402416200,670968055,/enu,/base_link,,,6.92094851883,22.2228958974,-22.262802019,,0.00465117516378,-0.00634136560582,0.867773937765,0.496896917467
1402416200731174535,,errorv,,0,,1402416200,681969881,/enu,/base_link,,,6.90642650257,22.2374143747,-22.262423502,,0.0046133224255,-0.00634387094084,0.867917816907,0.49664588557
1402416200731194370,,errorv,,0,,1402416200,691972017,/enu,/base_link,,,6.91808602316,22.2457574541,-22.2222345902,,0.00659901443198,-0.00470415955928,0.867877699257,0.496711810836
1402416200737641996,,errorv,,0,,1402416200,737491760,base_link,/z_drive,,,0.0,0.0,0.0,,0.0,0.0,0.0,1.0
1402416200737677246,,errorv,,0,,1402416200,737506630,/z_drive,port,,,-0.3,0.3048,0.0,,0.0,0.0,0.0,1.0
1402416200737701018,,errorv,,0,,1402416200,737510791,/z_drive,starboard,,,-0.3,-0.3048,0.0,,0.0,0.0,0.0,1.0
1402416200739267630,,errorv,,0,,1402416200,702971935,/enu,/base_link,,,6.90420133479,22.2604084353,-22.2218919735,,0.00647711050724,-0.00475579325885,0.86800631453,0.496488134204
1402416200739282831,,errorv,,0,,1402416200,712969064,/enu,/base_link,,,6.89186098341,22.2737160275,-22.2216524633,,0.00642102350399,-0.00481056114615,0.868128575758,0.496274525752
1402416200757747865,,errorv,,0,,1402416200,757546804,base_link,/z_drive,,,0.0,0.0,0.0,,0.0,0.0,0.0,1.0
1402416200757777165,,errorv,,0,,1402416200,757582580,/z_drive,port,,,-0.3,0.3048,0.0,,0.0,0.0,0.0,1.0
1402416200757812999,,errorv,,0,,1402416200,757594364,/z_drive,starboard,,,-0.3,-0.3048,0.0,,0.0,0.0,0.0,1.0
1402416200777787869,,errorv,,0,,1402416200,777561066,base_link,/z_drive,,,0.0,0.0,0.0,,0.0,0.0,0.0,1.0
1402416200777817473,,errorv,,0,,1402416200,777573575,/z_drive,port,,,-0.3,0.3048,0.0,,0.0,0.0,0.0,1.0
1402416200777842240,,errorv,,0,,1402416200,777577847,/z_drive,starboard,,,-0.3,-0.3048,0.0,,0.0,0.0,0.0,1.0
1402416200779038561,,errorv,,0,,1402416200,723969936,/enu,/base_link,,,6.8776995091,22.2883128829,-22.2211929121,,0.00629566658673,-0.0048572940146,0.868245944663,0.496070308377
1402416200779063354,,errorv,,0,,1402416200,733932971,/enu,/base_link,,,6.90550462607,22.2823028506,-22.0814925084,,0.00948120932559,-0.00097177797746,0.868143548543,0.496221665629
1402416200797157119,,errorv,,0,,1402416200,896900833,base_link,imu,,,0.13,0.0,-0.1,,1.0,0.0,0.0,0.0
1402416200797188065,,errorv,,0,,1402416200,896901547,/base_link,/gps,,,-0.84,0.0,-0.14,,0.0,0.0,0.0,1.0
1402416200797675623,,errorv,,0,,1402416200,797501731,base_link,/z_drive,,,0.0,0.0,0.0,,0.0,0.0,0.0,1.0
1402416200797704759,,errorv,,0,,1402416200,797524766,/z_drive,port,,,-0.3,0.3048,0.0,,0.0,0.0,0.0,1.0
1402416200797726126,,errorv,,0,,1402416200,797533086,/z_drive,starboard,,,-0.3,-0.3048,0.0,,0.0,0.0,0.0,1.0
1402416200817736487,,errorv,,0,,1402416200,817473251,base_link,/z_drive,,,0.0,0.0,0.0,,0.0,0.0,0.0,1.0
1402416200817835804,,errorv,,0,,1402416200,817506747,/z_drive,port,,,-0.3,0.3048,0.0,,0.0,0.0,0.0,1.0
1402416200817860327,,errorv,,0,,1402416200,817516493,/z_drive,starboard,,,-0.3,-0.3048,0.0,,0.0,0.0,0.0,1.0
1402416200819230383,,errorv,,0,,1402416200,743932008,/enu,/base_link,,,6.8936486302,22.2959528741,-22.0809835738,,0.00938117490356,-0.000988154518187,0.868262177249,0.4960159359
1402416200819281595,,errorv,,0,,1402416200,754934072,/enu,/base_link,,,6.8809595841,22.3108572169,-22.0803932755,,0.00925823629098,-0.00100705041379,0.868375750592,0.49581934885
1402416200819305391,,errorv,,0,,1402416200,764936923,/enu,/base_link,,,6.86928455084,22.324333461,-22.0795894786,,0.00911226741074,-0.001038797669,0.86849805106,0.495607730759
1402416200819330459,,errorv,,0,,1402416200,775923013,/enu,/base_link,,,6.85665684587,22.3394269949,-22.0793833516,,0.00897763271895,-0.00109084687689,0.868619719408,0.495396805824
1402416200837711249,,errorv,,0,,1402416200,837517254,base_link,/z_drive,,,0.0,0.0,0.0,,0.0,0.0,0.0,1.0
1402416200837744465,,errorv,,0,,1402416200,837533408,/z_drive,port,,,-0.3,0.3048,0.0,,0.0,0.0,0.0,1.0
1402416200837770516,,errorv,,0,,1402416200,837537638,/z_drive,starboard,,,-0.3,-0.3048,0.0,,0.0,0.0,0.0,1.0
1402416200857731575,,errorv,,0,,1402416200,857602324,base_link,/z_drive,,,0.0,0.0,0.0,,0.0,0.0,0.0,1.0
1402416200857940726,,errorv,,0,,1402416200,857629365,/z_drive,port,,,-0.3,0.3048,0.0,,0.0,0.0,0.0,1.0
1402416200857968313,,errorv,,0,,1402416200,857660702,/z_drive,starboard,,,-0.3,-0.3048,0.0,,0.0,0.0,0.0,1.0
1402416200859151603,,errorv,,0,,1402416200,785933017,/enu,/base_link,,,6.842096416,22.3293265673,-22.0141698135,,0.00916703782823,-0.00162505809206,0.868716165075,0.495222726802
1402416200859175573,,errorv,,0,,1402416200,796907901,/enu,/base_link,,,6.8294327538,22.3441908333,-22.0137240073,,0.00908473528152,-0.00159387579684,0.868832422405,0.495020352029
1402416200859197453,,errorv,,0,,1402416200,806905984,/enu,/base_link,,,6.81772248931,22.3575225193,-22.0128652787,,0.00898696488897,-0.00155859736912,0.868930778095,0.494849581304
1402416200859242928,,errorv,,0,,1402416200,816958904,/enu,/base_link,,,6.80613912658,22.371239072,-22.0125670314,,0.00884307540212,-0.00150571932444,0.869041156478,0.494658469222
1402416200877671411,,errorv,,0,,1402416200,877478308,base_link,/z_drive,,,0.0,0.0,0.0,,0.0,0.0,0.0,1.0
1402416200877810500,,errorv,,0,,1402416200,877545902,/z_drive,port,,,-0.3,0.3048,0.0,,0.0,0.0,0.0,1.0
1402416200877843156,,errorv,,0,,1402416200,877560283,/z_drive,starboard,,,-0.3,-0.3048,0.0,,0.0,0.0,0.0,1.0
1402416200897271604,,errorv,,0,,1402416200,997016217,base_link,imu,,,0.13,0.0,-0.1,,1.0,0.0,0.0,0.0
1402416200897306340,,errorv,,0,,1402416200,997016270,/base_link,/gps,,,-0.84,0.0,-0.14,,0.0,0.0,0.0,1.0
1402416200897746526,,errorv,,0,,1402416200,897539988,base_link,/z_drive,,,0.0,0.0,0.0,,0.0,0.0,0.0,1.0
1402416200897812067,,errorv,,0,,1402416200,897559381,/z_drive,port,,,-0.3,0.3048,0.0,,0.0,0.0,0.0,1.0
1402416200897881799,,errorv,,0,,1402416200,897568137,/z_drive,starboard,,,-0.3,-0.3048,0.0,,0.0,0.0,0.0,1.0
1402416200899006498,,errorv,,0,,1402416200,827924966,/enu,/base_link,,,6.79341615398,22.3858922006,-22.0116955069,,0.00873700180824,-0.00139888180267,0.869153440176,0.494463350875
1402416200899074023,,errorv,,0,,1402416200,837932109,/enu,/base_link,,,6.77846373926,22.4068952181,-22.0185458048,,0.0077809256483,-0.00135003308371,0.869330811914,0.494167556669
1402416200899095376,,errorv,,0,,1402416200,848889112,/enu,/base_link,,,6.76547804546,22.4217639261,-22.0180080359,,0.00757785387748,-0.00135014785218,0.86944238855,0.493974378105
1402416200899173793,,errorv,,0,,1402416200,859136104,/enu,/base_link,,,6.753507657,22.4355092145,-22.0173880332,,0.00740697138862,-0.0014223170389,0.869557484821,0.49377413296
1402416200899191050,,errorv,,0,,1402416200,869875907,/enu,/base_link,,,6.74084083417,22.4499293384,-22.0166153273,,0.00718423350125,-0.00138859653544,0.869673402617,0.493573329273
1402416200917708048,,errorv,,0,,1402416200,917510863,base_link,/z_drive,,,0.0,0.0,0.0,,0.0,0.0,0.0,1.0
1402416200917743583,,errorv,,0,,1402416200,917545230,/z_drive,port,,,-0.3,0.3048,0.0,,0.0,0.0,0.0,1.0
1402416200917797425,,errorv,,0,,1402416200,917589734,/z_drive,starboard,,,-0.3,-0.3048,0.0,,0.0,0.0,0.0,1.0
1402416200937767703,,errorv,,0,,1402416200,937519951,base_link,/z_drive,,,0.0,0.0,0.0,,0.0,0.0,0.0,1.0
1402416200937797347,,errorv,,0,,1402416200,937538932,/z_drive,port,,,-0.3,0.3048,0.0,,0.0,0.0,0.0,1.0
1402416200937877669,,errorv,,0,,1402416200,937548364,/z_drive,starboard,,,-0.3,-0.3048,0.0,,0.0,0.0,0.0,1.0
1402416200939141198,,errorv,,0,,1402416200,879879951,/enu,/base_link,,,6.7292611278,22.4634826562,-22.0161599388,,0.0069918106593,-0.00125462233937,0.869787938301,0.493374586793
1402416200939171918,,errorv,,0,,1402416200,890882968,/enu,/base_link,,,6.72368221662,22.4811566975,-22.0115750361,,0.00715828339318,-0.000717532028472,0.869928170439,0.493125970117
1402416200939193440,,errorv,,0,,1402416200,900877952,/enu,/base_link,,,6.71208315052,22.4943524845,-22.0108734789,,0.00696955771292,-0.000597837300061,0.87003930513,0.492932729067
1402416200951245510,,errorv,,0,,1402416200,910854101,/enu,/base_link,,,6.70063717453,22.5076137999,-22.0104187706,,0.00678099512602,-0.000606124111124,0.870156829278,0.492727859146
1402416200951271675,,errorv,,0,,1402416200,921854019,/enu,/base_link,,,6.68820880165,22.522066201,-22.0098645921,,0.00656017814289,-0.000474115480928,0.87029031214,0.492495189695
1402416200957661001,,errorv,,0,,1402416200,957464046,base_link,/z_drive,,,0.0,0.0,0.0,,0.0,0.0,0.0,1.0
1402416200957690448,,errorv,,0,,1402416200,957513830,/z_drive,port,,,-0.3,0.3048,0.0,,0.0,0.0,0.0,1.0
1402416200957717718,,errorv,,0,,1402416200,957522890,/z_drive,starboard,,,-0.3,-0.3048,0.0,,0.0,0.0,0.0,1.0
1402416200977692568,,errorv,,0,,1402416200,977468888,base_link,/z_drive,,,0.0,0.0,0.0,,0.0,0.0,0.0,1.0
1402416200977727256,,errorv,,0,,1402416200,977485500,/z_drive,port,,,-0.3,0.3048,0.0,,0.0,0.0,0.0,1.0
1402416200977798733,,errorv,,0,,1402416200,977495482,/z_drive,starboard,,,-0.3,-0.3048,0.0,,0.0,0.0,0.0,1.0
1402416200991058449,,errorv,,0,,1402416200,931850910,/enu,/base_link,,,6.67684281587,22.5350102497,-22.0093192916,,0.00636922886219,-0.000276318426891,0.870398800635,0.492306088145
1402416200991132123,,errorv,,0,,1402416200,942853927,/enu,/base_link,,,6.66296566214,22.5528247871,-22.0181226998,,0.00559627186637,-0.000417734258377,0.870476244333,0.492178438467
1402416200997329345,,errorv,,0,,1402416201,97132003,base_link,imu,,,0.13,0.0,-0.1,,1.0,0.0,0.0,0.0
1402416200997403385,,errorv,,0,,1402416201,97132005,/base_link,/gps,,,-0.84,0.0,-0.14,,0.0,0.0,0.0,1.0
1402416200997706512,,errorv,,0,,1402416200,997535092,base_link,/z_drive,,,0.0,0.0,0.0,,0.0,0.0,0.0,1.0
1402416200997732229,,errorv,,0,,1402416200,997555276,/z_drive,port,,,-0.3,0.3048,0.0,,0.0,0.0,0.0,1.0
1402416200997844914,,errorv,,0,,1402416200,997565970,/z_drive,starboard,,,-0.3,-0.3048,0.0,,0.0,0.0,0.0,1.0
1402416201017708659,,errorv,,0,,1402416201,17521925,base_link,/z_drive,,,0.0,0.0,0.0,,0.0,0.0,0.0,1.0
1402416201017740901,,errorv,,0,,1402416201,17538355,/z_drive,port,,,-0.3,0.3048,0.0,,0.0,0.0,0.0,1.0
1402416201017757942,,errorv,,0,,1402416201,17548104,/z_drive,starboard,,,-0.3,-0.3048,0.0,,0.0,0.0,0.0,1.0
1402416201031255093,,errorv,,0,,1402416200,952852964,/enu,/base_link,,,6.65177155575,22.5658372562,-22.0182125641,,0.00524729824565,-0.000324286536499,0.870609180036,0.491947168238
1402416201031277816,,errorv,,0,,1402416200,963828086,/enu,/base_link,,,6.63957872317,22.5795911136,-22.017758357,,0.00481916274092,-0.000248439704056,0.870748289564,0.491705328596
1402416201031297663,,errorv,,0,,1402416200,973824977,/enu,/base_link,,,6.62851873405,22.5920861467,-22.0174987724,,0.00447675537798,-0.000134546875946,0.870884173641,0.491467899929
1402416201031317056,,errorv,,0,,1402416200,984827995,/enu,/base_link,,,6.61712380599,22.6114858375,-22.0095159285,,0.00361274862088,0.000602127585984,0.871205708756,0.490904469852
1402416201037688054,,errorv,,0,,1402416201,37516257,base_link,/z_drive,,,0.0,0.0,0.0,,0.0,0.0,0.0,1.0
1402416201037719234,,errorv,,0,,1402416201,37549727,/z_drive,port,,,-0.3,0.3048,0.0,,0.0,0.0,0.0,1.0
1402416201037746193,,errorv,,0,,1402416201,37560446,/z_drive,starboard,,,-0.3,-0.3048,0.0,,0.0,0.0,0.0,1.0
1402416201057653074,,errorv,,0,,1402416201,57493084,base_link,/z_drive,,,0.0,0.0,0.0,,0.0,0.0,0.0,1.0
1402416201057682460,,errorv,,0,,1402416201,57505179,/z_drive,port,,,-0.3,0.3048,0.0,,0.0,0.0,0.0,1.0
1402416201057701026,,errorv,,0,,1402416201,57509199,/z_drive,starboard,,,-0.3,-0.3048,0.0,,0.0,0.0,0.0,1.0
1402416201071320907,,errorv,,0,,1402416200,994827032,/enu,/base_link,,,6.60611081239,22.623785517,-22.0091335059,,0.003267045201,0.000708978539615,0.871344253069,0.49066079567
1402416201071341559,,errorv,,0,,1402416201,5827903,/enu,/base_link,,,6.59413905531,22.6374311329,-22.0092856538,,0.00289205839407,0.000974621289418,0.871506486083,0.490374480195
1402416201071363339,,errorv,,0,,1402416201,15826940,/enu,/base_link,,,6.58348436457,22.6492991105,-22.0086454714,,0.00250842032807,0.00112867532734,0.8716563073,0.490109901821
1402416201071374677,,errorv,,0,,1402416201,25826930,/enu,/base_link,,,6.57275875298,22.6614545477,-22.0087946703,,0.00208078177413,0.00126759715631,0.871812413635,0.489833827922
1402416201077674110,,errorv,,0,,1402416201,77520506,base_link,/z_drive,,,0.0,0.0,0.0,,0.0,0.0,0.0,1.0
1402416201077702067,,errorv,,0,,1402416201,77539848,/z_drive,port,,,-0.3,0.3048,0.0,,0.0,0.0,0.0,1.0
1402416201077761570,,errorv,,0,,1402416201,77546385,/z_drive,starboard,,,-0.3,-0.3048,0.0,,0.0,0.0,0.0,1.0
1402416201097522201,,errorv,,0,,1402416201,197246691,base_link,imu,,,0.13,0.0,-0.1,,1.0,0.0,0.0,0.0
1402416201097628701,,errorv,,0,,1402416201,197246748,/base_link,/gps,,,-0.84,0.0,-0.14,,0.0,0.0,0.0,1.0
1402416201097975313,,errorv,,0,,1402416201,97782996,base_link,/z_drive,,,0.0,0.0,0.0,,0.0,0.0,0.0,1.0
1402416201098003279,,errorv,,0,,1402416201,97836031,/z_drive,port,,,-0.3,0.3048,0.0,,0.0,0.0,0.0,1.0
1402416201098028626,,errorv,,0,,1402416201,97844403,/z_drive,starboard,,,-0.3,-0.3048,0.0,,0.0,0.0,0.0,1.0
1402416201114788563,,errorv,,0,,1402416201,36825895,/enu,/base_link,,,6.5640515771,22.6770214341,-22.0185578093,,0.00163288870718,0.00131405353186,0.871888163771,0.489700558315
1402416201114815902,,errorv,,0,,1402416201,46829938,/enu,/base_link,,,6.55338855371,22.6887284037,-22.0184203339,,0.00121045974657,0.00150003340756,0.872025243026,0.489457107632
1402416201114842633,,errorv,,0,,1402416201,57849884,/enu,/base_link,,,6.54189764413,22.7014958426,-22.0183061626,,0.000752045968248,0.00164379274003,0.872199125299,0.489147644581
1402416201114858000,,errorv,,0,,1402416201,67825078,/enu,/base_link,,,6.53144859445,22.7128952854,-22.0181410486,,0.000372817716324,0.00187009729957,0.872361989129,0.488856751683
1402416201117699942,,errorv,,0,,1402416201,117479220,base_link,/z_drive,,,0.0,0.0,0.0,,0.0,0.0,0.0,1.0
1402416201117723724,,errorv,,0,,1402416201,117529660,/z_drive,port,,,-0.3,0.3048,0.0,,0.0,0.0,0.0,1.0
1402416201117787465,,errorv,,0,,1402416201,117537679,/z_drive,starboard,,,-0.3,-0.3048,0.0,,0.0,0.0,0.0,1.0
1402416201137723446,,errorv,,0,,1402416201,137509639,base_link,/z_drive,,,0.0,0.0,0.0,,0.0,0.0,0.0,1.0
1402416201137755375,,errorv,,0,,1402416201,137531005,/z_drive,port,,,-0.3,0.3048,0.0,,0.0,0.0,0.0,1.0
1402416201137827777,,errorv,,0,,1402416201,137567412,/z_drive,starboard,,,-0.3,-0.3048,0.0,,0.0,0.0,0.0,1.0
1402416201151341164,,errorv,,0,,1402416201,78825950,/enu,/base_link,,,6.52006530334,22.725445384,-22.0181378575,,-9.01362319469e-05,0.00214194187106,0.872535975259,0.488545162538
1402416201151374895,,errorv,,0,,1402416201,88829040,/enu,/base_link,,,6.50458243533,22.7423436893,-21.9928485573,,-0.00161186097316,0.00307505296795,0.873003729604,0.487701172903
1402416201151395830,,errorv,,0,,1402416201,99824905,/enu,/base_link,,,6.49313248323,22.7548343099,-21.9927790125,,-0.00202474166882,0.00327254751273,0.873213976392,0.487321805676
1402416201151425025,,errorv,,0,,1402416201,109826087,/enu,/base_link,,,6.48283975633,22.765961459,-21.9924992028,,-0.00234379628122,0.00346496364249,0.873398378853,0.486988472618
1402416201157772304,,errorv,,0,,1402416201,157570611,base_link,/z_drive,,,0.0,0.0,0.0,,0.0,0.0,0.0,1.0
1402416201157799711,,errorv,,0,,1402416201,157603341,/z_drive,port,,,-0.3,0.3048,0.0,,0.0,0.0,0.0,1.0
1402416201157844111,,errorv,,0,,1402416201,157614878,/z_drive,starboard,,,-0.3,-0.3048,0.0,,0.0,0.0,0.0,1.0
1402416201177636570,,errorv,,0,,1402416201,177464120,base_link,/z_drive,,,0.0,0.0,0.0,,0.0,0.0,0.0,1.0
1402416201177664361,,errorv,,0,,1402416201,177480762,/z_drive,port,,,-0.3,0.3048,0.0,,0.0,0.0,0.0,1.0
1402416201177731405,,errorv,,0,,1402416201,177490510,/z_drive,starboard,,,-0.3,-0.3048,0.0,,0.0,0.0,0.0,1.0
1402416201191266869,,errorv,,0,,1402416201,120827913,/enu,/base_link,,,6.47180005354,22.7780318522,-21.9920087973,,-0.00273915255156,0.00360951886324,0.873607497824,0.486610119256
1402416201191293289,,errorv,,0,,1402416201,130825996,/enu,/base_link,,,6.46158811994,22.7888546671,-21.991606458,,-0.00305375211046,0.0037211723354,0.873801360336,0.48625920058
1402416201191318230,,errorv,,0,,1402416201,141824960,/enu,/base_link,,,6.46026426947,22.8002275118,-22.0039576304,,-0.00268436203665,0.00363101966343,0.873978776753,0.48594311157
1402416201191337239,,errorv,,0,,1402416201,151824951,/enu,/base_link,,,6.45028420808,22.810803126,-22.0038134983,,-0.00298764722936,0.00380616707704,0.87417915239,0.485579444152
1402416201191351138,,errorv,,0,,1402416201,162868022,/enu,/base_link,,,6.43937984204,22.8220891459,-22.0030485441,,-0.00331404075092,0.0039320912977,0.874404601667,0.485170226184
1402416201197518702,,errorv,,0,,1402416201,297322718,/base_link,/gps,,,-0.84,0.0,-0.14,,0.0,0.0,0.0,1.0
1402416201197614017,,errorv,,0,,1402416201,297356729,base_link,imu,,,0.13,0.0,-0.1,,1.0,0.0,0.0,0.0
1402416201197946862,,errorv,,0,,1402416201,197818574,base_link,/z_drive,,,0.0,0.0,0.0,,0.0,0.0,0.0,1.0
1402416201197975266,,errorv,,0,,1402416201,197840484,/z_drive,port,,,-0.3,0.3048,0.0,,0.0,0.0,0.0,1.0
1402416201198044116,,errorv,,0,,1402416201,197850902,/z_drive,starboard,,,-0.3,-0.3048,0.0,,0.0,0.0,0.0,1.0
1402416201217679040,,errorv,,0,,1402416201,217523768,base_link,/z_drive,,,0.0,0.0,0.0,,0.0,0.0,0.0,1.0
1402416201217708144,,errorv,,0,,1402416201,217536004,/z_drive,port,,,-0.3,0.3048,0.0,,0.0,0.0,0.0,1.0
1402416201217871377,,errorv,,0,,1402416201,217540261,/z_drive,starboard,,,-0.3,-0.3048,0.0,,0.0,0.0,0.0,1.0
1402416201231020764,,errorv,,0,,1402416201,172827959,/enu,/base_link,,,6.4294715899,22.8325433692,-22.0029454914,,-0.00364148694097,0.00400065199505,0.874617587008,0.484783261729
1402416201231051203,,errorv,,0,,1402416201,182832002,/enu,/base_link,,,6.42121079482,22.854550693,-22.0051138438,,-0.00459255991388,0.00501358201321,0.875294171088,0.483543055423
1402416201231073907,,errorv,,0,,1402416201,193826913,/enu,/base_link,,,6.41071931204,22.865963389,-22.0047702197,,-0.00486872597291,0.00517027122677,0.875513708713,0.483141086701
1402416201237687085,,errorv,,0,,1402416201,237458698,base_link,/z_drive,,,0.0,0.0,0.0,,0.0,0.0,0.0,1.0
1402416201237716263,,errorv,,0,,1402416201,237490517,/z_drive,port,,,-0.3,0.3048,0.0,,0.0,0.0,0.0,1.0
1402416201237785465,,errorv,,0,,1402416201,237495924,/z_drive,starboard,,,-0.3,-0.3048,0.0,,0.0,0.0,0.0,1.0
1402416201243368981,,errorv,,0,,1402416201,204828977,/enu,/base_link,,,6.40010459946,22.8771359208,-22.0042451952,,-0.00513310327725,0.00526432350846,0.875742028723,0.482723354808
1402416201243391153,,errorv,,0,,1402416201,214831113,/enu,/base_link,,,6.39050790255,22.8872036923,-22.0036764128,,-0.0052744589135,0.00547563509132,0.875945228128,0.482350655461
1402416201257639641,,errorv,,0,,1402416201,257469447,base_link,/z_drive,,,0.0,0.0,0.0,,0.0,0.0,0.0,1.0
1402416201257710134,,errorv,,0,,1402416201,257487773,/z_drive,port,,,-0.3,0.3048,0.0,,0.0,0.0,0.0,1.0
1402416201257738440,,errorv,,0,,1402416201,257495299,/z_drive,starboard,,,-0.3,-0.3048,0.0,,0.0,0.0,0.0,1.0
1402416201277640495,,errorv,,0,,1402416201,277457802,base_link,/z_drive,,,0.0,0.0,0.0,,0.0,0.0,0.0,1.0
1402416201277671675,,errorv,,0,,1402416201,277478693,/z_drive,port,,,-0.3,0.3048,0.0,,0.0,0.0,0.0,1.0
1402416201277749069,,errorv,,0,,1402416201,277485842,/z_drive,starboard,,,-0.3,-0.3048,0.0,,0.0,0.0,0.0,1.0
1402416201283050187,,errorv,,0,,1402416201,225828886,/enu,/base_link,,,6.38021469997,22.8982745407,-22.0032785711,,-0.00546436839971,0.00567173810999,0.876183158475,0.481913939277
1402416201283073461,,errorv,,0,,1402416201,235824108,/enu,/base_link,,,6.37073288851,22.9081483715,-22.0027911282,,-0.0056047890148,0.00576535202311,0.876389041716,0.481536701215
1402416201297669507,,errorv,,0,,1402416201,297495846,base_link,/z_drive,,,0.0,0.0,0.0,,0.0,0.0,0.0,1.0
1402416201297694230,,errorv,,0,,1402416201,297514977,/z_drive,port,,,-0.3,0.3048,0.0,,0.0,0.0,0.0,1.0
1402416201297771412,,errorv,,0,,1402416201,297521917,/z_drive,starboard,,,-0.3,-0.3048,0.0,,0.0,0.0,0.0,1.0
1402416201297934666,,errorv,,0,,1402416201,397483527,base_link,imu,,,0.13,0.0,-0.1,,1.0,0.0,0.0,0.0
1402416201297964617,,errorv,,0,,1402416201,397459017,/base_link,/gps,,,-0.84,0.0,-0.14,,0.0,0.0,0.0,1.0
1402416201317732728,,errorv,,0,,1402416201,317490113,base_link,/z_drive,,,0.0,0.0,0.0,,0.0,0.0,0.0,1.0
1402416201317759013,,errorv,,0,,1402416201,317526912,/z_drive,port,,,-0.3,0.3048,0.0,,0.0,0.0,0.0,1.0
1402416201317781634,,errorv,,0,,1402416201,317535210,/z_drive,starboard,,,-0.3,-0.3048,0.0,,0.0,0.0,0.0,1.0
1402416201323210823,,errorv,,0,,1402416201,245743989,/enu,/base_link,,,6.36144927668,22.9176575878,-22.001820053,,-0.00576953869496,0.00586308229974,0.87660614577,0.481138235737
1402416201323234306,,errorv,,0,,1402416201,256731986,/enu,/base_link,,,6.3511532477,22.9283265806,-22.0012370659,,-0.00598691384555,0.00594691965243,0.876852531622,0.48068537402
1402416201323253941,,errorv,,0,,1402416201,266721010,/enu,/base_link,,,6.34199328759,22.9379120296,-22.0005730424,,-0.00613998259524,0.00609746753276,0.877072646179,0.48027980889
1402416201323370840,,errorv,,0,,1402416201,277734041,/enu,/base_link,,,6.33174071055,22.9422253419,-21.9778796941,,-0.00648228985294,0.00596233871783,0.877066167804,0.480288837813
1402416201337663820,,errorv,,0,,1402416201,337473846,base_link,/z_drive,,,0.0,0.0,0.0,,0.0,0.0,0.0,1.0
1402416201337717270,,errorv,,0,,1402416201,337496886,/z_drive,port,,,-0.3,0.3048,0.0,,0.0,0.0,0.0,1.0
1402416201337808540,,errorv,,0,,1402416201,337505038,/z_drive,starboard,,,-0.3,-0.3048,0.0,,0.0,0.0,0.0,1.0
1402416201357691931,,errorv,,0,,1402416201,357483590,base_link,/z_drive,,,0.0,0.0,0.0,,0.0,0.0,0.0,1.0
1402416201357803748,,errorv,,0,,1402416201,357511572,/z_drive,port,,,-0.3,0.3048,0.0,,0.0,0.0,0.0,1.0
1402416201357826473,,errorv,,0,,1402416201,357550239,/z_drive,starboard,,,-0.3,-0.3048,0.0,,0.0,0.0,0.0,1.0
1402416201363292335,,errorv,,0,,1402416201,287718057,/enu,/base_link,,,6.32245566319,22.9515819505,-21.9771520747,,-0.00658988342245,0.00607895340863,0.877276070292,0.479902402843
1402416201363321132,,errorv,,0,,1402416201,297720909,/enu,/base_link,,,6.31329661056,22.9607709702,-21.9762811934,,-0.00674655388137,0.00619040762354,0.877486347661,0.479514204725
1402416201363344035,,errorv,,0,,1402416201,308729887,/enu,/base_link,,,6.30337793114,22.9708524041,-21.9754125024,,-0.00680565974176,0.00633447366943,0.877692290356,0.479134428827
1402416201363369843,,errorv,,0,,1402416201,318696975,/enu,/base_link,,,6.28939668575,22.9814935875,-21.9517402306,,-0.007792922952,0.00672791414322,0.877851901948,0.478821515567
1402416201377692083,,errorv,,0,,1402416201,377493676,base_link,/z_drive,,,0.0,0.0,0.0,,0.0,0.0,0.0,1.0
1402416201377719603,,errorv,,0,,1402416201,377512818,/z_drive,port,,,-0.3,0.3048,0.0,,0.0,0.0,0.0,1.0
1402416201377740646,,errorv,,0,,1402416201,377525260,/z_drive,starboard,,,-0.3,-0.3048,0.0,,0.0,0.0,0.0,1.0
1402416201397736718,,errorv,,0,,1402416201,397471168,base_link,/z_drive,,,0.0,0.0,0.0,,0.0,0.0,0.0,1.0
1402416201397768435,,errorv,,0,,1402416201,397504398,/z_drive,port,,,-0.3,0.3048,0.0,,0.0,0.0,0.0,1.0
1402416201397797024,,errorv,,0,,1402416201,397509710,/z_drive,starboard,,,-0.3,-0.3048,0.0,,0.0,0.0,0.0,1.0
1402416201397892465,,errorv,,0,,1402416201,497623805,base_link,imu,,,0.13,0.0,-0.1,,1.0,0.0,0.0,0.0
1402416201397917675,,errorv,,0,,1402416201,497566355,/base_link,/gps,,,-0.84,0.0,-0.14,,0.0,0.0,0.0,1.0
1402416201403186055,,errorv,,0,,1402416201,329679012,/enu,/base_link,,,6.27937604931,22.9916132584,-21.9510032504,,-0.00787211828818,0.00686356434126,0.878081644249,0.478396851234
1402416201403256357,,errorv,,0,,1402416201,339701890,/enu,/base_link,,,6.27011382402,23.0005422191,-21.9499235646,,-0.00797082688148,0.00697818492195,0.878280737184,0.478027946406
1402416201403399127,,errorv,,0,,1402416201,349688053,/enu,/base_link,,,6.26137927937,23.0095612809,-21.9491852392,,-0.00805980903484,0.00712327903179,0.878486227327,0.477646570982
1402416201403481761,,errorv,,0,,1402416201,360672950,/enu,/base_link,,,6.26629682201,23.028629004,-21.9549667262,,-0.00745972121938,0.00838559649952,0.879723444894,0.475353231645
1402416201417662461,,errorv,,0,,1402416201,417514041,base_link,/z_drive,,,0.0,0.0,0.0,,0.0,0.0,0.0,1.0
1402416201417887939,,errorv,,0,,1402416201,417537705,/z_drive,port,,,-0.3,0.3048,0.0,,0.0,0.0,0.0,1.0
1402416201417915300,,errorv,,0,,1402416201,417578834,/z_drive,starboard,,,-0.3,-0.3048,0.0,,0.0,0.0,0.0,1.0
1402416201437765893,,errorv,,0,,1402416201,437472182,base_link,/z_drive,,,0.0,0.0,0.0,,0.0,0.0,0.0,1.0
1402416201437824903,,errorv,,0,,1402416201,437519244,/z_drive,port,,,-0.3,0.3048,0.0,,0.0,0.0,0.0,1.0
1402416201437850245,,errorv,,0,,1402416201,437524560,/z_drive,starboard,,,-0.3,-0.3048,0.0,,0.0,0.0,0.0,1.0
1402416201443106105,,errorv,,0,,1402416201,370677947,/enu,/base_link,,,6.25766009563,23.0375431704,-21.9540819875,,-0.00758365002431,0.00853367945083,0.879906833672,0.475009082676
1402416201443128865,,errorv,,0,,1402416201,380657911,/enu,/base_link,,,6.24902977492,23.0464066349,-21.9531731975,,-0.00767713262065,0.00867448013522,0.880089936432,0.474665691639
1402416201443162343,,errorv,,0,,1402416201,391649961,/enu,/base_link,,,6.24497364271,23.06223775,-21.9510471374,,-0.00780266088142,0.0094180736717,0.880714650294,0.473489306245
1402416201443181679,,errorv,,0,,1402416201,401652097,/enu,/base_link,,,6.23667025148,23.0711803393,-21.9504111454,,-0.00781741971671,0.00958323249406,0.88090053784,0.473139822925
1402416201457717481,,errorv,,0,,1402416201,457496918,base_link,/z_drive,,,0.0,0.0,0.0,,0.0,0.0,0.0,1.0
1402416201457745882,,errorv,,0,,1402416201,457512098,/z_drive,port,,,-0.3,0.3048,0.0,,0.0,0.0,0.0,1.0
1402416201457772139,,errorv,,0,,1402416201,457516373,/z_drive,starboard,,,-0.3,-0.3048,0.0,,0.0,0.0,0.0,1.0
1402416201477591980,,errorv,,0,,1402416201,477454452,base_link,/z_drive,,,0.0,0.0,0.0,,0.0,0.0,0.0,1.0
1402416201477634367,,errorv,,0,,1402416201,477468687,/z_drive,port,,,-0.3,0.3048,0.0,,0.0,0.0,0.0,1.0
1402416201477809537,,errorv,,0,,1402416201,477473178,/z_drive,starboard,,,-0.3,-0.3048,0.0,,0.0,0.0,0.0,1.0
1402416201483201453,,errorv,,0,,1402416201,412635087,/enu,/base_link,,,6.22746370541,23.0808908873,-21.9494973251,,-0.00788437735617,0.00977298381925,0.881093316289,0.472775732638
1402416201483230323,,errorv,,0,,1402416201,422642946,/enu,/base_link,,,6.21921843572,23.0894160121,-21.9483556185,,-0.00799721104773,0.00987991033381,0.881257446882,0.472465601184
1402416201483250746,,errorv,,0,,1402416201,433672904,/enu,/base_link,,,6.20893658017,23.1128443638,-21.9632032211,,-0.00887692462174,0.0104614195344,0.88152645561,0.471935235991
1402416201483400995,,errorv,,0,,1402416201,443669080,/enu,/base_link,,,6.20077754785,23.1216048553,-21.962400072,,-0.0089587735643,0.0106342662232,0.881677296965,0.471647958518
1402416201483427828,,errorv,,0,,1402416201,453665971,/enu,/base_link,,,6.19265992381,23.1303453399,-21.9616497653,,-0.00901773172604,0.010887178367,0.881836866474,0.471342646902
1402416201497685957,,errorv,,0,,1402416201,497517597,base_link,/z_drive,,,0.0,0.0,0.0,,0.0,0.0,0.0,1.0
1402416201497801565,,errorv,,0,,1402416201,497534276,/z_drive,port,,,-0.3,0.3048,0.0,,0.0,0.0,0.0,1.0
1402416201497875872,,errorv,,0,,1402416201,497538867,/z_drive,starboard,,,-0.3,-0.3048,0.0,,0.0,0.0,0.0,1.0
1402416201498003519,,errorv,,0,,1402416201,597678904,/base_link,/gps,,,-0.84,0.0,-0.14,,0.0,0.0,0.0,1.0
1402416201498029976,,errorv,,0,,1402416201,597796733,base_link,imu,,,0.13,0.0,-0.1,,1.0,0.0,0.0,0.0
1402416201517585071,,errorv,,0,,1402416201,517429347,base_link,/z_drive,,,0.0,0.0,0.0,,0.0,0.0,0.0,1.0
1402416201517767312,,errorv,,0,,1402416201,517457312,/z_drive,port,,,-0.3,0.3048,0.0,,0.0,0.0,0.0,1.0
1402416201517798266,,errorv,,0,,1402416201,517495709,/z_drive,starboard,,,-0.3,-0.3048,0.0,,0.0,0.0,0.0,1.0
1402416201523209977,,errorv,,0,,1402416201,464621067,/enu,/base_link,,,6.18374280738,23.1398167322,-21.960875471,,-0.00912970102282,0.0110913425749,0.88200504208,0.471020951153
1402416201523240157,,errorv,,0,,1402416201,474622011,/enu,/base_link,,,6.17547492619,23.1483314104,-21.9600901326,,-0.00929658069667,0.0112190609164,0.88214287973,0.470756461455
1402416201523259413,,errorv,,0,,1402416201,484622001,/enu,/base_link,,,6.18083319265,23.1820360817,-22.1006718111,,-0.0085068951981,0.00968202138744,0.881223018044,0.472525008507
1402416201531683103,,errorv,,0,,1402416201,494605064,/enu,/base_link,,,6.17305376729,23.1902613911,-22.1004733917,,-0.00865567973833,0.00987124565466,0.881359497646,0.472263775476
1402416201531713680,,errorv,,0,,1402416201,505625009,/enu,/base_link,,,6.16414763812,23.199292919,-22.1002362618,,-0.00878410821135,0.010195350862,0.881477989992,0.472033311773
1402416201531740806,,errorv,,0,,1402416201,515624046,/enu,/base_link,,,6.15632431914,23.2073309803,-22.0999676043,,-0.00892880951252,0.0104105337995,0.881606704166,0.471785455813
1402416201531772389,,errorv,,0,,1402416201,526597023,/enu,/base_link,,,6.14759137668,23.2160018768,-22.0994660529,,-0.00913617893719,0.0105857772697,0.881737651261,0.471532804695
1402416201537666988,,errorv,,0,,1402416201,537518444,base_link,/z_drive,,,0.0,0.0,0.0,,0.0,0.0,0.0,1.0
1402416201537753355,,errorv,,0,,1402416201,537536604,/z_drive,port,,,-0.3,0.3048,0.0,,0.0,0.0,0.0,1.0
1402416201537817278,,errorv,,0,,1402416201,537541039,/z_drive,starboard,,,-0.3,-0.3048,0.0,,0.0,0.0,0.0,1.0
1402416201557738788,,errorv,,0,,1402416201,557593478,base_link,/z_drive,,,0.0,0.0,0.0,,0.0,0.0,0.0,1.0
1402416201557766880,,errorv,,0,,1402416201,557619229,/z_drive,port,,,-0.3,0.3048,0.0,,0.0,0.0,0.0,1.0
1402416201557831001,,errorv,,0,,1402416201,557627029,/z_drive,starboard,,,-0.3,-0.3048,0.0,,0.0,0.0,0.0,1.0
1402416201571221242,,errorv,,0,,1402416201,536607980,/enu,/base_link,,,6.16528316658,23.2639376432,-22.3491375997,,-0.00717978953813,0.00765873440666,0.880128393298,0.47461964321
1402416201571441122,,errorv,,0,,1402416201,546603918,/enu,/base_link,,,6.15738828394,23.2711125283,-22.3494286946,,-0.00733840356864,0.00784815265066,0.880259200627,0.474371472629
1402416201577672619,,errorv,,0,,1402416201,577483394,base_link,/z_drive,,,0.0,0.0,0.0,,0.0,0.0,0.0,1.0
1402416201577700241,,errorv,,0,,1402416201,577498333,/z_drive,port,,,-0.3,0.3048,0.0,,0.0,0.0,0.0,1.0
1402416201577721360,,errorv,,0,,1402416201,577504927,/z_drive,starboard,,,-0.3,-0.3048,0.0,,0.0,0.0,0.0,1.0
1402416201597687004,,errorv,,0,,1402416201,597500478,base_link,/z_drive,,,0.0,0.0,0.0,,0.0,0.0,0.0,1.0
1402416201597717649,,errorv,,0,,1402416201,597550851,/z_drive,port,,,-0.3,0.3048,0.0,,0.0,0.0,0.0,1.0
1402416201597739964,,errorv,,0,,1402416201,597563176,/z_drive,starboard,,,-0.3,-0.3048,0.0,,0.0,0.0,0.0,1.0
1402416201598000855,,errorv,,0,,1402416201,697804535,/base_link,/gps,,,-0.84,0.0,-0.14,,0.0,0.0,0.0,1.0
1402416201598070246,,errorv,,0,,1402416201,697901057,base_link,imu,,,0.13,0.0,-0.1,,1.0,0.0,0.0,0.0
1402416201611160252,,errorv,,0,,1402416201,556605100,/enu,/base_link,,,6.14976432907,23.2783235073,-22.3498507887,,-0.00749601445039,0.00807461060796,0.880378256832,0.474144213641
1402416201611209604,,errorv,,0,,1402416201,567595005,/enu,/base_link,,,6.14136851742,23.2860214424,-22.3500655164,,-0.00766586422927,0.00834172013905,0.880491328795,0.473926861601
1402416201617653558,,errorv,,0,,1402416201,617482969,base_link,/z_drive,,,0.0,0.0,0.0,,0.0,0.0,0.0,1.0
1402416201617679965,,errorv,,0,,1402416201,617497134,/z_drive,port,,,-0.3,0.3048,0.0,,0.0,0.0,0.0,1.0
1402416201617698237,,errorv,,0,,1402416201,617501318,/z_drive,starboard,,,-0.3,-0.3048,0.0,,0.0,0.0,0.0,1.0
1402416201637726918,,errorv,,0,,1402416201,637509469,base_link,/z_drive,,,0.0,0.0,0.0,,0.0,0.0,0.0,1.0
1402416201637751980,,errorv,,0,,1402416201,637537660,/z_drive,port,,,-0.3,0.3048,0.0,,0.0,0.0,0.0,1.0
1402416201637817923,,errorv,,0,,1402416201,637549154,/z_drive,starboard,,,-0.3,-0.3048,0.0,,0.0,0.0,0.0,1.0
1402416201651463042,,errorv,,0,,1402416201,577611923,/enu,/base_link,,,6.13364553151,23.2929956071,-22.3503583034,,-0.00785396312585,0.00855381426848,0.880582627984,0.473750338065
1402416201651497533,,errorv,,0,,1402416201,587593078,/enu,/base_link,,,6.14486677262,23.3830542741,-22.7643952433,,-0.00710123149476,0.00429805182177,0.877820804454,0.478917252277
1402416201651520716,,errorv,,0,,1402416201,598577022,/enu,/base_link,,,6.13615866317,23.3899618209,-22.7659674472,,-0.00739867646898,0.00442708485621,0.87793097819,0.478709575881
1402416201651593365,,errorv,,0,,1402416201,608561038,/enu,/base_link,,,6.12827519759,23.3960809013,-22.7671946286,,-0.00761185853132,0.00461800448647,0.878029706975,0.478523319509
1402416201657668724,,errorv,,0,,1402416201,657485250,base_link,/z_drive,,,0.0,0.0,0.0,,0.0,0.0,0.0,1.0
1402416201657697995,,errorv,,0,,1402416201,657500290,/z_drive,port,,,-0.3,0.3048,0.0,,0.0,0.0,0.0,1.0
1402416201657780674,,errorv,,0,,1402416201,657507618,/z_drive,starboard,,,-0.3,-0.3048,0.0,,0.0,0.0,0.0,1.0
1402416201677622167,,errorv,,0,,1402416201,677480651,base_link,/z_drive,,,0.0,0.0,0.0,,0.0,0.0,0.0,1.0
1402416201677647763,,errorv,,0,,1402416201,677494174,/z_drive,port,,,-0.3,0.3048,0.0,,0.0,0.0,0.0,1.0
1402416201677716079,,errorv,,0,,1402416201,677498428,/z_drive,starboard,,,-0.3,-0.3048,0.0,,0.0,0.0,0.0,1.0
1402416201691171650,,errorv,,0,,1402416201,618581056,/enu,/base_link,,,6.12049048415,23.4021458679,-22.7685681903,,-0.00778537390464,0.00484797761277,0.878123670331,0.478345800307
1402416201691317620,,errorv,,0,,1402416201,629542112,/enu,/base_link,,,6.11180726041,23.4084663399,-22.7695256607,,-0.00799251566565,0.0051019601553,0.8782196721,0.478163462879
1402416201691341427,,errorv,,0,,1402416201,639544010,/enu,/base_link,,,6.14618228738,23.4955517679,-23.1749303219,,-0.00520309178149,0.0025027394852,0.877084815319,0.480300833716
1402416201691405532,,errorv,,0,,1402416201,649533987,/enu,/base_link,,,6.1387758294,23.50086758,-23.1772161567,,-0.00547287816861,0.00268145660142,0.877151732463,0.480174651176
1402416201697667179,,errorv,,0,,1402416201,697505547,base_link,/z_drive,,,0.0,0.0,0.0,,0.0,0.0,0.0,1.0
1402416201697695794,,errorv,,0,,1402416201,697527237,/z_drive,port,,,-0.3,0.3048,0.0,,0.0,0.0,0.0,1.0
1402416201697720596,,errorv,,0,,1402416201,697537800,/z_drive,starboard,,,-0.3,-0.3048,0.0,,0.0,0.0,0.0,1.0
1402416201698099160,,errorv,,0,,1402416201,797901228,/base_link,/gps,,,-0.84,0.0,-0.14,,0.0,0.0,0.0,1.0
