rosbagTimestamp,control_method,x_current,x_desired,y_current,y_desired,x_velocity_current,x_velocity_desired,y_velocity_current,y_velocity_desired,yaw_current,yaw_desired,required_force_x,required_force_y,required_moment_z,resultant_force_x,resultant_force_y,resultant_moment_z,current_port_servo_angle,current_port_thruster_force,current_starboard_servo_angle,current_starboard_thruster_force,estimated_port_servo_angle,estimated_port_thruster_force,estimated_starboard_servo_angle,estimated_starboard_thruster_force,cost_value,step,user_defined_1,user_defined_2,user_defined_3,user_defined_4,user_defined_5
1402603106009332340,2,-8.46201787958,9.88567784727,-49.7293850599,0.043815185726,-0.387306629368,0.0,-0.203051550269,0.0,1.27085982147,0.0,1188.74907447,-1653.67101418,24.1186482709,-9.79317772029e-10,-200.0,144.78,1.55967220466,-100.0,1.59189399878,-100.0,1.57079632679,-100.0,1.57079632679,-100.0,1134615507.74,0.0,0.0,0.0,0.0,0.0,0.0
1402603106009888658,2,-8.46201787958,9.88567784727,-49.7293850599,0.043815185726,-0.387306629368,0.0,-0.203051550269,0.0,1.27085982147,0.0,1188.74907447,-1653.67101418,24.1186482709,-9.79317772029e-10,-200.0,144.78,1.55967220466,-100.0,1.59189399878,-100.0,1.57079632679,-100.0,1.57079632679,-100.0,1134615507.74,0.0,0.0,0.0,0.0,0.0,0.0
1402603106029930664,2,-8.47326129219,9.88567784727,-49.7376202168,0.043815185726,-0.388854215288,0.0,-0.18409016425,0.0,1.24042704212,0.0,1208.16326485,-1556.78073121,23.9591539773,-9.79317772029e-10,-200.0,144.78,1.55967220466,-100.0,1.59189399878,-100.0,1.57079632679,-100.0,1.57079632679,-100.0,1000808738.43,0.0,0.0,0.0,0.0,0.0,0.0
1402603106030903578,2,-8.47326129219,9.88567784727,-49.7376202168,0.043815185726,-0.388854215288,0.0,-0.18409016425,0.0,1.24042704212,0.0,1208.16326485,-1556.78073121,23.9591539773,-9.79317772029e-10,-200.0,144.78,1.55967220466,-100.0,1.59189399878,-100.0,1.57079632679,-100.0,1.57079632679,-100.0,1000808738.43,0.0,0.0,0.0,0.0,0.0,0.0
1402603106049273980,2,-8.47326129219,9.88567784727,-49.7376202168,0.043815185726,-0.388854215288,0.0,-0.18409016425,0.0,1.24042704212,0.0,1208.16326485,-1556.78073121,23.9591539773,-9.79317772029e-10,-200.0,144.78,1.56120666663,-100.0,1.59189399878,-100.0,1.57079632679,-100.0,1.57079632679,-100.0,1000808738.43,0.0,0.0,0.0,0.0,0.0,0.0
1402603106049954667,2,-8.47326129219,9.88567784727,-49.7376202168,0.043815185726,-0.388854215288,0.0,-0.18409016425,0.0,1.24042704212,0.0,1208.16326485,-1556.78073121,23.9591539773,-9.79317772029e-10,-200.0,144.78,1.56120666663,-100.0,1.59189399878,-100.0,1.57079632679,-100.0,1.57079632679,-100.0,1000808738.43,0.0,0.0,0.0,0.0,0.0,0.0
1402603106069362219,2,-8.49153736087,9.88567784727,-49.7476736757,0.043815185726,-0.400067667516,0.0,-0.180507933989,0.0,1.2104585925,0.0,1227.74117886,-1460.85672717,24.1781803655,-0.958951318947,-199.995401956,145.068959838,1.56120666663,-100.0,1.59342798392,-100.0,1.56120666663,-100.0,1.57079632679,-100.0,877778131.485,0.0,0.0,0.0,0.0,0.0,0.0
1402603106069900034,2,-8.49153736087,9.88567784727,-49.7476736757,0.043815185726,-0.400067667516,0.0,-0.180507933989,0.0,1.2104585925,0.0,1227.74117886,-1460.85672717,24.1781803655,-0.958951318947,-199.995401956,145.068959838,1.56120666663,-100.0,1.59342798392,-100.0,1.56120666663,-100.0,1.57079632679,-100.0,877778131.485,0.0,0.0,0.0,0.0,0.0,0.0
1402603106089161832,2,-8.49153736087,9.88567784727,-49.7476736757,0.043815185726,-0.400067667516,0.0,-0.180507933989,0.0,1.2104585925,0.0,1227.74117886,-1460.85672717,24.1781803655,-9.79317772029e-10,-200.0,144.78,1.56120666663,-100.0,1.59189399878,-100.0,1.57079632679,-100.0,1.57079632679,-100.0,877619662.788,0.0,0.0,0.0,0.0,0.0,0.0
1402603106089687017,2,-8.49153736087,9.88567784727,-49.7476736757,0.043815185726,-0.400067667516,0.0,-0.180507933989,0.0,1.2104585925,0.0,1227.74117886,-1460.85672717,24.1781803655,-9.79317772029e-10,-200.0,144.78,1.56120666663,-100.0,1.59189399878,-100.0,1.57079632679,-100.0,1.57079632679,-100.0,877619662.788,0.0,0.0,0.0,0.0,0.0,0.0
1402603106109149425,2,-8.50923207466,9.88567784727,-49.7483354698,0.043815185726,-0.393196194358,0.0,-0.141539652976,0.0,1.18139949837,0.0,1243.76058034,-1364.6778552,24.8942211432,-9.79317772029e-10,-200.0,144.78,1.55967220466,-100.0,1.59189399878,-100.0,1.57079632679,-100.0,1.57079632679,-100.0,762870572.243,0.0,0.0,0.0,0.0,0.0,0.0
1402603106110491004,2,-8.50923207466,9.88567784727,-49.7483354698,0.043815185726,-0.393196194358,0.0,-0.141539652976,0.0,1.18139949837,0.0,1243.76058034,-1364.6778552,24.8942211432,-9.79317772029e-10,-200.0,144.78,1.55967220466,-100.0,1.59189399878,-100.0,1.57079632679,-100.0,1.57079632679,-100.0,762870572.243,0.0,0.0,0.0,0.0,0.0,0.0
1402603106129429161,2,-8.50923207466,9.88567784727,-49.7483354698,0.043815185726,-0.393196194358,0.0,-0.141539652976,0.0,1.18139949837,0.0,1243.76058034,-1364.6778552,24.8942211432,-9.79317772029e-10,-200.0,144.78,1.55967220466,-100.0,1.59189399878,-100.0,1.57079632679,-100.0,1.57079632679,-100.0,762870572.243,0.0,0.0,0.0,0.0,0.0,0.0
1402603106130053563,2,-8.50923207466,9.88567784727,-49.7483354698,0.043815185726,-0.393196194358,0.0,-0.141539652976,0.0,1.18139949837,0.0,1243.76058034,-1364.6778552,24.8942211432,-9.79317772029e-10,-200.0,144.78,1.55967220466,-100.0,1.59189399878,-100.0,1.57079632679,-100.0,1.57079632679,-100.0,762870572.243,0.0,0.0,0.0,0.0,0.0,0.0
1402603106149805845,2,-8.53143135799,9.88567784727,-49.7582355032,0.043815185726,-0.405814975703,0.0,-0.127211454312,0.0,1.14429730162,0.0,1265.08649799,-1242.30092917,24.8095246382,-9.79317772029e-10,-200.0,144.78,1.55967220466,-100.0,1.59189399878,-100.0,1.57079632679,-100.0,1.57079632679,-100.0,630514263.324,0.0,0.0,0.0,0.0,0.0,0.0
1402603106150475802,2,-8.53143135799,9.88567784727,-49.7582355032,0.043815185726,-0.405814975703,0.0,-0.127211454312,0.0,1.14429730162,0.0,1265.08649799,-1242.30092917,24.8095246382,-9.79317772029e-10,-200.0,144.78,1.55967220466,-100.0,1.59189399878,-100.0,1.57079632679,-100.0,1.57079632679,-100.0,630514263.324,0.0,0.0,0.0,0.0,0.0,0.0
1402603106169487951,2,-8.53143135799,9.88567784727,-49.7582355032,0.043815185726,-0.405814975703,0.0,-0.127211454312,0.0,1.14429730162,0.0,1265.08649799,-1242.30092917,24.8095246382,-9.79317772029e-10,-200.0,144.78,1.55967220466,-100.0,1.59189399878,-100.0,1.57079632679,-100.0,1.57079632679,-100.0,630514263.324,0.0,0.0,0.0,0.0,0.0,0.0
1402603106170153763,2,-8.53143135799,9.88567784727,-49.7582355032,0.043815185726,-0.405814975703,0.0,-0.127211454312,0.0,1.14429730162,0.0,1265.08649799,-1242.30092917,24.8095246382,-9.79317772029e-10,-200.0,144.78,1.55967220466,-100.0,1.59189399878,-100.0,1.57079632679,-100.0,1.57079632679,-100.0,630514263.324,0.0,0.0,0.0,0.0,0.0,0.0
1402603106189442550,2,-8.55487859195,9.88567784727,-49.7750719338,0.043815185726,-0.439871812151,0.0,-0.146015323753,0.0,1.1062672971,0.0,1287.68322523,-1116.58633643,25.1474765132,-9.79317772029e-10,-200.0,144.78,1.55967220466,-100.0,1.59342798392,-100.0,1.57079632679,-100.0,1.57079632679,-100.0,510227630.826,0.0,0.0,0.0,0.0,0.0,0.0
1402603106189966549,2,-8.55487859195,9.88567784727,-49.7750719338,0.043815185726,-0.439871812151,0.0,-0.146015323753,0.0,1.1062672971,0.0,1287.68322523,-1116.58633643,25.1474765132,-9.79317772029e-10,-200.0,144.78,1.55967220466,-100.0,1.59342798392,-100.0,1.57079632679,-100.0,1.57079632679,-100.0,510227630.826,0.0,0.0,0.0,0.0,0.0,0.0
1402603106210035866,2,-8.55487859195,9.88567784727,-49.7750719338,0.043815185726,-0.439871812151,0.0,-0.146015323753,0.0,1.1062672971,0.0,1287.68322523,-1116.58633643,25.1474765132,-9.79317772029e-10,-200.0,144.78,1.55967220466,-100.0,1.59189399878,-100.0,1.57079632679,-100.0,1.57079632679,-100.0,510227630.826,0.0,0.0,0.0,0.0,0.0,0.0
1402603106210902070,2,-8.55487859195,9.88567784727,-49.7750719338,0.043815185726,-0.439871812151,0.0,-0.146015323753,0.0,1.1062672971,0.0,1287.68322523,-1116.58633643,25.1474765132,-9.79317772029e-10,-200.0,144.78,1.55967220466,-100.0,1.59189399878,-100.0,1.57079632679,-100.0,1.57079632679,-100.0,510227630.826,0.0,0.0,0.0,0.0,0.0,0.0
1402603106229345755,2,-8.56438030439,9.88567784727,-49.7781693928,0.043815185726,-0.446829963388,0.0,-0.135390553599,0.0,1.0910371446,0.0,1295.49182272,-1064.97192013,25.1893171879,-9.79317772029e-10,-200.0,144.78,1.55967220466,-100.0,1.59189399878,-100.0,1.57079632679,-100.0,1.57079632679,-100.0,465254130.152,0.0,0.0,0.0,0.0,0.0,0.0
1402603106230783124,2,-8.56438030439,9.88567784727,-49.7781693928,0.043815185726,-0.446829963388,0.0,-0.135390553599,0.0,1.0910371446,0.0,1295.49182272,-1064.97192013,25.1893171879,-9.79317772029e-10,-200.0,144.78,1.55967220466,-100.0,1.59189399878,-100.0,1.57079632679,-100.0,1.57079632679,-100.0,465254130.152,0.0,0.0,0.0,0.0,0.0,0.0
1402603106249280212,2,-8.56438030439,9.88567784727,-49.7781693928,0.043815185726,-0.446829963388,0.0,-0.135390553599,0.0,1.0910371446,0.0,1295.49182272,-1064.97192013,25.1893171879,-9.79317772029e-10,-200.0,144.78,1.55813774268,-100.0,1.59189399878,-100.0,1.57079632679,-100.0,1.57079632679,-100.0,465254130.152,0.0,0.0,0.0,0.0,0.0,0.0
1402603106250039687,2,-8.56438030439,9.88567784727,-49.7781693928,0.043815185726,-0.446829963388,0.0,-0.135390553599,0.0,1.0910371446,0.0,1295.49182272,-1064.97192013,25.1893171879,-9.79317772029e-10,-200.0,144.78,1.55813774268,-100.0,1.59189399878,-100.0,1.57079632679,-100.0,1.57079632679,-100.0,465254130.152,0.0,0.0,0.0,0.0,0.0,0.0
1402603106269832864,2,-8.58179920207,9.88567784727,-49.7967724857,0.043815185726,-0.480089303495,0.0,-0.162933848781,0.0,1.0605671478,0.0,1312.38514391,-962.909283698,25.3922928514,-9.79317772029e-10,-200.0,144.78,1.55967220466,-100.0,1.59189399878,-100.0,1.57079632679,-100.0,1.57079632679,-100.0,384359738.184,0.0,0.0,0.0,0.0,0.0,0.0
1402603106270565261,2,-8.58179920207,9.88567784727,-49.7967724857,0.043815185726,-0.480089303495,0.0,-0.162933848781,0.0,1.0605671478,0.0,1312.38514391,-962.909283698,25.3922928514,-9.79317772029e-10,-200.0,144.78,1.55967220466,-100.0,1.59189399878,-100.0,1.57079632679,-100.0,1.57079632679,-100.0,384359738.184,0.0,0.0,0.0,0.0,0.0,0.0
1402603106289231664,2,-8.58179920207,9.88567784727,-49.7967724857,0.043815185726,-0.480089303495,0.0,-0.162933848781,0.0,1.0605671478,0.0,1312.38514391,-962.909283698,25.3922928514,-9.79317772029e-10,-200.0,144.78,1.55813774268,-100.0,1.59189399878,-100.0,1.57079632679,-100.0,1.57079632679,-100.0,384359738.184,0.0,0.0,0.0,0.0,0.0,0.0
1402603106289960068,2,-8.58179920207,9.88567784727,-49.7967724857,0.043815185726,-0.480089303495,0.0,-0.162933848781,0.0,1.0605671478,0.0,1312.38514391,-962.909283698,25.3922928514,-9.79317772029e-10,-200.0,144.78,1.55813774268,-100.0,1.59189399878,-100.0,1.57079632679,-100.0,1.57079632679,-100.0,384359738.184,0.0,0.0,0.0,0.0,0.0,0.0
1402603106309475746,2,-8.60685500826,9.88567784727,-49.8095818447,0.043815185726,-0.503297576413,0.0,-0.16911092206,0.0,1.03149818962,0.0,1327.03018931,-863.776753128,25.952234305,-1.11238927176,-199.993812759,145.114577306,1.55967220466,-100.0,1.59342798392,-100.0,1.55967220466,-100.0,1.57079632679,-100.0,315701863.41,0.0,0.0,0.0,0.0,0.0,0.0
1402603106310579064,2,-8.60685500826,9.88567784727,-49.8095818447,0.043815185726,-0.503297576413,0.0,-0.16911092206,0.0,1.03149818962,0.0,1327.03018931,-863.776753128,25.952234305,-1.11238927176,-199.993812759,145.114577306,1.55967220466,-100.0,1.59342798392,-100.0,1.55967220466,-100.0,1.57079632679,-100.0,315701863.41,0.0,0.0,0.0,0.0,0.0,0.0
1402603106330026860,2,-8.60685500826,9.88567784727,-49.8095818447,0.043815185726,-0.503297576413,0.0,-0.16911092206,0.0,1.03149818962,0.0,1327.03018931,-863.776753128,25.952234305,-9.79317772029e-10,-200.0,144.78,1.55967220466,-100.0,1.59189399878,-100.0,1.57079632679,-100.0,1.57079632679,-100.0,315510264.114,0.0,0.0,0.0,0.0,0.0,0.0
1402603106331046199,2,-8.60685500826,9.88567784727,-49.8095818447,0.043815185726,-0.503297576413,0.0,-0.16911092206,0.0,1.03149818962,0.0,1327.03018931,-863.776753128,25.952234305,-9.79317772029e-10,-200.0,144.78,1.55967220466,-100.0,1.59189399878,-100.0,1.57079632679,-100.0,1.57079632679,-100.0,315510264.114,0.0,0.0,0.0,0.0,0.0,0.0
1402603106349484971,2,-8.62500087823,9.88567784727,-49.8025557153,0.043815185726,-0.465155197479,0.0,-0.10341345857,0.0,1.00227667233,0.0,1332.96832316,-761.127747019,25.8628616888,-9.79317772029e-10,-200.0,144.78,1.55813774268,-100.0,1.59342798392,-100.0,1.57079632679,-100.0,1.57079632679,-100.0,253443044.656,0.0,0.0,0.0,0.0,0.0,0.0
1402603106350755524,2,-8.62500087823,9.88567784727,-49.8025557153,0.043815185726,-0.465155197479,0.0,-0.10341345857,0.0,1.00227667233,0.0,1332.96832316,-761.127747019,25.8628616888,-9.79317772029e-10,-200.0,144.78,1.55813774268,-100.0,1.59342798392,-100.0,1.57079632679,-100.0,1.57079632679,-100.0,253443044.656,0.0,0.0,0.0,0.0,0.0,0.0
1402603106370103435,2,-8.62500087823,9.88567784727,-49.8025557153,0.043815185726,-0.465155197479,0.0,-0.10341345857,0.0,1.00227667233,0.0,1332.96832316,-761.127747019,25.8628616888,-9.79317772029e-10,-200.0,144.78,1.55813774268,-100.0,1.59342798392,-100.0,1.57079632679,-100.0,1.57079632679,-100.0,253443044.656,0.0,0.0,0.0,0.0,0.0,0.0
1402603106370900211,2,-8.62500087823,9.88567784727,-49.8025557153,0.043815185726,-0.465155197479,0.0,-0.10341345857,0.0,1.00227667233,0.0,1332.96832316,-761.127747019,25.8628616888,-9.79317772029e-10,-200.0,144.78,1.55813774268,-100.0,1.59342798392,-100.0,1.57079632679,-100.0,1.57079632679,-100.0,253443044.656,0.0,0.0,0.0,0.0,0.0,0.0
1402603106389502687,2,-8.6438762894,9.88567784727,-49.80651825,0.043815185726,-0.469783382492,0.0,-0.0898036205241,0.0,0.973534678594,0.0,1342.71737268,-661.290223325,25.830249248,-9.79317772029e-10,-200.0,144.78,1.55813774268,-100.0,1.59342798392,-100.0,1.57079632679,-100.0,1.57079632679,-100.0,203713353.815,0.0,0.0,0.0,0.0,0.0,0.0
1402603106390310465,2,-8.6438762894,9.88567784727,-49.80651825,0.043815185726,-0.469783382492,0.0,-0.0898036205241,0.0,0.973534678594,0.0,1342.71737268,-661.290223325,25.830249248,-9.79317772029e-10,-200.0,144.78,1.55813774268,-100.0,1.59342798392,-100.0,1.57079632679,-100.0,1.57079632679,-100.0,203713353.815,0.0,0.0,0.0,0.0,0.0,0.0
1402603106409433512,2,-8.6438762894,9.88567784727,-49.80651825,0.043815185726,-0.469783382492,0.0,-0.0898036205241,0.0,0.973534678594,0.0,1342.71737268,-661.290223325,25.830249248,-9.79317772029e-10,-200.0,144.78,1.55813774268,-100.0,1.59342798392,-100.0,1.57079632679,-100.0,1.57079632679,-100.0,203713353.815,0.0,0.0,0.0,0.0,0.0,0.0
1402603106410761126,2,-8.6438762894,9.88567784727,-49.80651825,0.043815185726,-0.469783382492,0.0,-0.0898036205241,0.0,0.973534678594,0.0,1342.71737268,-661.290223325,25.830249248,-9.79317772029e-10,-200.0,144.78,1.55813774268,-100.0,1.59342798392,-100.0,1.57079632679,-100.0,1.57079632679,-100.0,203713353.815,0.0,0.0,0.0,0.0,0.0,0.0
1402603106430733940,2,-8.64887568476,9.88567784727,-49.7873385009,0.043815185726,-0.399534206111,0.0,-0.00211469132538,0.0,0.946031040799,0.0,1341.23406107,-563.614940396,26.3436012605,-9.79317772029e-10,-200.0,144.78,1.55813774268,-100.0,1.59342798392,-100.0,1.57079632679,-100.0,1.57079632679,-100.0,163166943.041,0.0,0.0,0.0,0.0,0.0,0.0
1402603106432503866,2,-8.64887568476,9.88567784727,-49.7873385009,0.043815185726,-0.399534206111,0.0,-0.00211469132538,0.0,0.946031040799,0.0,1341.23406107,-563.614940396,26.3436012605,-9.79317772029e-10,-200.0,144.78,1.55813774268,-100.0,1.59342798392,-100.0,1.57079632679,-100.0,1.57079632679,-100.0,163166943.041,0.0,0.0,0.0,0.0,0.0,0.0
1402603106449374560,2,-8.64887568476,9.88567784727,-49.7873385009,0.043815185726,-0.399534206111,0.0,-0.00211469132538,0.0,0.946031040799,0.0,1341.23406107,-563.614940396,26.3436012605,-9.79317772029e-10,-200.0,144.78,1.55813774268,-100.0,1.59342798392,-100.0,1.57079632679,-100.0,1.57079632679,-100.0,163166943.041,0.0,0.0,0.0,0.0,0.0,0.0
1402603106450156069,2,-8.64887568476,9.88567784727,-49.7873385009,0.043815185726,-0.399534206111,0.0,-0.00211469132538,0.0,0.946031040799,0.0,1341.23406107,-563.614940396,26.3436012605,-9.79317772029e-10,-200.0,144.78,1.55813774268,-100.0,1.59342798392,-100.0,1.57079632679,-100.0,1.57079632679,-100.0,163166943.041,0.0,0.0,0.0,0.0,0.0,0.0
1402603106469906213,2,-8.66397394321,9.88567784727,-49.7975503983,0.043815185726,-0.407388934227,0.0,-0.00739616364708,0.0,0.915005343321,0.0,1349.32700143,-455.614172359,26.7384093071,-9.79317772029e-10,-200.0,144.78,1.55813774268,-100.0,1.59189399878,-100.0,1.57079632679,-100.0,1.57079632679,-100.0,130770378.962,0.0,0.0,0.0,0.0,0.0,0.0
1402603106470654475,2,-8.66397394321,9.88567784727,-49.7975503983,0.043815185726,-0.407388934227,0.0,-0.00739616364708,0.0,0.915005343321,0.0,1349.32700143,-455.614172359,26.7384093071,-9.79317772029e-10,-200.0,144.78,1.55813774268,-100.0,1.59189399878,-100.0,1.57079632679,-100.0,1.57079632679,-100.0,130770378.962,0.0,0.0,0.0,0.0,0.0,0.0
1402603106489462683,2,-8.66397394321,9.88567784727,-49.7975503983,0.043815185726,-0.407388934227,0.0,-0.00739616364708,0.0,0.915005343321,0.0,1349.32700143,-455.614172359,26.7384093071,-1.26582460537,-199.991988119,145.160023539,1.55813774268,-100.0,1.59342798392,-100.0,1.55813774268,-100.0,1.57079632679,-100.0,130988238.983,0.0,0.0,0.0,0.0,0.0,0.0
1402603106490221021,2,-8.66397394321,9.88567784727,-49.7975503983,0.043815185726,-0.407388934227,0.0,-0.00739616364708,0.0,0.915005343321,0.0,1349.32700143,-455.614172359,26.7384093071,-1.26582460537,-199.991988119,145.160023539,1.55813774268,-100.0,1.59342798392,-100.0,1.55813774268,-100.0,1.57079632679,-100.0,130988238.983,0.0,0.0,0.0,0.0,0.0,0.0
1402603106509422834,2,-8.68100532112,9.88567784727,-49.7976235757,0.043815185726,-0.409143362187,0.0,0.00612249972711,0.0,0.88543067935,0.0,1355.34602428,-351.885460279,27.295383659,-9.79317772029e-10,-200.0,144.78,1.55660328071,-100.0,1.59342798392,-100.0,1.57079632679,-100.0,1.57079632679,-100.0,110384056.337,0.0,0.0,0.0,0.0,0.0,0.0
1402603106510108540,2,-8.68100532112,9.88567784727,-49.7976235757,0.043815185726,-0.409143362187,0.0,0.00612249972711,0.0,0.88543067935,0.0,1355.34602428,-351.885460279,27.295383659,-9.79317772029e-10,-200.0,144.78,1.55660328071,-100.0,1.59342798392,-100.0,1.57079632679,-100.0,1.57079632679,-100.0,110384056.337,0.0,0.0,0.0,0.0,0.0,0.0
1402603106529898041,2,-8.68100532112,9.88567784727,-49.7976235757,0.043815185726,-0.409143362187,0.0,0.00612249972711,0.0,0.88543067935,0.0,1355.34602428,-351.885460279,27.295383659,-9.79317772029e-10,-200.0,144.78,1.55660328071,-100.0,1.59189399878,-100.0,1.57079632679,-100.0,1.57079632679,-100.0,110384056.337,0.0,0.0,0.0,0.0,0.0,0.0
1402603106531241797,2,-8.68100532112,9.88567784727,-49.7976235757,0.043815185726,-0.409143362187,0.0,0.00612249972711,0.0,0.88543067935,0.0,1355.34602428,-351.885460279,27.295383659,-9.79317772029e-10,-200.0,144.78,1.55660328071,-100.0,1.59189399878,-100.0,1.57079632679,-100.0,1.57079632679,-100.0,110384056.337,0.0,0.0,0.0,0.0,0.0,0.0
1402603106549528802,2,-8.69741749097,9.88567784727,-49.7970138235,0.043815185726,-0.412206693751,0.0,0.0259580584274,0.0,0.855624142175,0.0,1360.32387753,-247.073108215,27.7200549237,99.9999999995,-100.0,41.9099999999,1.55813774268,-100.0,1.59342798392,-100.0,0.0,100.0,1.57079632679,-100.0,90436740.6761,0.0,0.0,0.0,0.0,0.0,0.0
1402603106550310071,2,-8.69741749097,9.88567784727,-49.7970138235,0.043815185726,-0.412206693751,0.0,0.0259580584274,0.0,0.855624142175,0.0,1360.32387753,-247.073108215,27.7200549237,99.9999999995,-100.0,41.9099999999,1.55813774268,-100.0,1.59342798392,-100.0,0.0,100.0,1.57079632679,-100.0,90436740.6761,0.0,0.0,0.0,0.0,0.0,0.0
1402603106569489464,2,-8.69741749097,9.88567784727,-49.7970138235,0.043815185726,-0.412206693751,0.0,0.0259580584274,0.0,0.855624142175,0.0,1360.32387753,-247.073108215,27.7200549237,99.9999999995,-100.0,41.9099999999,1.55813774268,100.0,1.59189399878,-100.0,0.0,100.0,1.57079632679,-100.0,90436740.6761,0.0,0.0,0.0,0.0,0.0,0.0
1402603106570332068,2,-8.69741749097,9.88567784727,-49.7970138235,0.043815185726,-0.412206693751,0.0,0.0259580584274,0.0,0.855624142175,0.0,1360.32387753,-247.073108215,27.7200549237,99.9999999995,-100.0,41.9099999999,1.55813774268,100.0,1.59189399878,-100.0,0.0,100.0,1.57079632679,-100.0,90436740.6761,0.0,0.0,0.0,0.0,0.0,0.0
1402603106589926886,2,-8.71275549759,9.88567784727,-49.8089333514,0.043815185726,-0.417186248168,0.0,0.0156850975064,0.0,0.821216579333,0.0,1364.49385558,-126.169604808,28.3376711624,200.0,0.0,0.0,1.55660328071,100.0,1.59189399878,-100.0,0.0,100.0,0.0,100.0,76263193.4007,0.0,0.0,0.0,0.0,0.0,0.0
1402603106590640208,2,-8.71275549759,9.88567784727,-49.8089333514,0.043815185726,-0.417186248168,0.0,0.0156850975064,0.0,0.821216579333,0.0,1364.49385558,-126.169604808,28.3376711624,200.0,0.0,0.0,1.55660328071,100.0,1.59189399878,-100.0,0.0,100.0,0.0,100.0,76263193.4007,0.0,0.0,0.0,0.0,0.0,0.0
1402603106609529823,2,-8.71275549759,9.88567784727,-49.8089333514,0.043815185726,-0.417186248168,0.0,0.0156850975064,0.0,0.821216579333,0.0,1364.49385558,-126.169604808,28.3376711624,200.0,0.0,0.0,1.54432853858,100.0,1.59189399878,100.0,0.0,100.0,0.0,100.0,76263193.4005,0.0,0.0,0.0,0.0,0.0,0.0
1402603106610274068,2,-8.71275549759,9.88567784727,-49.8089333514,0.043815185726,-0.417186248168,0.0,0.0156850975064,0.0,0.821216579333,0.0,1364.49385558,-126.169604808,28.3376711624,200.0,0.0,0.0,1.54432853858,100.0,1.59189399878,100.0,0.0,100.0,0.0,100.0,76263193.4005,0.0,0.0,0.0,0.0,0.0,0.0
1402603106629430701,2,-8.73598574088,9.88567784727,-49.8208091647,0.043815185726,-0.427843049278,0.0,0.00597843058839,0.0,0.780298861937,0.0,1368.27836558,17.9761893502,28.7920536795,200.0,0.0,0.0,1.51977905433,100.0,1.59189399878,100.0,0.0,100.0,0.0,100.0,68919779.8671,0.0,0.0,0.0,0.0,0.0,0.0
1402603106630194644,2,-8.73598574088,9.88567784727,-49.8208091647,0.043815185726,-0.427843049278,0.0,0.00597843058839,0.0,0.780298861937,0.0,1368.27836558,17.9761893502,28.7920536795,200.0,0.0,0.0,1.51977905433,100.0,1.59189399878,100.0,0.0,100.0,0.0,100.0,68919779.8671,0.0,0.0,0.0,0.0,0.0,0.0
1402603106650084878,2,-8.73598574088,9.88567784727,-49.8208091647,0.043815185726,-0.427843049278,0.0,0.00597843058839,0.0,0.780298861937,0.0,1368.27836558,17.9761893502,28.7920536795,200.0,0.0,0.0,1.48602327506,100.0,1.58422168891,100.0,0.0,100.0,0.0,100.0,68919779.8665,0.0,0.0,0.0,0.0,0.0,0.0
1402603106651128803,2,-8.73598574088,9.88567784727,-49.8208091647,0.043815185726,-0.427843049278,0.0,0.00597843058839,0.0,0.780298861937,0.0,1368.27836558,17.9761893502,28.7920536795,200.0,0.0,0.0,1.48602327506,100.0,1.58422168891,100.0,0.0,100.0,0.0,100.0,68919779.8665,0.0,0.0,0.0,0.0,0.0,0.0
1402603106669524098,2,-8.74865923936,9.88567784727,-49.820516922,0.043815185726,-0.426602171722,0.0,0.0173790252878,0.0,0.758322065977,0.0,1368.54100623,95.4003656393,29.1801600685,192.163537514,38.8057000058,-25.7028924684,1.4660766999,100.0,1.55813774268,100.0,0.398522445666,100.0,0.0,100.0,72400750.2804,0.0,0.0,0.0,0.0,0.0,0.0
1402603106670390235,2,-8.74865923936,9.88567784727,-49.820516922,0.043815185726,-0.426602171722,0.0,0.0173790252878,0.0,0.758322065977,0.0,1368.54100623,95.4003656393,29.1801600685,192.163537514,38.8057000058,-25.7028924684,1.4660766999,100.0,1.55813774268,100.0,0.398522445666,100.0,0.0,100.0,72400750.2804,0.0,0.0,0.0,0.0,0.0,0.0
1402603106689512363,2,-8.76052343477,9.88567784727,-49.8308792379,0.043815185726,-0.437372801716,0.0,0.00836677926905,0.0,0.74055679857,0.0,1369.8010412,158.042674296,29.1852302107,184.327075028,77.6114000116,-56.1828924684,1.42311462562,100.0,1.52591594855,100.0,0.398522445666,100.0,0.398522445666,100.0,77245879.3616,0.0,0.0,0.0,0.0,0.0,0.0
1402603106690187171,2,-8.76052343477,9.88567784727,-49.8308792379,0.043815185726,-0.437372801716,0.0,0.00836677926905,0.0,0.74055679857,0.0,1369.8010412,158.042674296,29.1852302107,184.327075028,77.6114000116,-56.1828924684,1.42311462562,100.0,1.52591594855,100.0,0.398522445666,100.0,0.398522445666,100.0,77245879.3616,0.0,0.0,0.0,0.0,0.0,0.0
1402603106709803679,2,-8.76052343477,9.88567784727,-49.8308792379,0.043815185726,-0.437372801716,0.0,0.00836677926905,0.0,0.74055679857,0.0,1369.8010412,158.042674296,29.1852302107,184.327075028,77.6114000116,-56.1828924684,1.40930542151,100.0,1.48909219901,100.0,0.398522445666,100.0,0.398522445666,100.0,77245879.361,0.0,0.0,0.0,0.0,0.0,0.0
1402603106711310171,2,-8.76052343477,9.88567784727,-49.8308792379,0.043815185726,-0.437372801716,0.0,0.00836677926905,0.0,0.74055679857,0.0,1369.8010412,158.042674296,29.1852302107,184.327075028,77.6114000116,-56.1828924684,1.40930542151,100.0,1.48909219901,100.0,0.398522445666,100.0,0.398522445666,100.0,77245879.361,0.0,0.0,0.0,0.0,0.0,0.0
1402603106729507419,2,-8.76907469071,9.88567784727,-49.8307247368,0.043815185726,-0.437539395882,0.0,0.0138180045252,0.0,0.725870577083,0.0,1369.37429507,209.710705125,29.7139923346,184.327075028,77.6114000116,-56.1828924684,1.35867199103,100.0,1.44613012473,100.0,0.398522445666,100.0,0.398522445666,100.0,82731096.3123,0.0,0.0,0.0,0.0,0.0,0.0
1402603106730390246,2,-8.76907469071,9.88567784727,-49.8307247368,0.043815185726,-0.437539395882,0.0,0.0138180045252,0.0,0.725870577083,0.0,1369.37429507,209.710705125,29.7139923346,184.327075028,77.6114000116,-56.1828924684,1.35867199103,100.0,1.44613012473,100.0,0.398522445666,100.0,0.398522445666,100.0,82731096.3123,0.0,0.0,0.0,0.0,0.0,0.0
1402603106750002072,2,-8.76907469071,9.88567784727,-49.8307247368,0.043815185726,-0.437539395882,0.0,0.0138180045252,0.0,0.725870577083,0.0,1369.37429507,209.710705125,29.7139923346,184.327075028,77.6114000116,-56.1828924684,1.31877836387,100.0,1.40009960334,100.0,0.398522445666,100.0,0.398522445666,100.0,82731096.3115,0.0,0.0,0.0,0.0,0.0,0.0
1402603106751037052,2,-8.76907469071,9.88567784727,-49.8307247368,0.043815185726,-0.437539395882,0.0,0.0138180045252,0.0,0.725870577083,0.0,1369.37429507,209.710705125,29.7139923346,184.327075028,77.6114000116,-56.1828924684,1.31877836387,100.0,1.40009960334,100.0,0.398522445666,100.0,0.398522445666,100.0,82731096.3115,0.0,0.0,0.0,0.0,0.0,0.0
1402603106769564957,2,-8.78930772441,9.88567784727,-49.8369265239,0.043815185726,-0.431306987041,0.0,0.0169033686056,0.0,0.695138062322,0.0,1366.89697709,317.740842395,28.528123302,184.327075028,77.6114000116,-56.1828924684,1.29729732673,100.0,1.38015302817,100.0,0.398522445666,100.0,0.398522445666,100.0,102442631.318,0.0,0.0,0.0,0.0,0.0,0.0
1402603106770392506,2,-8.78930772441,9.88567784727,-49.8369265239,0.043815185726,-0.431306987041,0.0,0.0169033686056,0.0,0.695138062322,0.0,1366.89697709,317.740842395,28.528123302,184.327075028,77.6114000116,-56.1828924684,1.29729732673,100.0,1.38015302817,100.0,0.398522445666,100.0,0.398522445666,100.0,102442631.318,0.0,0.0,0.0,0.0,0.0,0.0
1402603106789122944,2,-8.78930772441,9.88567784727,-49.8369265239,0.043815185726,-0.431306987041,0.0,0.0169033686056,0.0,0.695138062322,0.0,1366.89697709,317.740842395,28.528123302,184.327075028,77.6114000116,-56.1828924684,1.26200708548,100.0,1.31570943992,100.0,0.398522445666,100.0,0.398522445666,100.0,102442631.317,0.0,0.0,0.0,0.0,0.0,0.0
1402603106789987022,2,-8.78930772441,9.88567784727,-49.8369265239,0.043815185726,-0.431306987041,0.0,0.0169033686056,0.0,0.695138062322,0.0,1366.89697709,317.740842395,28.528123302,184.327075028,77.6114000116,-56.1828924684,1.26200708548,100.0,1.31570943992,100.0,0.398522445666,100.0,0.398522445666,100.0,102442631.317,0.0,0.0,0.0,0.0,0.0,0.0
1402603106809974360,2,-8.81586837429,9.88567784727,-49.8462217291,0.043815185726,-0.452519721667,0.0,0.00289935689126,0.0,0.664841317997,0.0,1366.9237923,424.223951816,27.2352114675,60.909968999,190.439900402,-139.240184684,1.23745760123,100.0,1.2850225846,100.0,1.23745760123,100.0,1.2850225846,100.0,126568125.442,0.0,0.0,0.0,0.0,0.0,0.0
1402603106811765598,2,-8.81586837429,9.88567784727,-49.8462217291,0.043815185726,-0.452519721667,0.0,0.00289935689126,0.0,0.664841317997,0.0,1366.9237923,424.223951816,27.2352114675,60.909968999,190.439900402,-139.240184684,1.23745760123,100.0,1.2850225846,100.0,1.23745760123,100.0,1.2850225846,100.0,126568125.442,0.0,0.0,0.0,0.0,0.0,0.0
1402603106829309247,2,-8.81586837429,9.88567784727,-49.8462217291,0.043815185726,-0.452519721667,0.0,0.00289935689126,0.0,0.664841317997,0.0,1366.9237923,424.223951816,27.2352114675,68.1539508707,187.924125776,-137.840549933,1.19142707984,100.0,1.25433572928,100.0,1.19142707984,100.0,1.25433572928,100.0,125983962.445,0.0,0.0,0.0,0.0,0.0,0.0
1402603106830118590,2,-8.81586837429,9.88567784727,-49.8462217291,0.043815185726,-0.452519721667,0.0,0.00289935689126,0.0,0.664841317997,0.0,1366.9237923,424.223951816,27.2352114675,68.1539508707,187.924125776,-137.840549933,1.19142707984,100.0,1.25433572928,100.0,1.19142707984,100.0,1.25433572928,100.0,125983962.445,0.0,0.0,0.0,0.0,0.0,0.0
1402603106849468090,2,-8.83910618819,9.88567784727,-49.8420942749,0.043815185726,-0.451611333396,0.0,0.0240997004619,0.0,0.640185409581,0.0,1363.94342326,510.014655332,25.0401813746,72.6202977492,186.293070206,-136.164639793,1.17608341376,100.0,1.22211393516,100.0,1.17608341376,100.0,1.22211393516,100.0,148867100.246,0.0,0.0,0.0,0.0,0.0,0.0
1402603106850291484,2,-8.83910618819,9.88567784727,-49.8420942749,0.043815185726,-0.451611333396,0.0,0.0240997004619,0.0,0.640185409581,0.0,1363.94342326,510.014655332,25.0401813746,72.6202977492,186.293070206,-136.164639793,1.17608341376,100.0,1.22211393516,100.0,1.17608341376,100.0,1.22211393516,100.0,148867100.246,0.0,0.0,0.0,0.0,0.0,0.0
1402603106870056360,2,-8.83910618819,9.88567784727,-49.8420942749,0.043815185726,-0.451611333396,0.0,0.0240997004619,0.0,0.640185409581,0.0,1363.94342326,510.014655332,25.0401813746,76.4671740242,184.758250913,-134.913148498,1.15767082374,100.0,1.19909843604,100.0,1.15767082374,100.0,1.19909843604,100.0,148668152.793,0.0,0.0,0.0,0.0,0.0,0.0
1402603106871432079,2,-8.83910618819,9.88567784727,-49.8420942749,0.043815185726,-0.451611333396,0.0,0.0240997004619,0.0,0.640185409581,0.0,1363.94342326,510.014655332,25.0401813746,76.4671740242,184.758250913,-134.913148498,1.15767082374,100.0,1.19909843604,100.0,1.15767082374,100.0,1.19909843604,100.0,148668152.793,0.0,0.0,0.0,0.0,0.0,0.0
1402603106889581215,2,-8.86232437364,9.88567784727,-49.8390170403,0.043815185726,-0.433839387869,0.0,0.0383414564449,0.0,0.617419335775,0.0,1358.55698444,588.94832885,21.5593399604,77.1740335748,184.460602792,-134.738957222,1.15306791465,100.0,1.19602998893,100.0,1.15306791465,100.0,1.19602998893,100.0,176216852.455,0.0,0.0,0.0,0.0,0.0,0.0
1402603106890386505,2,-8.86232437364,9.88567784727,-49.8390170403,0.043815185726,-0.433839387869,0.0,0.0383414564449,0.0,0.617419335775,0.0,1358.55698444,588.94832885,21.5593399604,77.1740335748,184.460602792,-134.738957222,1.15306791465,100.0,1.19602998893,100.0,1.15306791465,100.0,1.19602998893,100.0,176216852.455,0.0,0.0,0.0,0.0,0.0,0.0
1402603106909485220,2,-8.86232437364,9.88567784727,-49.8390170403,0.043815185726,-0.433839387869,0.0,0.0383414564449,0.0,0.617419335775,0.0,1358.55698444,588.94832885,21.5593399604,78.9961962243,183.650156158,-134.533705589,1.13619026343,100.0,1.19296154181,100.0,1.13619026343,100.0,1.19296154181,100.0,176279614.365,0.0,0.0,0.0,0.0,0.0,0.0
1402603106910350136,2,-8.86232437364,9.88567784727,-49.8390170403,0.043815185726,-0.433839387869,0.0,0.0383414564449,0.0,0.617419335775,0.0,1358.55698444,588.94832885,21.5593399604,78.9961962243,183.650156158,-134.533705589,1.13619026343,100.0,1.19296154181,100.0,1.13619026343,100.0,1.19296154181,100.0,176279614.365,0.0,0.0,0.0,0.0,0.0,0.0
1402603106929965109,2,-8.88248324937,9.88567784727,-49.8232221765,0.043815185726,-0.38278995899,0.0,0.0765042382922,0.0,0.599836697198,0.0,1349.65274132,648.865145325,15.1231066076,80.1284779501,183.176948803,-134.015599923,1.13312133948,100.0,1.1837552468,100.0,1.13312133948,100.0,1.1837552468,100.0,200238517.847,0.0,0.0,0.0,0.0,0.0,0.0
1402603106931171882,2,-8.88248324937,9.88567784727,-49.8232221765,0.043815185726,-0.38278995899,0.0,0.0765042382922,0.0,0.599836697198,0.0,1349.65274132,648.865145325,15.1231066076,80.1284779501,183.176948803,-134.015599923,1.13312133948,100.0,1.1837552468,100.0,1.13312133948,100.0,1.1837552468,100.0,200238517.847,0.0,0.0,0.0,0.0,0.0,0.0
1402603106949599385,2,-8.88248324937,9.88567784727,-49.8232221765,0.043815185726,-0.38278995899,0.0,0.0765042382922,0.0,0.599836697198,0.0,1349.65274132,648.865145325,15.1231066076,79.9950968433,183.254823487,-133.858184302,1.13772472541,100.0,1.18068632285,100.0,1.13772472541,100.0,1.18068632285,100.0,200195725.13,0.0,0.0,0.0,0.0,0.0,0.0
1402603106950859105,2,-8.88248324937,9.88567784727,-49.8232221765,0.043815185726,-0.38278995899,0.0,0.0765042382922,0.0,0.599836697198,0.0,1349.65274132,648.865145325,15.1231066076,79.9950968433,183.254823487,-133.858184302,1.13772472541,100.0,1.18068632285,100.0,1.13772472541,100.0,1.18068632285,100.0,200195725.13,0.0,0.0,0.0,0.0,0.0,0.0
1402603106970168827,2,-8.90390504803,9.88567784727,-49.8219617942,0.043815185726,-0.364522965562,0.0,0.0873125088755,0.0,0.581113996368,0.0,1344.0011652,713.181150692,9.14590428114,80.4204004635,183.078800257,-133.601128542,1.13772472541,100.0,1.17608341376,100.0,1.13772472541,100.0,1.17608341376,100.0,230624426.108,0.0,0.0,0.0,0.0,0.0,0.0
1402603106971320290,2,-8.90390504803,9.88567784727,-49.8219617942,0.043815185726,-0.364522965562,0.0,0.0873125088755,0.0,0.581113996368,0.0,1344.0011652,713.181150692,9.14590428114,80.4204004635,183.078800257,-133.601128542,1.13772472541,100.0,1.17608341376,100.0,1.13772472541,100.0,1.17608341376,100.0,230624426.108,0.0,0.0,0.0,0.0,0.0,0.0
1402603106989689843,2,-8.90390504803,9.88567784727,-49.8219617942,0.043815185726,-0.364522965562,0.0,0.0873125088755,0.0,0.581113996368,0.0,1344.0011652,713.181150692,9.14590428114,80.6987627988,182.949582308,-133.592432509,1.13465580146,100.0,1.17608341376,100.0,1.13465580146,100.0,1.17608341376,100.0,230656522.445,0.0,0.0,0.0,0.0,0.0,0.0
1402603106990452749,2,-8.90390504803,9.88567784727,-49.8219617942,0.043815185726,-0.364522965562,0.0,0.0873125088755,0.0,0.581113996368,0.0,1344.0011652,713.181150692,9.14590428114,80.6987627988,182.949582308,-133.592432509,1.13465580146,100.0,1.17608341376,100.0,1.13465580146,100.0,1.17608341376,100.0,230656522.445,0.0,0.0,0.0,0.0,0.0,0.0
1402603107010037563,2,-8.91119737856,9.88567784727,-49.8201361748,0.043815185726,-0.343703972455,0.0,0.101001164155,0.0,0.575151690216,0.0,1340.36841959,733.32200791,7.13037403797,80.6987627988,182.949582308,-133.592432509,1.13465580146,100.0,1.17608341376,100.0,1.13465580146,100.0,1.17608341376,100.0,240794739.784,0.0,0.0,0.0,0.0,0.0,0.0
1402603107011211507,2,-8.91119737856,9.88567784727,-49.8201361748,0.043815185726,-0.343703972455,0.0,0.101001164155,0.0,0.575151690216,0.0,1340.36841959,733.32200791,7.13037403797,80.6987627988,182.949582308,-133.592432509,1.13465580146,100.0,1.17608341376,100.0,1.13465580146,100.0,1.17608341376,100.0,240794739.784,0.0,0.0,0.0,0.0,0.0,0.0
1402603107029417673,2,-8.91119737856,9.88567784727,-49.8201361748,0.043815185726,-0.343703972455,0.0,0.101001164155,0.0,0.575151690216,0.0,1340.36841959,733.32200791,7.13037403797,80.6987627988,182.949582308,-133.592432509,1.13465580146,100.0,1.17608341376,100.0,1.13465580146,100.0,1.17608341376,100.0,240794739.784,0.0,0.0,0.0,0.0,0.0,0.0
1402603107030290207,2,-8.91119737856,9.88567784727,-49.8201361748,0.043815185726,-0.343703972455,0.0,0.101001164155,0.0,0.575151690216,0.0,1340.36841959,733.32200791,7.13037403797,80.6987627988,182.949582308,-133.592432509,1.13465580146,100.0,1.17608341376,100.0,1.13465580146,100.0,1.17608341376,100.0,240794739.784,0.0,0.0,0.0,0.0,0.0,0.0
1402603107050077421,2,-8.92710183191,9.88567784727,-49.8430367209,0.043815185726,-0.3033629987,0.0,0.0663975372221,0.0,0.553512678904,0.0,1330.22998972,808.834418407,3.47148079835,80.6987627988,182.949582308,-133.592432509,1.13465580146,100.0,1.17608341376,100.0,1.13465580146,100.0,1.17608341376,100.0,283425586.547,0.0,0.0,0.0,0.0,0.0,0.0
1402603107051212074,2,-8.92710183191,9.88567784727,-49.8430367209,0.043815185726,-0.3033629987,0.0,0.0663975372221,0.0,0.553512678904,0.0,1330.22998972,808.834418407,3.47148079835,80.6987627988,182.949582308,-133.592432509,1.13465580146,100.0,1.17608341376,100.0,1.13465580146,100.0,1.17608341376,100.0,283425586.547,0.0,0.0,0.0,0.0,0.0,0.0
1402603107069318136,2,-8.92710183191,9.88567784727,-49.8430367209,0.043815185726,-0.3033629987,0.0,0.0663975372221,0.0,0.553512678904,0.0,1330.22998972,808.834418407,3.47148079835,80.8403647305,182.890466964,-133.506478642,1.13465580146,100.0,1.17454895179,100.0,1.13465580146,100.0,1.17454895179,100.0,283433117.611,0.0,0.0,0.0,0.0,0.0,0.0
1402603107070014905,2,-8.92710183191,9.88567784727,-49.8430367209,0.043815185726,-0.3033629987,0.0,0.0663975372221,0.0,0.553512678904,0.0,1330.22998972,808.834418407,3.47148079835,80.8403647305,182.890466964,-133.506478642,1.13465580146,100.0,1.17454895179,100.0,1.13465580146,100.0,1.17454895179,100.0,283433117.611,0.0,0.0,0.0,0.0,0.0,0.0
1402603107089961501,2,-8.9390581514,9.88567784727,-49.8398162805,0.043815185726,-0.271418533395,0.0,0.087557575667,0.0,0.547570205334,0.0,1325.42128117,828.520717505,-0.512551804552,80.8403647305,182.890466964,-133.506478642,1.13465580146,100.0,1.17454895179,100.0,1.13465580146,100.0,1.17454895179,100.0,294811985.373,0.0,0.0,0.0,0.0,0.0,0.0
1402603107091009466,2,-8.9390581514,9.88567784727,-49.8398162805,0.043815185726,-0.271418533395,0.0,0.087557575667,0.0,0.547570205334,0.0,1325.42128117,828.520717505,-0.512551804552,80.8403647305,182.890466964,-133.506478642,1.13465580146,100.0,1.17454895179,100.0,1.13465580146,100.0,1.17454895179,100.0,294811985.373,0.0,0.0,0.0,0.0,0.0,0.0
1402603107109483653,2,-8.9390581514,9.88567784727,-49.8398162805,0.043815185726,-0.271418533395,0.0,0.087557575667,0.0,0.547570205334,0.0,1325.42128117,828.520717505,-0.512551804552,80.8403647305,182.890466964,-133.506478642,1.13465580146,100.0,1.17454895179,100.0,1.13465580146,100.0,1.17454895179,100.0,294811985.373,0.0,0.0,0.0,0.0,0.0,0.0
1402603107110306891,2,-8.9390581514,9.88567784727,-49.8398162805,0.043815185726,-0.271418533395,0.0,0.087557575667,0.0,0.547570205334,0.0,1325.42128117,828.520717505,-0.512551804552,80.8403647305,182.890466964,-133.506478642,1.13465580146,100.0,1.17454895179,100.0,1.13465580146,100.0,1.17454895179,100.0,294811985.373,0.0,0.0,0.0,0.0,0.0,0.0
1402603107129929098,2,-8.95227664797,9.88567784727,-49.8425623463,0.043815185726,-0.237949130081,0.0,0.0817195928357,0.0,0.543903494711,0.0,1321.22649748,841.261728908,-4.05600391897,80.8403647305,182.890466964,-133.506478642,1.13465580146,100.0,1.17454895179,100.0,1.13465580146,100.0,1.17454895179,100.0,302132959.895,0.0,0.0,0.0,0.0,0.0,0.0
1402603107131093948,2,-8.95227664797,9.88567784727,-49.8425623463,0.043815185726,-0.237949130081,0.0,0.0817195928357,0.0,0.543903494711,0.0,1321.22649748,841.261728908,-4.05600391897,80.8403647305,182.890466964,-133.506478642,1.13465580146,100.0,1.17454895179,100.0,1.13465580146,100.0,1.17454895179,100.0,302132959.895,0.0,0.0,0.0,0.0,0.0,0.0
1402603107149426092,2,-8.95227664797,9.88567784727,-49.8425623463,0.043815185726,-0.237949130081,0.0,0.0817195928357,0.0,0.543903494711,0.0,1321.22649748,841.261728908,-4.05600391897,80.8403647305,182.890466964,-133.506478642,1.13465580146,100.0,1.17454895179,100.0,1.13465580146,100.0,1.17454895179,100.0,302132959.895,0.0,0.0,0.0,0.0,0.0,0.0
1402603107150151219,2,-8.95227664797,9.88567784727,-49.8425623463,0.043815185726,-0.237949130081,0.0,0.0817195928357,0.0,0.543903494711,0.0,1321.22649748,841.261728908,-4.05600391897,80.8403647305,182.890466964,-133.506478642,1.13465580146,100.0,1.17454895179,100.0,1.13465580146,100.0,1.17454895179,100.0,302132959.895,0.0,0.0,0.0,0.0,0.0,0.0
1402603107169437391,2,-8.96531881757,9.88567784727,-49.8536509929,0.043815185726,-0.188468513155,0.0,0.0609265661297,0.0,0.539294861894,0.0,1314.8254556,857.795215396,-8.67969716163,80.8377949288,182.884653133,-133.587807272,1.13312133948,100.0,1.17608341376,100.0,1.13312133948,100.0,1.17608341376,100.0,311789428.847,0.0,0.0,0.0,0.0,0.0,0.0
1402603107170149670,2,-8.96531881757,9.88567784727,-49.8536509929,0.043815185726,-0.188468513155,0.0,0.0609265661297,0.0,0.539294861894,0.0,1314.8254556,857.795215396,-8.67969716163,80.8377949288,182.884653133,-133.587807272,1.13312133948,100.0,1.17608341376,100.0,1.13312133948,100.0,1.17608341376,100.0,311789428.847,0.0,0.0,0.0,0.0,0.0,0.0
1402603107189718841,2,-8.96531881757,9.88567784727,-49.8536509929,0.043815185726,-0.188468513155,0.0,0.0609265661297,0.0,0.539294861894,0.0,1314.8254556,857.795215396,-8.67969716163,80.8403647305,182.890466964,-133.506478642,1.13465580146,100.0,1.17454895179,100.0,1.13465580146,100.0,1.17454895179,100.0,311775032.64,0.0,0.0,0.0,0.0,0.0,0.0
1402603107190992294,2,-8.96531881757,9.88567784727,-49.8536509929,0.043815185726,-0.188468513155,0.0,0.0609265661297,0.0,0.539294861894,0.0,1314.8254556,857.795215396,-8.67969716163,80.8403647305,182.890466964,-133.506478642,1.13465580146,100.0,1.17454895179,100.0,1.13465580146,100.0,1.17454895179,100.0,311775032.64,0.0,0.0,0.0,0.0,0.0,0.0
1402603107209161564,2,-8.97648197156,9.88567784727,-49.8797854969,0.043815185726,-0.179260348718,0.0,0.0281489600954,0.0,0.530166561559,0.0,1311.44618209,890.394417911,-10.9355399611,9.79317772029e-10,200.0,-144.78,1.13465580146,100.0,1.17608341376,100.0,1.57079632679,100.0,1.57079632679,100.0,333373950.311,0.0,0.0,0.0,0.0,0.0,0.0
1402603107210060323,2,-8.97648197156,9.88567784727,-49.8797854969,0.043815185726,-0.179260348718,0.0,0.0281489600954,0.0,0.530166561559,0.0,1311.44618209,890.394417911,-10.9355399611,9.79317772029e-10,200.0,-144.78,1.13465580146,100.0,1.17608341376,100.0,1.57079632679,100.0,1.57079632679,100.0,333373950.311,0.0,0.0,0.0,0.0,0.0,0.0
1402603107229342669,2,-8.98022395678,9.88567784727,-49.8791191568,0.043815185726,-0.154755528255,0.0,0.0271303204105,0.0,0.533182844757,0.0,1309.86968139,880.116211293,-12.6456420058,9.79317772029e-10,200.0,-144.78,1.13465580146,100.0,1.17608341376,100.0,1.57079632679,100.0,1.57079632679,100.0,325896703.826,0.0,0.0,0.0,0.0,0.0,0.0
1402603107230276415,2,-8.98022395678,9.88567784727,-49.8791191568,0.043815185726,-0.154755528255,0.0,0.0271303204105,0.0,0.533182844757,0.0,1309.86968139,880.116211293,-12.6456420058,9.79317772029e-10,200.0,-144.78,1.13465580146,100.0,1.17608341376,100.0,1.57079632679,100.0,1.57079632679,100.0,325896703.826,0.0,0.0,0.0,0.0,0.0,0.0
1402603107249439027,2,-8.98022395678,9.88567784727,-49.8791191568,0.043815185726,-0.154755528255,0.0,0.0271303204105,0.0,0.533182844757,0.0,1309.86968139,880.116211293,-12.6456420058,9.79317772029e-10,200.0,-144.78,1.13465580146,100.0,1.17761787574,100.0,1.57079632679,100.0,1.57079632679,100.0,325896703.826,0.0,0.0,0.0,0.0,0.0,0.0
1402603107250194873,2,-8.98022395678,9.88567784727,-49.8791191568,0.043815185726,-0.154755528255,0.0,0.0271303204105,0.0,0.533182844757,0.0,1309.86968139,880.116211293,-12.6456420058,9.79317772029e-10,200.0,-144.78,1.13465580146,100.0,1.17761787574,100.0,1.57079632679,100.0,1.57079632679,100.0,325896703.826,0.0,0.0,0.0,0.0,0.0,0.0
1402603107270145346,2,-8.98327857024,9.88567784727,-49.8785765072,0.043815185726,-0.134954363284,0.0,0.0289858378491,0.0,0.536738556982,0.0,1308.95877381,867.902622564,-14.608616781,78.0222684288,184.103424927,-134.478057212,1.14846500556,100.0,1.19142707984,100.0,1.14846500556,100.0,1.19142707984,100.0,316835246.733,0.0,0.0,0.0,0.0,0.0,0.0
1402603107271105313,2,-8.98327857024,9.88567784727,-49.8785765072,0.043815185726,-0.134954363284,0.0,0.0289858378491,0.0,0.536738556982,0.0,1308.95877381,867.902622564,-14.608616781,78.0222684288,184.103424927,-134.478057212,1.14846500556,100.0,1.19142707984,100.0,1.14846500556,100.0,1.19142707984,100.0,316835246.733,0.0,0.0,0.0,0.0,0.0,0.0
1402603107289534732,2,-8.98327857024,9.88567784727,-49.8785765072,0.043815185726,-0.134954363284,0.0,0.0289858378491,0.0,0.536738556982,0.0,1308.95877381,867.902622564,-14.608616781,74.4643290506,185.533939143,-135.913678853,1.16073974769,100.0,1.21751102607,100.0,1.16073974769,100.0,1.21751102607,100.0,316469795.805,0.0,0.0,0.0,0.0,0.0,0.0
1402603107290235871,2,-8.98327857024,9.88567784727,-49.8785765072,0.043815185726,-0.134954363284,0.0,0.0289858378491,0.0,0.536738556982,0.0,1308.95877381,867.902622564,-14.608616781,74.4643290506,185.533939143,-135.913678853,1.16073974769,100.0,1.21751102607,100.0,1.16073974769,100.0,1.21751102607,100.0,316469795.805,0.0,0.0,0.0,0.0,0.0,0.0
1402603107310020091,2,-8.98940110676,9.88567784727,-49.880386473,0.043815185726,-0.0881466371029,0.0,0.0293292588343,0.0,0.54341100216,0.0,1306.0926178,845.097218668,-18.0637528211,68.4514655326,187.844521794,-137.518383332,1.19449552695,100.0,1.24819788138,100.0,1.19449552695,100.0,1.24819788138,100.0,299813039.239,0.0,0.0,0.0,0.0,0.0,0.0
1402603107311444984,2,-8.98940110676,9.88567784727,-49.880386473,0.043815185726,-0.0881466371029,0.0,0.0293292588343,0.0,0.54341100216,0.0,1306.0926178,845.097218668,-18.0637528211,68.4514655326,187.844521794,-137.518383332,1.19449552695,100.0,1.24819788138,100.0,1.19449552695,100.0,1.24819788138,100.0,299813039.239,0.0,0.0,0.0,0.0,0.0,0.0
1402603107329478050,2,-8.98940110676,9.88567784727,-49.880386473,0.043815185726,-0.0881466371029,0.0,0.0293292588343,0.0,0.54341100216,0.0,1306.0926178,845.097218668,-18.0637528211,65.8421543229,188.746519921,-138.443768177,1.20370182197,100.0,1.26661047141,100.0,1.20370182197,100.0,1.26661047141,100.0,299654854.53,0.0,0.0,0.0,0.0,0.0,0.0
1402603107330298556,2,-8.98940110676,9.88567784727,-49.880386473,0.043815185726,-0.0881466371029,0.0,0.0293292588343,0.0,0.54341100216,0.0,1306.0926178,845.097218668,-18.0637528211,65.8421543229,188.746519921,-138.443768177,1.20370182197,100.0,1.26661047141,100.0,1.20370182197,100.0,1.26661047141,100.0,299654854.53,0.0,0.0,0.0,0.0,0.0,0.0
1402603107350034631,2,-8.99227049993,9.88567784727,-49.8793204909,0.043815185726,-0.049108500915,0.0,0.0313177832845,0.0,0.555882539323,0.0,1305.62912278,802.259811972,-21.1605818822,65.5585183699,188.864659331,-138.35361214,1.20830473105,100.0,1.26507600943,100.0,1.20830473105,100.0,1.26507600943,100.0,271982665.009,0.0,0.0,0.0,0.0,0.0,0.0
1402603107351169140,2,-8.99227049993,9.88567784727,-49.8793204909,0.043815185726,-0.049108500915,0.0,0.0313177832845,0.0,0.555882539323,0.0,1305.62912278,802.259811972,-21.1605818822,65.5585183699,188.864659331,-138.35361214,1.20830473105,100.0,1.26507600943,100.0,1.20830473105,100.0,1.26507600943,100.0,271982665.009,0.0,0.0,0.0,0.0,0.0,0.0
1402603107369459847,2,-8.99227049993,9.88567784727,-49.8793204909,0.043815185726,-0.049108500915,0.0,0.0313177832845,0.0,0.555882539323,0.0,1305.62912278,802.259811972,-21.1605818822,65.5585183699,188.864659331,-138.35361214,1.20830473105,100.0,1.26507600943,100.0,1.20830473105,100.0,1.26507600943,100.0,271982665.009,0.0,0.0,0.0,0.0,0.0,0.0
1402603107370560974,2,-8.99227049993,9.88567784727,-49.8793204909,0.043815185726,-0.049108500915,0.0,0.0313177832845,0.0,0.555882539323,0.0,1305.62912278,802.259811972,-21.1605818822,65.5585183699,188.864659331,-138.35361214,1.20830473105,100.0,1.26507600943,100.0,1.20830473105,100.0,1.26507600943,100.0,271982665.009,0.0,0.0,0.0,0.0,0.0,0.0
1402603107389729977,2,-8.97418428572,9.88567784727,-49.829947969,0.043815185726,0.0640802004759,0.0,0.0801384635417,0.0,0.592464384193,0.0,1301.27304827,674.337208276,-24.2281201342,65.6957174645,188.792367248,-138.521591012,1.20370182197,100.0,1.26814493339,100.0,1.20370182197,100.0,1.26814493339,100.0,200840962.087,0.0,0.0,0.0,0.0,0.0,0.0
1402603107390442807,2,-8.97418428572,9.88567784727,-49.829947969,0.043815185726,0.0640802004759,0.0,0.0801384635417,0.0,0.592464384193,0.0,1301.27304827,674.337208276,-24.2281201342,65.6957174645,188.792367248,-138.521591012,1.20370182197,100.0,1.26814493339,100.0,1.20370182197,100.0,1.26814493339,100.0,200840962.087,0.0,0.0,0.0,0.0,0.0,0.0
1402603107409971046,2,-8.97418428572,9.88567784727,-49.829947969,0.043815185726,0.0640802004759,0.0,0.0801384635417,0.0,0.592464384193,0.0,1301.27304827,674.337208276,-24.2281201342,64.675963608,189.127905082,-138.900615112,1.20677026908,100.0,1.27581676642,100.0,1.20677026908,100.0,1.27581676642,100.0,200847541.995,0.0,0.0,0.0,0.0,0.0,0.0
1402603107410844135,2,-8.97418428572,9.88567784727,-49.829947969,0.043815185726,0.0640802004759,0.0,0.0801384635417,0.0,0.592464384193,0.0,1301.27304827,674.337208276,-24.2281201342,64.675963608,189.127905082,-138.900615112,1.20677026908,100.0,1.27581676642,100.0,1.20677026908,100.0,1.27581676642,100.0,200847541.995,0.0,0.0,0.0,0.0,0.0,0.0
1402603107429433740,2,-8.97015927609,9.88567784727,-49.8257305469,0.043815185726,0.109200772491,0.0,0.0895723443172,0.0,0.613619507127,0.0,1300.72310959,600.925392584,-27.4595905169,64.5357986399,189.192008071,-138.814817287,1.20983919303,100.0,1.27428230445,100.0,1.20983919303,100.0,1.27428230445,100.0,167470136.613,0.0,0.0,0.0,0.0,0.0,0.0
1402603107430693357,2,-8.97015927609,9.88567784727,-49.8257305469,0.043815185726,0.109200772491,0.0,0.0895723443172,0.0,0.613619507127,0.0,1300.72310959,600.925392584,-27.4595905169,64.5357986399,189.192008071,-138.814817287,1.20983919303,100.0,1.27428230445,100.0,1.20983919303,100.0,1.27428230445,100.0,167470136.613,0.0,0.0,0.0,0.0,0.0,0.0
1402603107449427371,2,-8.97015927609,9.88567784727,-49.8257305469,0.043815185726,0.109200772491,0.0,0.0895723443172,0.0,0.613619507127,0.0,1300.72310959,600.925392584,-27.4595905169,64.5357986399,189.192008071,-138.814817287,1.20983919303,100.0,1.27428230445,100.0,1.20983919303,100.0,1.27428230445,100.0,167470136.613,0.0,0.0,0.0,0.0,0.0,0.0
1402603107450328652,2,-8.97015927609,9.88567784727,-49.8257305469,0.043815185726,0.109200772491,0.0,0.0895723443172,0.0,0.613619507127,0.0,1300.72310959,600.925392584,-27.4595905169,64.5357986399,189.192008071,-138.814817287,1.20983919303,100.0,1.27428230445,100.0,1.20983919303,100.0,1.27428230445,100.0,167470136.613,0.0,0.0,0.0,0.0,0.0,0.0
1402603107470033469,2,-8.96064703091,9.88567784727,-49.840215307,0.043815185726,0.145087600328,0.0,0.0566752699748,0.0,0.633481632179,0.0,1300.00969846,532.768192002,-31.5859993702,64.2422072758,189.281214091,-138.968880173,1.20983919303,100.0,1.27735075156,100.0,1.20983919303,100.0,1.27735075156,100.0,141213258.156,0.0,0.0,0.0,0.0,0.0,0.0
1402603107470829255,2,-8.96064703091,9.88567784727,-49.840215307,0.043815185726,0.145087600328,0.0,0.0566752699748,0.0,0.633481632179,0.0,1300.00969846,532.768192002,-31.5859993702,64.2422072758,189.281214091,-138.968880173,1.20983919303,100.0,1.27735075156,100.0,1.20983919303,100.0,1.27735075156,100.0,141213258.156,0.0,0.0,0.0,0.0,0.0,0.0
1402603107489336830,2,-8.96064703091,9.88567784727,-49.840215307,0.043815185726,0.145087600328,0.0,0.0566752699748,0.0,0.633481632179,0.0,1300.00969846,532.768192002,-31.5859993702,64.0952864596,189.325486031,-139.045710095,1.20983919303,100.0,1.27888521354,100.0,1.20983919303,100.0,1.27888521354,100.0,141224462.547,0.0,0.0,0.0,0.0,0.0,0.0
1402603107490597206,2,-8.96064703091,9.88567784727,-49.840215307,0.043815185726,0.145087600328,0.0,0.0566752699748,0.0,0.633481632179,0.0,1300.00969846,532.768192002,-31.5859993702,64.0952864596,189.325486031,-139.045710095,1.20983919303,100.0,1.27888521354,100.0,1.20983919303,100.0,1.27888521354,100.0,141224462.547,0.0,0.0,0.0,0.0,0.0,0.0
1402603107509132982,2,-8.9704021602,9.88567784727,-49.8702076112,0.043815185726,0.118521766414,0.0,0.0106063161321,0.0,0.632150865693,0.0,1303.58848828,538.569707546,-32.5179129374,63.8046983559,189.423614882,-139.117778553,1.211373655,100.0,1.28041967551,100.0,1.211373655,100.0,1.28041967551,100.0,143586454.974,0.0,0.0,0.0,0.0,0.0,0.0
1402603107509909035,2,-8.9704021602,9.88567784727,-49.8702076112,0.043815185726,0.118521766414,0.0,0.0106063161321,0.0,0.632150865693,0.0,1303.58848828,538.569707546,-32.5179129374,63.8046983559,189.423614882,-139.117778553,1.211373655,100.0,1.28041967551,100.0,1.211373655,100.0,1.28041967551,100.0,143586454.974,0.0,0.0,0.0,0.0,0.0,0.0
1402603107529337654,2,-8.9704021602,9.88567784727,-49.8702076112,0.043815185726,0.118521766414,0.0,0.0106063161321,0.0,0.632150865693,0.0,1303.58848828,538.569707546,-32.5179129374,63.6576880729,189.467422143,-139.194299363,1.211373655,100.0,1.28195366065,100.0,1.211373655,100.0,1.28195366065,100.0,143597548.013,0.0,0.0,0.0,0.0,0.0,0.0
1402603107530034731,2,-8.9704021602,9.88567784727,-49.8702076112,0.043815185726,0.118521766414,0.0,0.0106063161321,0.0,0.632150865693,0.0,1303.58848828,538.569707546,-32.5179129374,63.6576880729,189.467422143,-139.194299363,1.211373655,100.0,1.28195366065,100.0,1.211373655,100.0,1.28195366065,100.0,143597548.013,0.0,0.0,0.0,0.0,0.0,0.0
1402603107549993209,2,-8.96554822897,9.88567784727,-49.8696838928,0.043815185726,0.134330248406,0.0,0.0207866195774,0.0,0.655603513641,0.0,1305.72286828,456.490196721,-35.8126261376,63.5105650342,189.511017354,-139.270701038,1.211373655,100.0,1.28348812262,100.0,1.211373655,100.0,1.28348812262,100.0,118245298.056,0.0,0.0,0.0,0.0,0.0,0.0
1402603107551191310,2,-8.96554822897,9.88567784727,-49.8696838928,0.043815185726,0.134330248406,0.0,0.0207866195774,0.0,0.655603513641,0.0,1305.72286828,456.490196721,-35.8126261376,63.5105650342,189.511017354,-139.270701038,1.211373655,100.0,1.28348812262,100.0,1.211373655,100.0,1.28348812262,100.0,118245298.056,0.0,0.0,0.0,0.0,0.0,0.0
1402603107569528354,2,-8.96554822897,9.88567784727,-49.8696838928,0.043815185726,0.134330248406,0.0,0.0207866195774,0.0,0.655603513641,0.0,1305.72286828,456.490196721,-35.8126261376,63.2196929281,189.608248754,-139.342155909,1.21290811698,100.0,1.2850225846,100.0,1.21290811698,100.0,1.2850225846,100.0,118262875.881,0.0,0.0,0.0,0.0,0.0,0.0
1402603107570345047,2,-8.96554822897,9.88567784727,-49.8696838928,0.043815185726,0.134330248406,0.0,0.0207866195774,0.0,0.655603513641,0.0,1305.72286828,456.490196721,-35.8126261376,63.2196929281,189.608248754,-139.342155909,1.21290811698,100.0,1.2850225846,100.0,1.21290811698,100.0,1.2850225846,100.0,118262875.881,0.0,0.0,0.0,0.0,0.0,0.0
1402603107590450885,2,-8.95961058114,9.88567784727,-49.8688138613,0.043815185726,0.136405991055,0.0,0.022796908943,0.0,0.680497799203,0.0,1308.89443488,369.264495134,-37.5685528987,63.3633752734,189.554386758,-139.346959589,1.211373655,100.0,1.2850225846,100.0,1.211373655,100.0,1.2850225846,100.0,98994664.5831,0.0,0.0,0.0,0.0,0.0,0.0
1402603107591765651,2,-8.95961058114,9.88567784727,-49.8688138613,0.043815185726,0.136405991055,0.0,0.022796908943,0.0,0.680497799203,0.0,1308.89443488,369.264495134,-37.5685528987,63.3633752734,189.554386758,-139.346959589,1.211373655,100.0,1.2850225846,100.0,1.211373655,100.0,1.2850225846,100.0,98994664.5831,0.0,0.0,0.0,0.0,0.0,0.0
1402603107609538304,2,-8.95961058114,9.88567784727,-49.8688138613,0.043815185726,0.136405991055,0.0,0.022796908943,0.0,0.680497799203,0.0,1308.89443488,369.264495134,-37.5685528987,63.072436792,189.65139225,-139.418271156,1.21290811698,100.0,1.28655704657,100.0,1.21290811698,100.0,1.28655704657,100.0,99020738.4647,0.0,0.0,0.0,0.0,0.0,0.0
1402603107610352031,2,-8.95961058114,9.88567784727,-49.8688138613,0.043815185726,0.136405991055,0.0,0.022796908943,0.0,0.680497799203,0.0,1308.89443488,369.264495134,-37.5685528987,63.072436792,189.65139225,-139.418271156,1.21290811698,100.0,1.28655704657,100.0,1.21290811698,100.0,1.28655704657,100.0,99020738.4647,0.0,0.0,0.0,0.0,0.0,0.0
1402603107630190602,2,-8.99939552425,9.88567784727,-49.9385159666,0.043815185726,0.0186561462997,0.0,-0.0407321210688,0.0,0.679259992278,0.0,1325.62668012,374.938458128,-39.4046072334,63.2161191373,189.597530254,-139.423074836,1.211373655,100.0,1.28655704657,100.0,1.211373655,100.0,1.28655704657,100.0,101961497.928,0.0,0.0,0.0,0.0,0.0,0.0
1402603107631712374,2,-8.99939552425,9.88567784727,-49.9385159666,0.043815185726,0.0186561462997,0.0,-0.0407321210688,0.0,0.679259992278,0.0,1325.62668012,374.938458128,-39.4046072334,63.2161191373,189.597530254,-139.423074836,1.211373655,100.0,1.28655704657,100.0,1.211373655,100.0,1.28655704657,100.0,101961497.928,0.0,0.0,0.0,0.0,0.0,0.0
1402603107650220805,2,-8.99939552425,9.88567784727,-49.9385159666,0.043815185726,0.0186561462997,0.0,-0.0407321210688,0.0,0.679259992278,0.0,1325.62668012,374.938458128,-39.4046072334,63.072436792,189.65139225,-139.418271156,1.21290811698,100.0,1.28655704657,100.0,1.21290811698,100.0,1.28655704657,100.0,101969175.744,0.0,0.0,0.0,0.0,0.0,0.0
1402603107651121828,2,-8.99939552425,9.88567784727,-49.9385159666,0.043815185726,0.0186561462997,0.0,-0.0407321210688,0.0,0.679259992278,0.0,1325.62668012,374.938458128,-39.4046072334,63.072436792,189.65139225,-139.418271156,1.21290811698,100.0,1.28655704657,100.0,1.21290811698,100.0,1.28655704657,100.0,101969175.744,0.0,0.0,0.0,0.0,0.0,0.0
1402603107670071341,2,-9.00487079169,9.88567784727,-49.9542295162,0.043815185726,0.00340608225066,0.0,-0.0596262871565,0.0,0.710138205147,0.0,1331.57316978,266.362755107,-40.7759657296,184.327075028,77.6114000116,-56.1828924684,1.21290811698,100.0,1.28809150855,100.0,0.398522445666,100.0,0.398522445666,100.0,83840903.8244,0.0,0.0,0.0,0.0,0.0,0.0
1402603107671172953,2,-9.00487079169,9.88567784727,-49.9542295162,0.043815185726,0.00340608225066,0.0,-0.0596262871565,0.0,0.710138205147,0.0,1331.57316978,266.362755107,-40.7759657296,184.327075028,77.6114000116,-56.1828924684,1.21290811698,100.0,1.28809150855,100.0,0.398522445666,100.0,0.398522445666,100.0,83840903.8244,0.0,0.0,0.0,0.0,0.0,0.0
1402603107689458636,2,-9.00487079169,9.88567784727,-49.9542295162,0.043815185726,0.00340608225066,0.0,-0.0596262871565,0.0,0.710138205147,0.0,1331.57316978,266.362755107,-40.7759657296,184.327075028,77.6114000116,-56.1828924684,1.211373655,100.0,1.28809150855,100.0,0.398522445666,100.0,0.398522445666,100.0,83840903.8244,0.0,0.0,0.0,0.0,0.0,0.0
1402603107690181847,2,-9.00487079169,9.88567784727,-49.9542295162,0.043815185726,0.00340608225066,0.0,-0.0596262871565,0.0,0.710138205147,0.0,1331.57316978,266.362755107,-40.7759657296,184.327075028,77.6114000116,-56.1828924684,1.211373655,100.0,1.28809150855,100.0,0.398522445666,100.0,0.398522445666,100.0,83840903.8244,0.0,0.0,0.0,0.0,0.0,0.0
1402603107709476487,2,-8.98306118397,9.88567784727,-49.8976407922,0.043815185726,0.05542036023,0.0,0.0238614595837,0.0,0.757012547726,0.0,1327.00960133,100.145746718,-42.3751307529,184.327075028,77.6114000116,-56.1828924684,1.20983919303,100.0,1.28809150855,100.0,0.398522445666,100.0,0.398522445666,100.0,65735393.3351,0.0,0.0,0.0,0.0,0.0,0.0
1402603107710468397,2,-8.98306118397,9.88567784727,-49.8976407922,0.043815185726,0.05542036023,0.0,0.0238614595837,0.0,0.757012547726,0.0,1327.00960133,100.145746718,-42.3751307529,184.327075028,77.6114000116,-56.1828924684,1.20983919303,100.0,1.28809150855,100.0,0.398522445666,100.0,0.398522445666,100.0,65735393.3351,0.0,0.0,0.0,0.0,0.0,0.0
1402603107729459909,2,-8.98306118397,9.88567784727,-49.8976407922,0.043815185726,0.05542036023,0.0,0.0238614595837,0.0,0.757012547726,0.0,1327.00960133,100.145746718,-42.3751307529,184.327075028,77.6114000116,-56.1828924684,1.20523628394,100.0,1.27428230445,100.0,0.398522445666,100.0,0.398522445666,100.0,65735393.3349,0.0,0.0,0.0,0.0,0.0,0.0
1402603107730959092,2,-8.98306118397,9.88567784727,-49.8976407922,0.043815185726,0.05542036023,0.0,0.0238614595837,0.0,0.757012547726,0.0,1327.00960133,100.145746718,-42.3751307529,184.327075028,77.6114000116,-56.1828924684,1.20523628394,100.0,1.27428230445,100.0,0.398522445666,100.0,0.398522445666,100.0,65735393.3349,0.0,0.0,0.0,0.0,0.0,0.0
1402603107749516478,2,-8.98154277019,9.88567784727,-49.8972505932,0.043815185726,0.0643601707317,0.0,0.0191956068792,0.0,0.771713651717,0.0,1326.23578732,48.2918731138,-42.7082675071,192.163537514,38.8057000058,-30.48,1.17454895179,100.0,1.25433572928,100.0,0.0,100.0,0.398522445666,100.0,64525752.4025,0.0,0.0,0.0,0.0,0.0,0.0
