rosbagTimestamp,header,seq,stamp,secs,nsecs,frame_id,child_frame_id,pose,pose,position,x,y,z,orientation,x,y,z,w,covariance,twist,twist,linear,x,y,z,angular,x,y,z,covariance
1402416157903096871,,216464,,1402416157,869788885,/enu,/base_link,,,,4.79389631687,21.2556240391,-25.415860592,,-0.0149453274852,-0.0220320942614,0.725410001175,-0.687801973103,"[0.029951141959544705, -0.004305343510020084, -0.004639646662840233, 5.772110606297596e-06, -5.235274980846434e-06, 7.850360962057279e-05, -0.004305343510020084, 0.034025222211008455, 0.004893909778119782, 5.070938852542788e-07, -1.7673805376272775e-06, 2.723216733089567e-05, -0.004639646662840233, 0.004893909778119782, 0.22609021458648118, -8.264730117911065e-06, 7.160193603175859e-06, -3.844432910095633e-05, 5.772110606297596e-06, 5.070938852542788e-07, -8.264730117911065e-06, 5.175781788015072e-06, -2.2904877908063525e-07, 3.327303743448859e-06, -5.235274980846434e-06, -1.7673805376272775e-06, 7.160193603175859e-06, -2.2904877908063525e-07, 3.831982650776725e-06, -2.205172184023883e-06, 7.850360962057279e-05, 2.723216733089567e-05, -3.844432910095633e-05, 3.327303743448859e-06, -2.205172184023883e-06, 0.00010722302195360363]",,,,2.36337273642,0.391394008473,0.0537655550842,,0.0281181436186,0.0182589389645,0.131166523442,"[0.00031380370582013105, -6.547103592424739e-05, 3.6990021408199035e-05, -1.648246750358599e-09, 1.6078237213380212e-08, 1.3890388695521843e-08, -6.547103592424739e-05, 0.0006222499357502287, 2.4679317501741497e-05, 2.1049084579685955e-09, -1.952886325475394e-09, -1.3303846542464908e-07, 3.6990021408199035e-05, 2.4679317501741497e-05, 0.00016663150517566398, -1.6524667808143505e-09, 4.044757302633982e-09, 1.136318993860416e-09, -1.648246750358599e-09, 2.1049084579685955e-09, -1.6524667808143505e-09, 2.4205895232413996e-09, 5.701554304061613e-12, 1.07716354509683e-11, 1.6078237213380212e-08, -1.952886325475394e-09, 4.044757302633982e-09, 5.701554304061613e-12, 2.3938807369063395e-09, 6.982113890242278e-13, 1.3890388695521843e-08, -1.3303846542464908e-07, 1.136318993860416e-09, 1.07716354509683e-11, 6.982113890242278e-13, 2.418553118668813e-09]"
1402416157903282721,,216465,,1402416157,879790067,/enu,/base_link,,,,4.79670793894,21.2319146584,-25.4167760124,,-0.0151017477646,-0.0219335906515,0.724937874143,-0.688299305135,"[0.02995127382247625, -0.004305640333455051, -0.0046388349729546054, 5.762227708675554e-06, -5.090825749248473e-06, 7.871913619962245e-05, -0.004305640333455051, 0.034028275624143685, 0.004894848956863195, 2.3112766985511848e-07, -1.7551471484649e-06, 2.7402833803568974e-05, -0.0046388349729546054, 0.004894848956863195, 0.22610475730008137, -8.292309463216645e-06, 7.1688431582576055e-06, -3.848131228708718e-05, 5.762227708675554e-06, 2.3112766985511848e-07, -8.292309463216645e-06, 5.215694230472694e-06, -2.2906588485936127e-07, 3.3268631686983114e-06, -5.090825749248473e-06, -1.7551471484649e-06, 7.1688431582576055e-06, -2.2906588485936127e-07, 3.872009772217627e-06, -2.205799653590806e-06, 7.871913619962245e-05, 2.7402833803568974e-05, -3.848131228708718e-05, 3.3268631686983114e-06, -2.205799653590806e-06, 0.00010724864559943806]",,,,2.3676185647,0.388573065867,0.0469223035796,,0.0327569446027,0.00853953424089,0.131718799487,"[0.0003195450939300075, -6.605015878426667e-05, 3.825075917023184e-05, -1.670279655743122e-09, 1.6357379416835585e-08, 1.3918196924530398e-08, -6.605015878426667e-05, 0.0006267011988017243, 2.464367308728632e-05, 1.9021037693171578e-09, -1.9895345253750024e-09, -1.3321831545328772e-07, 3.825075917023184e-05, 2.464367308728632e-05, 0.0001673264244625872, -1.6667335686621605e-09, 4.117703698621172e-09, 1.1889950293800822e-09, -1.670279655743122e-09, 1.9021037693171578e-09, -1.6667335686621605e-09, 2.420589420139648e-09, 5.701555626916569e-12, 1.0772372018301639e-11, 1.6357379416835585e-08, -1.9895345253750024e-09, 4.117703698621172e-09, 5.701555626916569e-12, 2.3938806919295617e-09, 6.98237345606514e-13, 1.3918196924530398e-08, -1.3321831545328772e-07, 1.1889950293800822e-09, 1.0772372018301639e-11, 6.98237345606514e-13, 2.4185478275800584e-09]"
1402416157903349199,,216466,,1402416157,889787912,/enu,/base_link,,,,4.79933497276,21.2079033548,-25.4174719971,,-0.0152561490129,-0.0220616139006,0.724460583139,-0.688794162713,"[0.029951490253207955, -0.004305840071654539, -0.004638156823940015, 5.7523906184236205e-06, -4.942986091351675e-06, 7.894145181677212e-05, -0.004305840071654539, 0.034031373795943294, 0.004895680028314297, -4.947725599987989e-08, -1.7428101819169672e-06, 2.7575199260662643e-05, -0.004638156823940015, 0.004895680028314297, 0.2261197135263063, -8.32031071785357e-06, 7.177351239869796e-06, -3.851863005037428e-05, 5.7523906184236205e-06, -4.947725599987989e-08, -8.32031071785357e-06, 5.255578218706776e-06, -2.2908328445291652e-07, 3.3264227741004876e-06, -4.942986091351675e-06, -1.7428101819169672e-06, 7.177351239869796e-06, -2.2908328445291652e-07, 3.9120098563480875e-06, -2.2064373603937536e-06, 7.894145181677212e-05, 2.7575199260662643e-05, -3.851863005037428e-05, 3.3264227741004876e-06, -2.2064373603937536e-06, 0.00010727423499954243]",,,,2.37679375954,0.391049639973,0.0430956218422,,-0.000377388980005,0.0394649059416,0.131497940741,"[0.0003253547530004804, -6.665756105267419e-05, 3.9554337980191144e-05, -1.6923438705224694e-09, 1.663768114017465e-08, 1.3945587934954584e-08, -6.665756105267419e-05, 0.0006312141718414196, 2.473737128891238e-05, 1.6974066724319717e-09, -2.0281578343614303e-09, -1.3339911641873358e-07, 3.9554337980191144e-05, 2.473737128891238e-05, 0.0001680644373394278, -1.6807536285013922e-09, 4.195357391517933e-09, 1.2020253094030089e-09, -1.6923438705224694e-09, 1.6974066724319717e-09, -1.6807536285013922e-09, 2.420589316040432e-09, 5.701556954433757e-12, 1.0773112083450128e-11, 1.663768114017465e-08, -2.0281578343614303e-09, 4.195357391517933e-09, 5.701556954433757e-12, 2.3938806461384858e-09, 6.982636339782981e-13, 1.3945587934954584e-08, -1.3339911641873358e-07, 1.2020253094030089e-09, 1.0773112083450128e-11, 6.982636339782981e-13, 2.4185425342647407e-09]"
1402416157903379057,,216467,,1402416157,900787115,/enu,/base_link,,,,4.80247465655,21.1818454382,-25.4188057074,,-0.0154224187137,-0.0219429020701,0.723937327011,-0.689344184431,"[0.02995169145173378, -0.004306114547871145, -0.004637282230692202, 5.7414730132737156e-06, -4.775681726500242e-06, 7.918822246904823e-05, -0.004306114547871145, 0.034034880757272415, 0.0048966594148604735, -3.643811047952606e-07, -1.7289573291313335e-06, 2.7760248827213217e-05, -0.004637282230692202, 0.0048966594148604735, 0.2261359522487891, -8.350815738725122e-06, 7.1867475266188245e-06, -3.856037391444809e-05, 5.7414730132737156e-06, -3.643811047952606e-07, -8.350815738725122e-06, 5.303876209692411e-06, -2.291009848657965e-07, 3.3259790341128434e-06, -4.775681726500242e-06, -1.7289573291313335e-06, 7.1867475266188245e-06, -2.291009848657965e-07, 3.960424261200316e-06, -2.2070850528114177e-06, 7.918822246904823e-05, 2.7760248827213217e-05, -3.856037391444809e-05, 3.3259790341128434e-06, -2.2070850528114177e-06, 0.00010730835352116571]",,,,2.38283870666,0.386638328247,0.0489414789908,,0.0333091734101,0.00644102341603,0.13326514184,"[0.0003319231272025989, -6.73108876268579e-05, 4.097450782065065e-05, -1.7178629903376315e-09, 1.694964776016468e-08, 1.3973892006388715e-08, -6.73108876268579e-05, 0.0006363649991515882, 2.468850303014498e-05, 1.4696133381807023e-09, -2.070319974245255e-09, -1.3360048481955164e-07, 4.097450782065065e-05, 2.468850303014498e-05, 0.0001688993833023813, -1.6962271065913583e-09, 4.276141856321653e-09, 1.2608171974506686e-09, -1.7178629903376315e-09, 1.4696133381807023e-09, -1.6962271065913583e-09, 2.4205892109052352e-09, 5.701558270092663e-12, 1.0773856084658726e-11, 1.694964776016468e-08, -2.070319974245255e-09, 4.276141856321653e-09, 5.701558270092663e-12, 2.393880599563074e-09, 6.982902224915278e-13, 1.3973892006388715e-08, -1.3360048481955164e-07, 1.2608171974506686e-09, 1.0773856084658726e-11, 6.982902224915278e-13, 2.4185372387510573e-09]"
1402416157943238033,,216468,,1402416157,910789966,/enu,/base_link,,,,4.80526110577,21.1576724273,-25.4193414453,,-0.015506307883,-0.0221182503934,0.723471400812,-0.689825680606,"[0.02995194128940915, -0.004306377081778911, -0.0046364705755187535, 5.731587299385156e-06, -4.620083841385887e-06, 7.941967281990087e-05, -0.004306377081778911, 0.03403805810467003, 0.004897661633778135, -6.55555754556385e-07, -1.7163363162780646e-06, 2.793426429512001e-05, -0.0046364705755187535, 0.004897661633778135, 0.22615068091705315, -8.379481745508274e-06, 7.195005432196775e-06, -3.8597874350515096e-05, 5.731587299385156e-06, -6.55555754556385e-07, -8.379481745508274e-06, 5.343796312594372e-06, -2.2911903815737304e-07, 3.3255389826525435e-06, -4.620083841385887e-06, -1.7163363162780646e-06, 7.195005432196775e-06, -2.2911903815737304e-07, 4.0004635952016915e-06, -2.2077454298027835e-06, 7.941967281990087e-05, 2.793426429512001e-05, -3.8597874350515096e-05, 3.3255389826525435e-06, -2.2077454298027835e-06, 0.00010733396683382533]",,,,2.38900474426,0.394149886008,0.0405468230088,,-0.01683411543,0.0358201263934,0.127632341818,"[0.0003379428421105491, -6.795316580138723e-05, 4.229977569421769e-05, -1.7412323428542945e-09, 1.723501801386581e-08, 1.4005870301424048e-08, -6.795316580138723e-05, 0.0006410378192419903, 2.4859447993839664e-05, 1.2601371732737445e-09, -2.1106093931073656e-09, -1.3378239515319065e-07, 4.229977569421769e-05, 2.4859447993839664e-05, 0.0001696515432094529, -1.709979052832418e-09, 4.353789031035073e-09, 1.2515225698085872e-09, -1.7412323428542945e-09, 1.2601371732737445e-09, -1.709979052832418e-09, 2.4205891047873015e-09, 5.701559696939408e-12, 1.0774604237368466e-11, 1.723501801386581e-08, -2.1106093931073656e-09, 4.353789031035073e-09, 5.701559696939408e-12, 2.3938805522286423e-09, 6.983171874865917e-13, 1.4005870301424048e-08, -1.3378239515319065e-07, 1.2515225698085872e-09, 1.0774604237368466e-11, 6.983171874865917e-13, 2.4185319397362744e-09]"
1402416157943274178,,216469,,1402416157,921787977,/enu,/base_link,,,,4.80824426441,21.1312880558,-25.4204985644,,-0.0156734852939,-0.0219766256035,0.722959321561,-0.690363085017,"[0.029952215175760667, -0.004306635344116327, -0.004635582316576545, 5.720570353459235e-06, -4.444216970049156e-06, 7.967452371515155e-05, -0.004306635344116327, 0.034041701340802595, 0.00489867141220533, -9.820595855351433e-07, -1.702139520673266e-06, 2.811911170054356e-05, -0.004635582316576545, 0.00489867141220533, 0.22616708034056598, -8.410602770293247e-06, 7.2041807468933816e-06, -3.863956776740699e-05, 5.720570353459235e-06, -9.820595855351433e-07, -8.410602770293247e-06, 5.392079907284207e-06, -2.2913739188453285e-07, 3.3250956419787096e-06, -4.444216970049156e-06, -1.702139520673266e-06, 7.2041807468933816e-06, -2.2913739188453285e-07, 4.048866755860788e-06, -2.2084157971634773e-06, 7.967452371515155e-05, 2.811911170054356e-05, -3.863956776740699e-05, 3.3250956419787096e-06, -2.2084157971634773e-06, 0.00010736805801269695]",,,,2.39480931297,0.386129913908,0.0506115454246,,0.0365121485437,0.00367982590015,0.130283125078,"[0.000344739625658547, -6.863117448195754e-05, 4.3755384687330646e-05, -1.768157487440376e-09, 1.7552257604314528e-08, 1.403767066117272e-08, -6.863117448195754e-05, 0.0006463751531031918, 2.4790288947804043e-05, 1.0269746736244365e-09, -2.1538496544678373e-09, -1.339846589320521e-07, 4.3755384687330646e-05, 2.4790288947804043e-05, 0.00017048920891829118, -1.7252974257383367e-09, 4.434918334875878e-09, 1.3148194998952095e-09, -1.768157487440376e-09, 1.0269746736244365e-09, -1.7252974257383367e-09, 2.420588997830867e-09, 5.701561002497961e-12, 1.0775355775331448e-11, 1.7552257604314528e-08, -2.1538496544678373e-09, 4.434918334875878e-09, 5.701561002497961e-12, 2.393880504008924e-09, 6.98344406763804e-13, 1.403767066117272e-08, -1.339846589320521e-07, 1.3148194998952095e-09, 1.0775355775331448e-11, 6.98344406763804e-13, 2.4185266403259305e-09]"
1402416157943302495,,216470,,1402416157,931787967,/enu,/base_link,,,,4.81105334417,21.1070797929,-25.4211513987,,-0.0157530661066,-0.022090860749,0.722462391366,-0.690877650414,"[0.02995251499254818, -0.0043068662558748165, -0.004634837934202609, 5.71057791171603e-06, -4.280705568859667e-06, 7.991294509558704e-05, -0.0043068662558748165, 0.034045039917844855, 0.00489967809355634, -1.2839482894069024e-06, -1.6891777634031061e-06, 2.8291814936556216e-05, -0.004634837934202609, 0.00489967809355634, 0.2261819734245054, -8.439859389641649e-06, 7.212273225274785e-06, -3.867740443686765e-05, 5.71057791171603e-06, -1.2839482894069024e-06, -8.439859389641649e-06, 5.431973052855951e-06, -2.291560987215946e-07, 3.324655975105841e-06, -4.280705568859667e-06, -1.6891777634031061e-06, 7.212273225274785e-06, -2.291560987215946e-07, 4.0888822973072286e-06, -2.2090987939532063e-06, 7.991294509558704e-05, 2.8291814936556216e-05, -3.867740443686765e-05, 3.324655975105841e-06, -2.2090987939532063e-06, 0.00010739363131926705]",,,,2.40148944749,0.394729078768,0.0427864228313,,-0.00877143907489,0.0267634063764,0.136578685189,"[0.00035095505310808, -6.925723291922676e-05, 4.511016805199629e-05, -1.7927561961257174e-09, 1.7842287466005268e-08, 1.4056703969885189e-08, -6.925723291922676e-05, 0.0006512371996672421, 2.4922135293286702e-05, 8.128326200053906e-10, -2.1971052069539715e-09, -1.3416901112309702e-07, 4.511016805199629e-05, 2.4922135293286702e-05, 0.00017123722372632737, -1.7391455018177029e-09, 4.512008765938906e-09, 1.3150266003408558e-09, -1.7927561961257174e-09, 8.128326200053906e-10, -1.7391455018177029e-09, 2.4205888894200372e-09, 5.701562376655465e-12, 1.077611154010594e-11, 1.7842287466005268e-08, -2.1971052069539715e-09, 4.512008765938906e-09, 5.701562376655465e-12, 2.39388045495261e-09, 6.983720055678932e-13, 1.4056703969885189e-08, -1.3416901112309702e-07, 1.3150266003408558e-09, 1.077611154010594e-11, 6.983720055678932e-13, 2.4185213370756947e-09]"
1402416157982942769,,216471,,1402416157,942790031,/enu,/base_link,,,,4.81430159421,21.0806026426,-25.4223149545,,-0.0158865084363,-0.0219847511733,0.721947445938,-0.691416064949,"[0.029952880129260506, -0.00430713242956307, -0.004633889827995161, 5.699507126853831e-06, -4.095906902876724e-06, 8.017788192769656e-05, -0.00430713242956307, 0.03404886119600925, 0.004900755188560396, -1.6225818456356496e-06, -1.6746279113974204e-06, 2.847673936091568e-05, -0.004633889827995161, 0.004900755188560396, 0.2261982813343949, -8.47175669174704e-06, 7.221232080139431e-06, -3.871941144503287e-05, 5.699507126853831e-06, -1.6225818456356496e-06, -8.47175669174704e-06, 5.4802883484261265e-06, -2.2917510387781464e-07, 3.324212977909402e-06, -4.095906902876724e-06, -1.6746279113974204e-06, 7.221232080139431e-06, -2.2917510387781464e-07, 4.13732032804628e-06, -2.2097917912788928e-06, 8.017788192769656e-05, 2.847673936091568e-05, -3.871941144503287e-05, 3.324212977909402e-06, -2.2097917912788928e-06, 0.00010742774200200121]",,,,2.40875204794,0.383128304368,0.052851385505,,0.0275658696102,0.00367982236717,0.130614542257,"[0.00035798018060457864, -6.995623672299372e-05, 4.659830850889385e-05, -1.8210352292319442e-09, 1.816474525093974e-08, 1.4087187032041118e-08, -6.995623672299372e-05, 0.0006567670819777854, 2.489233324655048e-05, 5.7449849434606e-10, -2.2426366504264714e-09, -1.3437303759612756e-07, 4.659830850889385e-05, 2.489233324655048e-05, 0.00017208752932137787, -1.7541034340300681e-09, 4.5937558465712805e-09, 1.3654108660073327e-09, -1.8210352292319442e-09, 5.7449849434606e-10, -1.7541034340300681e-09, 2.4205887801828315e-09, 5.701563801953295e-12, 1.0776870435125963e-11, 1.816474525093974e-08, -2.2426366504264714e-09, 4.5937558465712805e-09, 5.701563801953295e-12, 2.393880405182054e-09, 6.983998922498625e-13, 1.4087187032041118e-08, -1.3437303759612756e-07, 1.3654108660073327e-09, 1.0776870435125963e-11, 6.983998922498625e-13, 2.418516031877044e-09]"
1402416157982972607,,216472,,1402416157,953790903,/enu,/base_link,,,,4.81738444964,21.0538335192,-25.4229897428,,-0.0160608819118,-0.0218948377702,0.721423400371,-0.691961661906,"[0.029953314054378597, -0.004307400741304611, -0.0046329721075987354, 5.688487304532138e-06, -3.905833983594671e-06, 8.045164399815357e-05, -0.004307400741304611, 0.03405275816648736, 0.004901818175981837, -1.9687096318463653e-06, -1.6596452204639918e-06, 2.8651144361476692e-05, -0.0046329721075987354, 0.004901818175981837, 0.22621483276935148, -8.504286639650631e-06, 7.230452338360132e-06, -3.876206468955652e-05, 5.688487304532138e-06, -1.9687096318463653e-06, -8.504286639650631e-06, 5.528590889556672e-06, -2.29194463257142e-07, 3.32377005392378e-06, -3.905833983594671e-06, -1.6596452204639918e-06, 7.230452338360132e-06, -2.29194463257142e-07, 4.185747358736664e-06, -2.210497139033922e-06, 8.045164399815357e-05, 2.8651144361476692e-05, -3.876206468955652e-05, 3.32377005392378e-06, -2.210497139033922e-06, 0.00010746183244257469]",,,,2.41856794381,0.375713479899,0.069946495495,,0.0305479540358,0.0110798206801,0.132713086698,"[0.0003651133049828278, -7.065693678483792e-05, 4.812337951711807e-05, -1.8498696583852592e-09, 1.8489044160402753e-08, 1.4113680866511235e-08, -7.065693678483792e-05, 0.0006624056263367986, 2.4834975876188977e-05, 3.3382025331694635e-10, -2.2894246650734765e-09, -1.3457818948005145e-07, 4.812337951711807e-05, 2.4834975876188977e-05, 0.00017294761180892685, -1.768936991683224e-09, 4.677486055457263e-09, 1.4214292896766523e-09, -1.8498696583852592e-09, 3.3382025331694635e-10, -1.768936991683224e-09, 2.420588669832339e-09, 5.701565245373231e-12, 1.0777633996008374e-11, 1.8489044160402753e-08, -2.2894246650734765e-09, 4.677486055457263e-09, 5.701565245373231e-12, 2.39388035452446e-09, 6.984281053387322e-13, 1.4113680866511235e-08, -1.3457818948005145e-07, 1.4214292896766523e-09, 1.0777633996008374e-11, 6.984281053387322e-13, 2.4185107249230867e-09]"
1402416158022844319,,216473,,1402416157,963788986,/enu,/base_link,,,,4.82028104975,21.0295138787,-25.423679739,,-0.0160582751276,-0.0219235147876,0.72094086814,-0.692463541239,"[0.029953685341753022, -0.004307668288786727, -0.004632055588134114, 5.678398151643386e-06, -3.729291696162151e-06, 8.070426700224241e-05, -0.004307668288786727, 0.03405638249997791, 0.004902890136024936, -2.288471765988429e-06, -1.6459529140766341e-06, 2.8813002149732022e-05, -0.004632055588134114, 0.004902890136024936, 0.22622956904415667, -8.534628171303396e-06, 7.238594792886174e-06, -3.880024892150107e-05, 5.678398151643386e-06, -2.288471765988429e-06, -8.534628171303396e-06, 5.568462305418075e-06, -2.292141801282821e-07, 3.3233309146172042e-06, -3.729291696162151e-06, -1.6459529140766341e-06, 7.238594792886174e-06, -2.292141801282821e-07, 4.225746110917439e-06, -2.2112150718119334e-06, 8.070426700224241e-05, 2.8813002149732022e-05, -3.880024892150107e-05, 3.3233309146172042e-06, -2.2112150718119334e-06, 0.00010748736388074331]",,,,2.42345088709,0.386345895254,0.0625846784515,,-0.00766697677635,0.00312758004867,0.132823571351,"[0.00037167069818011154, -7.131374743562942e-05, 4.948684234170787e-05, -1.876831886650958e-09, 1.8786673815138074e-08, 1.4136724577111061e-08, -7.131374743562942e-05, 0.0006675366508718557, 2.497327524267462e-05, 1.1284954055947442e-10, -2.3346186239211058e-09, -1.3476421541614344e-07, 4.948684234170787e-05, 2.497327524267462e-05, 0.00017368359230717978, -1.7821850531353912e-09, 4.751547091567315e-09, 1.4198549661449089e-09, -1.876831886650958e-09, 1.1284954055947442e-10, -1.7821850531353912e-09, 2.420588558301083e-09, 5.701566686192749e-12, 1.0778401278416669e-11, 1.8786673815138074e-08, -2.3346186239211058e-09, 4.751547091567315e-09, 5.701566686192749e-12, 2.393880302957106e-09, 6.984566342484107e-13, 1.4136724577111061e-08, -1.3476421541614344e-07, 1.4198549661449089e-09, 1.0778401278416669e-11, 6.984566342484107e-13, 2.4185054152208226e-09]"
1402416158022875822,,216474,,1402416157,973789930,/enu,/base_link,,,,4.82314276388,21.0052564229,-25.4244910018,,-0.0161410155725,-0.0219229440477,0.720470136986,-0.692951393571,"[0.029954150558432452, -0.004307889050607836, -0.004631212491642969, 5.668310423088686e-06, -3.548595124153107e-06, 8.096230650471483e-05, -0.004307889050607836, 0.034060085668402816, 0.004903950640566036, -2.613960298857589e-06, -1.6320396006332794e-06, 2.897158247226509e-05, -0.004631212491642969, 0.004903950640566036, 0.2262444618777757, -8.56538256657235e-06, 7.2467877754097065e-06, -3.883891158442984e-05, 5.668310423088686e-06, -2.613960298857589e-06, -8.56538256657235e-06, 5.608354734651208e-06, -2.2923419364568613e-07, 3.3228920193803702e-06, -3.548595124153107e-06, -1.6320396006332794e-06, 7.2467877754097065e-06, -2.2923419364568613e-07, 4.2657673214934935e-06, -2.211943187960201e-06, 8.096230650471483e-05, 2.897158247226509e-05, -3.883891158442984e-05, 3.3228920193803702e-06, -2.211943187960201e-06, 0.0001075129114831286]",,,,2.43140635794,0.37449128511,0.0769799949417,,0.00845839140812,0.0114111604069,0.129731070122,"[0.00037832683545507167, -7.19816842453426e-05, 5.089269411419943e-05, -1.904273081988188e-09, 1.90860038171029e-08, 1.4163361601343831e-08, -7.19816842453426e-05, 0.0006727599996959931, 2.5025679097548894e-05, -1.1050703333730065e-10, -2.3793461775528027e-09, -1.3495026354756548e-07, 5.089269411419943e-05, 2.5025679097548894e-05, 0.00017442287625198891, -1.7954190158145554e-09, 4.827873834240769e-09, 1.4411580663095131e-09, -1.904273081988188e-09, -1.1050703333730065e-10, -1.7954190158145554e-09, 2.4205884457262296e-09, 5.701568168056061e-12, 1.0779172302932988e-11, 1.90860038171029e-08, -2.3793461775528027e-09, 4.827873834240769e-09, 5.701568168056061e-12, 2.3938802506098626e-09, 6.984854422361532e-13, 1.4163361601343831e-08, -1.3495026354756548e-07, 1.4411580663095131e-09, 1.0779172302932988e-11, 6.984854422361532e-13, 2.418500102731902e-09]"
1402416158022899034,,216475,,1402416157,984707117,/enu,/base_link,,,,4.81992689417,21.0128219885,-25.4111625535,,-0.0149749948875,-0.0186969353969,0.721247086977,-0.692263543502,"[0.029935344658492725, -0.004311891557976412, -0.004616375079173233, 5.443328092188948e-06, -4.238078092908032e-06, 7.971557703707366e-05, -0.004311891557976412, 0.0340405499404474, 0.004917708688505287, -1.1562981399198223e-06, -1.6053988522098566e-06, 2.897353891367124e-05, -0.004616375079173233, 0.004917708688505287, 0.22613526187807445, -8.119432793928069e-06, 6.44473833449016e-06, -3.9543345525581844e-05, 5.443328092188948e-06, -1.1562981399198223e-06, -8.119432793928069e-06, 5.341888552210616e-06, -2.4879891839607064e-07, 3.316021673762585e-06, -4.238078092908032e-06, -1.6053988522098566e-06, 6.44473833449016e-06, -2.4879891839607064e-07, 3.963410192512662e-06, -2.7575701125335084e-06, 7.971557703707366e-05, 2.897353891367124e-05, -3.9543345525581844e-05, 3.316021673762585e-06, -2.7575701125335084e-06, 0.00010669061843190826]",,,,2.36657267211,0.366721379369,0.0503043313606,,0.00393217101578,-0.0090249765401,0.135251312677,"[0.00034544395278195687, -6.675966008168064e-05, 4.0733115534398486e-05, -1.652277061539241e-09, 1.741688646786145e-08, 1.3315169688333592e-08, -6.675966008168064e-05, 0.0006365139520718554, 2.3041786129258077e-05, 6.072411705830384e-10, -2.26856382547863e-09, -1.3268248265031968e-07, 4.0733115534398486e-05, 2.3041786129258077e-05, 0.00016824752375678797, -1.591313509518274e-09, 4.173077514541154e-09, 1.6130165603627738e-09, -1.652277061539241e-09, 6.072411705830384e-10, -1.591313509518274e-09, 2.4204329480715916e-09, 5.699768695938271e-12, 1.098803754740788e-11, 1.741688646786145e-08, -2.26856382547863e-09, 4.173077514541154e-09, 5.699768695938271e-12, 2.393777440440541e-09, 7.225942470290709e-13, 1.3315169688333592e-08, -1.3268248265031968e-07, 1.6130165603627738e-09, 1.098803754740788e-11, 7.225942470290709e-13, 2.4182099220876774e-09]"
1402416158062835130,,216476,,1402416157,994790077,/enu,/base_link,,,,4.82256907632,20.9889783423,-25.4120085709,,-0.0150511242661,-0.0187229009163,0.720766226021,-0.692761837912,"[0.029935720496901266, -0.00431210025294434, -0.00461552889915384, 5.432195493561506e-06, -4.079818095248427e-06, 7.993250128247535e-05, -0.00431210025294434, 0.03404407663338756, 0.004918621097562222, -1.459971032641515e-06, -1.592498387063694e-06, 2.9126620848124307e-05, -0.00461552889915384, 0.004918621097562222, 0.2261502904878593, -8.14928443167382e-06, 6.45305232707112e-06, -3.9580945736888905e-05, 5.432195493561506e-06, -1.459971032641515e-06, -8.14928443167382e-06, 5.3824511869402924e-06, -2.4881412228639416e-07, 3.3155922656706047e-06, -4.079818095248427e-06, -1.592498387063694e-06, 6.45305232707112e-06, -2.4881412228639416e-07, 4.004099594867603e-06, -2.7581428775840338e-06, 7.993250128247535e-05, 2.9126620848124307e-05, -3.9580945736888905e-05, 3.3155922656706047e-06, -2.7581428775840338e-06, 0.00010671733782481154]",,,,2.37599160749,0.357342389095,0.0618389305967,,0.00393216621704,0.014169051918,0.131385677252,"[0.0003516919274608726, -6.742551957911916e-05, 4.201782395710637e-05, -1.6766945563244734e-09, 1.7706632972742824e-08, 1.3342652481306627e-08, -6.742551957911916e-05, 0.0006415183723464271, 2.3100296463556553e-05, 3.997614847497173e-10, -2.310705931399502e-09, -1.3289987690096894e-07, 4.201782395710637e-05, 2.3100296463556553e-05, 0.000168963770441183, -1.6031426378820616e-09, 4.2465718989064415e-09, 1.6276900364567726e-09, -1.6766945563244734e-09, 3.997614847497173e-10, -1.6031426378820616e-09, 2.4204328519251257e-09, 5.6997707532036015e-12, 1.0988738626622887e-11, 1.7706632972742824e-08, -2.310705931399502e-09, 4.2465718989064415e-09, 5.6997707532036015e-12, 2.3937773923751095e-09, 7.226156378082616e-13, 1.3342652481306627e-08, -1.3289987690096894e-07, 1.6276900364567726e-09, 1.0988738626622887e-11, 7.226156378082616e-13, 2.4182047824361974e-09]"
1402416158062852684,,216477,,1402416158,5709886,/enu,/base_link,,,,4.82553543934,20.9627646411,-25.4123540004,,-0.0149810152881,-0.0186487586016,0.720252807793,-0.69329913158,"[0.02993616315913049, -0.004312323506135118, -0.004614684059087294, 5.4200359335656134e-06, -3.903567205858551e-06, 8.016890210302536e-05, -0.004312323506135118, 0.034047842973833314, 0.004919925335881528, -1.7953054175872167e-06, -1.5782876802283867e-06, 2.9291143346507805e-05, -0.004614684059087294, 0.004919925335881528, 0.22616609422643844, -8.18137856322924e-06, 6.461947521786178e-06, -3.962201601967584e-05, 5.4200359335656134e-06, -1.7953054175872167e-06, -8.18137856322924e-06, 5.430047174755891e-06, -2.4882959230212875e-07, 3.3151600194580995e-06, -3.903567205858551e-06, -1.5782876802283867e-06, 6.461947521786178e-06, -2.4882959230212875e-07, 4.051822932836939e-06, -2.7587258272681365e-06, 8.016890210302536e-05, 2.9291143346507805e-05, -3.962201601967584e-05, 3.3151600194580995e-06, -2.7587258272681365e-06, 0.00010675118501100053]",,,,2.38031699869,0.363919052403,0.0622006029785,,-0.00192157006841,-0.0189652782755,0.130281236454,"[0.0003586371975600545, -6.815899513200465e-05, 4.3353225049410724e-05, -1.704379023542971e-09, 1.8024258020178356e-08, 1.3374697710548298e-08, -6.815899513200465e-05, 0.0006470873845866385, 2.321667364225652e-05, 1.7294045520664816e-10, -2.357230422354492e-09, -1.331374979121412e-07, 4.3353225049410724e-05, 2.321667364225652e-05, 0.00016976914605057393, -1.6154761335565427e-09, 4.320017855480151e-09, 1.6303406333452812e-09, -1.704379023542971e-09, 1.7294045520664816e-10, -1.6154761335565427e-09, 2.420432754787653e-09, 5.699772788725394e-12, 1.0989443549113918e-11, 1.8024258020178356e-08, -2.357230422354492e-09, 4.320017855480151e-09, 5.699772788725394e-12, 2.393777343563137e-09, 7.226373120967254e-13, 1.3374697710548298e-08, -1.331374979121412e-07, 1.6303406333452812e-09, 1.0989443549113918e-11, 7.226373120967254e-13, 2.4181996412329233e-09]"
1402416158062880996,,216478,,1402416158,16693115,/enu,/base_link,,,,4.82856212678,20.936334625,-25.4127865582,,-0.0149451785393,-0.018490902924,0.71974493878,-0.693831356489,"[0.02993659764148687, -0.004312565149951642, -0.004613750825958515, 5.407724626873383e-06, -3.7215034689679187e-06, 8.041082077084865e-05, -0.004312565149951642, 0.034051832621261845, 0.0049209584817804675, -2.1389094554844783e-06, -1.5639770331472819e-06, 2.9463185906256724e-05, -0.004613750825958515, 0.0049209584817804675, 0.2261826076221529, -8.214004216135965e-06, 6.470527961657343e-06, -3.9663172061833324e-05, 5.407724626873383e-06, -2.1389094554844783e-06, -8.214004216135965e-06, 5.478196976654115e-06, -2.4884540129411525e-07, 3.3147277819083053e-06, -3.7215034689679187e-06, -1.5639770331472819e-06, 6.470527961657343e-06, -2.4884540129411525e-07, 4.1001018474283085e-06, -2.759320559577814e-06, 8.041082077084865e-05, 2.9463185906256724e-05, -3.9663172061833324e-05, 3.3147277819083053e-06, -2.759320559577814e-06, 0.00010678558633140118]",,,,2.38646476459,0.371178761449,0.0674420916569,,0.0134306639277,-0.0249294590091,0.128514109058,"[0.000365753814308639, -6.890459828043111e-05, 4.470958595271393e-05, -1.7330149751879711e-09, 1.8346586694958027e-08, 1.3409312399646812e-08, -6.890459828043111e-05, 0.0006527988364684316, 2.3256640165652292e-05, -5.808972528863242e-11, -2.4039571310489857e-09, -1.333768058865743e-07, 4.470958595271393e-05, 2.3256640165652292e-05, 0.0001705718062443195, -1.6280438430086729e-09, 4.393275942584716e-09, 1.6544871666714245e-09, -1.7330149751879711e-09, -5.808972528863242e-11, -1.6280438430086729e-09, 2.420432656637205e-09, 5.699774919991989e-12, 1.0990151938579088e-11, 1.8346586694958027e-08, -2.4039571310489857e-09, 4.393275942584716e-09, 5.699774919991989e-12, 2.3937772938173725e-09, 7.226592749278006e-13, 1.3409312399646812e-08, -1.333768058865743e-07, 1.6544871666714245e-09, 1.0990151938579088e-11, 7.226592749278006e-13, 2.4181944977265682e-09]"
1402416158062967834,,216479,,1402416158,26693105,/enu,/base_link,,,,4.83160279856,20.9124107385,-25.4134232059,,-0.0149352882207,-0.0186051610008,0.719251714708,-0.694339798687,"[0.029937044905233298, -0.004312762403713805, -0.004612963281663119, 5.396568650514919e-06, -3.5521409773404316e-06, 8.063824944264924e-05, -0.004312762403713805, 0.034055527980929534, 0.004921991606412719, -2.4569440348040837e-06, -1.5508905211131986e-06, 2.96232180546357e-05, -0.004612963281663119, 0.004921991606412719, 0.22619741144310374, -8.244676738392126e-06, 6.478135606593039e-06, -3.970053123652914e-05, 5.396568650514919e-06, -2.4569440348040837e-06, -8.244676738392126e-06, 5.5180862761907225e-06, -2.4886159846422344e-07, 3.3142995108999622e-06, -3.5521409773404316e-06, -1.5508905211131986e-06, 6.478135606593039e-06, -2.4886159846422344e-07, 4.140123278596368e-06, -2.7599272629817167e-06, 8.063824944264924e-05, 2.96232180546357e-05, -3.970053123652914e-05, 3.3142995108999622e-06, -2.7599272629817167e-06, 0.00010681160234170258]",,,,2.39591195873,0.367667706917,0.0656251139677,,-0.020697699338,0.0141690471171,0.135141010587,"[0.00037225635427183085, -6.959232951388411e-05, 4.6015785410396326e-05, -1.7590348785464643e-09, 1.8640894232617357e-08, 1.3430227073713838e-08, -6.959232951388411e-05, 0.0006580169469579071, 2.342701267233727e-05, -2.7069107896369073e-10, -2.450041719467538e-09, -1.3359514384076767e-07, 4.6015785410396326e-05, 2.342701267233727e-05, 0.0001712967769718413, -1.6399793049801876e-09, 4.466410905015964e-09, 1.6361817581149607e-09, -1.7590348785464643e-09, -2.7069107896369073e-10, -1.6399793049801876e-09, 2.4204325574219766e-09, 5.699777030578822e-12, 1.0990864982064182e-11, 1.8640894232617357e-08, -2.450041719467538e-09, 4.466410905015964e-09, 5.699777030578822e-12, 2.3937772432833124e-09, 7.226815195426907e-13, 1.3430227073713838e-08, -1.3359514384076767e-07, 1.6361817581149607e-09, 1.0990864982064182e-11, 7.226815195426907e-13, 2.4181893517252726e-09]"
1402416158102858139,,216480,,1402416158,37689924,/enu,/base_link,,,,4.83451836674,20.9139951245,-25.4017409182,,-0.0135209668057,-0.0165199385379,0.718954383969,-0.694729349358,"[0.02991844199537038, -0.004316784070541256, -0.004598293310772528, 5.1902871603870704e-06, -4.197353742586632e-06, 7.953426002027788e-05, -0.004316784070541256, 0.03403616045897231, 0.004935451362008506, -1.0444885924548775e-06, -1.5458837267575112e-06, 2.9591169514212683e-05, -0.004598293310772528, 0.004935451362008506, 0.22608971965380828, -7.791855129989662e-06, 5.800199929780111e-06, -4.017658925118901e-05, 5.1902871603870704e-06, -1.0444885924548775e-06, -7.791855129989662e-06, 5.266977717754543e-06, -2.6380724586363293e-07, 3.3125719355242298e-06, -4.197353742586632e-06, -1.5458837267575112e-06, 5.800199929780111e-06, -2.6380724586363293e-07, 3.8799138801077e-06, -3.214626282891495e-06, 7.953426002027788e-05, 2.9591169514212683e-05, -4.017658925118901e-05, 3.3125719355242298e-06, -3.214626282891495e-06, 0.00010617132738297388]",,,,2.3465773032,0.360644596638,0.0643202555968,,0.0196164417561,-0.0191888431968,0.134367532095,"[0.0003407238070512016, -6.801153944082661e-05, 3.717469525450379e-05, -1.604161158712339e-09, 1.7040150199394938e-08, 1.3326830356674451e-08, -6.801153944082661e-05, 0.0006284787224779359, 2.2504010143457014e-05, 4.467167310495738e-10, -2.3948998926172336e-09, -1.3202469984654285e-07, 3.717469525450379e-05, 2.2504010143457014e-05, 0.0001660983440622109, -1.5076317032210885e-09, 3.9082403071662675e-09, 1.6150646710337767e-09, -1.604161158712339e-09, 4.467167310495738e-10, -1.5076317032210885e-09, 2.420297573387267e-09, 5.69867260781184e-12, 1.1163147084389941e-11, 1.7040150199394938e-08, -2.3948998926172336e-09, 3.9082403071662675e-09, 5.69867260781184e-12, 2.3936793909193806e-09, 7.431179092655944e-13, 1.3326830356674451e-08, -1.3202469984654285e-07, 1.6150646710337767e-09, 1.1163147084389941e-11, 7.431179092655944e-13, 2.417960753676965e-09]"
1402416158102888329,,216481,,1402416158,47679901,/enu,/base_link,,,,4.83733186069,20.8905444819,-25.4024885696,,-0.0135154332172,-0.0166522881926,0.718453909875,-0.695243852003,"[0.029918793298513904, -0.004316967726452627, -0.00459754832396605, 5.178507038918601e-06, -4.048615940504239e-06, 7.972585893652163e-05, -0.004316967726452627, 0.034039532000810585, 0.004936512081892342, -1.3392278291666091e-06, -1.5338561026383512e-06, 2.9743237474289944e-05, -0.00459754832396605, 0.004936512081892342, 0.22610439877649005, -7.821415155743416e-06, 5.807899009250897e-06, -4.021247229053151e-05, 5.178507038918601e-06, -1.3392278291666091e-06, -7.821415155743416e-06, 5.306796815582187e-06, -2.6381955823101916e-07, 3.3121513246723784e-06, -4.048615940504239e-06, -1.5338561026383512e-06, 5.807899009250897e-06, -2.6381955823101916e-07, 3.91986098725974e-06, -3.2151067033381544e-06, 7.972585893652163e-05, 2.9743237474289944e-05, -4.021247229053151e-05, 3.3121513246723784e-06, -3.2151067033381544e-06, 0.00010619766088443161]",,,,2.35417749517,0.361641794306,0.0553520485107,,-0.0224641602367,0.0173693645975,0.137018315028,"[0.0003467730291988156, -6.869275072619018e-05, 3.837369637435569e-05, -1.6277042975146447e-09, 1.732275434438869e-08, 1.3346611839642498e-08, -6.869275072619018e-05, 0.0006334682276975603, 2.2673691407944642e-05, 2.491492170986385e-10, -2.438840814876716e-09, -1.3226874845851113e-07, 3.837369637435569e-05, 2.2673691407944642e-05, 0.00016679646143672673, -1.5188565991460018e-09, 3.97874507830429e-09, 1.5942982237438183e-09, -1.6277042975146447e-09, 2.491492170986385e-10, -1.5188565991460018e-09, 2.4202974869461917e-09, 5.698675119384163e-12, 1.1163803131856385e-11, 1.732275434438869e-08, -2.438840814876716e-09, 3.97874507830429e-09, 5.698675119384163e-12, 2.393679344305376e-09, 7.431337395636551e-13, 1.3346611839642498e-08, -1.3226874845851113e-07, 1.5942982237438183e-09, 1.1163803131856385e-11, 7.431337395636551e-13, 2.4179557443345036e-09]"
1402416158102914765,,216482,,1402416158,57678937,/enu,/base_link,,,,4.8403444601,20.8669438855,-25.4030147718,,-0.013505484924,-0.0165048509647,0.717997825313,-0.695718559921,"[0.029919229810340495, -0.004317158538464767, -0.00459670704574722, 5.166476224040885e-06, -3.8961174389475256e-06, 7.991454681061496e-05, -0.004317158538464767, 0.03404308533020386, 0.004937596384406436, -1.6391403648174001e-06, -1.5215927480159157e-06, 2.9892863893665355e-05, -0.00459670704574722, 0.004937596384406436, 0.22611880093324566, -7.850996012840226e-06, 5.815601654826607e-06, -4.024850774095098e-05, 5.166476224040885e-06, -1.6391403648174001e-06, -7.850996012840226e-06, 5.346686625324758e-06, -2.638321574888527e-07, 3.311730949676213e-06, -3.8961174389475256e-06, -1.5215927480159157e-06, 5.815601654826607e-06, -2.638321574888527e-07, 3.9598804102375545e-06, -3.2155969359882547e-06, 7.991454681061496e-05, 2.9892863893665355e-05, -4.024850774095098e-05, 3.311730949676213e-06, -3.2155969359882547e-06, 0.00010622406072562106]",,,,2.3554657568,0.361600970936,0.0648985136152,,0.0174074771582,-0.0221709356569,0.125752679914,"[0.0003529701341127204, -6.939112376461116e-05, 3.953929970667967e-05, -1.6524660206059214e-09, 1.760921241424545e-08, 1.3381385717038241e-08, -6.939112376461116e-05, 0.0006385462392255487, 2.2687523959708833e-05, 4.86790204250246e-11, -2.4802329224536915e-09, -1.3251146455307956e-07, 3.953929970667967e-05, 2.2687523959708833e-05, 0.00016744929582476162, -1.529722606575652e-09, 4.043733774047814e-09, 1.6208167756696178e-09, -1.6524660206059214e-09, 4.86790204250246e-11, -1.529722606575652e-09, 2.4202973997151794e-09, 5.698677657073299e-12, 1.1164462918914384e-11, 1.760921241424545e-08, -2.4802329224536915e-09, 4.043733774047814e-09, 5.698677657073299e-12, 2.393679296942188e-09, 7.431498740724233e-13, 1.3381385717038241e-08, -1.3251146455307956e-07, 1.6208167756696178e-09, 1.1164462918914384e-11, 7.431498740724233e-13, 2.4179507317821706e-09]"
1402416158102936531,,216483,,1402416158,68679094,/enu,/base_link,,,,4.84357555974,20.8407191728,-25.4031717146,,-0.0134742077896,-0.0166151338553,0.717468838808,-0.696262054396,"[0.029919671929628466, -0.0043173541237419314, -0.00459581476225079, 5.153242298472297e-06, -3.7234982247805493e-06, 8.012741925052656e-05, -0.0043173541237419314, 0.034047063106610306, 0.0049386523589700256, -1.975432199096956e-06, -1.5081148457422948e-06, 3.0064855915917984e-05, -0.00459581476225079, 0.0049386523589700256, 0.2261352304706558, -7.883435422276879e-06, 5.8236683123578385e-06, -4.0288482734622435e-05, 5.153242298472297e-06, -1.975432199096956e-06, -7.883435422276879e-06, 5.394989352799013e-06, -2.6384497709563374e-07, 3.3113071139525434e-06, -3.7234982247805493e-06, -1.5081148457422948e-06, 5.8236683123578385e-06, -2.6384497709563374e-07, 4.008313144940258e-06, -3.216097300825069e-06, 8.012741925052656e-05, 3.0064855915917984e-05, -4.0288482734622435e-05, 3.3113071139525434e-06, -3.216097300825069e-06, 0.00010625898707643006]",,,,2.36205153303,0.368459357507,0.054360218576,,-0.0209179008621,0.00963801833534,0.131937790419,"[0.0003599045463349616, -7.018042944640083e-05, 4.087454768161269e-05, -1.6797823739031003e-09, 1.7925800728419887e-08, 1.3410471046718119e-08, -7.018042944640083e-05, 0.0006442865334694377, 2.2873027223971706e-05, -1.738228806852837e-10, -2.5293015125961914e-09, -1.3278241393805568e-07, 4.087454768161269e-05, 2.2873027223971706e-05, 0.0001682808826990878, -1.5422647501996614e-09, 4.120443974162161e-09, 1.5990168266373409e-09, -1.6797823739031003e-09, -1.738228806852837e-10, -1.5422647501996614e-09, 2.4202973115359232e-09, 5.6986802516240894e-12, 1.1165125965427995e-11, 1.7925800728419887e-08, -2.5293015125961914e-09, 4.120443974162161e-09, 5.6986802516240894e-12, 2.3936792487095636e-09, 7.431662162088987e-13, 1.3410471046718119e-08, -1.3278241393805568e-07, 1.5990168266373409e-09, 1.1165125965427995e-11, 7.431662162088987e-13, 2.4179457183743158e-09]"
1402416158142888039,,216484,,1402416158,79674005,/enu,/base_link,,,,4.84680093374,20.8147505371,-25.4038856189,,-0.0133642432247,-0.0167793707445,0.716939990357,-0.696804778936,"[0.029920176604006955, -0.004317567947179467, -0.0045948711132013376, 5.13986584003608e-06, -3.546411119955068e-06, 8.034156644853252e-05, -0.004317567947179467, 0.034051077197910645, 0.004939898309411734, -2.3178060110890693e-06, -1.4944425746468961e-06, 3.0236388988192202e-05, -0.0045948711132013376, 0.004939898309411734, 0.22615122126475723, -7.916104042317335e-06, 5.831607200830138e-06, -4.0328337039764124e-05, 5.13986584003608e-06, -2.3178060110890693e-06, -7.916104042317335e-06, 5.4432437141505235e-06, -2.6385815606114325e-07, 3.310883789821484e-06, -3.546411119955068e-06, -1.4944425746468961e-06, 5.831607200830138e-06, -2.6385815606114325e-07, 4.056699483113302e-06, -3.216609668067802e-06, 8.034156644853252e-05, 3.0236388988192202e-05, -4.0328337039764124e-05, 3.310883789821484e-06, -3.216609668067802e-06, 0.0001062938569564178]",,,,2.36903986759,0.362375817461,0.0704889991645,,-0.0379268608536,0.00621413622129,0.131496035309,"[0.00036695636500497426, -7.098751286283711e-05, 4.2205209940295474e-05, -1.7078165269209927e-09, 1.824465175516047e-08, 1.3439349899525413e-08, -7.098751286283711e-05, 0.0006501144910074915, 2.3151319115807386e-05, -3.982834619859886e-10, -2.579983593410877e-09, -1.3305414796812928e-07, 4.2205209940295474e-05, 2.3151319115807386e-05, 0.00016912059428594558, -1.554684864734387e-09, 4.196314918640644e-09, 1.551806207200947e-09, -1.7078165269209927e-09, -3.982834619859886e-10, -1.554684864734387e-09, 2.4202972223958972e-09, 5.69868284176647e-12, 1.116579326755871e-11, 1.824465175516047e-08, -2.579983593410877e-09, 4.196314918640644e-09, 5.69868284176647e-12, 2.3936791996846338e-09, 7.431828301048816e-13, 1.3439349899525413e-08, -1.3305414796812928e-07, 1.551806207200947e-09, 1.116579326755871e-11, 7.431828301048816e-13, 2.4179407015665823e-09]"
1402416158142926715,,216485,,1402416158,89684009,/enu,/base_link,,,,4.85905266879,20.8365055546,-25.4006001935,,-0.0101551144202,-0.0148424719364,0.715418187423,-0.698465025454,"[0.029901655443943347, -0.004321575606463662, -0.004580638892866917, 4.951401230354407e-06, -4.170809272082523e-06, 7.932127682520003e-05, -0.004321575606463662, 0.03403138840659863, 0.004953007653583499, -9.101517232447288e-07, -1.5042860466942737e-06, 3.0158892426334713e-05, -0.004580638892866917, 0.004953007653583499, 0.2260433752473666, -7.457431899839296e-06, 5.244201482441834e-06, -4.062288000884774e-05, 4.951401230354407e-06, -9.101517232447288e-07, -7.457431899839296e-06, 5.195955907917202e-06, -2.7531342265401666e-07, 3.3128906257788365e-06, -4.170809272082523e-06, -1.5042860466942737e-06, 5.244201482441834e-06, -2.7531342265401666e-07, 3.81673591023953e-06, -3.5968438279287194e-06, 7.932127682520003e-05, 3.0158892426334713e-05, -4.062288000884774e-05, 3.3128906257788365e-06, -3.5968438279287194e-06, 0.00010579960615530712]",,,,2.28953344774,0.363749472557,0.0653211492941,,0.00724547164783,-0.0232795861742,0.127963506577,"[0.0003365405553200417, -7.270805094048384e-05, 3.250517246613438e-05, -1.6538980502558888e-09, 1.6695173700236576e-08, 1.428534002793481e-08, -7.270805094048384e-05, 0.0006071133165951224, 2.4264052217983352e-05, 1.834067954469469e-10, -2.5600038058856293e-09, -1.2955801180355405e-07, 3.250517246613438e-05, 2.4264052217983352e-05, 0.00016354728343796429, -1.471895924432029e-09, 3.5300387912860513e-09, 1.0967233809026864e-09, -1.6538980502558888e-09, 1.834067954469469e-10, -1.471895924432029e-09, 2.420177270969254e-09, 5.6981253838861766e-12, 1.130791543487314e-11, 1.6695173700236576e-08, -2.5600038058856293e-09, 3.5300387912860513e-09, 5.6981253838861766e-12, 2.3935854336684653e-09, 7.602795143890412e-13, 1.428534002793481e-08, -1.2955801180355405e-07, 1.0967233809026864e-09, 1.130791543487314e-11, 7.602795143890412e-13, 2.4177644538855485e-09]"
1402416158142950417,,216486,,1402416158,99666118,/enu,/base_link,,,,4.86203329179,20.8135708275,-25.4009004078,,-0.0100731551364,-0.0149010518527,0.714923041852,-0.698971769407,"[0.029902061849537663, -0.00432174622411337, -0.0045799028963581095, 4.93879338512213e-06, -4.028126779521897e-06, 7.948209140875262e-05, -0.00432174622411337, 0.03403486752054165, 0.004953993815453301, -1.199238884088749e-06, -1.4926866310279299e-06, 3.030194783298206e-05, -0.0045799028963581095, 0.004953993815453301, 0.22605786004169282, -7.486304516195101e-06, 5.251701941135413e-06, -4.065771794015123e-05, 4.93879338512213e-06, -1.199238884088749e-06, -7.486304516195101e-06, 5.235715517718608e-06, -2.7532340638282874e-07, 3.312477698705277e-06, -4.028126779521897e-06, -1.4926866310279299e-06, 5.251701941135413e-06, -2.7532340638282874e-07, 3.856623102389259e-06, -3.597248811250809e-06, 7.948209140875262e-05, 3.030194783298206e-05, -4.065771794015123e-05, 3.312477698705277e-06, -3.597248811250809e-06, 0.00010582616596395312]",,,,2.29483964001,0.372205188602,0.0554199101537,,-0.0220231899883,-0.00395122915449,0.135032201493,"[0.0003424848080135967, -7.343693755388229e-05, 3.3576792844871426e-05, -1.678068962525844e-09, 1.697418276760334e-08, 1.4309563708558722e-08, -7.343693755388229e-05, 0.0006121244125984019, 2.4461595175660735e-05, -7.87885874506235e-12, -2.604796241252687e-09, -1.2982613611339358e-07, 3.3576792844871426e-05, 2.4461595175660735e-05, 0.0001642000929170238, -1.4832761357041171e-09, 3.5932407796275326e-09, 1.0722807052938314e-09, -1.678068962525844e-09, -7.87885874506235e-12, -1.4832761357041171e-09, 2.420177192163467e-09, 5.6981282874894844e-12, 1.130853593800934e-11, 1.697418276760334e-08, -2.604796241252687e-09, 3.5932407796275326e-09, 5.6981282874894844e-12, 2.393585388273548e-09, 7.602905781588355e-13, 1.4309563708558722e-08, -1.2982613611339358e-07, 1.0722807052938314e-09, 1.130853593800934e-11, 7.602905781588355e-13, 2.4177595445061005e-09]"
1402416158143098763,,216487,,1402416158,110682964,/enu,/base_link,,,,4.86586761243,20.7882337557,-25.4012485564,,-0.0100720640478,-0.0148569069531,0.714379431002,-0.699528308507,"[0.02990248992256185, -0.004321920478055016, -0.004579068475389058, 4.924755384430094e-06, -3.86584601556864e-06, 7.966201719240303e-05, -0.004321920478055016, 0.034038690642266514, 0.004955172131879253, -1.524943718193624e-06, -1.479488749821089e-06, 3.045432043555429e-05, -0.004579068475389058, 0.004955172131879253, 0.2260739052030877, -7.517956378686949e-06, 5.2600503754985e-06, -4.06967723497117e-05, 4.924755384430094e-06, -1.524943718193624e-06, -7.517956378686949e-06, 5.284170431865295e-06, -2.753335748123202e-07, 3.3120613576492583e-06, -3.86584601556864e-06, -1.479488749821089e-06, 5.2600503754985e-06, -2.753335748123202e-07, 3.905205941305931e-06, -3.597663832759762e-06, 7.966201719240303e-05, 3.045432043555429e-05, -4.06967723497117e-05, 3.3120613576492583e-06, -3.597663832759762e-06, 0.0001058615381931628]",,,,2.30334924907,0.358375295796,0.0762912872546,,0.00337979098169,-0.00616018568741,0.135915818252,"[0.00034919844574215694, -7.424435086236651e-05, 3.478637674797957e-05, -1.7054176893490944e-09, 1.7284137884946147e-08, 1.4335551969801288e-08, -7.424435086236651e-05, 0.0006178335626264626, 2.455464454553625e-05, -2.2115459159649062e-10, -2.6541998205318844e-09, -1.3012430758588285e-07, 3.478637674797957e-05, 2.455464454553625e-05, 0.00016497330686514094, -1.4956213254954781e-09, 3.663621510645627e-09, 1.0812741323466154e-09, -1.7054176893490944e-09, -2.2115459159649062e-10, -1.4956213254954781e-09, 2.4201771123883177e-09, 5.6981311903969064e-12, 1.130916021961297e-11, 1.7284137884946147e-08, -2.6541998205318844e-09, 3.663621510645627e-09, 5.6981311903969064e-12, 2.3935853421144897e-09, 7.603018607992552e-13, 1.4335551969801288e-08, -1.3012430758588285e-07, 1.0812741323466154e-09, 1.130916021961297e-11, 7.603018607992552e-13, 2.417754632721403e-09]"
1402416158143128901,,216488,,1402416158,120671033,/enu,/base_link,,,,4.86890837717,20.7651558849,-25.4013602088,,-0.00993175650788,-0.0149257366198,0.713911977205,-0.700005908119,"[0.029902898217981855, -0.004322118210648484, -0.004578169169699961, 4.911840652685004e-06, -3.7152526356355327e-06, 7.982535803409349e-05, -0.004322118210648484, 0.034042314901070465, 0.004956157934454345, -1.8251611449467937e-06, -1.4674625407802698e-06, 3.059510665920251e-05, -0.004578169169699961, 0.004956157934454345, 0.22608855707801834, -7.547336873980415e-06, 5.267406496271859e-06, -4.073164633630913e-05, 4.911840652685004e-06, -1.8251611449467937e-06, -7.547336873980415e-06, 5.323973757333333e-06, -2.7534419707114744e-07, 3.311649088167801e-06, -3.7152526356355327e-06, -1.4674625407802698e-06, 5.267406496271859e-06, -2.7534419707114744e-07, 3.945140551231139e-06, -3.5980902938627113e-06, 7.982535803409349e-05, 3.059510665920251e-05, -4.073164633630913e-05, 3.311649088167801e-06, -3.5980902938627113e-06, 0.00010588812933700279]",,,,2.30447395774,0.370990154631,0.0621912731774,,-0.0315217062937,-0.0107989930315,0.127080033293,"[0.0003553626999116175, -7.501541293329032e-05, 3.586198184733584e-05, -1.7308279358246562e-09, 1.7568267240214098e-08, 1.4369129777138625e-08, -7.501541293329032e-05, 0.0006229992772791906, 2.4804399039278632e-05, -4.1719345338530055e-10, -2.69963509138328e-09, -1.303927280006515e-07, 3.586198184733584e-05, 2.4804399039278632e-05, 0.00016562989328853828, -1.5069844153343013e-09, 3.7257533471090366e-09, 1.0433177034992974e-09, -1.7308279358246562e-09, -4.1719345338530055e-10, -1.5069844153343013e-09, 2.4201770317593627e-09, 5.698134123422586e-12, 1.1309788160009163e-11, 1.7568267240214098e-08, -2.69963509138328e-09, 3.7257533471090366e-09, 5.698134123422586e-12, 2.3935852951396753e-09, 7.603133621806121e-13, 1.4369129777138625e-08, -1.303927280006515e-07, 1.0433177034992974e-09, 1.1309788160009163e-11, 7.603133621806121e-13, 2.4177497194591974e-09]"
1402416158182854613,,216489,,1402416158,131705045,/enu,/base_link,,,,4.87241317393,20.7394780155,-25.4012385227,,-0.00993379372577,-0.0148773376512,0.713401483794,-0.70052716399,"[0.02990341426043867, -0.00432228652981737, -0.004577315847877561, 4.897428597967282e-06, -3.5439399666922766e-06, 8.000573436956615e-05, -0.00432228652981737, 0.03404637875933837, 0.004957339517930732, -2.1635187269542483e-06, -1.4537770684107748e-06, 3.074504648682983e-05, -0.004577315847877561, 0.004957339517930732, 0.22610471654080078, -7.57944336862099e-06, 5.2756020278574716e-06, -4.077073950315118e-05, 4.897428597967282e-06, -2.1635187269542483e-06, -7.57944336862099e-06, 5.37257631572019e-06, -2.7535500286229487e-07, 3.3112334011571603e-06, -3.5439399666922766e-06, -1.4537770684107748e-06, 5.2756020278574716e-06, -2.7535500286229487e-07, 3.9938747312819806e-06, -3.5985267874238144e-06, 8.000573436956615e-05, 3.074504648682983e-05, -4.077073950315118e-05, 3.3112334011571603e-06, -3.5985267874238144e-06, 0.00010592363815677472]",,,,2.30941240608,0.356604029757,0.0802238060812,,0.00448425979647,-0.00627063609726,0.126969620076,"[0.00036232471820361856, -7.586945925721012e-05, 3.709988814178759e-05, -1.759441061649051e-09, 1.7884058338724848e-08, 1.440646611130304e-08, -7.586945925721012e-05, 0.0006288912101498671, 2.4894556021012086e-05, -6.362238096001323e-10, -2.7491966916659967e-09, -1.3069114331105496e-07, 3.709988814178759e-05, 2.4894556021012086e-05, 0.00016640716343042868, -1.5193443178056367e-09, 3.796496922278721e-09, 1.0537956599536664e-09, -1.759441061649051e-09, -6.362238096001323e-10, -1.5193443178056367e-09, 2.4201769501868416e-09, 5.698137090976536e-12, 1.1310419697443257e-11, 1.7884058338724848e-08, -2.7491966916659967e-09, 3.796496922278721e-09, 5.698137090976536e-12, 2.3935852473800625e-09, 7.603250851319671e-13, 1.440646611130304e-08, -1.3069114331105496e-07, 1.0537956599536664e-09, 1.1310419697443257e-11, 7.603250851319671e-13, 2.417744802628447e-09]"
1402416158182885952,,216490,,1402416158,141661882,/enu,/base_link,,,,4.87901215491,20.746257218,-25.3918083103,,-0.00830427212919,-0.0131480609163,0.712995683325,-0.700995950858,"[0.029885088239956052, -0.004326253534954529, -0.0045633128885517234, 4.722196249115811e-06, -4.135486872573448e-06, 7.91436482645629e-05, -0.004326253534954529, 0.03402681092945788, 0.0049702895406238245, -7.885826700840244e-07, -1.4740139213971024e-06, 3.072222728219381e-05, -0.0045633128885517234, 0.0049702895406238245, 0.22599762410105376, -7.122271172407766e-06, 4.754130481285986e-06, -4.0918676651018864e-05, 4.722196249115811e-06, -7.885826700840244e-07, -7.122271172407766e-06, 5.1348451387428144e-06, -2.838293422311082e-07, 3.310116152408031e-06, -4.135486872573448e-06, -1.4740139213971024e-06, 4.754130481285986e-06, -2.838293422311082e-07, 3.773616091111752e-06, -3.914655684807278e-06, 7.91436482645629e-05, 3.072222728219381e-05, -4.0918676651018864e-05, 3.310116152408031e-06, -3.914655684807278e-06, 0.00010556195503025743]",,,,2.26054866799,0.363103451681,0.0619901215926,,-0.0187093060742,-0.0184224901028,0.131166546413,"[0.00033181313882137993, -7.417139709920621e-05, 2.9407656401492017e-05, -1.6212806984067257e-09, 1.6366808417774426e-08, 1.4394820466863295e-08, -7.417139709920621e-05, 0.0005991854315589897, 2.4569307081026458e-05, 4.69943172963011e-11, -2.6557873868427374e-09, -1.2888170223500382e-07, 2.9407656401492017e-05, 2.4569307081026458e-05, 0.0001617960567626269, -1.4117826806519236e-09, 3.307330147190232e-09, 9.287893569802105e-10, -1.6212806984067257e-09, 4.69943172963011e-11, -1.4117826806519236e-09, 2.420068436263333e-09, 5.698151816612725e-12, 1.1426820867962454e-11, 1.6366808417774426e-08, -2.6557873868427374e-09, 3.307330147190232e-09, 5.698151816612725e-12, 2.3934950202893815e-09, 7.724023457379287e-13, 1.4394820466863295e-08, -1.2888170223500382e-07, 9.287893569802105e-10, 1.1426820867962454e-11, 7.724023457379287e-13, 2.417613376952923e-09]"
1402416158182917592,,216491,,1402416158,152690887,/enu,/base_link,,,,4.88263069086,20.7213367024,-25.3920836922,,-0.0081330319836,-0.0131155591323,0.712448485264,-0.701554696188,"[0.029885492857838696, -0.004326424065465201, -0.004562397373802257, 4.7074558198016245e-06, -3.982363644306338e-06, 7.929028755248612e-05, -0.004326424065465201, 0.03403062201749356, 0.004971395237573057, -1.1026844004397876e-06, -1.4617487611411818e-06, 3.087660635068183e-05, -0.004562397373802257, 0.004971395237573057, 0.22601358628455392, -7.152773030234541e-06, 4.761977034001607e-06, -4.09560965339363e-05, 4.7074558198016245e-06, -1.1026844004397876e-06, -7.152773030234541e-06, 5.183411789946872e-06, -2.83837366184955e-07, 3.3097047497876348e-06, -3.982363644306338e-06, -1.4617487611411818e-06, 4.761977034001607e-06, -2.83837366184955e-07, 3.822308065016882e-06, -3.915002502922599e-06, 7.929028755248612e-05, 3.087660635068183e-05, -4.09560965339363e-05, 3.3097047497876348e-06, -3.915002502922599e-06, 0.0001055976620561385]",,,,2.26348415009,0.37078815232,0.0544550873927,,-0.0194824446002,-0.0267060734058,0.136026282896,"[0.0003383185306037609, -7.499578308581087e-05, 3.048848605079582e-05, -1.647866670110076e-09, 1.667203089105171e-08, 1.4420946266724794e-08, -7.499578308581087e-05, 0.0006048355408239889, 2.479483199043243e-05, -1.5936193664906258e-10, -2.7054849258029707e-09, -1.292011960267462e-07, 3.048848605079582e-05, 2.479483199043243e-05, 0.000162547937697461, -1.423779321661721e-09, 3.37069294495987e-09, 9.00812555586642e-10, -1.647866670110076e-09, -1.5936193664906258e-10, -1.423779321661721e-09, 2.4200683631908807e-09, 5.698154895784392e-12, 1.1427413801709875e-11, 1.667203089105171e-08, -2.7054849258029707e-09, 3.37069294495987e-09, 5.698154895784392e-12, 2.3934949759160505e-09, 7.724095175302619e-13, 1.4420946266724794e-08, -1.292011960267462e-07, 9.00812555586642e-10, 1.1427413801709875e-11, 7.724095175302619e-13, 2.4176085427600312e-09]"
1402416158199129755,,216492,,1402416158,162667989,/enu,/base_link,,,,4.88613934119,20.6985247307,-25.3919107476,,-0.00807182591928,-0.0131762360141,0.711947495469,-0.702062672506,"[0.029885922707073638, -0.00432659467544643, -0.004561593396119054, 4.693997629294254e-06, -3.840546412643842e-06, 7.942425356874939e-05, -0.00432659467544643, 0.03403415796842779, 0.0049723641190975495, -1.3916889721977387e-06, -1.4505165059784871e-06, 3.1016133512888675e-05, -0.004561593396119054, 0.0049723641190975495, 0.22602806945455306, -7.181149424652799e-06, 4.768997216030562e-06, -4.0989506269048483e-05, 4.693997629294254e-06, -1.3916889721977387e-06, -7.181149424652799e-06, 5.223132089811885e-06, -2.8384587247834544e-07, 3.3092975218446503e-06, -3.840546412643842e-06, -1.4505165059784871e-06, 4.768997216030562e-06, -2.8384587247834544e-07, 3.862157159912132e-06, -3.915360552338068e-06, 7.942425356874939e-05, 3.1016133512888675e-05, -4.0989506269048483e-05, 3.3092975218446503e-06, -3.915360552338068e-06, 0.00010562439063320378]",,,,2.26921957078,0.363545261121,0.0624541469789,,-0.0191511055734,-0.000640402752206,0.136689004803,"[0.00034424482704530844, -7.574913075596048e-05, 3.152459687224251e-05, -1.6720950086955018e-09, 1.6949638212987778e-08, 1.4441789134570275e-08, -7.574913075596048e-05, 0.0006099656302652517, 2.497912957526784e-05, -3.4865286309023794e-10, -2.7515028380943224e-09, -1.2948922599901683e-07, 3.152459687224251e-05, 2.497912957526784e-05, 0.00016318439832905583, -1.4349760710503105e-09, 3.43231908538638e-09, 8.794577554560553e-10, -1.6720950086955018e-09, -3.4865286309023794e-10, -1.4349760710503105e-09, 2.4200682891580314e-09, 5.698158024437942e-12, 1.1428010808547643e-11, 1.6949638212987778e-08, -2.7515028380943224e-09, 3.43231908538638e-09, 5.698158024437942e-12, 2.3934949307223198e-09, 7.724169205241074e-13, 1.4441789134570275e-08, -1.2948922599901683e-07, 8.794577554560553e-10, 1.1428010808547643e-11, 7.724169205241074e-13, 2.4176037066708956e-09]"
1402416158199165153,,216493,,1402416158,173654079,/enu,/base_link,,,,4.88972101823,20.6736880297,-25.3923093958,,-0.00795627512516,-0.0130819427763,0.711396510409,-0.702624056973,"[0.029886362651603184, -0.004326745545608882, -0.004560710514213343, 4.678922416636349e-06, -3.6795481011967657e-06, 7.95693743906219e-05, -0.004326745545608882, 0.03403806843176552, 0.004973600113762831, -1.7163414634991717e-06, -1.437816159169166e-06, 3.116642740407608e-05, -0.004560710514213343, 0.004973600113762831, 0.22604394318601026, -7.211965923749659e-06, 4.776710484297253e-06, -4.102678544727287e-05, 4.678922416636349e-06, -1.7163414634991717e-06, -7.211965923749659e-06, 5.271316831449252e-06, -2.838545358940645e-07, 3.3088870150614626e-06, -3.6795481011967657e-06, -1.437816159169166e-06, 4.776710484297253e-06, -2.838545358940645e-07, 3.910471086087019e-06, -3.915728546421727e-06, 7.95693743906219e-05, 3.116642740407608e-05, -4.102678544727287e-05, 3.3088870150614626e-06, -3.915728546421727e-06, 0.00010565969742610053]",,,,2.27285607474,0.365560197703,0.0651583700288,,-0.00446155739944,-0.0274792101246,0.137683069127,"[0.00035093835782974513, -7.657941543974985e-05, 3.263468522798984e-05, -1.6998316061154476e-09, 1.7258548470562418e-08, 1.446376687036139e-08, -7.657941543974985e-05, 0.000615784614319839, 2.5131911842971518e-05, -5.594538080996102e-10, -2.8026715513994927e-09, -1.29808680567666e-07, 3.263468522798984e-05, 2.5131911842971518e-05, 0.00016392363536979064, -1.4469562419138533e-09, 3.495851132941492e-09, 8.725061497647778e-10, -1.6998316061154476e-09, -5.594538080996102e-10, -1.4469562419138533e-09, 2.4200682143633128e-09, 5.698161184022588e-12, 1.1428610980843798e-11, 1.7258548470562418e-08, -2.8026715513994927e-09, 3.495851132941492e-09, 5.698161184022588e-12, 2.3934948848042253e-09, 7.724244996033859e-13, 1.446376687036139e-08, -1.29808680567666e-07, 8.725061497647778e-10, 1.1428610980843798e-11, 7.724244996033859e-13, 2.4175988680403716e-09]"
