rosbagTimestamp,transforms,-,header,seq,stamp,secs,nsecs,frame_id,child_frame_id,transform,translation,x,y,z,rotation,x,y,z,w
1402416157897814666,,errorv,,0,,1402416157,897509028,base_link,/z_drive,,,0.0,0.0,0.0,,0.0,0.0,0.0,1.0
1402416157897857789,,errorv,,0,,1402416157,897540468,/z_drive,port,,,-0.3,0.3048,0.0,,0.0,0.0,0.0,1.0
1402416157897892721,,errorv,,0,,1402416157,897575733,/z_drive,starboard,,,-0.3,-0.3048,0.0,,0.0,0.0,0.0,1.0
1402416157903197153,,errorv,,0,,1402416157,827788114,/enu,/base_link,,,4.79551647437,21.3765242105,-25.5455959386,,0.0140164445182,0.0207370652534,-0.727615714769,0.685528179602
1402416157903223506,,errorv,,0,,1402416157,837791919,/enu,/base_link,,,4.78557560107,21.3316645821,-25.4139413509,,0.0144107611723,0.0220285171357,-0.726913023762,0.686224839452
1402416157903236087,,errorv,,0,,1402416157,848822116,/enu,/base_link,,,4.78847075937,21.3055258268,-25.4145890857,,0.0145770642154,0.0220016259809,-0.726407686214,0.686757097569
1402416157903262359,,errorv,,0,,1402416157,858788013,/enu,/base_link,,,4.79116879674,21.2818593014,-25.4151979657,,0.0147518481613,0.0220852740525,-0.725925389954,0.687260468721
1402416157917718713,,errorv,,0,,1402416157,917579565,base_link,/z_drive,,,0.0,0.0,0.0,,0.0,0.0,0.0,1.0
1402416157917750612,,errorv,,0,,1402416157,917607365,/z_drive,port,,,-0.3,0.3048,0.0,,0.0,0.0,0.0,1.0
1402416157917773575,,errorv,,0,,1402416157,917617286,/z_drive,starboard,,,-0.3,-0.3048,0.0,,0.0,0.0,0.0,1.0
1402416157937796759,,errorv,,0,,1402416157,937501757,base_link,/z_drive,,,0.0,0.0,0.0,,0.0,0.0,0.0,1.0
1402416157937819179,,errorv,,0,,1402416157,937514419,/z_drive,port,,,-0.3,0.3048,0.0,,0.0,0.0,0.0,1.0
1402416157937842101,,errorv,,0,,1402416157,937518327,/z_drive,starboard,,,-0.3,-0.3048,0.0,,0.0,0.0,0.0,1.0
1402416157943033128,,errorv,,0,,1402416157,869788885,/enu,/base_link,,,4.79389631687,21.2556240391,-25.415860592,,0.0149453274852,0.0220320942614,-0.725410001175,0.687801973103
1402416157943275185,,errorv,,0,,1402416157,879790067,/enu,/base_link,,,4.79670793894,21.2319146584,-25.4167760124,,0.0151017477646,0.0219335906515,-0.724937874143,0.688299305135
1402416157943302311,,errorv,,0,,1402416157,889787912,/enu,/base_link,,,4.79933497276,21.2079033548,-25.4174719971,,0.0152561490129,0.0220616139006,-0.724460583139,0.688794162713
1402416157943327971,,errorv,,0,,1402416157,900787115,/enu,/base_link,,,4.80247465655,21.1818454382,-25.4188057074,,0.0154224187137,0.0219429020701,-0.723937327011,0.689344184431
1402416157951964520,,errorv,,0,,1402416158,51790562,base_link,imu,,,0.13,0.0,-0.1,,1.0,0.0,0.0,0.0
1402416157953335391,,errorv,,0,,1402416158,53151618,/base_link,/gps,,,-0.84,0.0,-0.14,,0.0,0.0,0.0,1.0
1402416157957639220,,errorv,,0,,1402416157,957479134,base_link,/z_drive,,,0.0,0.0,0.0,,0.0,0.0,0.0,1.0
1402416157957665871,,errorv,,0,,1402416157,957497683,/z_drive,port,,,-0.3,0.3048,0.0,,0.0,0.0,0.0,1.0
1402416157957685396,,errorv,,0,,1402416157,957507268,/z_drive,starboard,,,-0.3,-0.3048,0.0,,0.0,0.0,0.0,1.0
1402416157977664292,,errorv,,0,,1402416157,977454875,base_link,/z_drive,,,0.0,0.0,0.0,,0.0,0.0,0.0,1.0
1402416157977694442,,errorv,,0,,1402416157,977471157,/z_drive,port,,,-0.3,0.3048,0.0,,0.0,0.0,0.0,1.0
1402416157977711776,,errorv,,0,,1402416157,977481290,/z_drive,starboard,,,-0.3,-0.3048,0.0,,0.0,0.0,0.0,1.0
1402416157983067158,,errorv,,0,,1402416157,910789966,/enu,/base_link,,,4.80526110577,21.1576724273,-25.4193414453,,0.015506307883,0.0221182503934,-0.723471400812,0.689825680606
1402416157983318341,,errorv,,0,,1402416157,921787977,/enu,/base_link,,,4.80824426441,21.1312880558,-25.4204985644,,0.0156734852939,0.0219766256035,-0.722959321561,0.690363085017
1402416157983359017,,errorv,,0,,1402416157,931787967,/enu,/base_link,,,4.81105334417,21.1070797929,-25.4211513987,,0.0157530661066,0.022090860749,-0.722462391366,0.690877650414
1402416157983376822,,errorv,,0,,1402416157,942790031,/enu,/base_link,,,4.81430159421,21.0806026426,-25.4223149545,,0.0158865084363,0.0219847511733,-0.721947445938,0.691416064949
1402416157983405597,,errorv,,0,,1402416157,953790903,/enu,/base_link,,,4.81738444964,21.0538335192,-25.4229897428,,0.0160608819118,0.0218948377702,-0.721423400371,0.691961661906
1402416157997686091,,errorv,,0,,1402416157,997507190,base_link,/z_drive,,,0.0,0.0,0.0,,0.0,0.0,0.0,1.0
1402416157997823337,,errorv,,0,,1402416157,997529660,/z_drive,port,,,-0.3,0.3048,0.0,,0.0,0.0,0.0,1.0
1402416157997843769,,errorv,,0,,1402416157,997539412,/z_drive,starboard,,,-0.3,-0.3048,0.0,,0.0,0.0,0.0,1.0
1402416158017586546,,errorv,,0,,1402416158,17431150,base_link,/z_drive,,,0.0,0.0,0.0,,0.0,0.0,0.0,1.0
1402416158017679344,,errorv,,0,,1402416158,17446772,/z_drive,port,,,-0.3,0.3048,0.0,,0.0,0.0,0.0,1.0
1402416158017794471,,errorv,,0,,1402416158,17499532,/z_drive,starboard,,,-0.3,-0.3048,0.0,,0.0,0.0,0.0,1.0
1402416158023205606,,errorv,,0,,1402416157,963788986,/enu,/base_link,,,4.82028104975,21.0295138787,-25.423679739,,0.0160582751276,0.0219235147876,-0.72094086814,0.692463541239
1402416158023231376,,errorv,,0,,1402416157,973789930,/enu,/base_link,,,4.82314276388,21.0052564229,-25.4244910018,,0.0161410155725,0.0219229440477,-0.720470136986,0.692951393571
1402416158023252106,,errorv,,0,,1402416157,984707117,/enu,/base_link,,,4.81992689417,21.0128219885,-25.4111625535,,0.0149749948875,0.0186969353969,-0.721247086977,0.692263543502
1402416158031210156,,errorv,,0,,1402416157,994790077,/enu,/base_link,,,4.82256907632,20.9889783423,-25.4120085709,,0.0150511242661,0.0187229009163,-0.720766226021,0.692761837912
1402416158031566995,,errorv,,0,,1402416158,5709886,/enu,/base_link,,,4.82553543934,20.9627646411,-25.4123540004,,0.0149810152881,0.0186487586016,-0.720252807793,0.69329913158
1402416158037869099,,errorv,,0,,1402416158,37536668,base_link,/z_drive,,,0.0,0.0,0.0,,0.0,0.0,0.0,1.0
1402416158037897974,,errorv,,0,,1402416158,37557534,/z_drive,port,,,-0.3,0.3048,0.0,,0.0,0.0,0.0,1.0
1402416158037922555,,errorv,,0,,1402416158,37566215,/z_drive,starboard,,,-0.3,-0.3048,0.0,,0.0,0.0,0.0,1.0
1402416158052081052,,errorv,,0,,1402416158,151902131,base_link,imu,,,0.13,0.0,-0.1,,1.0,0.0,0.0,0.0
1402416158053461108,,errorv,,0,,1402416158,153256625,/base_link,/gps,,,-0.84,0.0,-0.14,,0.0,0.0,0.0,1.0
1402416158057802311,,errorv,,0,,1402416158,57518364,base_link,/z_drive,,,0.0,0.0,0.0,,0.0,0.0,0.0,1.0
1402416158057830679,,errorv,,0,,1402416158,57535675,/z_drive,port,,,-0.3,0.3048,0.0,,0.0,0.0,0.0,1.0
1402416158057855140,,errorv,,0,,1402416158,57545139,/z_drive,starboard,,,-0.3,-0.3048,0.0,,0.0,0.0,0.0,1.0
1402416158071049705,,errorv,,0,,1402416158,16693115,/enu,/base_link,,,4.82856212678,20.936334625,-25.4127865582,,0.0149451785393,0.018490902924,-0.71974493878,0.693831356489
1402416158071075598,,errorv,,0,,1402416158,26693105,/enu,/base_link,,,4.83160279856,20.9124107385,-25.4134232059,,0.0149352882207,0.0186051610008,-0.719251714708,0.694339798687
1402416158077750448,,errorv,,0,,1402416158,77520001,base_link,/z_drive,,,0.0,0.0,0.0,,0.0,0.0,0.0,1.0
1402416158077779550,,errorv,,0,,1402416158,77536365,/z_drive,port,,,-0.3,0.3048,0.0,,0.0,0.0,0.0,1.0
1402416158077861373,,errorv,,0,,1402416158,77540812,/z_drive,starboard,,,-0.3,-0.3048,0.0,,0.0,0.0,0.0,1.0
1402416158097751581,,errorv,,0,,1402416158,97508311,base_link,/z_drive,,,0.0,0.0,0.0,,0.0,0.0,0.0,1.0
1402416158097781429,,errorv,,0,,1402416158,97530521,/z_drive,port,,,-0.3,0.3048,0.0,,0.0,0.0,0.0,1.0
1402416158097806835,,errorv,,0,,1402416158,97537970,/z_drive,starboard,,,-0.3,-0.3048,0.0,,0.0,0.0,0.0,1.0
1402416158111043750,,errorv,,0,,1402416158,37689924,/enu,/base_link,,,4.83451836674,20.9139951245,-25.4017409182,,0.0135209668057,0.0165199385379,-0.718954383969,0.694729349358
1402416158111073857,,errorv,,0,,1402416158,47679901,/enu,/base_link,,,4.83733186069,20.8905444819,-25.4024885696,,0.0135154332172,0.0166522881926,-0.718453909875,0.695243852003
1402416158111099634,,errorv,,0,,1402416158,57678937,/enu,/base_link,,,4.8403444601,20.8669438855,-25.4030147718,,0.013505484924,0.0165048509647,-0.717997825313,0.695718559921
1402416158111121394,,errorv,,0,,1402416158,68679094,/enu,/base_link,,,4.84357555974,20.8407191728,-25.4031717146,,0.0134742077896,0.0166151338553,-0.717468838808,0.696262054396
1402416158117713436,,errorv,,0,,1402416158,117495705,base_link,/z_drive,,,0.0,0.0,0.0,,0.0,0.0,0.0,1.0
1402416158117742704,,errorv,,0,,1402416158,117509064,/z_drive,port,,,-0.3,0.3048,0.0,,0.0,0.0,0.0,1.0
1402416158117763183,,errorv,,0,,1402416158,117515269,/z_drive,starboard,,,-0.3,-0.3048,0.0,,0.0,0.0,0.0,1.0
1402416158137749243,,errorv,,0,,1402416158,137495452,base_link,/z_drive,,,0.0,0.0,0.0,,0.0,0.0,0.0,1.0
1402416158137779551,,errorv,,0,,1402416158,137523861,/z_drive,port,,,-0.3,0.3048,0.0,,0.0,0.0,0.0,1.0
1402416158137800649,,errorv,,0,,1402416158,137533498,/z_drive,starboard,,,-0.3,-0.3048,0.0,,0.0,0.0,0.0,1.0
1402416158151121198,,errorv,,0,,1402416158,79674005,/enu,/base_link,,,4.84680093374,20.8147505371,-25.4038856189,,0.0133642432247,0.0167793707445,-0.716939990357,0.696804778936
1402416158151155167,,errorv,,0,,1402416158,89684009,/enu,/base_link,,,4.85905266879,20.8365055546,-25.4006001935,,0.0101551144202,0.0148424719364,-0.715418187423,0.698465025454
1402416158151185406,,errorv,,0,,1402416158,99666118,/enu,/base_link,,,4.86203329179,20.8135708275,-25.4009004078,,0.0100731551364,0.0149010518527,-0.714923041852,0.698971769407
1402416158151311644,,errorv,,0,,1402416158,110682964,/enu,/base_link,,,4.86586761243,20.7882337557,-25.4012485564,,0.0100720640478,0.0148569069531,-0.714379431002,0.699528308507
1402416158151344268,,errorv,,0,,1402416158,120671033,/enu,/base_link,,,4.86890837717,20.7651558849,-25.4013602088,,0.00993175650788,0.0149257366198,-0.713911977205,0.700005908119
1402416158152204901,,errorv,,0,,1402416158,252005151,base_link,imu,,,0.13,0.0,-0.1,,1.0,0.0,0.0,0.0
1402416158153561764,,errorv,,0,,1402416158,253362534,/base_link,/gps,,,-0.84,0.0,-0.14,,0.0,0.0,0.0,1.0
1402416158157730051,,errorv,,0,,1402416158,157443740,base_link,/z_drive,,,0.0,0.0,0.0,,0.0,0.0,0.0,1.0
1402416158157761961,,errorv,,0,,1402416158,157481908,/z_drive,port,,,-0.3,0.3048,0.0,,0.0,0.0,0.0,1.0
1402416158157794366,,errorv,,0,,1402416158,157487393,/z_drive,starboard,,,-0.3,-0.3048,0.0,,0.0,0.0,0.0,1.0
1402416158177951059,,errorv,,0,,1402416158,177483007,base_link,/z_drive,,,0.0,0.0,0.0,,0.0,0.0,0.0,1.0
1402416158177990839,,errorv,,0,,1402416158,177560619,/z_drive,port,,,-0.3,0.3048,0.0,,0.0,0.0,0.0,1.0
1402416158178020155,,errorv,,0,,1402416158,177576703,/z_drive,starboard,,,-0.3,-0.3048,0.0,,0.0,0.0,0.0,1.0
1402416158191126370,,errorv,,0,,1402416158,131705045,/enu,/base_link,,,4.87241317393,20.7394780155,-25.4012385227,,0.00993379372577,0.0148773376512,-0.713401483794,0.70052716399
1402416158191160169,,errorv,,0,,1402416158,141661882,/enu,/base_link,,,4.87901215491,20.746257218,-25.3918083103,,0.00830427212919,0.0131480609163,-0.712995683325,0.700995950858
1402416158191192961,,errorv,,0,,1402416158,152690887,/enu,/base_link,,,4.88263069086,20.7213367024,-25.3920836922,,0.0081330319836,0.0131155591323,-0.712448485264,0.701554696188
1402416158197838664,,errorv,,0,,1402416158,197515542,base_link,/z_drive,,,0.0,0.0,0.0,,0.0,0.0,0.0,1.0
1402416158197876532,,errorv,,0,,1402416158,197539515,/z_drive,port,,,-0.3,0.3048,0.0,,0.0,0.0,0.0,1.0
1402416158197894475,,errorv,,0,,1402416158,197547243,/z_drive,starboard,,,-0.3,-0.3048,0.0,,0.0,0.0,0.0,1.0
1402416158199318849,,errorv,,0,,1402416158,162667989,/enu,/base_link,,,4.88613934119,20.6985247307,-25.3919107476,,0.00807182591928,0.0131762360141,-0.711947495469,0.702062672506
1402416158199361698,,errorv,,0,,1402416158,173654079,/enu,/base_link,,,4.88972101823,20.6736880297,-25.3923093958,,0.00795627512516,0.0130819427763,-0.711396510409,0.702624056973
1402416158217794996,,errorv,,0,,1402416158,217498090,base_link,/z_drive,,,0.0,0.0,0.0,,0.0,0.0,0.0,1.0
1402416158217820730,,errorv,,0,,1402416158,217523808,/z_drive,port,,,-0.3,0.3048,0.0,,0.0,0.0,0.0,1.0
1402416158217846984,,errorv,,0,,1402416158,217531421,/z_drive,starboard,,,-0.3,-0.3048,0.0,,0.0,0.0,0.0,1.0
1402416158237692085,,errorv,,0,,1402416158,237520054,base_link,/z_drive,,,0.0,0.0,0.0,,0.0,0.0,0.0,1.0
1402416158237723969,,errorv,,0,,1402416158,237538514,/z_drive,port,,,-0.3,0.3048,0.0,,0.0,0.0,0.0,1.0
1402416158237824641,,errorv,,0,,1402416158,237546435,/z_drive,starboard,,,-0.3,-0.3048,0.0,,0.0,0.0,0.0,1.0
1402416158239029456,,errorv,,0,,1402416158,183696985,/enu,/base_link,,,4.88831008093,20.6865685065,-25.3758266874,,0.00681989701752,0.01026208004,-0.711851887956,0.702221523689
1402416158239073878,,errorv,,0,,1402416158,193645954,/enu,/base_link,,,4.89145848231,20.6643014232,-25.3753986406,,0.00669203213283,0.0101404426899,-0.711361047909,0.702721742687
1402416158252308603,,errorv,,0,,1402416158,352120849,base_link,imu,,,0.13,0.0,-0.1,,1.0,0.0,0.0,0.0
1402416158253662114,,errorv,,0,,1402416158,353472444,/base_link,/gps,,,-0.84,0.0,-0.14,,0.0,0.0,0.0,1.0
1402416158257655799,,errorv,,0,,1402416158,257503887,base_link,/z_drive,,,0.0,0.0,0.0,,0.0,0.0,0.0,1.0
1402416158257991058,,errorv,,0,,1402416158,257521210,/z_drive,port,,,-0.3,0.3048,0.0,,0.0,0.0,0.0,1.0
1402416158258013290,,errorv,,0,,1402416158,257764408,/z_drive,starboard,,,-0.3,-0.3048,0.0,,0.0,0.0,0.0,1.0
1402416158277656085,,errorv,,0,,1402416158,277470931,base_link,/z_drive,,,0.0,0.0,0.0,,0.0,0.0,0.0,1.0
1402416158277687096,,errorv,,0,,1402416158,277484483,/z_drive,port,,,-0.3,0.3048,0.0,,0.0,0.0,0.0,1.0
1402416158277711422,,errorv,,0,,1402416158,277488878,/z_drive,starboard,,,-0.3,-0.3048,0.0,,0.0,0.0,0.0,1.0
1402416158279184238,,errorv,,0,,1402416158,204651117,/enu,/base_link,,,4.89502665475,20.6399793155,-25.3756801263,,0.0066001563099,0.0101520561331,-0.710814383241,0.703275398596
1402416158279216171,,errorv,,0,,1402416158,214647054,/enu,/base_link,,,4.89828217554,20.6177143462,-25.3755493872,,0.0065184091214,0.0100143155075,-0.710274476024,0.703823410051
1402416158279237135,,errorv,,0,,1402416158,224647998,/enu,/base_link,,,4.90147619644,20.5954907748,-25.3754620141,,0.00647283495178,0.00990264865607,-0.709747837726,0.704356477077
1402416158279275685,,errorv,,0,,1402416158,235649108,/enu,/base_link,,,4.90522024391,20.5708208062,-25.3751771898,,0.00635441848537,0.0099125121505,-0.709181005519,0.704928127457
1402416158297747939,,errorv,,0,,1402416158,297548191,base_link,/z_drive,,,0.0,0.0,0.0,,0.0,0.0,0.0,1.0
1402416158297776113,,errorv,,0,,1402416158,297593182,/z_drive,port,,,-0.3,0.3048,0.0,,0.0,0.0,0.0,1.0
1402416158297845091,,errorv,,0,,1402416158,297605175,/z_drive,starboard,,,-0.3,-0.3048,0.0,,0.0,0.0,0.0,1.0
1402416158317646507,,errorv,,0,,1402416158,317473738,base_link,/z_drive,,,0.0,0.0,0.0,,0.0,0.0,0.0,1.0
1402416158317843086,,errorv,,0,,1402416158,317491043,/z_drive,port,,,-0.3,0.3048,0.0,,0.0,0.0,0.0,1.0
1402416158317871858,,errorv,,0,,1402416158,317527451,/z_drive,starboard,,,-0.3,-0.3048,0.0,,0.0,0.0,0.0,1.0
1402416158319149555,,errorv,,0,,1402416158,245650053,/enu,/base_link,,,4.90861278123,20.5485944824,-25.3753219831,,0.00633621471917,0.00980003044134,-0.708655485959,0.705458158934
1402416158319177201,,errorv,,0,,1402416158,256649971,/enu,/base_link,,,4.91227669168,20.5240095358,-25.3751951421,,0.00622233832038,0.00976716036502,-0.708081591736,0.706035653865
1402416158319199450,,errorv,,0,,1402416158,266649007,/enu,/base_link,,,4.91561909576,20.5014534441,-25.3747874215,,0.00618159725719,0.00969447183609,-0.707581298007,0.706538400783
1402416158319222904,,errorv,,0,,1402416158,277645111,/enu,/base_link,,,4.92606046959,20.5051003386,-25.3427916592,,0.00396406296704,0.00885018514722,-0.706518988756,0.707627641457
1402416158337696915,,errorv,,0,,1402416158,337526713,base_link,/z_drive,,,0.0,0.0,0.0,,0.0,0.0,0.0,1.0
1402416158337774556,,errorv,,0,,1402416158,337562568,/z_drive,port,,,-0.3,0.3048,0.0,,0.0,0.0,0.0,1.0
1402416158337819753,,errorv,,0,,1402416158,337573579,/z_drive,starboard,,,-0.3,-0.3048,0.0,,0.0,0.0,0.0,1.0
1402416158352419503,,errorv,,0,,1402416158,452225668,base_link,imu,,,0.13,0.0,-0.1,,1.0,0.0,0.0,0.0
1402416158353769356,,errorv,,0,,1402416158,453567737,/base_link,/gps,,,-0.84,0.0,-0.14,,0.0,0.0,0.0,1.0
1402416158357721697,,errorv,,0,,1402416158,357477561,base_link,/z_drive,,,0.0,0.0,0.0,,0.0,0.0,0.0,1.0
1402416158357752004,,errorv,,0,,1402416158,357495390,/z_drive,port,,,-0.3,0.3048,0.0,,0.0,0.0,0.0,1.0
1402416158357822593,,errorv,,0,,1402416158,357505164,/z_drive,starboard,,,-0.3,-0.3048,0.0,,0.0,0.0,0.0,1.0
1402416158359160188,,errorv,,0,,1402416158,288018941,/enu,/base_link,,,4.92978742623,20.4823240916,-25.3426622463,,0.00391816650835,0.00880799354341,-0.705975487077,0.708170656599
1402416158359191834,,errorv,,0,,1402416158,297648906,/enu,/base_link,,,4.93324366337,20.4610578876,-25.3423315135,,0.00392442834712,0.00875385990338,-0.705465732452,0.708679101664
1402416158359216467,,errorv,,0,,1402416158,308608055,/enu,/base_link,,,4.93727801579,20.4369395994,-25.3421119215,,0.00391780189172,0.00871957351353,-0.70489537367,0.709246876655
1402416158359238368,,errorv,,0,,1402416158,318633079,/enu,/base_link,,,4.94107646104,20.4252971357,-25.3125264602,,0.00337017228297,0.00796409824617,-0.704508266266,0.709643091871
1402416158359279000,,errorv,,0,,1402416158,328618049,/enu,/base_link,,,4.94462187227,20.403351061,-25.3121395203,,0.00340582803011,0.00791620756799,-0.703989197126,0.710158393827
1402416158377759045,,errorv,,0,,1402416158,377485173,base_link,/z_drive,,,0.0,0.0,0.0,,0.0,0.0,0.0,1.0
1402416158377788545,,errorv,,0,,1402416158,377503048,/z_drive,port,,,-0.3,0.3048,0.0,,0.0,0.0,0.0,1.0
1402416158377812111,,errorv,,0,,1402416158,377512226,/z_drive,starboard,,,-0.3,-0.3048,0.0,,0.0,0.0,0.0,1.0
1402416158397702358,,errorv,,0,,1402416158,397478923,base_link,/z_drive,,,0.0,0.0,0.0,,0.0,0.0,0.0,1.0
1402416158397774055,,errorv,,0,,1402416158,397508629,/z_drive,port,,,-0.3,0.3048,0.0,,0.0,0.0,0.0,1.0
1402416158397798871,,errorv,,0,,1402416158,397518254,/z_drive,starboard,,,-0.3,-0.3048,0.0,,0.0,0.0,0.0,1.0
1402416158399035495,,errorv,,0,,1402416158,339601993,/enu,/base_link,,,4.94877738304,20.3794537031,-25.3122083437,,0.00341682991935,0.00784957545911,-0.703413983879,0.710728834875
1402416158399062436,,errorv,,0,,1402416158,349600076,/enu,/base_link,,,4.95245381594,20.3574851181,-25.3118573851,,0.00343879538403,0.00781297665753,-0.702895173136,0.711242228544
1402416158399085672,,errorv,,0,,1402416158,360593080,/enu,/base_link,,,4.96202332337,20.3912879519,-25.3605834229,,0.00112819412194,0.00443690539997,-0.702559361889,0.711610415937
1402416158407220922,,errorv,,0,,1402416158,370583057,/enu,/base_link,,,4.96566532432,20.3705273256,-25.3608752197,,0.00119494994876,0.00431437710558,-0.702043359306,0.712120130244
1402416158407370289,,errorv,,0,,1402416158,381571054,/enu,/base_link,,,4.96950349308,20.3470943761,-25.3603082286,,0.00130729915846,0.00432276264433,-0.701476845086,0.712677936027
1402416158417735227,,errorv,,0,,1402416158,417513053,base_link,/z_drive,,,0.0,0.0,0.0,,0.0,0.0,0.0,1.0
1402416158417765800,,errorv,,0,,1402416158,417530393,/z_drive,port,,,-0.3,0.3048,0.0,,0.0,0.0,0.0,1.0
1402416158417788416,,errorv,,0,,1402416158,417539262,/z_drive,starboard,,,-0.3,-0.3048,0.0,,0.0,0.0,0.0,1.0
1402416158437717477,,errorv,,0,,1402416158,437428405,base_link,/z_drive,,,0.0,0.0,0.0,,0.0,0.0,0.0,1.0
1402416158437744471,,errorv,,0,,1402416158,437479788,/z_drive,port,,,-0.3,0.3048,0.0,,0.0,0.0,0.0,1.0
1402416158437852919,,errorv,,0,,1402416158,437488289,/z_drive,starboard,,,-0.3,-0.3048,0.0,,0.0,0.0,0.0,1.0
1402416158447147805,,errorv,,0,,1402416158,391583919,/enu,/base_link,,,4.97307772768,20.3259580586,-25.3601581162,,0.00132310693801,0.00420777342113,-0.700942739294,0.713203912119
1402416158447176148,,errorv,,0,,1402416158,401573896,/enu,/base_link,,,4.97685234923,20.3047748651,-25.3599075774,,0.00130451461856,0.00427992180791,-0.700396898741,0.713739563668
1402416158452519380,,errorv,,0,,1402416158,552336021,base_link,imu,,,0.13,0.0,-0.1,,1.0,0.0,0.0,0.0
1402416158453831373,,errorv,,0,,1402416158,553650940,/base_link,/gps,,,-0.84,0.0,-0.14,,0.0,0.0,0.0,1.0
1402416158458112300,,errorv,,0,,1402416158,457481600,base_link,/z_drive,,,0.0,0.0,0.0,,0.0,0.0,0.0,1.0
1402416158458141890,,errorv,,0,,1402416158,457501400,/z_drive,port,,,-0.3,0.3048,0.0,,0.0,0.0,0.0,1.0
1402416158458165482,,errorv,,0,,1402416158,457510133,/z_drive,starboard,,,-0.3,-0.3048,0.0,,0.0,0.0,0.0,1.0
1402416158477631953,,errorv,,0,,1402416158,477451280,base_link,/z_drive,,,0.0,0.0,0.0,,0.0,0.0,0.0,1.0
1402416158477673171,,errorv,,0,,1402416158,477469264,/z_drive,port,,,-0.3,0.3048,0.0,,0.0,0.0,0.0,1.0
1402416158477708520,,errorv,,0,,1402416158,477479217,/z_drive,starboard,,,-0.3,-0.3048,0.0,,0.0,0.0,0.0,1.0
1402416158487329425,,errorv,,0,,1402416158,412556886,/enu,/base_link,,,4.9809292067,20.281787787,-25.3601239439,,0.00130249502849,0.00416774868323,-0.699824214378,0.714301758606
1402416158487358099,,errorv,,0,,1402416158,422584056,/enu,/base_link,,,4.98456154132,20.2604472819,-25.3597738577,,0.0012929792611,0.00420312272468,-0.699288376875,0.714826152244
1402416158487438194,,errorv,,0,,1402416158,433589935,/enu,/base_link,,,4.99936476686,20.2457335585,-25.353230894,,0.000619350946158,0.00447990613512,-0.698568726077,0.715528672936
1402416158487464692,,errorv,,0,,1402416158,443557024,/enu,/base_link,,,5.00328446417,20.2248331541,-25.3533841853,,0.000781947988333,0.00429371530468,-0.698059927889,0.716026039779
1402416158497839065,,errorv,,0,,1402416158,497520129,base_link,/z_drive,,,0.0,0.0,0.0,,0.0,0.0,0.0,1.0
1402416158497916010,,errorv,,0,,1402416158,497539414,/z_drive,port,,,-0.3,0.3048,0.0,,0.0,0.0,0.0,1.0
1402416158498043840,,errorv,,0,,1402416158,497546836,/z_drive,starboard,,,-0.3,-0.3048,0.0,,0.0,0.0,0.0,1.0
1402416158517691468,,errorv,,0,,1402416158,517466874,base_link,/z_drive,,,0.0,0.0,0.0,,0.0,0.0,0.0,1.0
1402416158517759846,,errorv,,0,,1402416158,517484840,/z_drive,port,,,-0.3,0.3048,0.0,,0.0,0.0,0.0,1.0
1402416158517879714,,errorv,,0,,1402416158,517492857,/z_drive,starboard,,,-0.3,-0.3048,0.0,,0.0,0.0,0.0,1.0
1402416158527151023,,errorv,,0,,1402416158,454591989,/enu,/base_link,,,5.00770375527,20.2015083655,-25.3534126334,,0.000816399294881,0.00428911077655,-0.697491767195,0.716579494346
1402416158527179658,,errorv,,0,,1402416158,464554071,/enu,/base_link,,,5.01160915261,20.1805573483,-25.3535621044,,0.000875181826066,0.00421494845518,-0.696982444836,0.717075267916
1402416158527319903,,errorv,,0,,1402416158,474543094,/enu,/base_link,,,5.01567633462,20.1594033635,-25.353549184,,0.000812125764486,0.00419386809208,-0.696455460095,0.717587307598
1402416158527344018,,errorv,,0,,1402416158,485539913,/enu,/base_link,,,5.03442463554,20.1734206715,-25.3768290634,,-0.00130932910155,0.00311860950533,-0.695738087988,0.718287597592
1402416158537811769,,errorv,,0,,1402416158,537457331,base_link,/z_drive,,,0.0,0.0,0.0,,0.0,0.0,0.0,1.0
1402416158537841653,,errorv,,0,,1402416158,537518458,/z_drive,port,,,-0.3,0.3048,0.0,,0.0,0.0,0.0,1.0
1402416158537905539,,errorv,,0,,1402416158,537528232,/z_drive,starboard,,,-0.3,-0.3048,0.0,,0.0,0.0,0.0,1.0
1402416158552628808,,errorv,,0,,1402416158,652442910,base_link,imu,,,0.13,0.0,-0.1,,1.0,0.0,0.0,0.0
1402416158553959433,,errorv,,0,,1402416158,653758090,/base_link,/gps,,,-0.84,0.0,-0.14,,0.0,0.0,0.0,1.0
1402416158557695568,,errorv,,0,,1402416158,557502407,base_link,/z_drive,,,0.0,0.0,0.0,,0.0,0.0,0.0,1.0
1402416158557726313,,errorv,,0,,1402416158,557520844,/z_drive,port,,,-0.3,0.3048,0.0,,0.0,0.0,0.0,1.0
1402416158557749403,,errorv,,0,,1402416158,557530359,/z_drive,starboard,,,-0.3,-0.3048,0.0,,0.0,0.0,0.0,1.0
1402416158567211382,,errorv,,0,,1402416158,496516942,/enu,/base_link,,,5.03904012535,20.1507212405,-25.3767772433,,-0.0012410375886,0.00311322958876,-0.695165020714,0.718842376048
1402416158567272672,,errorv,,0,,1402416158,506525039,/enu,/base_link,,,5.04326708342,20.1301671517,-25.3769310251,,-0.00125997073384,0.00297917729988,-0.694656092436,0.719334727521
1402416158567302230,,errorv,,0,,1402416158,516521930,/enu,/base_link,,,5.04768567785,20.109633448,-25.3772753621,,-0.00124451465877,0.00307236453786,-0.694124037244,0.719847784382
1402416158567419701,,errorv,,0,,1402416158,527520895,/enu,/base_link,,,5.052283756,20.0868040795,-25.3770901778,,-0.00125399747067,0.00295139468308,-0.693557964152,0.72039368898
1402416158567455379,,errorv,,0,,1402416158,537496089,/enu,/base_link,,,5.05199760499,20.0723870981,-25.3454364878,,-0.000552441148653,0.00190997201129,-0.69311378056,0.720825453222
1402416158577757694,,errorv,,0,,1402416158,577527221,base_link,/z_drive,,,0.0,0.0,0.0,,0.0,0.0,0.0,1.0
1402416158577780642,,errorv,,0,,1402416158,577540900,/z_drive,port,,,-0.3,0.3048,0.0,,0.0,0.0,0.0,1.0
1402416158577794861,,errorv,,0,,1402416158,577545608,/z_drive,starboard,,,-0.3,-0.3048,0.0,,0.0,0.0,0.0,1.0
1402416158597743755,,errorv,,0,,1402416158,597501007,base_link,/z_drive,,,0.0,0.0,0.0,,0.0,0.0,0.0,1.0
1402416158597776813,,errorv,,0,,1402416158,597522827,/z_drive,port,,,-0.3,0.3048,0.0,,0.0,0.0,0.0,1.0
1402416158597800044,,errorv,,0,,1402416158,597599706,/z_drive,starboard,,,-0.3,-0.3048,0.0,,0.0,0.0,0.0,1.0
1402416158607122841,,errorv,,0,,1402416158,548516035,/enu,/base_link,,,5.0564979614,20.0496408543,-25.345433281,,-0.000527848541105,0.00171449241345,-0.692537025295,0.721380101255
1402416158607187112,,errorv,,0,,1402416158,558512926,/enu,/base_link,,,5.06065085511,20.0289581167,-25.3453507944,,-0.000535698298999,0.00188054093588,-0.692011745506,0.721883592191
1402416158607216156,,errorv,,0,,1402416158,569487094,/enu,/base_link,,,5.06541829536,20.0062536348,-25.3455405263,,-0.000536910053511,0.00205737322186,-0.691433344556,0.722437131506
1402416158615217564,,errorv,,0,,1402416158,579489946,/enu,/base_link,,,5.06962716747,19.9855856333,-25.3456820428,,-0.000453521571998,0.00194502210085,-0.690901086749,0.722946539888
1402416158615591761,,errorv,,0,,1402416158,590482950,/enu,/base_link,,,5.08473535106,19.9969825072,-25.3738508566,,-0.00219267580555,0.000748133867879,-0.690317301818,0.723503044416
1402416158617772629,,errorv,,0,,1402416158,617588369,base_link,/z_drive,,,0.0,0.0,0.0,,0.0,0.0,0.0,1.0
1402416158617803303,,errorv,,0,,1402416158,617662864,/z_drive,port,,,-0.3,0.3048,0.0,,0.0,0.0,0.0,1.0
1402416158617825287,,errorv,,0,,1402416158,617693890,/z_drive,starboard,,,-0.3,-0.3048,0.0,,0.0,0.0,0.0,1.0
1402416158637726578,,errorv,,0,,1402416158,637570196,base_link,/z_drive,,,0.0,0.0,0.0,,0.0,0.0,0.0,1.0
1402416158637874573,,errorv,,0,,1402416158,637591247,/z_drive,port,,,-0.3,0.3048,0.0,,0.0,0.0,0.0,1.0
1402416158637945188,,errorv,,0,,1402416158,637626715,/z_drive,starboard,,,-0.3,-0.3048,0.0,,0.0,0.0,0.0,1.0
1402416158652743862,,errorv,,0,,1402416158,752555346,base_link,imu,,,0.13,0.0,-0.1,,1.0,0.0,0.0,0.0
1402416158654046321,,errorv,,0,,1402416158,753863483,/base_link,/gps,,,-0.84,0.0,-0.14,,0.0,0.0,0.0,1.0
1402416158655127260,,errorv,,0,,1402416158,600474119,/enu,/base_link,,,5.08906480389,19.9768319349,-25.3742150815,,-0.00207380268757,0.000722200873443,-0.689818360299,0.723979148569
1402416158655152547,,errorv,,0,,1402416158,611469984,/enu,/base_link,,,5.09389482597,19.9547862734,-25.3747128533,,-0.00205463971002,0.00088903130076,-0.689264887602,0.724505971541
1402416158657789867,,errorv,,0,,1402416158,657616233,base_link,/z_drive,,,0.0,0.0,0.0,,0.0,0.0,0.0,1.0
1402416158657819797,,errorv,,0,,1402416158,657634742,/z_drive,port,,,-0.3,0.3048,0.0,,0.0,0.0,0.0,1.0
1402416158657842314,,errorv,,0,,1402416158,657643589,/z_drive,starboard,,,-0.3,-0.3048,0.0,,0.0,0.0,0.0,1.0
1402416158677700407,,errorv,,0,,1402416158,677484806,base_link,/z_drive,,,0.0,0.0,0.0,,0.0,0.0,0.0,1.0
1402416158677804487,,errorv,,0,,1402416158,677504259,/z_drive,port,,,-0.3,0.3048,0.0,,0.0,0.0,0.0,1.0
1402416158677829867,,errorv,,0,,1402416158,677513735,/z_drive,starboard,,,-0.3,-0.3048,0.0,,0.0,0.0,0.0,1.0
1402416158695066457,,errorv,,0,,1402416158,622468948,/enu,/base_link,,,5.09873637635,19.9326026669,-25.3751402105,,-0.00188941069178,0.000867517945969,-0.688687240932,0.725055557676
1402416158695175696,,errorv,,0,,1402416158,632471084,/enu,/base_link,,,5.10307976022,19.9122007719,-25.3750066383,,-0.00175240668691,0.000950411860351,-0.688159390647,0.725556806083
1402416158695204231,,errorv,,0,,1402416158,643459081,/enu,/base_link,,,5.1214368667,19.9092349031,-25.3564702663,,-0.00364990993993,0.00137720967366,-0.687901520102,0.725793551978
1402416158695298071,,errorv,,0,,1402416158,654462099,/enu,/base_link,,,5.12645896045,19.8871818353,-25.3563708599,,-0.00344225155435,0.00144381160803,-0.687327636774,0.726337928266
1402416158695319831,,errorv,,0,,1402416158,664469957,/enu,/base_link,,,5.1311883697,19.867290955,-25.3566952655,,-0.00338437201076,0.00146092463442,-0.686799550563,0.72683752591
1402416158697808589,,errorv,,0,,1402416158,697574106,base_link,/z_drive,,,0.0,0.0,0.0,,0.0,0.0,0.0,1.0
1402416158697832285,,errorv,,0,,1402416158,697591070,/z_drive,port,,,-0.3,0.3048,0.0,,0.0,0.0,0.0,1.0
1402416158697846274,,errorv,,0,,1402416158,697596694,/z_drive,starboard,,,-0.3,-0.3048,0.0,,0.0,0.0,0.0,1.0
1402416158717637671,,errorv,,0,,1402416158,717422365,base_link,/z_drive,,,0.0,0.0,0.0,,0.0,0.0,0.0,1.0
1402416158717759063,,errorv,,0,,1402416158,717473648,/z_drive,port,,,-0.3,0.3048,0.0,,0.0,0.0,0.0,1.0
1402416158717787129,,errorv,,0,,1402416158,717482107,/z_drive,starboard,,,-0.3,-0.3048,0.0,,0.0,0.0,0.0,1.0
1402416158735173854,,errorv,,0,,1402416158,675441980,/enu,/base_link,,,5.13609725696,19.8452912425,-25.3566178887,,-0.00322391610058,0.00156737453212,-0.68621030316,0.727394370021
1402416158735203971,,errorv,,0,,1402416158,685446977,/enu,/base_link,,,5.14185831209,19.8175545154,-25.3222924585,,-0.002413658621,0.00176868354789,-0.685594745324,0.727977260081
1402416158735228336,,errorv,,0,,1402416158,696443080,/enu,/base_link,,,5.14696487347,19.7954363019,-25.3223598042,,-0.00226830779601,0.00170420394849,-0.685026025865,0.72851307082
1402416158737786775,,errorv,,0,,1402416158,737523840,base_link,/z_drive,,,0.0,0.0,0.0,,0.0,0.0,0.0,1.0
1402416158737852028,,errorv,,0,,1402416158,737542967,/z_drive,port,,,-0.3,0.3048,0.0,,0.0,0.0,0.0,1.0
1402416158737922884,,errorv,,0,,1402416158,737553301,/z_drive,starboard,,,-0.3,-0.3048,0.0,,0.0,0.0,0.0,1.0
1402416158743278680,,errorv,,0,,1402416158,706437110,/enu,/base_link,,,5.15167360345,19.7751446016,-25.3221637648,,-0.00216522044181,0.00183962211629,-0.684498413426,0.729008813135
1402416158743310217,,errorv,,0,,1402416158,717417001,/enu,/base_link,,,5.15691485768,19.7529822765,-25.3221392964,,-0.00199267332414,0.00178046587848,-0.683926352426,0.729546162797
1402416158752827352,,errorv,,0,,1402416158,852654206,base_link,imu,,,0.13,0.0,-0.1,,1.0,0.0,0.0,0.0
1402416158754150341,,errorv,,0,,1402416158,853957412,/base_link,/gps,,,-0.84,0.0,-0.14,,0.0,0.0,0.0,1.0
1402416158757665523,,errorv,,0,,1402416158,757495200,base_link,/z_drive,,,0.0,0.0,0.0,,0.0,0.0,0.0,1.0
1402416158757731999,,errorv,,0,,1402416158,757513245,/z_drive,port,,,-0.3,0.3048,0.0,,0.0,0.0,0.0,1.0
1402416158757746295,,errorv,,0,,1402416158,757522716,/z_drive,starboard,,,-0.3,-0.3048,0.0,,0.0,0.0,0.0,1.0
1402416158777705248,,errorv,,0,,1402416158,777475283,base_link,/z_drive,,,0.0,0.0,0.0,,0.0,0.0,0.0,1.0
1402416158777786176,,errorv,,0,,1402416158,777493752,/z_drive,port,,,-0.3,0.3048,0.0,,0.0,0.0,0.0,1.0
1402416158777807896,,errorv,,0,,1402416158,777571488,/z_drive,starboard,,,-0.3,-0.3048,0.0,,0.0,0.0,0.0,1.0
1402416158783089676,,errorv,,0,,1402416158,727469921,/enu,/base_link,,,5.16169817603,19.7328980708,-25.3224778644,,-0.00187255819049,0.00182562777096,-0.683419707541,0.730021002406
1402416158783117762,,errorv,,0,,1402416158,738418102,/enu,/base_link,,,5.17159955345,19.7499415614,-25.3465780409,,-0.00319990667073,-0.000663969775068,-0.682623943155,0.730762527756
1402416158797701430,,errorv,,0,,1402416158,797485393,base_link,/z_drive,,,0.0,0.0,0.0,,0.0,0.0,0.0,1.0
1402416158797725728,,errorv,,0,,1402416158,797516557,/z_drive,port,,,-0.3,0.3048,0.0,,0.0,0.0,0.0,1.0
1402416158797745557,,errorv,,0,,1402416158,797537222,/z_drive,starboard,,,-0.3,-0.3048,0.0,,0.0,0.0,0.0,1.0
1402416158817659389,,errorv,,0,,1402416158,817481392,base_link,/z_drive,,,0.0,0.0,0.0,,0.0,0.0,0.0,1.0
1402416158817792762,,errorv,,0,,1402416158,817500021,/z_drive,port,,,-0.3,0.3048,0.0,,0.0,0.0,0.0,1.0
1402416158817823335,,errorv,,0,,1402416158,817591569,/z_drive,starboard,,,-0.3,-0.3048,0.0,,0.0,0.0,0.0,1.0
1402416158823379661,,errorv,,0,,1402416158,748409032,/enu,/base_link,,,5.17633081477,19.7304249441,-25.3467115679,,-0.00311304683283,-0.000610998622113,-0.682140976686,0.731213801528
1402416158823603290,,errorv,,0,,1402416158,759413003,/enu,/base_link,,,5.18151577474,19.7089108209,-25.3465715748,,-0.00300228743255,-0.000594187171889,-0.681575349103,0.731741536819
1402416158823628951,,errorv,,0,,1402416158,769401073,/enu,/base_link,,,5.18591646785,19.6892730426,-25.3463411838,,-0.00285385614129,-0.000631840038182,-0.681066041911,0.732216158548
1402416158823653386,,errorv,,0,,1402416158,780397891,/enu,/base_link,,,5.19121609201,19.6676925996,-25.3459111317,,-0.00275196202113,-0.000659221129469,-0.680506586785,0.732736499346
1402416158837686161,,errorv,,0,,1402416158,837484806,base_link,/z_drive,,,0.0,0.0,0.0,,0.0,0.0,0.0,1.0
1402416158837774139,,errorv,,0,,1402416158,837504775,/z_drive,port,,,-0.3,0.3048,0.0,,0.0,0.0,0.0,1.0
1402416158837802125,,errorv,,0,,1402416158,837511839,/z_drive,starboard,,,-0.3,-0.3048,0.0,,0.0,0.0,0.0,1.0
1402416158852950687,,errorv,,0,,1402416158,952764969,base_link,imu,,,0.13,0.0,-0.1,,1.0,0.0,0.0,0.0
1402416158854270053,,errorv,,0,,1402416158,954061258,/base_link,/gps,,,-0.84,0.0,-0.14,,0.0,0.0,0.0,1.0
1402416158857590796,,errorv,,0,,1402416158,857436963,base_link,/z_drive,,,0.0,0.0,0.0,,0.0,0.0,0.0,1.0
1402416158857618831,,errorv,,0,,1402416158,857454569,/z_drive,port,,,-0.3,0.3048,0.0,,0.0,0.0,0.0,1.0
1402416158857684995,,errorv,,0,,1402416158,857459600,/z_drive,starboard,,,-0.3,-0.3048,0.0,,0.0,0.0,0.0,1.0
1402416158863058957,,errorv,,0,,1402416158,790371894,/enu,/base_link,,,5.21351924915,19.7128132441,-25.3734157579,,-0.00741923622173,-0.00254205395217,-0.680803319317,0.73242428503
1402416158863378722,,errorv,,0,,1402416158,801369905,/enu,/base_link,,,5.21915759725,19.6924539814,-25.3730791836,,-0.00728892673763,-0.00263679306542,-0.680240926354,0.732947611349
1402416158863412338,,errorv,,0,,1402416158,811369895,/enu,/base_link,,,5.2241953945,19.674182353,-25.3733188386,,-0.0071718997208,-0.00264031212662,-0.679749912378,0.733404151358
1402416158863432516,,errorv,,0,,1402416158,821372032,/enu,/base_link,,,5.22953769728,19.6558478012,-25.3733266201,,-0.00707713725896,-0.00273613951235,-0.67925996559,0.733858519618
1402416158877732578,,errorv,,0,,1402416158,877507798,base_link,/z_drive,,,0.0,0.0,0.0,,0.0,0.0,0.0,1.0
1402416158877790839,,errorv,,0,,1402416158,877526053,/z_drive,port,,,-0.3,0.3048,0.0,,0.0,0.0,0.0,1.0
1402416158877819366,,errorv,,0,,1402416158,877561211,/z_drive,starboard,,,-0.3,-0.3048,0.0,,0.0,0.0,0.0,1.0
1402416158897926279,,errorv,,0,,1402416158,897725805,base_link,/z_drive,,,0.0,0.0,0.0,,0.0,0.0,0.0,1.0
1402416158897957577,,errorv,,0,,1402416158,897745296,/z_drive,port,,,-0.3,0.3048,0.0,,0.0,0.0,0.0,1.0
1402416158897985159,,errorv,,0,,1402416158,897751618,/z_drive,starboard,,,-0.3,-0.3048,0.0,,0.0,0.0,0.0,1.0
1402416158903043961,,errorv,,0,,1402416158,832345962,/enu,/base_link,,,5.2305838117,19.6434329609,-25.1598027156,,-0.00895556441141,-0.00216684003687,-0.679804945039,0.733335079872
1402416158903177718,,errorv,,0,,1402416158,842341899,/enu,/base_link,,,5.23612606642,19.6254065025,-25.159416278,,-0.00892315719122,-0.00217645422313,-0.679318733153,0.733785867335
1402416158903229053,,errorv,,0,,1402416158,853346109,/enu,/base_link,,,5.24235811179,19.6054406559,-25.1587990066,,-0.00880312891598,-0.00226526341661,-0.678802584302,0.734264547046
1402416158903292062,,errorv,,0,,1402416158,863334894,/enu,/base_link,,,5.24795247537,19.5871593048,-25.1579360212,,-0.00871972446669,-0.00242407799343,-0.678294374652,0.734734531356
1402416158903318494,,errorv,,0,,1402416158,874335050,/enu,/base_link,,,5.25424158786,19.567259462,-25.1572919351,,-0.00861398446246,-0.00242775148731,-0.677771871955,0.735217787381
1402416158917774393,,errorv,,0,,1402416158,917561940,base_link,/z_drive,,,0.0,0.0,0.0,,0.0,0.0,0.0,1.0
1402416158917806846,,errorv,,0,,1402416158,917582375,/z_drive,port,,,-0.3,0.3048,0.0,,0.0,0.0,0.0,1.0
1402416158917829820,,errorv,,0,,1402416158,917589231,/z_drive,starboard,,,-0.3,-0.3048,0.0,,0.0,0.0,0.0,1.0
1402416158937728224,,errorv,,0,,1402416158,937518209,base_link,/z_drive,,,0.0,0.0,0.0,,0.0,0.0,0.0,1.0
1402416158937758492,,errorv,,0,,1402416158,937536052,/z_drive,port,,,-0.3,0.3048,0.0,,0.0,0.0,0.0,1.0
1402416158937842737,,errorv,,0,,1402416158,937542111,/z_drive,starboard,,,-0.3,-0.3048,0.0,,0.0,0.0,0.0,1.0
1402416158943125689,,errorv,,0,,1402416158,884319067,/enu,/base_link,,,5.26226765487,19.5428122668,-25.1685192598,,-0.00752578037688,-0.00258665620542,-0.676850502394,0.736077488617
1402416158943151195,,errorv,,0,,1402416158,895317077,/enu,/base_link,,,5.26834173048,19.5226328784,-25.1675542783,,-0.0075123576236,-0.00275936000164,-0.676321523107,0.736563064372
1402416158943177713,,errorv,,0,,1402416158,905318975,/enu,/base_link,,,5.27421747524,19.5044978102,-25.1670671757,,-0.00744022289899,-0.00279282347227,-0.675819777437,0.737024064495
1402416158953077014,,errorv,,0,,1402416159,52873870,base_link,imu,,,0.13,0.0,-0.1,,1.0,0.0,0.0,0.0
1402416158954355832,,errorv,,0,,1402416159,54165270,/base_link,/gps,,,-0.84,0.0,-0.14,,0.0,0.0,0.0,1.0
1402416158955243703,,errorv,,0,,1402416158,915309906,/enu,/base_link,,,5.27973000291,19.4861750793,-25.1661269413,,-0.00739600530766,-0.00298559232039,-0.675318169752,0.737483392997
1402416158955272669,,errorv,,0,,1402416158,926289081,/enu,/base_link,,,5.28595115731,19.4662262445,-25.1654525493,,-0.00741115792439,-0.00301809567847,-0.674749815672,0.738003151814
1402416158957805929,,errorv,,0,,1402416158,957627611,base_link,/z_drive,,,0.0,0.0,0.0,,0.0,0.0,0.0,1.0
1402416158957827356,,errorv,,0,,1402416158,957646156,/z_drive,port,,,-0.3,0.3048,0.0,,0.0,0.0,0.0,1.0
1402416158957850264,,errorv,,0,,1402416158,957655033,/z_drive,starboard,,,-0.3,-0.3048,0.0,,0.0,0.0,0.0,1.0
1402416158977756093,,errorv,,0,,1402416158,977495523,base_link,/z_drive,,,0.0,0.0,0.0,,0.0,0.0,0.0,1.0
1402416158977786405,,errorv,,0,,1402416158,977523454,/z_drive,port,,,-0.3,0.3048,0.0,,0.0,0.0,0.0,1.0
1402416158977808488,,errorv,,0,,1402416158,977533497,/z_drive,starboard,,,-0.3,-0.3048,0.0,,0.0,0.0,0.0,1.0
1402416158995188470,,errorv,,0,,1402416158,936290025,/enu,/base_link,,,5.29235416566,19.446669613,-25.1544406309,,-0.00650371197163,-0.00364973357663,-0.673694417018,0.738972403851
1402416158995216483,,errorv,,0,,1402416158,947305917,/enu,/base_link,,,5.29852462364,19.4265029416,-25.1534556784,,-0.00653545015883,-0.00369316538864,-0.673161142211,0.739457723631
1402416158997648030,,errorv,,0,,1402416158,997511228,base_link,/z_drive,,,0.0,0.0,0.0,,0.0,0.0,0.0,1.0
1402416158997881355,,errorv,,0,,1402416158,997530561,/z_drive,port,,,-0.3,0.3048,0.0,,0.0,0.0,0.0,1.0
1402416158997968991,,errorv,,0,,1402416158,997670012,/z_drive,starboard,,,-0.3,-0.3048,0.0,,0.0,0.0,0.0,1.0
1402416159017699369,,errorv,,0,,1402416159,17474605,base_link,/z_drive,,,0.0,0.0,0.0,,0.0,0.0,0.0,1.0
1402416159017723083,,errorv,,0,,1402416159,17488603,/z_drive,port,,,-0.3,0.3048,0.0,,0.0,0.0,0.0,1.0
1402416159017788133,,errorv,,0,,1402416159,17494952,/z_drive,starboard,,,-0.3,-0.3048,0.0,,0.0,0.0,0.0,1.0
1402416159035384074,,errorv,,0,,1402416158,957276105,/enu,/base_link,,,5.3040988407,19.4082829924,-25.1526457116,,-0.00657032184932,-0.00387867430898,-0.672652100739,0.739919548416
1402416159035412226,,errorv,,0,,1402416158,968274116,/enu,/base_link,,,5.31021903852,19.3883014382,-25.1515719811,,-0.00659227896306,-0.00407617390927,-0.672101928438,0.7404180741
1402416159035436802,,errorv,,0,,1402416158,978262901,/enu,/base_link,,,5.31594634013,19.3700507684,-25.1505136399,,-0.00675247479283,-0.00414104170658,-0.671617344684,0.740855855196
1402416159035458803,,errorv,,0,,1402416158,989278078,/enu,/base_link,,,5.33888537775,19.3658226797,-25.2133317981,,-0.00827444451125,-0.00401086920472,-0.671696139328,0.740769696267
1402416159037729448,,errorv,,0,,1402416159,37511599,base_link,/z_drive,,,0.0,0.0,0.0,,0.0,0.0,0.0,1.0
1402416159037797465,,errorv,,0,,1402416159,37531018,/z_drive,port,,,-0.3,0.3048,0.0,,0.0,0.0,0.0,1.0
1402416159037823397,,errorv,,0,,1402416159,37537272,/z_drive,starboard,,,-0.3,-0.3048,0.0,,0.0,0.0,0.0,1.0
1402416159053181874,,errorv,,0,,1402416159,152984789,base_link,imu,,,0.13,0.0,-0.1,,1.0,0.0,0.0,0.0
1402416159054450767,,errorv,,0,,1402416159,154261522,/base_link,/gps,,,-0.84,0.0,-0.14,,0.0,0.0,0.0,1.0
1402416159057644913,,errorv,,0,,1402416159,57482899,base_link,/z_drive,,,0.0,0.0,0.0,,0.0,0.0,0.0,1.0
1402416159057664993,,errorv,,0,,1402416159,57499933,/z_drive,port,,,-0.3,0.3048,0.0,,0.0,0.0,0.0,1.0
1402416159057816073,,errorv,,0,,1402416159,57506429,/z_drive,starboard,,,-0.3,-0.3048,0.0,,0.0,0.0,0.0,1.0
1402416159075319486,,errorv,,0,,1402416159,288009,/enu,/base_link,,,5.34531001795,19.3458643638,-25.2120061981,,-0.00845297327081,-0.00414499942979,-0.671149293353,0.741262431433
1402416159075384063,,errorv,,0,,1402416159,10298013,/enu,/base_link,,,5.35121954815,19.3278284368,-25.2111205984,,-0.00849786522001,-0.00421284608517,-0.670644190698,0.741718550191
1402416159075444622,,errorv,,0,,1402416159,21260023,/enu,/base_link,,,5.35775179299,19.3081103923,-25.2100194173,,-0.00864534924764,-0.00441774524999,-0.670098873836,0.742208354
1402416159075508717,,errorv,,0,,1402416159,32285928,/enu,/base_link,,,5.36455080936,19.2885160937,-25.2092316707,,-0.0088316437171,-0.00460106001038,-0.669534532594,0.742714172464
1402416159077767764,,errorv,,0,,1402416159,77522788,base_link,/z_drive,,,0.0,0.0,0.0,,0.0,0.0,0.0,1.0
1402416159077794631,,errorv,,0,,1402416159,77546879,/z_drive,port,,,-0.3,0.3048,0.0,,0.0,0.0,0.0,1.0
1402416159077905386,,errorv,,0,,1402416159,77555266,/z_drive,starboard,,,-0.3,-0.3048,0.0,,0.0,0.0,0.0,1.0
1402416159097863965,,errorv,,0,,1402416159,97714025,base_link,/z_drive,,,0.0,0.0,0.0,,0.0,0.0,0.0,1.0
1402416159097892002,,errorv,,0,,1402416159,97738046,/z_drive,port,,,-0.3,0.3048,0.0,,0.0,0.0,0.0,1.0
1402416159097915161,,errorv,,0,,1402416159,97743261,/z_drive,starboard,,,-0.3,-0.3048,0.0,,0.0,0.0,0.0,1.0
1402416159115343504,,errorv,,0,,1402416159,42248010,/enu,/base_link,,,5.37300635038,19.290230524,-25.1958129131,,-0.00947048710702,-0.00589934324061,-0.668566212512,0.743568912147
1402416159115371970,,errorv,,0,,1402416159,53272008,/enu,/base_link,,,5.3796275318,19.2706246766,-25.1945617086,,-0.00957783205208,-0.00607775356241,-0.66800209898,0.744072927745
1402416159115434790,,errorv,,0,,1402416159,63237905,/enu,/base_link,,,5.38589337958,19.2530441205,-25.1934587089,,-0.00974028729362,-0.00597030629864,-0.667508127884,0.744514863152
1402416159115524597,,errorv,,0,,1402416159,74235916,/enu,/base_link,,,5.39261994772,19.2336300433,-25.1922719602,,-0.00983689679864,-0.00619424988215,-0.666953059051,0.745009049443
1402416159115552082,,errorv,,0,,1402416159,84237098,/enu,/base_link,,,5.40513900775,19.2154131459,-25.1721765051,,-0.0101036442279,-0.00559522812295,-0.666770646234,0.74517347988
1402416159117801018,,errorv,,0,,1402416159,117527567,base_link,/z_drive,,,0.0,0.0,0.0,,0.0,0.0,0.0,1.0
1402416159117824609,,errorv,,0,,1402416159,117545041,/z_drive,port,,,-0.3,0.3048,0.0,,0.0,0.0,0.0,1.0
1402416159117887287,,errorv,,0,,1402416159,117554887,/z_drive,starboard,,,-0.3,-0.3048,0.0,,0.0,0.0,0.0,1.0
1402416159137817740,,errorv,,0,,1402416159,137531861,base_link,/z_drive,,,0.0,0.0,0.0,,0.0,0.0,0.0,1.0
1402416159137847328,,errorv,,0,,1402416159,137568066,/z_drive,port,,,-0.3,0.3048,0.0,,0.0,0.0,0.0,1.0
1402416159137869137,,errorv,,0,,1402416159,137578624,/z_drive,starboard,,,-0.3,-0.3048,0.0,,0.0,0.0,0.0,1.0
1402416159153294667,,errorv,,0,,1402416159,253096674,base_link,imu,,,0.13,0.0,-0.1,,1.0,0.0,0.0,0.0
1402416159154568432,,errorv,,0,,1402416159,254361280,/base_link,/gps,,,-0.84,0.0,-0.14,,0.0,0.0,0.0,1.0
1402416159155066876,,errorv,,0,,1402416159,95236063,/enu,/base_link,,,5.41204532349,19.1960257412,-25.1711962113,,-0.010312030223,-0.0053768424284,-0.666210072259,0.745673448112
1402416159155149129,,errorv,,0,,1402416159,106237888,/enu,/base_link,,,5.41894923958,19.1766514034,-25.1702367922,,-0.0103711886896,-0.00548840504376,-0.665654619256,0.746167704822
1402416159155172050,,errorv,,0,,1402416159,116209983,/enu,/base_link,,,5.42543769978,19.1588780048,-25.1690287794,,-0.010533058626,-0.0053387698206,-0.665161158332,0.746606446302
1402416159157717868,,errorv,,0,,1402416159,157517782,base_link,/z_drive,,,0.0,0.0,0.0,,0.0,0.0,0.0,1.0
1402416159157750577,,errorv,,0,,1402416159,157534873,/z_drive,port,,,-0.3,0.3048,0.0,,0.0,0.0,0.0,1.0
1402416159157777422,,errorv,,0,,1402416159,157543251,/z_drive,starboard,,,-0.3,-0.3048,0.0,,0.0,0.0,0.0,1.0
1402416159163235666,,errorv,,0,,1402416159,127208948,/enu,/base_link,,,5.43255883338,19.1396199327,-25.1682942733,,-0.0105969743641,-0.0053490168808,-0.664611003531,0.747095245694
1402416159163261543,,errorv,,0,,1402416159,137209892,/enu,/base_link,,,5.44009931069,19.1191156307,-25.1579381575,,-0.0100986179335,-0.0055532138827,-0.66362018614,0.747980901012
1402416159177820973,,errorv,,0,,1402416159,177532261,base_link,/z_drive,,,0.0,0.0,0.0,,0.0,0.0,0.0,1.0
1402416159177852151,,errorv,,0,,1402416159,177555240,/z_drive,port,,,-0.3,0.3048,0.0,,0.0,0.0,0.0,1.0
1402416159177876236,,errorv,,0,,1402416159,177563593,/z_drive,starboard,,,-0.3,-0.3048,0.0,,0.0,0.0,0.0,1.0
1402416159197969443,,errorv,,0,,1402416159,197654016,base_link,/z_drive,,,0.0,0.0,0.0,,0.0,0.0,0.0,1.0
1402416159198005599,,errorv,,0,,1402416159,197684082,/z_drive,port,,,-0.3,0.3048,0.0,,0.0,0.0,0.0,1.0
1402416159198027602,,errorv,,0,,1402416159,197688946,/z_drive,starboard,,,-0.3,-0.3048,0.0,,0.0,0.0,0.0,1.0
1402416159203098112,,errorv,,0,,1402416159,148211002,/enu,/base_link,,,5.44707160686,19.0997160988,-25.1570214533,,-0.0100729900594,-0.00550942278659,-0.66306604902,0.748472842372
1402416159203204315,,errorv,,0,,1402416159,159205913,/enu,/base_link,,,5.45384707069,19.0801901632,-25.1558374769,,-0.0101117583461,-0.00533473687519,-0.662499558444,0.748975051645
1402416159217656573,,errorv,,0,,1402416159,217484343,base_link,/z_drive,,,0.0,0.0,0.0,,0.0,0.0,0.0,1.0
1402416159217781194,,errorv,,0,,1402416159,217505743,/z_drive,port,,,-0.3,0.3048,0.0,,0.0,0.0,0.0,1.0
1402416159217806324,,errorv,,0,,1402416159,217515405,/z_drive,starboard,,,-0.3,-0.3048,0.0,,0.0,0.0,0.0,1.0
1402416159237843436,,errorv,,0,,1402416159,237440199,base_link,/z_drive,,,0.0,0.0,0.0,,0.0,0.0,0.0,1.0
1402416159237875978,,errorv,,0,,1402416159,237480192,/z_drive,port,,,-0.3,0.3048,0.0,,0.0,0.0,0.0,1.0
1402416159237898847,,errorv,,0,,1402416159,237489536,/z_drive,starboard,,,-0.3,-0.3048,0.0,,0.0,0.0,0.0,1.0
1402416159243177330,,errorv,,0,,1402416159,170183897,/enu,/base_link,,,5.46053231248,19.0609039884,-25.1548904509,,-0.010179353386,-0.00528869817,-0.661959680445,0.749451660817
1402416159243239996,,errorv,,0,,1402416159,180171966,/enu,/base_link,,,5.46696798236,19.0433487327,-25.154254704,,-0.0101681059225,-0.00515563256526,-0.661449832263,0.749902759345
1402416159243268803,,errorv,,0,,1402416159,191184043,/enu,/base_link,,,5.48406164049,19.0475099765,-25.1740659516,,-0.0121705154253,-0.00586125800802,-0.66154180335,0.749786614064
1402416159243293134,,errorv,,0,,1402416159,202181100,/enu,/base_link,,,5.49126445065,19.0286465553,-25.1732302222,,-0.012131345054,-0.00563214674063,-0.660986306586,0.750278756128
1402416159243322617,,errorv,,0,,1402416159,212152957,/enu,/base_link,,,5.49749532834,19.0114874106,-25.1723988662,,-0.012111224758,-0.00547168736791,-0.660477145555,0.750728525548
1402416159253408414,,errorv,,0,,1402416159,353206904,base_link,imu,,,0.13,0.0,-0.1,,1.0,0.0,0.0,0.0
1402416159254672607,,errorv,,0,,1402416159,354470131,/base_link,/gps,,,-0.84,0.0,-0.14,,0.0,0.0,0.0,1.0
1402416159257743555,,errorv,,0,,1402416159,257514851,base_link,/z_drive,,,0.0,0.0,0.0,,0.0,0.0,0.0,1.0
1402416159257775167,,errorv,,0,,1402416159,257532986,/z_drive,port,,,-0.3,0.3048,0.0,,0.0,0.0,0.0,1.0
1402416159257792560,,errorv,,0,,1402416159,257542299,/z_drive,starboard,,,-0.3,-0.3048,0.0,,0.0,0.0,0.0,1.0
1402416159277740146,,errorv,,0,,1402416159,277506875,base_link,/z_drive,,,0.0,0.0,0.0,,0.0,0.0,0.0,1.0
1402416159277812920,,errorv,,0,,1402416159,277526372,/z_drive,port,,,-0.3,0.3048,0.0,,0.0,0.0,0.0,1.0
1402416159277843188,,errorv,,0,,1402416159,277535012,/z_drive,starboard,,,-0.3,-0.3048,0.0,,0.0,0.0,0.0,1.0
1402416159283102634,,errorv,,0,,1402416159,223151922,/enu,/base_link,,,5.50463998974,18.9925230424,-25.1714768743,,-0.0120651924768,-0.0054365078886,-0.659940060377,0.751201698761
1402416159283129135,,errorv,,0,,1402416159,233153104,/enu,/base_link,,,5.51122144812,18.9753369929,-25.1707125259,,-0.0120834361175,-0.00521921454194,-0.659448297508,0.751634680736
1402416159283201670,,errorv,,0,,1402416159,244149923,/enu,/base_link,,,5.5182985088,18.9563536869,-25.1697583962,,-0.0120072989821,-0.00522017364779,-0.658930796024,0.752089609428
1402416159291289661,,errorv,,0,,1402416159,255140066,/enu,/base_link,,,5.52533046928,18.9373411089,-25.1685994354,,-0.0119777520052,-0.00508343761622,-0.658406265835,0.75255025163
1402416159291345578,,errorv,,0,,1402416159,265145063,/enu,/base_link,,,5.53207872644,18.9203040416,-25.1681516392,,-0.0118484898963,-0.00506023701543,-0.657936598971,0.752963106017
1402416159298025547,,errorv,,0,,1402416159,297702466,base_link,/z_drive,,,0.0,0.0,0.0,,0.0,0.0,0.0,1.0
1402416159298052025,,errorv,,0,,1402416159,297723699,/z_drive,port,,,-0.3,0.3048,0.0,,0.0,0.0,0.0,1.0
1402416159298071944,,errorv,,0,,1402416159,297733734,/z_drive,starboard,,,-0.3,-0.3048,0.0,,0.0,0.0,0.0,1.0
1402416159317962019,,errorv,,0,,1402416159,317816720,base_link,/z_drive,,,0.0,0.0,0.0,,0.0,0.0,0.0,1.0
1402416159318047765,,errorv,,0,,1402416159,317838148,/z_drive,port,,,-0.3,0.3048,0.0,,0.0,0.0,0.0,1.0
1402416159318115017,,errorv,,0,,1402416159,317875275,/z_drive,starboard,,,-0.3,-0.3048,0.0,,0.0,0.0,0.0,1.0
1402416159331109416,,errorv,,0,,1402416159,276129961,/enu,/base_link,,,5.539313409,18.9014231118,-25.1672525513,,-0.0117264422987,-0.00493290371288,-0.657415053752,0.753421266034
1402416159331136434,,errorv,,0,,1402416159,287112951,/enu,/base_link,,,5.54643283752,18.8825605769,-25.1662886793,,-0.0117027716839,-0.00481239040845,-0.656902104839,0.75386969079
1402416159337690150,,errorv,,0,,1402416159,337515638,base_link,/z_drive,,,0.0,0.0,0.0,,0.0,0.0,0.0,1.0
1402416159337857845,,errorv,,0,,1402416159,337547476,/z_drive,port,,,-0.3,0.3048,0.0,,0.0,0.0,0.0,1.0
1402416159337874540,,errorv,,0,,1402416159,337695415,/z_drive,starboard,,,-0.3,-0.3048,0.0,,0.0,0.0,0.0,1.0
1402416159353515349,,errorv,,0,,1402416159,453319061,base_link,imu,,,0.13,0.0,-0.1,,1.0,0.0,0.0,0.0
1402416159354744304,,errorv,,0,,1402416159,454576986,/base_link,/gps,,,-0.84,0.0,-0.14,,0.0,0.0,0.0,1.0
1402416159357765966,,errorv,,0,,1402416159,357464683,base_link,/z_drive,,,0.0,0.0,0.0,,0.0,0.0,0.0,1.0
1402416159357795303,,errorv,,0,,1402416159,357482760,/z_drive,port,,,-0.3,0.3048,0.0,,0.0,0.0,0.0,1.0
1402416159357819872,,errorv,,0,,1402416159,357490680,/z_drive,starboard,,,-0.3,-0.3048,0.0,,0.0,0.0,0.0,1.0
1402416159371122797,,errorv,,0,,1402416159,298135042,/enu,/base_link,,,5.55383327527,18.8637191623,-25.1655992849,,-0.0116554140293,-0.00462154889341,-0.656381222568,0.754325184035
1402416159371350591,,errorv,,0,,1402416159,308161973,/enu,/base_link,,,5.56026863772,18.8466583849,-25.1649917709,,-0.0115702798816,-0.00452321337352,-0.65589209024,0.754752433003
1402416159371381617,,errorv,,0,,1402416159,322789907,/enu,/base_link,,,5.57485970155,18.8125711591,-25.2197952568,,-0.0103099639228,-0.00439493077074,-0.654572686381,0.755915992337
1402416159371410311,,errorv,,0,,1402416159,329148054,/enu,/base_link,,,5.57874838699,18.8014744275,-25.2192194571,,-0.010218092111,-0.00437494620146,-0.654249123669,0.756197417754
1402416159377735956,,errorv,,0,,1402416159,377480707,base_link,/z_drive,,,0.0,0.0,0.0,,0.0,0.0,0.0,1.0
1402416159377763760,,errorv,,0,,1402416159,377497588,/z_drive,port,,,-0.3,0.3048,0.0,,0.0,0.0,0.0,1.0
1402416159377877861,,errorv,,0,,1402416159,377505764,/z_drive,starboard,,,-0.3,-0.3048,0.0,,0.0,0.0,0.0,1.0
1402416159397748636,,errorv,,0,,1402416159,397482457,base_link,/z_drive,,,0.0,0.0,0.0,,0.0,0.0,0.0,1.0
1402416159397781883,,errorv,,0,,1402416159,397502805,/z_drive,port,,,-0.3,0.3048,0.0,,0.0,0.0,0.0,1.0
1402416159397804099,,errorv,,0,,1402416159,397510836,/z_drive,starboard,,,-0.3,-0.3048,0.0,,0.0,0.0,0.0,1.0
1402416159411194237,,errorv,,0,,1402416159,340138912,/enu,/base_link,,,5.58625894371,18.7826620003,-25.2189934054,,-0.0100890637589,-0.00428343713066,-0.653685955945,0.756686549345
1402416159411252637,,errorv,,0,,1402416159,350100040,/enu,/base_link,,,5.59261269902,18.7654343781,-25.2183546857,,-0.00997058944633,-0.00424194263231,-0.653195855572,0.757111463083
1402416159411278041,,errorv,,0,,1402416159,361099004,/enu,/base_link,,,5.60458872291,18.7887347613,-25.2506081616,,-0.0117759135811,-0.00690976252751,-0.652131487994,0.757982918942
1402416159411301520,,errorv,,0,,1402416159,371323108,/enu,/base_link,,,5.61110291437,18.7718854796,-25.2501937981,,-0.0116802090034,-0.00685887983329,-0.651604281984,0.758438124164
1402416159411336417,,errorv,,0,,1402416159,382096052,/enu,/base_link,,,5.61819920895,18.7540937404,-25.2495728015,,-0.0115252090205,-0.00682222687714,-0.651072035153,0.758897774288
1402416159417772448,,errorv,,0,,1402416159,417493288,base_link,/z_drive,,,0.0,0.0,0.0,,0.0,0.0,0.0,1.0
1402416159417923069,,errorv,,0,,1402416159,417511230,/z_drive,port,,,-0.3,0.3048,0.0,,0.0,0.0,0.0,1.0
1402416159417947426,,errorv,,0,,1402416159,417519773,/z_drive,starboard,,,-0.3,-0.3048,0.0,,0.0,0.0,0.0,1.0
1402416159437648446,,errorv,,0,,1402416159,437483905,base_link,/z_drive,,,0.0,0.0,0.0,,0.0,0.0,0.0,1.0
1402416159437729005,,errorv,,0,,1402416159,437505182,/z_drive,port,,,-0.3,0.3048,0.0,,0.0,0.0,0.0,1.0
1402416159437748785,,errorv,,0,,1402416159,437515168,/z_drive,starboard,,,-0.3,-0.3048,0.0,,0.0,0.0,0.0,1.0
1402416159451021905,,errorv,,0,,1402416159,393095970,/enu,/base_link,,,5.62518539576,18.7360215301,-25.2490292053,,-0.0114725275314,-0.00684703423401,-0.65052010621,0.759371510297
1402416159451092619,,errorv,,0,,1402416159,403095960,/enu,/base_link,,,5.64389919125,18.7137579722,-25.2091429047,,-0.0120657656749,-0.00530931249875,-0.651273474275,0.758728601151
1402416159451132639,,errorv,,0,,1402416159,413069009,/enu,/base_link,,,5.65076173402,18.6972672705,-25.2084878277,,-0.0120040059238,-0.00522718133125,-0.65076568668,0.759165727268
1402416159453619988,,errorv,,0,,1402416159,553420580,base_link,imu,,,0.13,0.0,-0.1,,1.0,0.0,0.0,0.0
1402416159454858461,,errorv,,0,,1402416159,554672223,/base_link,/gps,,,-0.84,0.0,-0.14,,0.0,0.0,0.0,1.0
1402416159457734539,,errorv,,0,,1402416159,457507314,base_link,/z_drive,,,0.0,0.0,0.0,,0.0,0.0,0.0,1.0
1402416159457764275,,errorv,,0,,1402416159,457540128,/z_drive,port,,,-0.3,0.3048,0.0,,0.0,0.0,0.0,1.0
1402416159457783856,,errorv,,0,,1402416159,457551364,/z_drive,starboard,,,-0.3,-0.3048,0.0,,0.0,0.0,0.0,1.0
1402416159463350206,,errorv,,0,,1402416159,424067020,/enu,/base_link,,,5.6583509493,18.679105124,-25.2075669879,,-0.0119379616695,-0.00531720951157,-0.650200060233,0.759650639457
1402416159463373723,,errorv,,0,,1402416159,434070110,/enu,/base_link,,,5.66533352295,18.6627201621,-25.2069535911,,-0.0118291846324,-0.00531502399715,-0.64969145677,0.760087384391
1402416159477697163,,errorv,,0,,1402416159,477497778,base_link,/z_drive,,,0.0,0.0,0.0,,0.0,0.0,0.0,1.0
1402416159477721259,,errorv,,0,,1402416159,477515226,/z_drive,port,,,-0.3,0.3048,0.0,,0.0,0.0,0.0,1.0
1402416159477738922,,errorv,,0,,1402416159,477524973,/z_drive,starboard,,,-0.3,-0.3048,0.0,,0.0,0.0,0.0,1.0
1402416159497717605,,errorv,,0,,1402416159,497528449,base_link,/z_drive,,,0.0,0.0,0.0,,0.0,0.0,0.0,1.0
1402416159497750898,,errorv,,0,,1402416159,497546980,/z_drive,port,,,-0.3,0.3048,0.0,,0.0,0.0,0.0,1.0
1402416159497788543,,errorv,,0,,1402416159,497551346,/z_drive,starboard,,,-0.3,-0.3048,0.0,,0.0,0.0,0.0,1.0
1402416159503119084,,errorv,,0,,1402416159,445039987,/enu,/base_link,,,5.67667780896,18.6243164123,-25.1892649679,,-0.0102109416437,-0.00457685548905,-0.648879859208,0.760808594443
1402416159503143371,,errorv,,0,,1402416159,455041885,/enu,/base_link,,,5.68357507208,18.6076395617,-25.1887116773,,-0.0101503652711,-0.00457468564427,-0.648369387014,0.761244494443
1402416159517699804,,errorv,,0,,1402416159,517525572,base_link,/z_drive,,,0.0,0.0,0.0,,0.0,0.0,0.0,1.0
1402416159517773804,,errorv,,0,,1402416159,517560355,/z_drive,port,,,-0.3,0.3048,0.0,,0.0,0.0,0.0,1.0
1402416159517800400,,errorv,,0,,1402416159,517571619,/z_drive,starboard,,,-0.3,-0.3048,0.0,,0.0,0.0,0.0,1.0
1402416159537655581,,errorv,,0,,1402416159,537453610,base_link,/z_drive,,,0.0,0.0,0.0,,0.0,0.0,0.0,1.0
1402416159537687403,,errorv,,0,,1402416159,537474284,/z_drive,port,,,-0.3,0.3048,0.0,,0.0,0.0,0.0,1.0
1402416159537781186,,errorv,,0,,1402416159,537481377,/z_drive,starboard,,,-0.3,-0.3048,0.0,,0.0,0.0,0.0,1.0
1402416159543078941,,errorv,,0,,1402416159,466042041,/enu,/base_link,,,5.69158567375,18.5892665308,-25.1879719003,,-0.0101337672094,-0.00452353878518,-0.647818732343,0.761713682682
1402416159543159617,,errorv,,0,,1402416159,477014064,/enu,/base_link,,,5.69928517897,18.5709080485,-25.1872102554,,-0.0100842830287,-0.00464989757022,-0.647268978415,0.762180789098
1402416159543224532,,errorv,,0,,1402416159,487014055,/enu,/base_link,,,5.71078190005,18.5468373735,-25.2007999754,,-0.00906402383078,-0.0047164168223,-0.64617703546,0.763119150414
1402416159543252779,,errorv,,0,,1402416159,498018980,/enu,/base_link,,,5.71838125028,18.5283729737,-25.2001822606,,-0.00898223873474,-0.00490273744421,-0.645621130803,0.763589312401
1402416159553711694,,errorv,,0,,1402416159,653518298,base_link,imu,,,0.13,0.0,-0.1,,1.0,0.0,0.0,0.0
1402416159555013761,,errorv,,0,,1402416159,654756468,/base_link,/gps,,,-0.84,0.0,-0.14,,0.0,0.0,0.0,1.0
1402416159557668451,,errorv,,0,,1402416159,557505194,base_link,/z_drive,,,0.0,0.0,0.0,,0.0,0.0,0.0,1.0
1402416159557696260,,errorv,,0,,1402416159,557524059,/z_drive,port,,,-0.3,0.3048,0.0,,0.0,0.0,0.0,1.0
1402416159557847599,,errorv,,0,,1402416159,557531381,/z_drive,starboard,,,-0.3,-0.3048,0.0,,0.0,0.0,0.0,1.0
1402416159577616346,,errorv,,0,,1402416159,577476140,base_link,/z_drive,,,0.0,0.0,0.0,,0.0,0.0,0.0,1.0
1402416159577772803,,errorv,,0,,1402416159,577490792,/z_drive,port,,,-0.3,0.3048,0.0,,0.0,0.0,0.0,1.0
1402416159577800497,,errorv,,0,,1402416159,577496899,/z_drive,starboard,,,-0.3,-0.3048,0.0,,0.0,0.0,0.0,1.0
1402416159583135469,,errorv,,0,,1402416159,508014917,/enu,/base_link,,,5.72541837111,18.5115562298,-25.1994925627,,-0.00897159904251,-0.00504396622166,-0.645087567871,0.764039330528
1402416159583200880,,errorv,,0,,1402416159,518016099,/enu,/base_link,,,5.73242178763,18.4944444717,-25.1982780926,,-0.00892791633483,-0.00514518898678,-0.644548611426,0.764493889347
1402416159583357804,,errorv,,0,,1402416159,529015064,/enu,/base_link,,,5.74007359623,18.4759259108,-25.197291032,,-0.00887931480253,-0.00521962887561,-0.643977259396,0.764975295433
