rosbagTimestamp,header,seq,stamp,secs,nsecs,frame_id,child_frame_id,pose,pose,position,x,y,z,orientation,x,y,z,w,covariance,twist,twist,linear,x,y,z,angular,x,y,z,covariance
1402416437801016594,,197303,,1402416437,800065994,/enu,/imu,,,,8.33443505962,29.3966273679,-23.4067891613,,0.738929176557,0.673206009708,-0.0278805527713,-0.000123709324391,"[0.025522356298610528, -0.004599379554023064, -0.0046092845331695415, 9.016774569044682e-07, 8.037202087255205e-06, -6.343009361299695e-05, -0.004599379554023064, 0.03330730528303008, -0.0006825775181579894, -3.4023807953452503e-06, 1.0570541267360005e-06, -1.3493787460915008e-05, -0.0046092845331695415, -0.0006825775181579894, 0.22730277268966503, 1.888756848863674e-07, -1.5167118968912288e-06, 1.4076899598180943e-05, 9.016774569044682e-07, -3.4023807953452503e-06, 1.888756848863674e-07, 4.321536612585703e-06, -9.084783703566909e-08, -1.9028201026665134e-06, 8.037202087255205e-06, 1.0570541267360005e-06, -1.5167118968912288e-06, -9.084783703566909e-08, 4.8425009815230495e-06, -3.4761309005994235e-06, -6.343009361299695e-05, -1.3493787460915008e-05, 1.4076899598180943e-05, -1.9028201026665134e-06, -3.4761309005994235e-06, 0.00010319332399470266]",,,,-0.713755746351,0.810476580337,0.208226736675,,-0.0489955882439,0.0199020617385,0.28056585949,"[0.0002920483620652855, 0.00010441776936574514, 9.296314453026013e-05, 5.426732304787386e-09, -1.0940792768345656e-08, 2.5359411561299866e-08, 0.00010441776936574514, 0.0004047886223434435, 8.97610822370704e-06, 1.565360143107282e-08, 1.5355599027432667e-09, 5.392494085269476e-08, 9.296314453026013e-05, 8.97610822370704e-06, 0.00022456341748490496, -1.788650336652337e-09, -3.835970650959172e-09, -4.292883516234356e-09, 5.426732304787386e-09, 1.565360143107282e-08, -1.788650336652337e-09, 2.0842961132174937e-09, -4.188519085386666e-12, -1.0176365148456794e-11, -1.0940792768345656e-08, 1.5355599027432667e-09, -3.835970650959172e-09, -4.188519085386666e-12, 2.063258809570763e-09, -6.916898802658907e-14, 2.5359411561299866e-08, 5.392494085269476e-08, -4.292883516234356e-09, -1.0176365148456794e-11, -6.916898802658907e-14, 2.0777333017847983e-09]"
1402416437811447084,,197304,,1402416437,810069084,/enu,/imu,,,,8.34181865033,29.3887614682,-23.4089102263,,0.739872251939,0.672166321761,-0.0279550281024,5.57185291852e-05,"[0.02552679700530516, -0.004597349165648101, -0.004614528013503861, 8.886519634192695e-07, 8.309609278509082e-06, -6.370477360087747e-05, -0.004597349165648101, 0.033312846861171946, -0.0006919213797982128, -3.6210919475730886e-06, 1.0629467669385788e-06, -1.3152223606496348e-05, -0.004614528013503861, -0.0006919213797982128, 0.22732837418346, 2.0455386103668716e-07, -1.5288135484551217e-06, 1.409407291099208e-05, 8.886519634192695e-07, -3.6210919475730886e-06, 2.0455386103668716e-07, 4.361491193026577e-06, -9.08379482671608e-08, -1.9024171226791174e-06, 8.309609278509082e-06, 1.0629467669385788e-06, -1.5288135484551217e-06, -9.08379482671608e-08, 4.88254212438737e-06, -3.4767989388194168e-06, -6.370477360087747e-05, -1.3152223606496348e-05, 1.409407291099208e-05, -1.9024171226791174e-06, -3.4767989388194168e-06, 0.00010322030075759429]",,,,-0.711794343454,0.822316751328,0.193739631024,,-0.0106702144724,-0.0297994305874,0.283658386216,"[0.00029735718890504096, 0.0001052076620309965, 9.320701544850721e-05, 5.5173395902185626e-09, -1.1141218790290637e-08, 2.5445019171030553e-08, 0.0001052076620309965, 0.00041053107059702525, 8.183672661812804e-06, 1.5878375468712446e-08, 1.6008487323758478e-09, 5.403482856677222e-08, 9.320701544850721e-05, 8.183672661812804e-06, 0.0002249202698221479, -1.8165413595036059e-09, -3.840154076554298e-09, -4.297555503737674e-09, 5.5173395902185626e-09, 1.5878375468712446e-08, -1.8165413595036059e-09, 2.0842961094573064e-09, -4.188521223920355e-12, -1.0176251486174557e-11, -1.1141218790290637e-08, 1.6008487323758478e-09, -3.840154076554298e-09, -4.188521223920355e-12, 2.0632587845995164e-09, -6.91138441781532e-14, 2.5445019171030553e-08, 5.403482856677222e-08, -4.297555503737674e-09, -1.0176251486174557e-11, -6.91138441781532e-14, 2.0777298720075538e-09]"
1402416437822258897,,197305,,1402416437,821101903,/enu,/imu,,,,8.35002128111,29.3799241783,-23.4109854643,,0.740912954781,0.671028951314,-0.0277152504,6.95106532411e-05,"[0.025531824032464127, -0.004595131510611871, -0.004620262483843115, 8.742401669887814e-07, 8.615909243502793e-06, -6.401393942381205e-05, -0.004595131510611871, 0.033319031172335936, -0.000702251585635986, -3.867592499214264e-06, 1.069421532288249e-06, -1.2769596851523605e-05, -0.004620262483843115, -0.000702251585635986, 0.22735641651336388, 2.2190437765085656e-07, -1.5423780350922964e-06, 1.4113453735419153e-05, 8.742401669887814e-07, -3.867592499214264e-06, 2.2190437765085656e-07, 4.4101131491712875e-06, -9.082784715704905e-08, -1.9020175380845754e-06, 8.615909243502793e-06, 1.069421532288249e-06, -1.5423780350922964e-06, -9.082784715704905e-08, 4.931252205351969e-06, -3.4774789304833566e-06, -6.401393942381205e-05, -1.2769596851523605e-05, 1.4113453735419153e-05, -1.9020175380845754e-06, -3.4774789304833566e-06, 0.00010325603944721802]",,,,-0.706459261222,0.820873197255,0.196563954586,,-0.0252493186914,0.0358065406011,0.281338972584,"[0.00030322409152925384, 0.00010606800286449034, 9.354138155817676e-05, 5.619724871756034e-09, -1.1361521688077211e-08, 2.5542573851513982e-08, 0.00010606800286449034, 0.0004170122230904506, 7.410151701894467e-06, 1.6128571103890706e-08, 1.6745116845864273e-09, 5.415756129454653e-08, 9.354138155817676e-05, 7.410151701894467e-06, 0.00022549710723927224, -1.8406999431749481e-09, -3.852366590182651e-09, -4.275566573704513e-09, 5.619724871756034e-09, 1.6128571103890706e-08, -1.8406999431749481e-09, 2.0842961055483155e-09, -4.188523428826142e-12, -1.0176136005174549e-11, -1.1361521688077211e-08, 1.6745116845864273e-09, -3.852366590182651e-09, -4.188523428826142e-12, 2.0632587592360797e-09, -6.90593581400209e-14, 2.5542573851513982e-08, 5.415756129454653e-08, -4.275566573704513e-09, -1.0176136005174549e-11, -6.90593581400209e-14, 2.077726439673578e-09]"
1402416437832642015,,197306,,1402416437,831099987,/enu,/imu,,,,8.35741065642,29.3722990972,-23.4134792555,,0.741885743968,0.669961274372,-0.0275213656343,9.03992928655e-05,"[0.025536444932045183, -0.004593025168155365, -0.004625570484279471, 8.610916685527523e-07, 8.898374655013829e-06, -6.429954243358976e-05, -0.004593025168155365, 0.03332478288389986, -0.000711832902603743, -4.095237941355049e-06, 1.0753288802896546e-06, -1.2419531113173922e-05, -0.004625570484279471, -0.000711832902603743, 0.22738248485083484, 2.377292720648555e-07, -1.5547528163747804e-06, 1.4130857552921544e-05, 8.610916685527523e-07, -4.095237941355049e-06, 2.377292720648555e-07, 4.4500241610107095e-06, -9.081764081202913e-08, -1.9016116583467368e-06, 8.898374655013829e-06, 1.0753288802896546e-06, -1.5547528163747804e-06, -9.081764081202913e-08, 4.971252117905646e-06, -3.478168311055539e-06, -6.429954243358976e-05, -1.2419531113173922e-05, 1.4130857552921544e-05, -1.9016116583467368e-06, -3.478168311055539e-06, 0.00010328295897639645]",,,,-0.70136043949,0.829235455636,0.205065811689,,-0.0231508108206,0.0313886307054,0.291168812201,"[0.0003086271946531493, 0.00010686793801554584, 9.383843954329348e-05, 5.715380210147212e-09, -1.156322790334911e-08, 2.5636821654164854e-08, 0.00010686793801554584, 0.0004229185815978591, 6.685939604415687e-06, 1.63567499719484e-08, 1.7434667361669033e-09, 5.426565801884341e-08, 9.383843954329348e-05, 6.685939604415687e-06, 0.0002259694512987634, -1.8632726554707847e-09, -3.862877115449416e-09, -4.257820858984578e-09, 5.715380210147212e-09, 1.63567499719484e-08, -1.8632726554707847e-09, 2.0842961014386556e-09, -4.188525754898277e-12, -1.0176017313035003e-11, -1.156322790334911e-08, 1.7434667361669033e-09, -3.862877115449416e-09, -4.188525754898277e-12, 2.0632587333398618e-09, -6.900551557036295e-14, 2.5636821654164854e-08, 5.426565801884341e-08, -4.257820858984578e-09, -1.0176017313035003e-11, -6.900551557036295e-14, 2.0777230059723345e-09]"
1402416437842167125,,197307,,1402416437,841101884,/enu,/imu,,,,8.3692466926,29.3646663731,-23.3994062127,,0.74306935499,0.668616783418,-0.0282751328919,0.000217869544192,"[0.025521163960585097, -0.004596754279046412, -0.004620817403166479, 8.544442026616948e-07, 7.457193163289205e-06, -6.263444160641308e-05, -0.004596754279046412, 0.03330840325711483, -0.000693391580358961, -2.9479721176053896e-06, 9.836565582505648e-07, -1.2460622828008524e-05, -0.004620817403166479, -0.000693391580358961, 0.22731919839789047, 8.818929955879598e-08, -1.5345957389191344e-06, 1.414556010589536e-05, 8.544442026616948e-07, -2.9479721176053896e-06, 8.818929955879598e-08, 4.242746698008957e-06, -1.0191110593796276e-07, -1.7936403843347718e-06, 7.457193163289205e-06, 9.836565582505648e-07, -1.5345957389191344e-06, -1.0191110593796276e-07, 4.749548715529252e-06, -3.175441339576439e-06, -6.263444160641308e-05, -1.2460622828008524e-05, 1.414556010589536e-05, -1.7936403843347718e-06, -3.175441339576439e-06, 0.00010292165086555327]",,,,-0.68709837814,0.847353177064,0.181535183563,,-0.000397999995642,-0.0262654486306,0.28608856648,"[0.0002879633567822587, 0.00010525079964734924, 9.283776069964273e-05, 5.3659475631013586e-09, -1.0597919489759186e-08, 2.6458054235916588e-08, 0.00010525079964734924, 0.00038945374600457344, 9.112370174079747e-06, 1.5025368182414993e-08, 1.4271202608535522e-09, 5.205935214580804e-08, 9.283776069964273e-05, 9.112370174079747e-06, 0.00022473337183343136, -1.7840415618132108e-09, -3.766412489430772e-09, -4.15081695558204e-09, 5.3659475631013586e-09, 1.5025368182414993e-08, -1.7840415618132108e-09, 2.084228766443137e-09, -4.189260205926429e-12, -1.0244759133783577e-11, -1.0597919489759186e-08, 1.4271202608535522e-09, -3.766412489430772e-09, -4.189260205926429e-12, 2.06320012699233e-09, -1.0436820225337029e-13, 2.6458054235916588e-08, 5.205935214580804e-08, -4.15081695558204e-09, -1.0244759133783577e-11, -1.0436820225337029e-13, 2.0776284751291046e-09]"
1402416437852084182,,197308,,1402416437,851099967,/enu,/imu,,,,8.37701703546,29.356859117,-23.4012307075,,0.744039787439,0.667546980508,-0.0280311815769,0.000276372508957,"[0.02552555926578369, -0.004594690718494666, -0.004626059403709098, 8.408684071527686e-07, 7.721474012748116e-06, -6.289710746281118e-05, -0.004594690718494666, 0.03331392336864617, -0.0007027399329602744, -3.1590968676946836e-06, 9.902366139950738e-07, -1.2108025445736e-05, -0.004626059403709098, -0.0007027399329602744, 0.22734470729619724, 1.0417591731933601e-07, -1.547353449597033e-06, 1.4163097069069589e-05, 8.408684071527686e-07, -3.1590968676946836e-06, 1.0417591731933601e-07, 4.282664889097477e-06, -1.019008384552137e-07, -1.7932542796333207e-06, 7.721474012748116e-06, 9.902366139950738e-07, -1.547353449597033e-06, -1.019008384552137e-07, 4.789547019237451e-06, -3.17612988874614e-06, -6.289710746281118e-05, -1.2108025445736e-05, 1.4163097069069589e-05, -1.7932542796333207e-06, -3.17612988874614e-06, 0.00010294852842044965]",,,,-0.683825363337,0.847462851756,0.184840001442,,-0.035189044708,0.0339285821936,0.290948258987,"[0.00029302938217234, 0.000106009181975882, 9.313946577336102e-05, 5.456941311835219e-09, -1.0792362661739273e-08, 2.6551443116113877e-08, 0.000106009181975882, 0.00039492251823462044, 8.427604100569379e-06, 1.524529887264286e-08, 1.4920856183905264e-09, 5.215051160064759e-08, 9.313946577336102e-05, 8.427604100569379e-06, 0.00022521284075012295, -1.8051110514535463e-09, -3.776496474014744e-09, -4.125957653423181e-09, 5.456941311835219e-09, 1.524529887264286e-08, -1.8051110514535463e-09, 2.084228762418642e-09, -4.18926275579492e-12, -1.0244641321932968e-11, -1.0792362661739273e-08, 1.4920856183905264e-09, -3.776496474014744e-09, -4.18926275579492e-12, 2.063200102913729e-09, -1.0431035781529367e-13, 2.6551443116113877e-08, 5.215051160064759e-08, -4.125957653423181e-09, -1.0244641321932968e-11, -1.0431035781529367e-13, 2.077625031424784e-09]"
1402416437862063822,,197309,,1402416437,861063003,/enu,/imu,,,,8.38455465486,29.34909477,-23.4030509926,,0.745003230572,0.666468072538,-0.0281133755328,0.00036447156918,"[0.02553004022844564, -0.004592665820915872, -0.004631273621258011, 8.272963335055593e-07, 7.989267388674693e-06, -6.316283008218806e-05, -0.004592665820915872, 0.03331941409298523, -0.0007121133296660516, -3.3734553629056396e-06, 9.967857922362162e-07, -1.1751995404265158e-05, -0.004631273621258011, -0.0007121133296660516, 0.227370238099308, 1.201572847137832e-07, -1.5602161915590547e-06, 1.418054515480359e-05, 8.272963335055593e-07, -3.3734553629056396e-06, 1.201572847137832e-07, 4.322301593845087e-06, -1.0189043347303217e-07, -1.7928667358731545e-06, 7.989267388674693e-06, 9.967857922362162e-07, -1.5602161915590547e-06, -1.0189043347303217e-07, 4.8292648035949974e-06, -3.176827942985436e-06, -6.316283008218806e-05, -1.1751995404265158e-05, 1.418054515480359e-05, -1.7928667358731545e-06, -3.176827942985436e-06, 0.00010297511551361096]",,,,-0.679256838599,0.857382211792,0.191877346699,,0.00401991119521,-0.018644551948,0.292936307722,"[0.00029826851093312515, 0.0001068157954096973, 9.335964235594263e-05, 5.548225217046219e-09, -1.0989939965453088e-08, 2.6644173995097184e-08, 0.0001068157954096973, 0.0004004582642659979, 7.6151449914257946e-06, 1.5465446728750844e-08, 1.5566500513404863e-09, 5.223904166713041e-08, 9.335964235594263e-05, 7.6151449914257946e-06, 0.00022558545150621606, -1.8351237187949912e-09, -3.781303982470326e-09, -4.13543266446613e-09, 5.548225217046219e-09, 1.5465446728750844e-08, -1.8351237187949912e-09, 2.0842287581977776e-09, -4.189265351293991e-12, -1.0244521031224266e-11, -1.0989939965453088e-08, 1.5566500513404863e-09, -3.781303982470326e-09, -4.189265351293991e-12, 2.0632000782770924e-09, -1.0425318159133007e-13, 2.6644173995097184e-08, 5.223904166713041e-08, -4.13543266446613e-09, -1.0244521031224266e-11, -1.0425318159133007e-13, 2.0776215852545967e-09]"
1402416437898854872,,197310,,1402416437,871066093,/enu,/imu,,,,8.3923027271,29.34132514,-23.4050432218,,0.745962780974,0.665404795715,-0.0278527803111,0.000458116237345,"[0.02553459298344178, -0.0045906520846765555, -0.004636591640558679, 8.135473738153607e-07, 8.26237439995736e-06, -6.343225074966134e-05, -0.0045906520846765555, 0.03332508419749948, -0.0007215041753425339, -3.592532902148993e-06, 1.003314038020093e-06, -1.1388935362480006e-05, -0.004636591640558679, -0.0007215041753425339, 0.22739585851673386, 1.3619812454011094e-07, -1.573331138853574e-06, 1.4198233862827373e-05, 8.135473738153607e-07, -3.592532902148993e-06, 1.3619812454011094e-07, 4.362256841575904e-06, -1.0187988852555504e-07, -1.7924781162710298e-06, 8.26237439995736e-06, 1.003314038020093e-06, -1.573331138853574e-06, -1.0187988852555504e-07, 4.869302136162455e-06, -3.1775355875874306e-06, -6.343225074966134e-05, -1.1388935362480006e-05, 1.4198233862827373e-05, -1.7924781162710298e-06, -3.1775355875874306e-06, 0.00010300201955051655]",,,,-0.677540749651,0.86001844307,0.203893695387,,-0.042589043989,0.0317196280929,0.288849730148,"[0.00030351982729784045, 0.00010758281639370386, 9.366332962532056e-05, 5.641514144280923e-09, -1.118842855173296e-08, 2.6738188584071924e-08, 0.00010758281639370386, 0.00040610528914421966, 6.932009136925148e-06, 1.5689438123953534e-08, 1.6239419519333716e-09, 5.233080732181536e-08, 9.366332962532056e-05, 6.932009136925148e-06, 0.0002260624040182581, -1.8552851045772972e-09, -3.790827723491119e-09, -4.1071247768855214e-09, 5.641514144280923e-09, 1.5689438123953534e-08, -1.8552851045772972e-09, 2.0842287538257814e-09, -4.18926804492762e-12, -1.0244398582330323e-11, -1.118842855173296e-08, 1.6239419519333716e-09, -3.790827723491119e-09, -4.18926804492762e-12, 2.0632000532998485e-09, -1.0419665431823796e-13, 2.6738188584071924e-08, 5.233080732181536e-08, -4.1071247768855214e-09, -1.0244398582330323e-11, -1.0419665431823796e-13, 2.077618136960211e-09]"
1402416437898880916,,197311,,1402416437,882066011,/enu,/imu,,,,8.40070287667,29.3326748322,-23.4070716502,,0.747016487444,0.664221270824,-0.0278590837115,0.000585086488534,"[0.025539700952589423, -0.004588404916181782, -0.004642354005154478, 7.983597063143995e-07, 8.568575423409056e-06, -6.373448441730733e-05, -0.004588404916181782, 0.03333133339432125, -0.0007319860110783981, -3.838725929260724e-06, 1.0105411767486649e-06, -1.098611824527851e-05, -0.004642354005154478, -0.0007319860110783981, 0.22742442223422096, 1.5390859101695872e-07, -1.5878006238403906e-06, 1.421766583865045e-05, 7.983597063143995e-07, -3.838725929260724e-06, 1.5390859101695872e-07, 4.4105893591652305e-06, -1.018691465160235e-07, -1.7920926826793173e-06, 8.568575423409056e-06, 1.0105411767486649e-06, -1.5878006238403906e-06, -1.018691465160235e-07, 4.917718232858465e-06, -3.17825490261913e-06, -6.373448441730733e-05, -1.098611824527851e-05, 1.421766583865045e-05, -1.7920926826793173e-06, -3.17825490261913e-06, 0.00010303739203888405]",,,,-0.671937012816,0.863342797157,0.177802283675,,-0.0103382970793,-0.0109132074645,0.29061688345,"[0.0003095369806211969, 0.00010847736038284744, 9.39183925646218e-05, 5.74507770011648e-09, -1.1409748986892917e-08, 2.6841990732897302e-08, 0.00010847736038284744, 0.000412457420698873, 6.058884963780671e-06, 1.5936147348209158e-08, 1.6981495246538595e-09, 5.242988117720604e-08, 9.39183925646218e-05, 6.058884963780671e-06, 0.00022653856486637278, -1.885669788654376e-09, -3.79642922632515e-09, -4.107054526473275e-09, 5.74507770011648e-09, 1.5936147348209158e-08, -1.885669788654376e-09, 2.084228749301518e-09, -4.189270796706943e-12, -1.024427381834409e-11, -1.1409748986892917e-08, 1.6981495246538595e-09, -3.79642922632515e-09, -4.189270796706943e-12, 2.0632000278204184e-09, -1.0414077878540454e-13, 2.6841990732897302e-08, 5.242988117720604e-08, -4.107054526473275e-09, -1.024427381834409e-11, -1.0414077878540454e-13, 2.0776146870067967e-09]"
1402416437898903128,,197312,,1402416437,892060995,/enu,/imu,,,,8.32343355531,29.262966836,-23.3319802168,,0.744929227584,0.666779656764,-0.0219220189188,0.0021818118924,"[0.02552419014934205, -0.004592007962747434, -0.004637505840545641, 7.789463898273599e-07, 7.116818463746179e-06, -6.205686408529276e-05, -0.004592007962747434, 0.03331518064244169, -0.0007136572708450591, -2.708603922176453e-06, 9.21516244602982e-07, -1.112506422812046e-05, -0.004637505840545641, -0.0007136572708450591, 0.22736104715100391, 2.3986876347819298e-08, -1.5580810848870548e-06, 1.4223275743539726e-05, 7.789463898273599e-07, -2.708603922176453e-06, 2.3986876347819298e-08, 4.2055393743799135e-06, -1.125901957282777e-07, -1.6648868245424026e-06, 7.116818463746179e-06, 9.21516244602982e-07, -1.5580810848870548e-06, -1.125901957282777e-07, 4.698208071268345e-06, -2.8791987299504e-06, -6.205686408529276e-05, -1.112506422812046e-05, 1.4223275743539726e-05, -1.6648868245424026e-06, -2.8791987299504e-06, 0.00010266415336865316]",,,,-0.754627939418,0.743730240396,0.183265525558,,-0.0122217352401,0.024763326435,0.290833166711,"[0.0002735128405473675, 9.63088590269271e-05, 9.757204752306414e-05, 4.993785783655582e-09, -1.0293075517030558e-08, 2.108311516953233e-08, 9.63088590269271e-05, 0.0003982051822638011, 1.5328278740813027e-05, 1.4858003257374724e-08, 1.2042909204191127e-09, 5.482291789357238e-08, 9.757204752306414e-05, 1.5328278740813027e-05, 0.00022675766829032088, -1.2682639155514955e-09, -3.906196478758591e-09, -2.9878178306029578e-09, 4.993785783655582e-09, 1.4858003257374724e-08, -1.2682639155514955e-09, 2.084162034255625e-09, -4.190212679379685e-12, -1.0311717445659852e-11, -1.0293075517030558e-08, 1.2042909204191127e-09, -3.906196478758591e-09, -4.190212679379685e-12, 2.0631425537238236e-09, -1.431334333914998e-13, 2.108311516953233e-08, 5.482291789357238e-08, -2.9878178306029578e-09, -1.0311717445659852e-11, -1.431334333914998e-13, 2.0775173506881527e-09]"
1402416437938853569,,197313,,1402416437,902062892,/enu,/imu,,,,8.33003417757,29.2546223118,-23.3338148013,,0.745915205117,0.665674779456,-0.0219772669135,0.00214348087184,"[0.025528655542918114, -0.004589994552465081, -0.0046427847438742275, 7.647002247599162e-07, 7.376734210357875e-06, -6.230652547532032e-05, -0.004589994552465081, 0.03332066354705793, -0.000723065557774814, -2.915689692602023e-06, 9.290500358322865e-07, -1.0765473329319583e-05, -0.0046427847438742275, -0.000723065557774814, 0.2273867981994962, 4.019854486458659e-08, -1.5712466114171475e-06, 1.4240916236491987e-05, 7.647002247599162e-07, -2.915689692602023e-06, 4.019854486458659e-08, 4.2454905955992234e-06, -1.1257944772977361e-07, -1.6645249178257673e-06, 7.376734210357875e-06, 9.290500358322865e-07, -1.5712466114171475e-06, -1.1257944772977361e-07, 4.738233809834096e-06, -2.8799199912536003e-06, -6.230652547532032e-05, -1.0765473329319583e-05, 1.4240916236491987e-05, -1.6645249178257673e-06, -2.8799199912536003e-06, 0.00010269100295146615]",,,,-0.751922892224,0.750234660915,0.185108394398,,0.0183722952754,0.000796162608802,0.298233154806,"[0.00027855938598439945, 9.716477385172828e-05, 9.788003238104833e-05, 5.083062467153444e-09, -1.0488412757417358e-08, 2.1191281419208634e-08, 9.716477385172828e-05, 0.0004036357067573652, 1.4623019456881929e-05, 1.507570557682389e-08, 1.2645593779581284e-09, 5.491230023888042e-08, 9.788003238104833e-05, 1.4623019456881929e-05, 0.00022714921369869736, -1.2941569988305658e-09, -3.9157772620894955e-09, -2.9988039813778223e-09, 5.083062467153444e-09, 1.507570557682389e-08, -1.2941569988305658e-09, 2.084162029782169e-09, -4.190215668902787e-12, -1.0311593097591796e-11, -1.0488412757417358e-08, 1.2645593779581284e-09, -3.9157772620894955e-09, -4.190215668902787e-12, 2.063142529861349e-09, -1.4307290236577777e-13, 2.1191281419208634e-08, 5.491230023888042e-08, -2.9988039813778223e-09, -1.0311593097591796e-11, -1.4307290236577777e-13, 2.0775138920670217e-09]"
1402416437938873478,,197314,,1402416437,912060976,/enu,/imu,,,,8.33651899146,29.2462632889,-23.3356879611,,0.746869416588,0.6646067904,-0.0218908320575,0.0021633751064,"[0.02553316630383801, -0.004587959450382379, -0.00464805221604996, 7.503352266613182e-07, 7.640772154325601e-06, -6.255778313139108e-05, -0.004587959450382379, 0.033326153274107144, -0.0007324599420047524, -3.126522410012848e-06, 9.36610052268306e-07, -1.040260458884565e-05, -0.00464805221604996, -0.0007324599420047524, 0.22741257421114466, 5.6361705617127235e-08, -1.584477737754512e-06, 1.4258359407363222e-05, 7.503352266613182e-07, -3.126522410012848e-06, 5.6361705617127235e-08, 4.285409803694583e-06, -1.1256856923203076e-07, -1.664161644259707e-06, 7.640772154325601e-06, 9.36610052268306e-07, -1.584477737754512e-06, -1.1256856923203076e-07, 4.778228466432315e-06, -2.8806508501276466e-06, -6.255778313139108e-05, -1.040260458884565e-05, 1.4258359407363222e-05, -1.664161644259707e-06, -2.8806508501276466e-06, 0.00010271781455144798]",,,,-0.75093500206,0.752355116654,0.198393798321,,-0.00935009257208,0.0140498945509,0.288734636283,"[0.0002836505665675389, 9.798859123072038e-05, 9.821812095580469e-05, 5.1723911592997945e-09, -1.0685288790890523e-08, 2.129550247998507e-08, 9.798859123072038e-05, 0.0004091578600021872, 1.3980994712786927e-05, 1.5296079480019072e-08, 1.3260493664377594e-09, 5.5004324416709483e-08, 9.821812095580469e-05, 1.3980994712786927e-05, 0.00022757489789455425, -1.3152964964359864e-09, -3.9263344355192205e-09, -2.9917698602062712e-09, 5.1723911592997945e-09, 1.5296079480019072e-08, -1.3152964964359864e-09, 2.0841620250868434e-09, -4.190218739110559e-12, -1.0311466505129203e-11, -1.0685288790890523e-08, 1.3260493664377594e-09, -3.9263344355192205e-09, -4.190218739110559e-12, 2.063142505582134e-09, -1.4301301812746815e-13, 2.129550247998507e-08, 5.5004324416709483e-08, -2.9917698602062712e-09, -1.0311466505129203e-11, -1.4301301812746815e-13, 2.0775104312297548e-09]"
1402416437938894504,,197315,,1402416437,922060966,/enu,/imu,,,,8.34300226271,29.2379587095,-23.3377260643,,0.74783631238,0.663523022174,-0.0217493117691,0.00223972524979,"[0.02553768872528063, -0.004585928961926711, -0.004653349050423172, 7.358483691219949e-07, 7.909032550798586e-06, -6.281130238020125e-05, -0.004585928961926711, 0.0333317836190469, -0.0007419125861963713, -3.34114861590442e-06, 9.442519312259149e-07, -1.0037467684979908e-05, -0.004653349050423172, -0.0007419125861963713, 0.22743830459054523, 7.251012977967188e-08, -1.5977885809070004e-06, 1.427592799363854e-05, 7.358483691219949e-07, -3.34114861590442e-06, 7.251012977967188e-08, 4.325342758076079e-06, -1.1255755645072218e-07, -1.663797135310122e-06, 7.909032550798586e-06, 9.442519312259149e-07, -1.5977885809070004e-06, -1.1255755645072218e-07, 4.8182378073281045e-06, -2.8813913777407625e-06, -6.281130238020125e-05, -1.0037467684979908e-05, 1.427592799363854e-05, -1.663797135310122e-06, -2.8813913777407625e-06, 0.000102744634517748]",,,,-0.747517494011,0.756797387449,0.205108407552,,-0.0250336743245,0.0148230294323,0.293152534992,"[0.00028884119784460243, 9.881134230001448e-05, 9.85712371139012e-05, 5.263717868934447e-09, -1.088398994495482e-08, 2.140297084859313e-08, 9.881134230001448e-05, 0.00041475329286265624, 1.335846022973116e-05, 1.551827020070944e-08, 1.3897593204217581e-09, 5.509571493077527e-08, 9.85712371139012e-05, 1.335846022973116e-05, 0.00022800665576446982, -1.334050842234602e-09, -3.936665332457593e-09, -2.975907714582906e-09, 5.263717868934447e-09, 1.551827020070944e-08, -1.334050842234602e-09, 2.0841620202267698e-09, -4.190221899576788e-12, -1.0311337481120056e-11, -1.088398994495482e-08, 1.3897593204217581e-09, -3.936665332457593e-09, -4.190221899576788e-12, 2.0631424808951776e-09, -1.4295378500687675e-13, 2.140297084859313e-08, 5.509571493077527e-08, -2.975907714582906e-09, -1.0311337481120056e-11, -1.4295378500687675e-13, 2.07750696854069e-09]"
1402416437938912801,,197316,,1402416437,932063102,/enu,/imu,,,,8.34956684574,29.2294647636,-23.3395549317,,0.748816041747,0.662422015343,-0.0215987395502,0.00225912858438,"[0.02554236737348858, -0.004583862516182719, -0.004658715797767549, 7.212640558003355e-07, 8.181846068749984e-06, -6.306818194884277e-05, -0.004583862516182719, 0.03333738868785638, -0.0007513292468841432, -3.5598539330517208e-06, 9.519662368979625e-07, -9.669189690059421e-06, -0.004658715797767549, -0.0007513292468841432, 0.22746425039463308, 8.868164441232885e-08, -1.6112198233921925e-06, 1.429369848425796e-05, 7.212640558003355e-07, -3.5598539330517208e-06, 8.868164441232885e-08, 4.365291365687645e-06, -1.1254640921530426e-07, -1.6634314231627326e-06, 8.181846068749984e-06, 9.519662368979625e-07, -1.6112198233921925e-06, -1.1254640921530426e-07, 4.8582637427540555e-06, -2.882141577213145e-06, -6.306818194884277e-05, -9.669189690059421e-06, 1.429369848425796e-05, -1.6634314231627326e-06, -2.882141577213145e-06, 0.00010277146480346526]",,,,-0.744832020896,0.76021967366,0.207687786452,,-0.017633673828,0.0237692986933,0.297018195412,"[0.0002941156089692736, 9.965437708962685e-05, 9.892203282328509e-05, 5.357150412688846e-09, -1.1084107080765398e-08, 2.151374795745931e-08, 9.965437708962685e-05, 0.0004204298712605503, 1.2722113395135232e-05, 1.5741895248185755e-08, 1.4547883045148998e-09, 5.5185879004455856e-08, 9.892203282328509e-05, 1.2722113395135232e-05, 0.0002284542489867095, -1.3534858114304134e-09, -3.948005166079757e-09, -2.9621515036717412e-09, 5.357150412688846e-09, 1.5741895248185755e-08, -1.3534858114304134e-09, 2.0841620152014664e-09, -4.190225129484423e-12, -1.031120604763375e-11, -1.1084107080765398e-08, 1.4547883045148998e-09, -3.948005166079757e-09, -4.190225129484423e-12, 2.0631424557521725e-09, -1.428951963473995e-13, 2.151374795745931e-08, 5.5185879004455856e-08, -2.9621515036717412e-09, -1.031120604763375e-11, -1.428951963473995e-13, 2.0775035036858905e-09]"
1402416437978831195,,197317,,1402416437,942060947,/enu,/imu,,,,8.23818489094,29.106171915,-23.1704289674,,0.746657998279,0.66505164173,-0.0140688732296,0.00319597313223,"[0.025526935802927583, -0.004587520471390566, -0.004653708550072106, 7.102280902106946e-07, 6.782105191741824e-06, -6.149616656400399e-05, -0.004587520471390566, 0.03332141839361789, -0.0007330225028497567, -2.48623465765843e-06, 8.634017705516783e-07, -9.766799692794163e-06, -0.004653708550072106, -0.0007330225028497567, 0.22740062968612784, -2.3711117223440115e-08, -1.578548190029405e-06, 1.4286812675606001e-05, 7.102280902106946e-07, -2.48623465765843e-06, -2.3711117223440115e-08, 4.175973513014993e-06, -1.2075301843113814e-07, -1.5489825677181834e-06, 6.782105191741824e-06, 8.634017705516783e-07, -1.578548190029405e-06, -1.2075301843113814e-07, 4.653661958629214e-06, -2.6092926839939927e-06, -6.149616656400399e-05, -9.766799692794163e-06, 1.4286812675606001e-05, -1.5489825677181834e-06, -2.6092926839939927e-06, 0.00010244396209248796]",,,,-0.870128030642,0.621890019738,0.186461837671,,-0.00184656419745,0.00190398316948,0.296461251841,"[0.0002590019321359848, 8.487743788538432e-05, 0.0001028189560838448, 4.6022487770481454e-09, -9.94306500964749e-09, 1.4766191907608998e-08, 8.487743788538432e-05, 0.0004164005656637488, 2.2360459934819003e-05, 1.4753905996209333e-08, 9.265964403192032e-10, 5.975293494839364e-08, 0.0001028189560838448, 2.2360459934819003e-05, 0.00023026167359318597, -6.8630869866523e-10, -4.173060328536591e-09, -1.7966188041026301e-09, 4.6022487770481454e-09, 1.4753905996209333e-08, -6.8630869866523e-10, 2.0840990559846012e-09, -4.190997301183112e-12, -1.0373020243480674e-11, -9.94306500964749e-09, 9.265964403192032e-10, -4.173060328536591e-09, -4.190997301183112e-12, 2.063088852775019e-09, -1.7786191101448844e-13, 1.4766191907608998e-08, 5.975293494839364e-08, -1.7966188041026301e-09, -1.0373020243480674e-11, -1.7786191101448844e-13, 2.077416991473383e-09]"
1402416437978860476,,197318,,1402416437,952061891,/enu,/imu,,,,8.24320972129,29.0966176388,-23.1718313101,,0.747625201458,0.663965147739,-0.0140520794163,0.0030626453901,"[0.025531384200474277, -0.004585459457558908, -0.0046590861839625125, 6.95358357672037e-07, 7.0370619710009725e-06, -6.172751864377443e-05, -0.004585459457558908, 0.03332691554262543, -0.0007425256476843473, -2.689135679240912e-06, 8.71898251842812e-07, -9.407181961571898e-06, -0.0046590861839625125, -0.0007425256476843473, 0.22742658659306814, -7.511290020009016e-09, -1.5917555131298682e-06, 1.4304163065022382e-05, 6.95358357672037e-07, -2.689135679240912e-06, -7.511290020009016e-09, 4.215919243469807e-06, -1.2074191263370575e-07, -1.5486437739872518e-06, 7.0370619710009725e-06, 8.71898251842812e-07, -1.5917555131298682e-06, -1.2074191263370575e-07, 4.693677213106751e-06, -2.610046352277e-06, -6.172751864377443e-05, -9.407181961571898e-06, 1.4304163065022382e-05, -1.5486437739872518e-06, -2.610046352277e-06, 0.00010247074581224757]",,,,-0.870741808235,0.620661922149,0.178266731148,,0.0213474662896,0.0223368195545,0.292926911301,"[0.0002638785409802375, 8.578124936245046e-05, 0.00010325045644169998, 4.688907244251804e-09, -1.0137797230357266e-08, 1.4889268671867648e-08, 8.578124936245046e-05, 0.00042183664548013986, 2.1792350357621784e-05, 1.4971264902869803e-08, 9.828406671297161e-10, 5.985015984056985e-08, 0.00010325045644169998, 2.1792350357621784e-05, 0.0002306880766805813, -7.056285457521905e-10, -4.18888102267673e-09, -1.8061441463532382e-09, 4.688907244251804e-09, 1.4971264902869803e-08, -7.056285457521905e-10, 2.0840990510053003e-09, -4.191000733177507e-12, -1.0372889313801322e-11, -1.0137797230357266e-08, 9.828406671297161e-10, -4.18888102267673e-09, -4.191000733177507e-12, 2.063088829095569e-09, -1.7779913034516928e-13, 1.4889268671867648e-08, 5.985015984056985e-08, -1.8061441463532382e-09, -1.0372889313801322e-11, -1.7779913034516928e-13, 2.077413517901658e-09]"
1402416437978883475,,197319,,1402416437,962061882,/enu,/imu,,,,8.24844867184,29.0872903303,-23.1736415965,,0.748604206812,0.662859139488,-0.0141678015044,0.00296245513663,"[0.025535852324623437, -0.004583442801905731, -0.004664319019244731, 6.803419251209292e-07, 7.296771790074731e-06, -6.196136856265427e-05, -0.004583442801905731, 0.03333244067540594, -0.0007519393544445231, -2.8962416126590552e-06, 8.805413434187477e-07, -9.047111310312238e-06, -0.004664319019244731, -0.0007519393544445231, 0.22745240448414894, 8.644841820647813e-09, -1.6049436785903107e-06, 1.432160987359836e-05, 6.803419251209292e-07, -2.8962416126590552e-06, 8.644841820647813e-09, 4.255855862074436e-06, -1.2073068406678192e-07, -1.548303538766755e-06, 7.296771790074731e-06, 8.805413434187477e-07, -1.6049436785903107e-06, -1.2073068406678192e-07, 4.733684242388861e-06, -2.6108096894485767e-06, -6.196136856265427e-05, -9.047111310312238e-06, 1.432160987359836e-05, -1.548303538766755e-06, -2.6108096894485767e-06, 0.00010249751472066932]",,,,-0.867656956084,0.625321946446,0.178683445115,,0.0340489594187,-0.00185123988687,0.297565704614,"[0.00026890272832882304, 8.672022925629728e-05, 0.00010366324843666401, 4.777379795074352e-09, -1.0335246688003953e-08, 1.501541973475869e-08, 8.672022925629728e-05, 0.0004273518168197962, 2.1165556240431148e-05, 1.5189958424136974e-08, 1.040144621431355e-09, 5.994622025845922e-08, 0.00010366324843666401, 2.1165556240431148e-05, 0.0002310595301539604, -7.28219760227418e-10, -4.2023206412598945e-09, -1.826935927891051e-09, 4.777379795074352e-09, 1.5189958424136974e-08, -7.28219760227418e-10, 2.084099045887239e-09, -4.19100426922913e-12, -1.0372756211471796e-11, -1.0335246688003953e-08, 1.040144621431355e-09, -4.2023206412598945e-09, -4.19100426922913e-12, 2.063088805014967e-09, -1.7773698405036118e-13, 1.501541973475869e-08, 5.994622025845922e-08, -1.826935927891051e-09, -1.0372756211471796e-11, -1.7773698405036118e-13, 2.077410042956089e-09]"
1402416437978909259,,197320,,1402416437,972060918,/enu,/imu,,,,8.25361740339,29.077924503,-23.175349998,,0.749593691168,0.66174321539,-0.0140302245337,0.00289272295433,"[0.02554039675499971, -0.0045814000259670005, -0.004669687080909643, 6.652332533749491e-07, 7.561005388978329e-06, -6.219743257219989e-05, -0.0045814000259670005, 0.033338009014572144, -0.0007614010730376641, -3.1074438776440922e-06, 8.892744016326858e-07, -8.685790021874804e-06, -0.004669687080909643, -0.0007614010730376641, 0.22747836753906395, 2.4814632396009164e-08, -1.6180888389420448e-06, 1.4338919882470923e-05, 6.652332533749491e-07, -3.1074438776440922e-06, 2.4814632396009164e-08, 4.295783338279023e-06, -1.2071933091813577e-07, -1.5479619335702371e-06, 7.561005388978329e-06, 8.892744016326858e-07, -1.6180888389420448e-06, -1.2071933091813577e-07, 4.773683019445407e-06, -2.6115827236668506e-06, -6.219743257219989e-05, -8.685790021874804e-06, 1.4338919882470923e-05, -1.5479619335702371e-06, -2.6115827236668506e-06, 0.00010252426881481528]",,,,-0.867289463056,0.625557928765,0.179229817225,,-0.00405551799751,0.0320562234625,0.300547782244,"[0.00027395243250846155, 8.762697842172402e-05, 0.00010412247707518447, 4.867910742214735e-09, -1.053297869881918e-08, 1.514478468078808e-08, 8.762697842172402e-05, 0.0004329278318064047, 2.0632105869670132e-05, 1.541041098769834e-08, 1.100532965538926e-09, 6.004231726361595e-08, 0.00010412247707518447, 2.0632105869670132e-05, 0.0002315178253724947, -7.434825281593191e-10, -4.218880779121744e-09, -1.819817398765197e-09, 4.867910742214735e-09, 1.541041098769834e-08, -7.434825281593191e-10, 2.0840990405041857e-09, -4.191007877513531e-12, -1.037262064507258e-11, -1.053297869881918e-08, 1.100532965538926e-09, -4.218880779121744e-09, -4.191007877513531e-12, 2.0630887805076123e-09, -1.7767547357112314e-13, 1.514478468078808e-08, 6.004231726361595e-08, -1.819817398765197e-09, -1.037262064507258e-11, -1.7767547357112314e-13, 2.0774065653873063e-09]"
1402416438018814047,,197321,,1402416437,982059955,/enu,/imu,,,,8.2585709687,29.0683790732,-23.1768249993,,0.750549845764,0.660656952729,-0.0141204736731,0.00281639081121,"[0.025545098799629223, -0.004579346564297817, -0.004674997392502937, 6.499873777133279e-07, 7.829958495079878e-06, -6.243603300861827e-05, -0.004579346564297817, 0.03334364543955465, -0.0007708815556330027, -3.3228514646342334e-06, 8.98114150198607e-07, -8.32284719386917e-06, -0.004674997392502937, -0.0007708815556330027, 0.2275043479743064, 4.0969627386584175e-08, -1.6312615618453924e-06, 1.4356380699380052e-05, 6.499873777133279e-07, -3.3228514646342334e-06, 4.0969627386584175e-08, 4.335709309240892e-06, -1.2070785321484548e-07, -1.5476189719801265e-06, 7.829958495079878e-06, 8.98114150198607e-07, -1.6312615618453924e-06, -1.2070785321484548e-07, 4.813681186243338e-06, -2.612365456721711e-06, -6.243603300861827e-05, -8.32284719386917e-06, 1.4356380699380052e-05, -1.5476189719801265e-06, -2.612365456721711e-06, 0.00010255101584719822]",,,,-0.864662383359,0.631074284639,0.177147796618,,0.0269803036435,-0.00129900021807,0.291711948484,"[0.00027914777465285346, 8.856831278817073e-05, 0.00010453835241414694, 4.958146533399991e-09, -1.0733918042240702e-08, 1.5268969887920676e-08, 8.856831278817073e-05, 0.00043861584531446155, 2.000895146254518e-05, 1.5632665846674673e-08, 1.1598278459170818e-09, 6.013894685508054e-08, 0.00010453835241414694, 2.000895146254518e-05, 0.00023189438205876688, -7.653295524000424e-10, -4.232233246524154e-09, -1.8364056012668582e-09, 4.958146533399991e-09, 1.5632665846674673e-08, -7.653295524000424e-10, 2.0840990349717983e-09, -4.191011576053684e-12, -1.0372482638931894e-11, -1.0733918042240702e-08, 1.1598278459170818e-09, -4.232233246524154e-09, -4.191011576053684e-12, 2.0630887555459137e-09, -1.7761460051316163e-13, 1.5268969887920676e-08, 6.013894685508054e-08, -1.8364056012668582e-09, -1.0372482638931894e-11, -1.7761460051316163e-13, 2.0774030856766696e-09]"
1402416438018833940,,197322,,1402416437,992063045,/enu,/imu,,,,8.29164960798,29.0805543718,-23.21627892,,0.752346521215,0.658582567765,-0.0154616282671,0.0021567343729,"[0.025529657283924312, -0.004582961286160805, -0.004670025240974135, 6.413271612103739e-07, 6.446099571183452e-06, -6.0950017879008154e-05, -0.004582961286160805, 0.033327776151645075, -0.0007525187577541149, -2.2711319860391417e-06, 8.107076028506142e-07, -8.428309301838724e-06, -0.004670025240974135, -0.0007525187577541149, 0.22744054354275192, -5.768869552165096e-08, -1.593757833715911e-06, 1.4339877829941884e-05, 6.413271612103739e-07, -2.2711319860391417e-06, -5.768869552165096e-08, 4.150318022686872e-06, -1.2759756018229657e-07, -1.43525576508226e-06, 6.446099571183452e-06, 8.107076028506142e-07, -1.593757833715911e-06, -1.2759756018229657e-07, 4.614042950304348e-06, -2.3575080850343695e-06, -6.0950017879008154e-05, -8.428309301838724e-06, 1.4339877829941884e-05, -1.43525576508226e-06, -2.3575080850343695e-06, 0.00010225627726065564]",,,,-0.844216962461,0.666742953347,0.182451098766,,0.00157888758338,0.0439842013232,0.294474364285,"[0.0002622517797895743, 9.081024947594494e-05, 0.00010249915830852603, 4.7358149852709134e-09, -9.920454861575184e-09, 1.7441425641286557e-08, 9.081024947594494e-05, 0.00040405991404921524, 1.970818089662283e-05, 1.4384760912754305e-08, 8.920651460894432e-10, 5.76337317886718e-08, 0.00010249915830852603, 1.970818089662283e-05, 0.0002306867743624963, -8.419147803629702e-10, -4.11913742930955e-09, -1.955439636174311e-09, 4.7358149852709134e-09, 1.4384760912754305e-08, -8.419147803629702e-10, 2.084037352817154e-09, -4.191807242517272e-12, -1.0430267950252152e-11, -9.920454861575184e-09, 8.920651460894432e-10, -4.11913742930955e-09, -4.191807242517272e-12, 2.063036359915753e-09, -2.112168785534629e-13, 1.7441425641286557e-08, 5.76337317886718e-08, -1.955439636174311e-09, -1.0430267950252152e-11, -2.112168785534629e-13, 2.077324340569807e-09]"
1402416438018855666,,197323,,1402416438,2059936,/enu,/imu,,,,8.29695875334,29.071107042,-23.2176690288,,0.753330149873,0.657456246068,-0.0155015110285,0.0021617017087,"[0.025534113127960768, -0.004580898636792126, -0.004675326162282326, 6.258556301482616e-07, 6.697625116213092e-06, -6.116309930451219e-05, -0.004580898636792126, 0.03333325269459504, -0.0007620312720129226, -2.4712339238964028e-06, 8.202165206896701e-07, -8.073313586606616e-06, -0.004675326162282326, -0.0007620312720129226, 0.22746659352124768, -4.1594101730662284e-08, -1.6068399456302107e-06, 1.4356927339551509e-05, 6.258556301482616e-07, -2.4712339238964028e-06, -4.1594101730662284e-08, 4.190232884886661e-06, -1.275864926774107e-07, -1.4349320771118245e-06, 6.697625116213092e-06, 8.202165206896701e-07, -1.6068399456302107e-06, -1.275864926774107e-07, 4.654022638910905e-06, -2.3582886140163726e-06, -6.116309930451219e-05, -8.073313586606616e-06, 1.4356927339551509e-05, -1.4349320771118245e-06, -2.3582886140163726e-06, 0.00010228296853401783]",,,,-0.8410817354,0.671355906118,0.181842300682,,0.00842664918685,-0.00406057477902,0.300880325654,"[0.0002672025660028784, 9.171326983890592e-05, 0.00010290789417642416, 4.823535776766239e-09, -1.0115669030494112e-08, 1.7569593553116065e-08, 9.171326983890592e-05, 0.0004092977938639242, 1.9096566180919512e-05, 1.4599301807549314e-08, 9.499131869533284e-10, 5.770985899723919e-08, 0.00010290789417642416, 1.9096566180919512e-05, 0.0002310675972883438, -8.622999534281514e-10, -4.131490962209632e-09, -1.961369836314333e-09, 4.823535776766239e-09, 1.4599301807549314e-08, -8.622999534281514e-10, 2.0840373473474884e-09, -4.191811130137972e-12, -1.043013104976049e-11, -1.0115669030494112e-08, 9.499131869533284e-10, -4.131490962209632e-09, -4.191811130137972e-12, 2.0630363363840554e-09, -2.1115194658178992e-13, 1.7569593553116065e-08, 5.770985899723919e-08, -1.961369836314333e-09, -1.043013104976049e-11, -2.1115194658178992e-13, 2.077320852070029e-09]"
1402416438018880149,,197324,,1402416438,13062000,/enu,/imu,,,,8.30314327726,29.0611487209,-23.2198985212,,0.754391633848,0.656236517868,-0.0155717175394,0.0021016682876,"[0.025538990665176505, -0.004578662591740805, -0.004681182657474285, 6.087280119037087e-07, 6.979917657201914e-06, -6.140296665187601e-05, -0.004578662591740805, 0.0333393568378903, -0.0007724395608073656, -2.696360709957208e-06, 8.308100945870793e-07, -7.68062285797816e-06, -0.004681182657474285, -0.0007724395608073656, 0.22749513645851865, -2.3825320525835952e-08, -1.6212839159747814e-06, 1.437608494253168e-05, 6.087280119037087e-07, -2.696360709957208e-06, -2.3825320525835952e-08, 4.2385934753388705e-06, -1.2757525708424228e-07, -1.4346120443874831e-06, 6.979917657201914e-06, 8.308100945870793e-07, -1.6212839159747814e-06, -1.2757525708424228e-07, 4.702449398331612e-06, -2.359080834397474e-06, -6.140296665187601e-05, -7.68062285797816e-06, 1.437608494253168e-05, -1.4346120443874831e-06, -2.359080834397474e-06, 0.00010231819700833802]",,,,-0.837014087428,0.672611805774,0.17395298472,,0.0204654557456,0.000136440627349,0.295910164149,"[0.0002727771862693944, 9.272398039335875e-05, 0.00010334392147939165, 4.920757076434786e-09, -1.0332141505998449e-08, 1.770824592221888e-08, 9.272398039335875e-05, 0.0004152148669436628, 1.84006936854826e-05, 1.4837170396118925e-08, 1.0137554817167556e-09, 5.779448430228487e-08, 0.00010334392147939165, 1.84006936854826e-05, 0.00023153607579314264, -8.86595433822386e-10, -4.14553426706743e-09, -1.97478889707227e-09, 4.920757076434786e-09, 1.4837170396118925e-08, -8.86595433822386e-10, 2.084037341702892e-09, -4.19181510492705e-12, -1.042999150888759e-11, -1.0332141505998449e-08, 1.0137554817167556e-09, -4.14553426706743e-09, -4.19181510492705e-12, 2.0630363124347274e-09, -2.110876741455279e-13, 1.770824592221888e-08, 5.779448430228487e-08, -1.97478889707227e-09, -1.042999150888759e-11, -2.110876741455279e-13, 2.07731736179183e-09]"
1402416438058820841,,197325,,1402416438,22066116,/enu,/imu,,,,8.3079290741,29.052723002,-23.2213101206,,0.755257743842,0.65524110911,-0.0155274223402,0.0019309207129,"[0.025543156786717282, -0.004576808848216282, -0.004685945362919549, 5.945617711931465e-07, 7.215216066330823e-06, -6.160058167167536e-05, -0.004576808848216282, 0.03334432491681507, -0.0007808937386517377, -2.8843649132515133e-06, 8.396166976699792e-07, -7.358528140793829e-06, -0.004685945362919549, -0.0007808937386517377, 0.22751838912924127, -9.252901028972736e-09, -1.6331047929095172e-06, 1.4391356950079461e-05, 5.945617711931465e-07, -2.8843649132515133e-06, -9.252901028972736e-09, 4.270955385866971e-06, -1.2756397845815042e-07, -1.434280390738928e-06, 7.215216066330823e-06, 8.396166976699792e-07, -1.6331047929095172e-06, -1.2756397845815042e-07, 4.7348774811560685e-06, -2.3598807800308597e-06, -6.160058167167536e-05, -7.358528140793829e-06, 1.4391356950079461e-05, -1.434280390738928e-06, -2.3598807800308597e-06, 0.00010233722622459501]",,,,-0.83658100022,0.674795291357,0.17770803619,,0.0259878443474,0.0349274860718,0.295137017803,"[0.00027728610868003097, 9.355278037263908e-05, 0.00010370788268115369, 5.001638586591415e-09, -1.0509801489073911e-08, 1.7822069735146646e-08, 9.355278037263908e-05, 0.0004200634008205365, 1.7844645667660038e-05, 1.50336177845939e-08, 1.0667263592102708e-09, 5.786265697794619e-08, 0.00010370788268115369, 1.7844645667660038e-05, 0.00023190990202005086, -9.05834539832739e-10, -4.160307777524663e-09, -1.983118165195594e-09, 5.001638586591415e-09, 1.50336177845939e-08, -9.05834539832739e-10, 2.084037335832782e-09, -4.1918191884526634e-12, -1.0429849565467662e-11, -1.0509801489073911e-08, 1.0667263592102708e-09, -4.160307777524663e-09, -4.1918191884526634e-12, 2.063036287992418e-09, -2.110241410185426e-13, 1.7822069735146646e-08, 5.786265697794619e-08, -1.983118165195594e-09, -1.0429849565467662e-11, -2.110241410185426e-13, 2.0773138691078748e-09]"
1402416438058852406,,197326,,1402416438,32062053,/enu,/imu,,,,8.3133947013,29.0433196911,-23.2226897201,,0.756235687508,0.654109676454,-0.015647540511,0.00180847584876,"[0.025547786201982507, -0.004574759812385011, -0.0046913888960436155, 5.787377901598812e-07, 7.480730135499977e-06, -6.182317805220668e-05, -0.004574759812385011, 0.03334999392582246, -0.000790527079564249, -3.0969695649472855e-06, 8.49494386287202e-07, -7.000068435298603e-06, -0.0046913888960436155, -0.000790527079564249, 0.22754474053718302, 6.9298390881652505e-09, -1.6461990096507709e-06, 1.4408445714941504e-05, 5.787377901598812e-07, -3.0969695649472855e-06, 6.9298390881652505e-09, 4.3108581151519385e-06, -1.2755255581231503e-07, -1.433952519878325e-06, 7.480730135499977e-06, 8.49494386287202e-07, -1.6461990096507709e-06, -1.2755255581231503e-07, 4.774847580691117e-06, -2.36069062188078e-06, -6.182317805220668e-05, -7.000068435298603e-06, 1.4408445714941504e-05, -1.433952519878325e-06, -2.36069062188078e-06, 0.00010236388832962944]",,,,-0.832726489232,0.676896493192,0.175972589686,,0.0381370986646,0.000578232492242,0.301101185208,"[0.0002824997114323285, 9.451159602797906e-05, 0.00010408549492448565, 5.0933239541890324e-09, -1.0709937751643277e-08, 1.7952175332238328e-08, 9.451159602797906e-05, 0.0004255557800964551, 1.7156515842270737e-05, 1.5252666331215327e-08, 1.1267895735923961e-09, 5.793730781393008e-08, 0.00010408549492448565, 1.7156515842270737e-05, 0.0002322903963809552, -9.309220442746584e-10, -4.173204709156464e-09, -2.0055707816564977e-09, 5.0933239541890324e-09, 1.5252666331215327e-08, -9.309220442746584e-10, 2.084037329791202e-09, -4.1918233278140835e-12, -1.0429705411485252e-11, -1.0709937751643277e-08, 1.1267895735923961e-09, -4.173204709156464e-09, -4.1918233278140835e-12, 2.0630362632214936e-09, -2.1096124345450404e-13, 1.7952175332238328e-08, 5.793730781393008e-08, -2.0055707816564977e-09, -1.0429705411485252e-11, -2.1096124345450404e-13, 2.077310374345733e-09]"
1402416438058886729,,197327,,1402416438,43065071,/enu,/imu,,,,8.33711317268,29.0565272516,-23.2621505489,,0.75754460962,0.652568270205,-0.0166554070951,0.00184785613615,"[0.02553276842498155, -0.004578217370477674, -0.004686818476619795, 5.798515710783435e-07, 6.138837183992648e-06, -6.040552647747929e-05, -0.004578217370477674, 0.03333476398569373, -0.0007730702894762396, -2.090357803877588e-06, 7.612708309389655e-07, -6.98234615038392e-06, -0.004686818476619795, -0.0007730702894762396, 0.22748325392317256, -8.045991948473306e-08, -1.6067033971033655e-06, 1.4380003952484732e-05, 5.798515710783435e-07, -2.090357803877588e-06, -8.045991948473306e-08, 4.139518201094709e-06, -1.3277776809707477e-07, -1.3396506235580395e-06, 6.138837183992648e-06, 7.612708309389655e-07, -1.6067033971033655e-06, -1.3277776809707477e-07, 4.589258512232626e-06, -2.1181315035817695e-06, -6.040552647747929e-05, -6.98234615038392e-06, 1.4380003952484732e-05, -1.3396506235580395e-06, -2.1181315035817695e-06, 0.0001021101314003719]",,,,-0.808662437592,0.700174519145,0.194548270432,,0.0131767310507,0.027526785227,0.293149325026,"[0.0002652217826658686, 9.368306344415008e-05, 0.00010236165526970822, 4.805513479219407e-09, -9.920245799148336e-09, 1.90455760297956e-08, 9.368306344415008e-05, 0.0003921446191254543, 1.7887434708710933e-05, 1.406478345734261e-08, 8.765797699123791e-10, 5.539929647838243e-08, 0.00010236165526970822, 1.7887434708710933e-05, 0.0002310404262793228, -9.426885638215947e-10, -4.049245153256292e-09, -1.9965429438467456e-09, 4.805513479219407e-09, 1.406478345734261e-08, -9.426885638215947e-10, 2.0839769959842027e-09, -4.192265474854731e-12, -1.048548791104841e-11, -9.920245799148336e-09, 8.765797699123791e-10, -4.049245153256292e-09, -4.192265474854731e-12, 2.062985014638292e-09, -2.393992603723638e-13, 1.90455760297956e-08, 5.539929647838243e-08, -1.9965429438467456e-09, -1.048548791104841e-11, -2.393992603723638e-13, 2.0772394762047724e-09]"
1402416438058912683,,197328,,1402416438,53065061,/enu,/imu,,,,8.34268454344,29.0473844535,-23.2637963719,,0.758492127717,0.65146611525,-0.0166842428135,0.00179691788083,"[0.0255371786631321, -0.004576197620068178, -0.00469212783583807, 5.639303130276867e-07, 6.3877349667909185e-06, -6.0605531101442996e-05, -0.004576197620068178, 0.03334026275386956, -0.0007825340620875229, -2.288510843307115e-06, 7.716003096758262e-07, -6.627391696049892e-06, -0.00469212783583807, -0.0007825340620875229, 0.2275092242376801, -6.428218505777412e-08, -1.6197993611152512e-06, 1.4396837071249312e-05, 5.639303130276867e-07, -2.288510843307115e-06, -6.428218505777412e-08, 4.17945875464226e-06, -1.3276668703982451e-07, -1.339339613168209e-06, 6.3877349667909185e-06, 7.716003096758262e-07, -1.6197993611152512e-06, -1.3276668703982451e-07, 4.629259664097017e-06, -2.118940655594573e-06, -6.0605531101442996e-05, -6.627391696049892e-06, 1.4396837071249312e-05, -1.339339613168209e-06, -2.118940655594573e-06, 0.00010213678090734836]",,,,-0.805242291876,0.699435460503,0.182226180987,,0.0154961345725,0.00510588998591,0.292928417175,"[0.0002701474446347356, 9.456229559717687e-05, 0.00010273924858090458, 4.8918458204690315e-09, -1.011514695353864e-08, 1.9167755803356155e-08, 9.456229559717687e-05, 0.00039726411154847037, 1.7259385349935438e-05, 1.427798593783316e-08, 9.333761102941617e-10, 5.5460208368370415e-08, 0.00010273924858090458, 1.7259385349935438e-05, 0.00023143847099524936, -9.646820523235965e-10, -4.061600188352101e-09, -2.0045923065879203e-09, 4.8918458204690315e-09, 1.427798593783316e-08, -9.646820523235965e-10, 2.0839769899863582e-09, -4.192269792800462e-12, -1.0485344164721847e-11, -1.011514695353864e-08, 9.333761102941617e-10, -4.061600188352101e-09, -4.192269792800462e-12, 2.0629849911699274e-09, -2.3933307697056996e-13, 1.9167755803356155e-08, 5.5460208368370415e-08, -2.0045923065879203e-09, -1.0485344164721847e-11, -2.3933307697056996e-13, 2.0772359715871398e-09]"
1402416438098814206,,197329,,1402416438,62959909,/enu,/imu,,,,8.34834439283,29.0385434015,-23.2657339082,,0.759434650192,0.650369585678,-0.016604132795,0.00164829819329,"[0.025541632281789843, -0.004574151888718956, -0.004697478597430224, 5.480503857500375e-07, 6.638576647162377e-06, -6.080569755630237e-05, -0.004574151888718956, 0.03334570471976852, -0.0007919676755594879, -2.4886925903406144e-06, 7.819397247952581e-07, -6.274553341555364e-06, -0.004697478597430224, -0.0007919676755594879, 0.22753513425599242, -4.82489703864044e-08, -1.632788727051755e-06, 1.4413483194753781e-05, 5.480503857500375e-07, -2.4886925903406144e-06, -4.82489703864044e-08, 4.218560701392274e-06, -1.327554946032221e-07, -1.3390267988887542e-06, 6.638576647162377e-06, 7.819397247952581e-07, -1.632788727051755e-06, -1.327554946032221e-07, 4.668422949123379e-06, -2.119759396048529e-06, -6.080569755630237e-05, -6.274553341555364e-06, 1.4413483194753781e-05, -1.3390267988887542e-06, -2.119759396048529e-06, 0.000102162576067935]",,,,-0.803944203114,0.705520450526,0.188933937818,,0.0162692694166,0.0347058906412,0.294143330676,"[0.0002750481976044209, 9.543781932546468e-05, 0.00010312348243479567, 4.97900252172284e-09, -1.0308673156928148e-08, 1.9290572104811718e-08, 9.543781932546468e-05, 0.00040240301114660736, 1.665502787101703e-05, 1.4490654640121806e-08, 9.907820434837536e-10, 5.5519956340067194e-08, 0.00010312348243479567, 1.665502787101703e-05, 0.0002318888742649666, -9.853268735060086e-10, -4.07680126492984e-09, -2.00738231969257e-09, 4.97900252172284e-09, 1.4490654640121806e-08, -9.853268735060086e-10, 2.0839769837650208e-09, -4.19227419812393e-12, -1.0485198409377392e-11, -1.0308673156928148e-08, 9.907820434837536e-10, -4.07680126492984e-09, -4.19227419812393e-12, 2.0629849672831057e-09, -2.3926757299764753e-13, 1.9290572104811718e-08, 5.5519956340067194e-08, -2.00738231969257e-09, -1.0485198409377392e-11, -2.3926757299764753e-13, 2.0772324646007154e-09]"
1402416438098847690,,197330,,1402416438,72942018,/enu,/imu,,,,8.35406813234,29.0295231139,-23.2675381701,,0.760415913554,0.649222525589,-0.0165936117588,0.00155007420254,"[0.025546177999305655, -0.004572103672619667, -0.0047028024164259535, 5.319539928209382e-07, 6.896138443080073e-06, -6.101132894190148e-05, -0.004572103672619667, 0.033351279724425295, -0.0008014292594887574, -2.694642547223462e-06, 7.925262064263011e-07, -5.919246666543471e-06, -0.0047028024164259535, -0.0008014292594887574, 0.2275611480642803, -3.2004745412240244e-08, -1.6458233081716225e-06, 1.4430311864292572e-05, 5.319539928209382e-07, -2.694642547223462e-06, -3.2004745412240244e-08, 4.258355353831204e-06, -1.3274418715721898e-07, -1.3387131063183439e-06, 6.896138443080073e-06, 7.925262064263011e-07, -1.6458233081716225e-06, -1.3274418715721898e-07, 4.70827976790937e-06, -2.120587878375022e-06, -6.101132894190148e-05, -5.919246666543471e-06, 1.4430311864292572e-05, -1.3387131063183439e-06, -2.120587878375022e-06, 0.00010218906698705515]",,,,-0.79874795541,0.700379385248,0.184067048417,,0.017705090857,0.0173655924391,0.304525408069,"[0.00028014069008622055, 9.634691008491161e-05, 0.00010350376599155221, 5.0695688519529345e-09, -1.0506133844926172e-08, 1.9420346705873632e-08, 9.634691008491161e-05, 0.0004076514820336484, 1.600790691461466e-05, 1.470617788874316e-08, 1.0508505096920927e-09, 5.557792014373324e-08, 0.00010350376599155221, 1.600790691461466e-05, 0.00023231071041785665, -1.0071969454286387e-09, -4.090320223423351e-09, -2.0143500272698127e-09, 5.0695688519529345e-09, 1.470617788874316e-08, -1.0071969454286387e-09, 2.083976977411441e-09, -4.192278709722725e-12, -1.0485050196860962e-11, -1.0506133844926172e-08, 1.0508505096920927e-09, -4.090320223423351e-09, -4.192278709722725e-12, 2.062984943013211e-09, -2.3920279730317465e-13, 1.9420346705873632e-08, 5.557792014373324e-08, -2.0143500272698127e-09, -1.0485050196860962e-11, -2.3920279730317465e-13, 2.0772289559713184e-09]"
1402416438098865898,,197331,,1402416438,82961082,/enu,/imu,,,,8.35953097962,29.0204516808,-23.2694137717,,0.76138136126,0.648089074602,-0.0166382368315,0.00146396127002,"[0.02555082753598087, -0.004570027225693605, -0.004708194631094714, 5.156813573289676e-07, 7.1591967660367675e-06, -6.12210997785613e-05, -0.004570027225693605, 0.03335692036595878, -0.0008110363671951857, -2.905437844333005e-06, 8.0327251428041e-07, -5.561265534484613e-06, -0.004708194631094714, -0.0008110363671951857, 0.22758749819854898, -1.565097833431675e-08, -1.6589319040858095e-06, 1.4447160824757492e-05, 5.156813573289676e-07, -2.905437844333005e-06, -1.565097833431675e-08, 4.298444327362162e-06, -1.3273276584730428e-07, -1.3383982466399988e-06, 7.1591967660367675e-06, 8.0327251428041e-07, -1.6589319040858095e-06, -1.3273276584730428e-07, 4.748431727370764e-06, -2.1214261487198587e-06, -6.12210997785613e-05, -5.561265534484613e-06, 1.4447160824757492e-05, -1.3383982466399988e-06, -2.1214261487198587e-06, 0.00010221585027283403]",,,,-0.797159321854,0.710386154703,0.1914862972,,0.0228961362188,0.00731484653237,0.299334350876,"[0.00028535690296154306, 9.726847897464129e-05, 0.0001038736943380889, 5.160946386276119e-09, -1.070668255651804e-08, 1.9548234736710088e-08, 9.726847897464129e-05, 0.0004130142094856269, 1.5335938362366083e-05, 1.49244851373606e-08, 1.1115655989614573e-09, 5.563675629450406e-08, 0.0001038736943380889, 1.5335938362366083e-05, 0.00023271415917174606, -1.0307446092160766e-09, -4.102863574901828e-09, -2.02621399461466e-09, 5.160946386276119e-09, 1.49244851373606e-08, -1.0307446092160766e-09, 2.083976970810299e-09, -4.192283308198081e-12, -1.0484899690473303e-11, -1.070668255651804e-08, 1.1115655989614573e-09, -4.102863574901828e-09, -4.192283308198081e-12, 2.0629849183137326e-09, -2.391387293612476e-13, 1.9548234736710088e-08, 5.563675629450406e-08, -2.02621399461466e-09, -1.0484899690473303e-11, -2.391387293612476e-13, 2.077225445025152e-09]"
1402416438098896783,,197332,,1402416438,92938899,/enu,/imu,,,,8.49381790271,29.1259478984,-23.4500270878,,0.765363678441,0.643136693068,-0.0243645988112,-8.84496254696e-06,"[0.025535422801302773, -0.004573668501782551, -0.004703044015329308, 5.16441996766851e-07, 5.812415054144034e-06, -5.983539978227125e-05, -0.004573668501782551, 0.033341232507406594, -0.0007926229698712441, -1.9026096855937732e-06, 7.166259451168913e-07, -5.613476305886598e-06, -0.004703044015329308, -0.0007926229698712441, 0.22752336828047218, -9.322361702215293e-08, -1.6140957334434832e-06, 1.441041919290169e-05, 5.16441996766851e-07, -1.9026096855937732e-06, -9.322361702215293e-08, 4.1235585529325996e-06, -1.372334562431785e-07, -1.2401776241274693e-06, 5.812415054144034e-06, 7.166259451168913e-07, -1.6140957334434832e-06, -1.372334562431785e-07, 4.5604653567243655e-06, -1.891434213418788e-06, -5.983539978227125e-05, -5.613476305886598e-06, 1.441041919290169e-05, -1.2401776241274693e-06, -1.891434213418788e-06, 0.00010196759346787973]",,,,-0.66269846254,0.854552406747,0.202402942685,,0.0616703962473,0.00952068848872,0.293816660714,"[0.00028423871296160335, 0.00010541129876095701, 9.788252794344807e-05, 5.185054025570062e-09, -1.0169076198952714e-08, 2.7176578735170372e-08, 0.00010541129876095701, 0.0003602762472081604, 9.771880543346358e-06, 1.3573502159051532e-08, 1.061609203611326e-09, 4.802174055297499e-08, 9.788252794344807e-05, 9.771880543346358e-06, 0.00022954967729367986, -1.55711630678377e-09, -3.749145105438555e-09, -2.920078847989612e-09, 5.185054025570062e-09, 1.3573502159051532e-08, -1.55711630678377e-09, 2.0839182311301485e-09, -4.192692480786115e-12, -1.053781903411526e-11, -1.0169076198952714e-08, 1.061609203611326e-09, -3.749145105438555e-09, -4.192692480786115e-12, 2.06293504960076e-09, -2.675614244885306e-13, 2.7176578735170372e-08, 4.802174055297499e-08, -2.920078847989612e-09, -1.053781903411526e-11, -2.675614244885306e-13, 2.0771579608833696e-09]"
