rosbagTimestamp,transforms,-,header,seq,stamp,secs,nsecs,frame_id,child_frame_id,transform,translation,x,y,z,rotation,x,y,z,w
1402416437797924871,,errorv,,0,,1402416437,797487002,base_link,/z_drive,,,0.0,0.0,0.0,,0.0,0.0,0.0,1.0
1402416437797967067,,errorv,,0,,1402416437,797603003,/z_drive,port,,,-0.3,0.3048,0.0,,0.0,0.0,0.0,1.0
1402416437797989558,,errorv,,0,,1402416437,797617073,/z_drive,starboard,,,-0.3,-0.3048,0.0,,0.0,0.0,0.0,1.0
1402416437802996804,,errorv,,0,,1402416437,728094100,/enu,/base_link,,,8.30165395371,29.3627738594,-23.3151597754,,0.000272233584248,0.0311320292882,0.679482475427,0.733030891729
1402416437803127256,,errorv,,0,,1402416437,739074945,/enu,/base_link,,,8.29518126355,29.3385918271,-23.3590907071,,0.000950958381507,0.0278958666618,0.679356343918,0.733277487912
1402416437803155362,,errorv,,0,,1402416437,749066114,/enu,/base_link,,,8.30201366813,29.3305531773,-23.361395025,,0.000856930276365,0.0277843437484,0.678370368611,0.734194074413
1402416437803228962,,errorv,,0,,1402416437,759076118,/enu,/base_link,,,8.30875637164,29.3225837537,-23.3636273566,,0.000827799300823,0.0277653783469,0.677388225444,0.735101075052
1402416437817928832,,errorv,,0,,1402416437,817624456,base_link,/z_drive,,,0.0,0.0,0.0,,0.0,0.0,0.0,1.0
1402416437817964359,,errorv,,0,,1402416437,817663062,/z_drive,port,,,-0.3,0.3048,0.0,,0.0,0.0,0.0,1.0
1402416437817986032,,errorv,,0,,1402416437,817681842,/z_drive,starboard,,,-0.3,-0.3048,0.0,,0.0,0.0,0.0,1.0
1402416437837944808,,errorv,,0,,1402416437,837510037,base_link,/z_drive,,,0.0,0.0,0.0,,0.0,0.0,0.0,1.0
1402416437837976220,,errorv,,0,,1402416437,837547290,/z_drive,port,,,-0.3,0.3048,0.0,,0.0,0.0,0.0,1.0
1402416437838004225,,errorv,,0,,1402416437,837588412,/z_drive,starboard,,,-0.3,-0.3048,0.0,,0.0,0.0,0.0,1.0
1402416437843364967,,errorv,,0,,1402416437,770061969,/enu,/base_link,,,8.31607773011,29.3136653553,-23.3657276984,,0.00066164655845,0.0277873003557,0.676291137612,0.736109859566
1402416437843394119,,errorv,,0,,1402416437,780066013,/enu,/base_link,,,8.32310878028,29.3055886843,-23.3679298981,,0.000660962425652,0.0276351684705,0.675271081471,0.737051441299
1402416437843415896,,errorv,,0,,1402416437,790066957,/enu,/base_link,,,8.31964778111,29.278898315,-23.2993647243,,0.000276953361106,0.0281186334141,0.674226848075,0.737988768944
1402416437843548506,,errorv,,0,,1402416437,800065994,/enu,/base_link,,,8.32660814592,29.2710312232,-23.3016100834,,0.000123709324188,0.0278805527713,0.673206009708,0.738929176557
1402416437846844481,,errorv,,0,,1402416437,946628557,/base_link,/gps,,,-0.84,0.0,-0.14,,0.0,0.0,0.0,1.0
1402416437846877006,,errorv,,0,,1402416437,946664835,base_link,imu,,,0.13,0.0,-0.1,,1.0,0.0,0.0,0.0
1402416437857997155,,errorv,,0,,1402416437,857684284,base_link,/z_drive,,,0.0,0.0,0.0,,0.0,0.0,0.0,1.0
1402416437858023357,,errorv,,0,,1402416437,857712717,/z_drive,port,,,-0.3,0.3048,0.0,,0.0,0.0,0.0,1.0
1402416437858039665,,errorv,,0,,1402416437,857724273,/z_drive,starboard,,,-0.3,-0.3048,0.0,,0.0,0.0,0.0,1.0
1402416437877770454,,errorv,,0,,1402416437,877471979,base_link,/z_drive,,,0.0,0.0,0.0,,0.0,0.0,0.0,1.0
1402416437877792671,,errorv,,0,,1402416437,877496435,/z_drive,port,,,-0.3,0.3048,0.0,,0.0,0.0,0.0,1.0
1402416437877802299,,errorv,,0,,1402416437,877504425,/z_drive,starboard,,,-0.3,-0.3048,0.0,,0.0,0.0,0.0,1.0
1402416437883179381,,errorv,,0,,1402416437,810069084,/enu,/base_link,,,8.33362129106,29.2632322998,-23.3036794283,,-5.57185299252e-05,0.0279550281028,0.672166321774,0.739872251927
1402416437883201573,,errorv,,0,,1402416437,821101903,/enu,/base_link,,,8.34139171976,29.2543958505,-23.305788237,,-6.95106533717e-05,0.0277152503993,0.671028951315,0.74091295478
1402416437883223003,,errorv,,0,,1402416437,831099987,/enu,/base_link,,,8.34837991869,29.2467783598,-23.3083066596,,-9.03992925215e-05,0.0275213656343,0.669961274374,0.741885743967
1402416437883266403,,errorv,,0,,1402416437,841101884,/enu,/base_link,,,8.35986050324,29.2393125013,-23.2940658101,,-0.000217869544021,0.0282751328913,0.668616783419,0.743069354988
1402416437897940258,,errorv,,0,,1402416437,897546108,base_link,/z_drive,,,0.0,0.0,0.0,,0.0,0.0,0.0,1.0
1402416437897988803,,errorv,,0,,1402416437,897570797,/z_drive,port,,,-0.3,0.3048,0.0,,0.0,0.0,0.0,1.0
1402416437898006546,,errorv,,0,,1402416437,897575709,/z_drive,starboard,,,-0.3,-0.3048,0.0,,0.0,0.0,0.0,1.0
1402416437917716215,,errorv,,0,,1402416437,917445388,base_link,/z_drive,,,0.0,0.0,0.0,,0.0,0.0,0.0,1.0
1402416437918101892,,errorv,,0,,1402416437,917472120,/z_drive,port,,,-0.3,0.3048,0.0,,0.0,0.0,0.0,1.0
1402416437918136799,,errorv,,0,,1402416437,917533639,/z_drive,starboard,,,-0.3,-0.3048,0.0,,0.0,0.0,0.0,1.0
1402416437923072471,,errorv,,0,,1402416437,851099967,/enu,/base_link,,,8.36721706694,29.2315140448,-23.2959175323,,-0.000276372508827,0.0280311815766,0.667546980514,0.744039787434
1402416437923154649,,errorv,,0,,1402416437,861063003,/enu,/base_link,,,8.37438765826,29.2238102038,-23.297700624,,-0.000364471569428,0.0281133755329,0.666468072537,0.745003230574
1402416437923184368,,errorv,,0,,1402416437,871066093,/enu,/base_link,,,8.38171789385,29.2160545626,-23.2997173844,,-0.000458116237632,0.0278527803107,0.665404795715,0.745962780974
1402416437923262446,,errorv,,0,,1402416437,882066011,/enu,/base_link,,,8.38969906299,29.2074660612,-23.3017152727,,-0.000585086488587,0.0278590837117,0.664221270809,0.747016487458
1402416437923285509,,errorv,,0,,1402416437,892060995,/enu,/base_link,,,8.31212887292,29.1370913886,-23.227453422,,-0.00218181189242,0.0219220189192,0.666779656759,0.744929227589
1402416437937711455,,errorv,,0,,1402416437,937510565,base_link,/z_drive,,,0.0,0.0,0.0,,0.0,0.0,0.0,1.0
1402416437937808762,,errorv,,0,,1402416437,937536398,/z_drive,port,,,-0.3,0.3048,0.0,,0.0,0.0,0.0,1.0
1402416437937833433,,errorv,,0,,1402416437,937583771,/z_drive,starboard,,,-0.3,-0.3048,0.0,,0.0,0.0,0.0,1.0
1402416437947020558,,errorv,,0,,1402416438,46779390,base_link,imu,,,0.13,0.0,-0.1,,1.0,0.0,0.0,0.0
1402416437947055489,,errorv,,0,,1402416438,46739215,/base_link,/gps,,,-0.84,0.0,-0.14,,0.0,0.0,0.0,1.0
1402416437957822112,,errorv,,0,,1402416437,957534303,base_link,/z_drive,,,0.0,0.0,0.0,,0.0,0.0,0.0,1.0
1402416437957851424,,errorv,,0,,1402416437,957551328,/z_drive,port,,,-0.3,0.3048,0.0,,0.0,0.0,0.0,1.0
1402416437957869427,,errorv,,0,,1402416437,957558746,/z_drive,starboard,,,-0.3,-0.3048,0.0,,0.0,0.0,0.0,1.0
1402416437967595796,,errorv,,0,,1402416437,902062892,/enu,/base_link,,,8.31836552508,29.1287872474,-23.2292793899,,-0.00214348087188,0.0219772669137,0.665674779458,0.745915205115
1402416437967661599,,errorv,,0,,1402416437,912060976,/enu,/base_link,,,8.32446908204,29.1204577284,-23.2311603014,,-0.00216337510603,0.0218908320574,0.664606790393,0.746869416594
1402416437967688882,,errorv,,0,,1402416437,922060966,/enu,/base_link,,,8.33054993271,29.1121854628,-23.2332066919,,-0.00223972524972,0.021749311769,0.663523022175,0.747836312378
1402416437971227027,,errorv,,0,,1402416437,932063102,/enu,/base_link,,,8.33671290708,29.1037154872,-23.2350553486,,-0.00225912858452,0.0215987395502,0.662422015348,0.748816041742
1402416437971360592,,errorv,,0,,1402416437,942060947,/enu,/base_link,,,8.22490918085,28.9794316011,-23.0671870444,,-0.00319597313239,0.0140688732295,0.665051641727,0.746657998282
1402416437977815098,,errorv,,0,,1402416437,977643247,base_link,/z_drive,,,0.0,0.0,0.0,,0.0,0.0,0.0,1.0
1402416437977846104,,errorv,,0,,1402416437,977662642,/z_drive,port,,,-0.3,0.3048,0.0,,0.0,0.0,0.0,1.0
1402416437977861297,,errorv,,0,,1402416437,977670151,/z_drive,starboard,,,-0.3,-0.3048,0.0,,0.0,0.0,0.0,1.0
1402416437997678427,,errorv,,0,,1402416437,997480800,base_link,/z_drive,,,0.0,0.0,0.0,,0.0,0.0,0.0,1.0
1402416437998076084,,errorv,,0,,1402416437,997515245,/z_drive,port,,,-0.3,0.3048,0.0,,0.0,0.0,0.0,1.0
1402416437998156835,,errorv,,0,,1402416437,997554997,/z_drive,starboard,,,-0.3,-0.3048,0.0,,0.0,0.0,0.0,1.0
1402416438011057547,,errorv,,0,,1402416437,952061891,/enu,/base_link,,,8.22957708566,28.9698961753,-23.0686127759,,-0.00306264539004,0.0140520794161,0.663965147734,0.747625201463
1402416438011085942,,errorv,,0,,1402416437,962061882,/enu,/base_link,,,8.23446939752,28.9606126867,-23.0704156461,,-0.00296245513672,0.0141678015045,0.662859139497,0.748604206805
1402416438017741579,,errorv,,0,,1402416438,17465762,base_link,/z_drive,,,0.0,0.0,0.0,,0.0,0.0,0.0,1.0
1402416438017766343,,errorv,,0,,1402416438,17482271,/z_drive,port,,,-0.3,0.3048,0.0,,0.0,0.0,0.0,1.0
1402416438017791650,,errorv,,0,,1402416438,17490745,/z_drive,starboard,,,-0.3,-0.3048,0.0,,0.0,0.0,0.0,1.0
1402416438037748660,,errorv,,0,,1402416438,37465857,base_link,/z_drive,,,0.0,0.0,0.0,,0.0,0.0,0.0,1.0
1402416438037823466,,errorv,,0,,1402416438,37485474,/z_drive,port,,,-0.3,0.3048,0.0,,0.0,0.0,0.0,1.0
1402416438037860990,,errorv,,0,,1402416438,37492958,/z_drive,starboard,,,-0.3,-0.3048,0.0,,0.0,0.0,0.0,1.0
1402416438047081922,,errorv,,0,,1402416438,146882912,base_link,imu,,,0.13,0.0,-0.1,,1.0,0.0,0.0,0.0
1402416438047111785,,errorv,,0,,1402416438,146868355,/base_link,/gps,,,-0.84,0.0,-0.14,,0.0,0.0,0.0,1.0
1402416438051144574,,errorv,,0,,1402416437,972060918,/enu,/base_link,,,8.23924488935,28.9512622204,-23.0721592187,,-0.00289272295417,0.0140302245336,0.661743215383,0.749593691174
1402416438051169268,,errorv,,0,,1402416437,982059955,/enu,/base_link,,,8.24385259616,28.9417620185,-23.0736274729,,-0.00281639081109,0.0141204736732,0.660656952736,0.750549845758
1402416438051315152,,errorv,,0,,1402416437,992063045,/enu,/base_link,,,8.27652498863,28.9541053238,-23.1129342048,,-0.00215673437299,0.0154616282672,0.658582567782,0.7523465212
1402416438051338113,,errorv,,0,,1402416438,2059936,/enu,/base_link,,,8.28145796546,28.9447131524,-23.1143125839,,-0.00216170170881,0.0155015110285,0.657456246082,0.753330149861
1402416438057657693,,errorv,,0,,1402416438,57503647,base_link,/z_drive,,,0.0,0.0,0.0,,0.0,0.0,0.0,1.0
1402416438057817326,,errorv,,0,,1402416438,57518824,/z_drive,port,,,-0.3,0.3048,0.0,,0.0,0.0,0.0,1.0
1402416438057848239,,errorv,,0,,1402416438,57659888,/z_drive,starboard,,,-0.3,-0.3048,0.0,,0.0,0.0,0.0,1.0
1402416438077661738,,errorv,,0,,1402416438,77449802,base_link,/z_drive,,,0.0,0.0,0.0,,0.0,0.0,0.0,1.0
1402416438077729556,,errorv,,0,,1402416438,77465958,/z_drive,port,,,-0.3,0.3048,0.0,,0.0,0.0,0.0,1.0
1402416438077818545,,errorv,,0,,1402416438,77474955,/z_drive,starboard,,,-0.3,-0.3048,0.0,,0.0,0.0,0.0,1.0
1402416438091195930,,errorv,,0,,1402416438,13062000,/enu,/base_link,,,8.28724875804,28.9348092538,-23.1165353469,,-0.00210166828769,0.0155717175393,0.656236517868,0.754391633848
1402416438091227698,,errorv,,0,,1402416438,22066116,/enu,/base_link,,,8.29171359661,28.9263961818,-23.1179813598,,-0.00193092071305,0.0155274223403,0.655241109122,0.755257743831
1402416438091251093,,errorv,,0,,1402416438,32062053,/enu,/base_link,,,8.29683270185,28.9170423508,-23.1193554482,,-0.00180847584834,0.0156475405107,0.654109676465,0.756235687499
1402416438091273635,,errorv,,0,,1402416438,43065071,/enu,/base_link,,,8.32018820217,28.9304646774,-23.1586130223,,-0.00184785613583,0.0166554070952,0.652568270201,0.757544609623
1402416438097894240,,errorv,,0,,1402416438,97592149,base_link,/z_drive,,,0.0,0.0,0.0,,0.0,0.0,0.0,1.0
1402416438097926886,,errorv,,0,,1402416438,97626717,/z_drive,port,,,-0.3,0.3048,0.0,,0.0,0.0,0.0,1.0
1402416438097948225,,errorv,,0,,1402416438,97636946,/z_drive,starboard,,,-0.3,-0.3048,0.0,,0.0,0.0,0.0,1.0
1402416438117693021,,errorv,,0,,1402416438,117493720,base_link,/z_drive,,,0.0,0.0,0.0,,0.0,0.0,0.0,1.0
1402416438117726396,,errorv,,0,,1402416438,117519857,/z_drive,port,,,-0.3,0.3048,0.0,,0.0,0.0,0.0,1.0
1402416438117824045,,errorv,,0,,1402416438,117553864,/z_drive,starboard,,,-0.3,-0.3048,0.0,,0.0,0.0,0.0,1.0
1402416438131173604,,errorv,,0,,1402416438,53065061,/enu,/base_link,,,8.32540073264,28.9213709725,-23.1602583715,,-0.00179691788094,0.0166842428138,0.651466115255,0.758492127713
1402416438131226988,,errorv,,0,,1402416438,62959909,/enu,/base_link,,,8.33069946118,28.9125497993,-23.1622326488,,-0.00164829819326,0.0166041327953,0.650369585675,0.759434650195
1402416438131343906,,errorv,,0,,1402416438,72942018,/enu,/base_link,,,8.33605033639,28.9035701499,-23.164051697,,-0.00155007420254,0.0165936117586,0.649222525593,0.760415913551
1402416438131402085,,errorv,,0,,1402416438,82961082,/enu,/base_link,,,8.34115278737,28.8945489853,-23.1659295163,,-0.00146396127005,0.0166382368313,0.648089074609,0.761381361254
1402416438137826131,,errorv,,0,,1402416438,137535543,base_link,/z_drive,,,0.0,0.0,0.0,,0.0,0.0,0.0,1.0
1402416438137855929,,errorv,,0,,1402416438,137575083,/z_drive,port,,,-0.3,0.3048,0.0,,0.0,0.0,0.0,1.0
1402416438137922450,,errorv,,0,,1402416438,137583339,/z_drive,starboard,,,-0.3,-0.3048,0.0,,0.0,0.0,0.0,1.0
1402416438147169635,,errorv,,0,,1402416438,246973917,/base_link,/gps,,,-0.84,0.0,-0.14,,0.0,0.0,0.0,1.0
1402416438147198659,,errorv,,0,,1402416438,246981515,base_link,imu,,,0.13,0.0,-0.1,,1.0,0.0,0.0,0.0
1402416438158026600,,errorv,,0,,1402416438,157558268,base_link,/z_drive,,,0.0,0.0,0.0,,0.0,0.0,0.0,1.0
1402416438158058165,,errorv,,0,,1402416438,157577367,/z_drive,port,,,-0.3,0.3048,0.0,,0.0,0.0,0.0,1.0
1402416438158108528,,errorv,,0,,1402416438,157586831,/z_drive,starboard,,,-0.3,-0.3048,0.0,,0.0,0.0,0.0,1.0
1402416438171299330,,errorv,,0,,1402416438,92938899,/enu,/base_link,,,8.47524632317,29.0011062656,-23.3452991958,,8.84496262312e-06,0.0243645988111,0.643136693063,0.765363678445
1402416438171384469,,errorv,,0,,1402416438,102941989,/enu,/base_link,,,8.4821486075,28.9931497378,-23.3475920815,,0.000150101601683,0.0242632290949,0.641989467617,0.766329430893
1402416438171465721,,errorv,,0,,1402416438,113940954,/enu,/base_link,,,8.48950528047,28.984341108,-23.3497139045,,0.00024170511836,0.0244582010868,0.640741722523,0.767366785179
1402416438171560779,,errorv,,0,,1402416438,123972892,/enu,/base_link,,,8.49641719335,28.9764536374,-23.3518782062,,0.000258800719399,0.0244067830422,0.639575641979,0.768340575625
1402416438177826442,,errorv,,0,,1402416438,177540471,base_link,/z_drive,,,0.0,0.0,0.0,,0.0,0.0,0.0,1.0
1402416438177854962,,errorv,,0,,1402416438,177678930,/z_drive,port,,,-0.3,0.3048,0.0,,0.0,0.0,0.0,1.0
1402416438177976908,,errorv,,0,,1402416438,177691163,/z_drive,starboard,,,-0.3,-0.3048,0.0,,0.0,0.0,0.0,1.0
1402416438197675550,,errorv,,0,,1402416438,197495104,base_link,/z_drive,,,0.0,0.0,0.0,,0.0,0.0,0.0,1.0
1402416438197819669,,errorv,,0,,1402416438,197519486,/z_drive,port,,,-0.3,0.3048,0.0,,0.0,0.0,0.0,1.0
1402416438197995126,,errorv,,0,,1402416438,197623825,/z_drive,starboard,,,-0.3,-0.3048,0.0,,0.0,0.0,0.0,1.0
1402416438214907055,,errorv,,0,,1402416438,133919000,/enu,/base_link,,,8.6316237844,29.0879222663,-23.4928043339,,0.000678648034118,0.0334466975854,0.634312772488,0.772352357746
1402416438214935094,,errorv,,0,,1402416438,143965005,/enu,/base_link,,,8.6401680391,29.081395965,-23.4955853046,,0.000786700958502,0.0333452233123,0.633136622931,0.773321080721
1402416438214951877,,errorv,,0,,1402416438,154932022,/enu,/base_link,,,8.64942265214,29.0739865406,-23.4979578254,,0.000812029512295,0.0334763151703,0.631845491358,0.774370681251
1402416438214970200,,errorv,,0,,1402416438,164921045,/enu,/base_link,,,8.65795048613,29.0674125391,-23.5003409718,,0.000828113825351,0.0334835850348,0.63068134608,0.775318775386
1402416438217823567,,errorv,,0,,1402416438,217468162,base_link,/z_drive,,,0.0,0.0,0.0,,0.0,0.0,0.0,1.0
1402416438217928901,,errorv,,0,,1402416438,217483485,/z_drive,port,,,-0.3,0.3048,0.0,,0.0,0.0,0.0,1.0
1402416438217946639,,errorv,,0,,1402416438,217503777,/z_drive,starboard,,,-0.3,-0.3048,0.0,,0.0,0.0,0.0,1.0
1402416438237958376,,errorv,,0,,1402416438,237507495,base_link,/z_drive,,,0.0,0.0,0.0,,0.0,0.0,0.0,1.0
1402416438237990042,,errorv,,0,,1402416438,237718365,/z_drive,port,,,-0.3,0.3048,0.0,,0.0,0.0,0.0,1.0
1402416438238038996,,errorv,,0,,1402416438,237732590,/z_drive,starboard,,,-0.3,-0.3048,0.0,,0.0,0.0,0.0,1.0
1402416438247323609,,errorv,,0,,1402416438,347086919,base_link,imu,,,0.13,0.0,-0.1,,1.0,0.0,0.0,0.0
1402416438247346631,,errorv,,0,,1402416438,347081526,/base_link,/gps,,,-0.84,0.0,-0.14,,0.0,0.0,0.0,1.0
1402416438251057939,,errorv,,0,,1402416438,174887895,/enu,/base_link,,,8.66651538827,29.0608801767,-23.5026030489,,0.000891810994609,0.0335123840496,0.629499985856,0.776276943234
1402416438251184848,,errorv,,0,,1402416438,184889078,/enu,/base_link,,,8.75969602282,29.1229631384,-23.5576500181,,0.00113942714219,0.0399882903749,0.625382266044,0.779292409597
1402416438251311995,,errorv,,0,,1402416438,194896936,/enu,/base_link,,,8.76981238492,29.1173394937,-23.5599222147,,0.00103361005785,0.0400780461002,0.624198736599,0.780236258514
1402416438251340332,,errorv,,0,,1402416438,204900026,/enu,/base_link,,,8.77955697652,29.1116255659,-23.5620376208,,0.00112884949299,0.0401817694862,0.622997629789,0.781190184511
1402416438257772397,,errorv,,0,,1402416438,257484165,base_link,/z_drive,,,0.0,0.0,0.0,,0.0,0.0,0.0,1.0
1402416438257792707,,errorv,,0,,1402416438,257498604,/z_drive,port,,,-0.3,0.3048,0.0,,0.0,0.0,0.0,1.0
1402416438257806955,,errorv,,0,,1402416438,257502963,/z_drive,starboard,,,-0.3,-0.3048,0.0,,0.0,0.0,0.0,1.0
1402416438277783893,,errorv,,0,,1402416438,277492170,base_link,/z_drive,,,0.0,0.0,0.0,,0.0,0.0,0.0,1.0
1402416438277811118,,errorv,,0,,1402416438,277512843,/z_drive,port,,,-0.3,0.3048,0.0,,0.0,0.0,0.0,1.0
1402416438277879502,,errorv,,0,,1402416438,277522195,/z_drive,starboard,,,-0.3,-0.3048,0.0,,0.0,0.0,0.0,1.0
1402416438291127840,,errorv,,0,,1402416438,215899944,/enu,/base_link,,,8.79050606359,29.1053223171,-23.5642611436,,0.00108871950402,0.0402933726369,0.62166442459,0.782245870561
1402416438291156263,,errorv,,0,,1402416438,225868940,/enu,/base_link,,,8.80052790211,29.1001902796,-23.5672594312,,0.00111381224348,0.0403580094399,0.62044337483,0.783211343844
1402416438291223083,,errorv,,0,,1402416438,235888004,/enu,/base_link,,,8.8104766574,29.094588668,-23.56941927,,0.00103613818369,0.040566282779,0.619217109834,0.784170564359
1402416438291287074,,errorv,,0,,1402416438,245860099,/enu,/base_link,,,8.82048041074,29.089153096,-23.5716887552,,0.00111945726943,0.0405860476476,0.617980741695,0.785144141191
1402416438297869691,,errorv,,0,,1402416438,297541652,base_link,/z_drive,,,0.0,0.0,0.0,,0.0,0.0,0.0,1.0
1402416438297892752,,errorv,,0,,1402416438,297663960,/z_drive,port,,,-0.3,0.3048,0.0,,0.0,0.0,0.0,1.0
1402416438297936290,,errorv,,0,,1402416438,297677258,/z_drive,starboard,,,-0.3,-0.3048,0.0,,0.0,0.0,0.0,1.0
1402416438317652258,,errorv,,0,,1402416438,317458216,base_link,/z_drive,,,0.0,0.0,0.0,,0.0,0.0,0.0,1.0
1402416438317919743,,errorv,,0,,1402416438,317484458,/z_drive,port,,,-0.3,0.3048,0.0,,0.0,0.0,0.0,1.0
1402416438317946572,,errorv,,0,,1402416438,317521668,/z_drive,starboard,,,-0.3,-0.3048,0.0,,0.0,0.0,0.0,1.0
1402416438331103399,,errorv,,0,,1402416438,256859064,/enu,/base_link,,,8.83160101649,29.0832079515,-23.5743303669,,0.00110252906894,0.04058745035,0.616625861959,0.786208617141
1402416438331130936,,errorv,,0,,1402416438,266861915,/enu,/base_link,,,8.84190811056,29.0779148284,-23.5768827598,,0.00100955476869,0.0408377379683,0.615373604229,0.787176338043
1402416438331151149,,errorv,,0,,1402416438,276859045,/enu,/base_link,,,8.81684422854,29.0071307628,-23.4482465631,,0.00184832314786,0.0392620314215,0.614083853092,0.788261440108
1402416438331185361,,errorv,,0,,1402416438,286847114,/enu,/base_link,,,8.82682848193,29.0015669714,-23.450462981,,0.00174198093037,0.0394991054328,0.612798656758,0.789249385459
1402416438337657515,,errorv,,0,,1402416438,337490066,base_link,/z_drive,,,0.0,0.0,0.0,,0.0,0.0,0.0,1.0
1402416438337719073,,errorv,,0,,1402416438,337502351,/z_drive,port,,,-0.3,0.3048,0.0,,0.0,0.0,0.0,1.0
1402416438337801199,,errorv,,0,,1402416438,337508634,/z_drive,starboard,,,-0.3,-0.3048,0.0,,0.0,0.0,0.0,1.0
1402416438347379196,,errorv,,0,,1402416438,447187778,base_link,imu,,,0.13,0.0,-0.1,,1.0,0.0,0.0,0.0
1402416438347404356,,errorv,,0,,1402416438,447179822,/base_link,/gps,,,-0.84,0.0,-0.14,,0.0,0.0,0.0,1.0
1402416438357891636,,errorv,,0,,1402416438,357491424,base_link,/z_drive,,,0.0,0.0,0.0,,0.0,0.0,0.0,1.0
1402416438357927507,,errorv,,0,,1402416438,357511434,/z_drive,port,,,-0.3,0.3048,0.0,,0.0,0.0,0.0,1.0
1402416438358006639,,errorv,,0,,1402416438,357521896,/z_drive,starboard,,,-0.3,-0.3048,0.0,,0.0,0.0,0.0,1.0
1402416438371162390,,errorv,,0,,1402416438,297836065,/enu,/base_link,,,8.83788352722,28.9952041608,-23.4527524732,,0.00168590594843,0.0394890460763,0.611396348824,0.790336812761
1402416438371194048,,errorv,,0,,1402416438,307818889,/enu,/base_link,,,8.84787462908,28.9896043636,-23.454922188,,0.00161726727828,0.0398193399325,0.610109321414,0.791314362651
1402416438371257216,,errorv,,0,,1402416438,317811965,/enu,/base_link,,,8.85813540994,28.9838098946,-23.4568465809,,0.00160972745351,0.0398351966203,0.608801106165,0.792320502713
1402416438371283709,,errorv,,0,,1402416438,327809095,/enu,/base_link,,,8.8682530327,28.9782321219,-23.4589710108,,0.00149429672628,0.0400920560254,0.607491985202,0.793311970183
1402416438377727409,,errorv,,0,,1402416438,377442352,base_link,/z_drive,,,0.0,0.0,0.0,,0.0,0.0,0.0,1.0
1402416438377790652,,errorv,,0,,1402416438,377509373,/z_drive,port,,,-0.3,0.3048,0.0,,0.0,0.0,0.0,1.0
1402416438377855917,,errorv,,0,,1402416438,377522464,/z_drive,starboard,,,-0.3,-0.3048,0.0,,0.0,0.0,0.0,1.0
1402416438397697963,,errorv,,0,,1402416438,397522206,base_link,/z_drive,,,0.0,0.0,0.0,,0.0,0.0,0.0,1.0
1402416438397828921,,errorv,,0,,1402416438,397543463,/z_drive,port,,,-0.3,0.3048,0.0,,0.0,0.0,0.0,1.0
1402416438397852562,,errorv,,0,,1402416438,397675154,/z_drive,starboard,,,-0.3,-0.3048,0.0,,0.0,0.0,0.0,1.0
1402416438411276016,,errorv,,0,,1402416438,337807893,/enu,/base_link,,,8.8785464505,28.9726471947,-23.4610265853,,0.0013302280552,0.0403446724631,0.606174532643,0.794306599414
1402416438411299909,,errorv,,0,,1402416438,348818063,/enu,/base_link,,,8.88976805312,28.9665696481,-23.4636936632,,0.00117246515374,0.0403853194706,0.604694758523,0.795431895458
1402416438411322033,,errorv,,0,,1402416438,358795881,/enu,/base_link,,,8.64703862294,28.7519327191,-23.2629458071,,0.000870473945296,0.022595134963,0.611051855628,0.7912675476
1402416438411352890,,errorv,,0,,1402416438,368807077,/enu,/base_link,,,8.65422247923,28.7439723846,-23.2650072567,,0.000687183262508,0.0226610119863,0.609715950747,0.792295693362
1402416438417673118,,errorv,,0,,1402416438,417503524,base_link,/z_drive,,,0.0,0.0,0.0,,0.0,0.0,0.0,1.0
1402416438417743235,,errorv,,0,,1402416438,417520413,/z_drive,port,,,-0.3,0.3048,0.0,,0.0,0.0,0.0,1.0
1402416438417805759,,errorv,,0,,1402416438,417528148,/z_drive,starboard,,,-0.3,-0.3048,0.0,,0.0,0.0,0.0,1.0
1402416438437685865,,errorv,,0,,1402416438,437482146,base_link,/z_drive,,,0.0,0.0,0.0,,0.0,0.0,0.0,1.0
1402416438437869543,,errorv,,0,,1402416438,437500443,/z_drive,port,,,-0.3,0.3048,0.0,,0.0,0.0,0.0,1.0
1402416438437895023,,errorv,,0,,1402416438,437504884,/z_drive,starboard,,,-0.3,-0.3048,0.0,,0.0,0.0,0.0,1.0
1402416438447501396,,errorv,,0,,1402416438,547275983,/base_link,/gps,,,-0.84,0.0,-0.14,,0.0,0.0,0.0,1.0
1402416438447530089,,errorv,,0,,1402416438,547289657,base_link,imu,,,0.13,0.0,-0.1,,1.0,0.0,0.0,0.0
1402416438451306020,,errorv,,0,,1402416438,379817008,/enu,/base_link,,,8.66163227054,28.7350328554,-23.266866513,,0.0005281427008,0.0228122741284,0.608234159795,0.793429598687
1402416438451329617,,errorv,,0,,1402416438,389822006,/enu,/base_link,,,8.67717622347,28.6876774508,-23.4021306645,,0.00593395597525,0.0175630028877,0.604506528748,0.796384445979
1402416438451354339,,errorv,,0,,1402416438,399822950,/enu,/base_link,,,8.68378365324,28.6781111512,-23.4041856467,,0.00578300299402,0.0176154044368,0.603112624793,0.797440540867
1402416438451380835,,errorv,,0,,1402416438,410829067,/enu,/base_link,,,8.69127100208,28.6675715354,-23.4063567939,,0.00559185020895,0.0178296262832,0.601558619361,0.798610082024
1402416438451417514,,errorv,,0,,1402416438,420830965,/enu,/base_link,,,8.69807938247,28.6579961742,-23.4083937794,,0.00552405395164,0.0180400459808,0.600159375296,0.79965790549
1402416438457821046,,errorv,,0,,1402416438,457667486,base_link,/z_drive,,,0.0,0.0,0.0,,0.0,0.0,0.0,1.0
1402416438457846599,,errorv,,0,,1402416438,457686234,/z_drive,port,,,-0.3,0.3048,0.0,,0.0,0.0,0.0,1.0
1402416438457866850,,errorv,,0,,1402416438,457691334,/z_drive,starboard,,,-0.3,-0.3048,0.0,,0.0,0.0,0.0,1.0
1402416438477635720,,errorv,,0,,1402416438,477472813,base_link,/z_drive,,,0.0,0.0,0.0,,0.0,0.0,0.0,1.0
1402416438477929580,,errorv,,0,,1402416438,477507071,/z_drive,port,,,-0.3,0.3048,0.0,,0.0,0.0,0.0,1.0
1402416438477960755,,errorv,,0,,1402416438,477545848,/z_drive,starboard,,,-0.3,-0.3048,0.0,,0.0,0.0,0.0,1.0
1402416438491053786,,errorv,,0,,1402416438,430808067,/enu,/base_link,,,8.70473195621,28.6484100996,-23.4105509588,,0.00538665073492,0.0180490008213,0.598756208482,0.800709822824
1402416438491083502,,errorv,,0,,1402416438,440774917,/enu,/base_link,,,8.79413058126,28.6975664464,-23.6681943436,,0.00911631418669,0.0182440272975,0.594277996989,0.804001063792
1402416438491110885,,errorv,,0,,1402416438,451790094,/enu,/base_link,,,8.80218823913,28.6863301526,-23.6710343221,,0.00912250331633,0.0182694169641,0.592706505138,0.805159615917
1402416438497686757,,errorv,,0,,1402416438,497510878,base_link,/z_drive,,,0.0,0.0,0.0,,0.0,0.0,0.0,1.0
1402416438497763308,,errorv,,0,,1402416438,497527573,/z_drive,port,,,-0.3,0.3048,0.0,,0.0,0.0,0.0,1.0
1402416438497787264,,errorv,,0,,1402416438,497533134,/z_drive,starboard,,,-0.3,-0.3048,0.0,,0.0,0.0,0.0,1.0
1402416438499396737,,errorv,,0,,1402416438,461775064,/enu,/base_link,,,8.80954582993,28.6761366785,-23.6733784633,,0.00907976871326,0.018500704158,0.591253628574,0.80622231949
1402416438499422550,,errorv,,0,,1402416438,471771001,/enu,/base_link,,,8.8167778393,28.6660397096,-23.6760651183,,0.00897503625202,0.018438581969,0.58979120186,0.807295364552
1402416438517762724,,errorv,,0,,1402416438,517500676,base_link,/z_drive,,,0.0,0.0,0.0,,0.0,0.0,0.0,1.0
1402416438517790285,,errorv,,0,,1402416438,517517220,/z_drive,port,,,-0.3,0.3048,0.0,,0.0,0.0,0.0,1.0
1402416438517897731,,errorv,,0,,1402416438,517524891,/z_drive,starboard,,,-0.3,-0.3048,0.0,,0.0,0.0,0.0,1.0
1402416438537801567,,errorv,,0,,1402416438,537623693,base_link,/z_drive,,,0.0,0.0,0.0,,0.0,0.0,0.0,1.0
1402416438537834311,,errorv,,0,,1402416438,537645474,/z_drive,port,,,-0.3,0.3048,0.0,,0.0,0.0,0.0,1.0
1402416438537850783,,errorv,,0,,1402416438,537651415,/z_drive,starboard,,,-0.3,-0.3048,0.0,,0.0,0.0,0.0,1.0
1402416438539182627,,errorv,,0,,1402416438,481771945,/enu,/base_link,,,8.82438132069,28.6557415622,-23.6784407841,,0.00889032264116,0.0186054955326,0.588335303312,0.80835411088
1402416438539203994,,errorv,,0,,1402416438,491765975,/enu,/base_link,,,8.83147404422,28.6454833664,-23.6808153836,,0.0088521468451,0.0187175701533,0.586870222219,0.809416230586
1402416438547544930,,errorv,,0,,1402416438,647375015,/base_link,/gps,,,-0.84,0.0,-0.14,,0.0,0.0,0.0,1.0
1402416438547634331,,errorv,,0,,1402416438,647394931,base_link,imu,,,0.13,0.0,-0.1,,1.0,0.0,0.0,0.0
1402416438557820751,,errorv,,0,,1402416438,557676538,base_link,/z_drive,,,0.0,0.0,0.0,,0.0,0.0,0.0,1.0
1402416438557855561,,errorv,,0,,1402416438,557694271,/z_drive,port,,,-0.3,0.3048,0.0,,0.0,0.0,0.0,1.0
1402416438557880894,,errorv,,0,,1402416438,557698793,/z_drive,starboard,,,-0.3,-0.3048,0.0,,0.0,0.0,0.0,1.0
1402416438577812913,,errorv,,0,,1402416438,577667702,base_link,/z_drive,,,0.0,0.0,0.0,,0.0,0.0,0.0,1.0
1402416438577885055,,errorv,,0,,1402416438,577682915,/z_drive,port,,,-0.3,0.3048,0.0,,0.0,0.0,0.0,1.0
1402416438577912780,,errorv,,0,,1402416438,577687190,/z_drive,starboard,,,-0.3,-0.3048,0.0,,0.0,0.0,0.0,1.0
1402416438579064245,,errorv,,0,,1402416438,502760887,/enu,/base_link,,,8.83972041548,28.6343221447,-23.6837677137,,0.00872112234302,0.0187165176411,0.58527133551,0.810574547974
1402416438579144336,,errorv,,0,,1402416438,512747049,/enu,/base_link,,,8.84725144549,28.6239019812,-23.6860816705,,0.00862542312882,0.0187443408207,0.583807265058,0.811630044434
1402416438579166634,,errorv,,0,,1402416438,522756099,/enu,/base_link,,,8.85454720355,28.6136359201,-23.6887089277,,0.00864613974823,0.0188227874428,0.582332608969,0.812686704377
1402416438579221627,,errorv,,0,,1402416438,533736944,/enu,/base_link,,,8.77852120576,28.550282333,-23.5445790067,,0.00622732777848,0.0158572262419,0.583281886588,0.812091133767
1402416438597934123,,errorv,,0,,1402416438,597656878,base_link,/z_drive,,,0.0,0.0,0.0,,0.0,0.0,0.0,1.0
1402416438597988853,,errorv,,0,,1402416438,597675372,/z_drive,port,,,-0.3,0.3048,0.0,,0.0,0.0,0.0,1.0
1402416438598014667,,errorv,,0,,1402416438,597680032,/z_drive,starboard,,,-0.3,-0.3048,0.0,,0.0,0.0,0.0,1.0
1402416438617678106,,errorv,,0,,1402416438,617545080,base_link,/z_drive,,,0.0,0.0,0.0,,0.0,0.0,0.0,1.0
1402416438617980623,,errorv,,0,,1402416438,617565061,/z_drive,port,,,-0.3,0.3048,0.0,,0.0,0.0,0.0,1.0
1402416438618009676,,errorv,,0,,1402416438,617604749,/z_drive,starboard,,,-0.3,-0.3048,0.0,,0.0,0.0,0.0,1.0
1402416438619198035,,errorv,,0,,1402416438,543735027,/enu,/base_link,,,8.78509775485,28.5400430167,-23.546997023,,0.00618842651133,0.0159577448885,0.581786379877,0.813161522667
1402416438619225837,,errorv,,0,,1402416438,553735971,/enu,/base_link,,,8.79164077671,28.5296021059,-23.5492920998,,0.00613497783757,0.0158645606925,0.580317834604,0.814212434566
1402416438619250435,,errorv,,0,,1402416438,563711881,/enu,/base_link,,,8.7980485477,28.5189900274,-23.5511494093,,0.00623962463704,0.0160165275923,0.578828268351,0.815268283257
1402416438619285012,,errorv,,0,,1402416438,574719905,/enu,/base_link,,,8.80545663786,28.5074940819,-23.5535974166,,0.00623109865028,0.0161296836098,0.57717860601,0.816434849502
1402416438637931879,,errorv,,0,,1402416438,637526061,base_link,/z_drive,,,0.0,0.0,0.0,,0.0,0.0,0.0,1.0
1402416438637954987,,errorv,,0,,1402416438,637542585,/z_drive,port,,,-0.3,0.3048,0.0,,0.0,0.0,0.0,1.0
1402416438637969606,,errorv,,0,,1402416438,637548884,/z_drive,starboard,,,-0.3,-0.3048,0.0,,0.0,0.0,0.0,1.0
1402416438647659278,,errorv,,0,,1402416438,747472693,/base_link,/gps,,,-0.84,0.0,-0.14,,0.0,0.0,0.0,1.0
1402416438647812006,,errorv,,0,,1402416438,747497611,base_link,imu,,,0.13,0.0,-0.1,,1.0,0.0,0.0,0.0
1402416438657631797,,errorv,,0,,1402416438,657441372,base_link,/z_drive,,,0.0,0.0,0.0,,0.0,0.0,0.0,1.0
1402416438657752152,,errorv,,0,,1402416438,657456628,/z_drive,port,,,-0.3,0.3048,0.0,,0.0,0.0,0.0,1.0
1402416438657786890,,errorv,,0,,1402416438,657462900,/z_drive,starboard,,,-0.3,-0.3048,0.0,,0.0,0.0,0.0,1.0
1402416438659283076,,errorv,,0,,1402416438,584709882,/enu,/base_link,,,8.81208236503,28.4970496556,-23.555838113,,0.00620705514222,0.0160345623033,0.575675684573,0.817497321995
1402416438659311251,,errorv,,0,,1402416438,595268011,/enu,/base_link,,,8.8189454487,28.4857673241,-23.5578390388,,0.0062982532386,0.0161269992767,0.574096128015,0.818604842216
1402416438659335908,,errorv,,0,,1402416438,605696916,/enu,/base_link,,,8.82590467371,28.4746642734,-23.5600352516,,0.00630558202876,0.0159569388948,0.572504842049,0.819721795225
1402416438659366715,,errorv,,0,,1402416438,615680932,/enu,/base_link,,,8.83260200733,28.4640825304,-23.5621398746,,0.00638298329547,0.0160065657322,0.571016071805,0.820757999119
1402416438677808392,,errorv,,0,,1402416438,677611449,base_link,/z_drive,,,0.0,0.0,0.0,,0.0,0.0,0.0,1.0
1402416438677825873,,errorv,,0,,1402416438,677627891,/z_drive,port,,,-0.3,0.3048,0.0,,0.0,0.0,0.0,1.0
1402416438677847401,,errorv,,0,,1402416438,677632428,/z_drive,starboard,,,-0.3,-0.3048,0.0,,0.0,0.0,0.0,1.0
1402416438697768617,,errorv,,0,,1402416438,697515912,base_link,/z_drive,,,0.0,0.0,0.0,,0.0,0.0,0.0,1.0
1402416438697793904,,errorv,,0,,1402416438,697600457,/z_drive,port,,,-0.3,0.3048,0.0,,0.0,0.0,0.0,1.0
1402416438697815261,,errorv,,0,,1402416438,697613730,/z_drive,starboard,,,-0.3,-0.3048,0.0,,0.0,0.0,0.0,1.0
1402416438699133569,,errorv,,0,,1402416438,625668048,/enu,/base_link,,,8.83891291837,28.4533257128,-23.5640805713,,0.006348059111,0.0159418461383,0.569493634909,0.821816621568
1402416438699156424,,errorv,,0,,1402416438,635680913,/enu,/base_link,,,8.84570626986,28.442796079,-23.5664047849,,0.00652408986187,0.016003104265,0.567954415685,0.822878556416
1402416438699176242,,errorv,,0,,1402416438,646665096,/enu,/base_link,,,8.85289894026,28.4308874276,-23.5683822755,,0.00660557749213,0.0159423638242,0.566261300111,0.824045112466
1402416438699243641,,errorv,,0,,1402416438,656655073,/enu,/base_link,,,8.85942381365,28.4202815711,-23.5706147372,,0.00655336459661,0.0159567587584,0.564704236758,0.825113059072
1402416438717722908,,errorv,,0,,1402416438,717475754,base_link,/z_drive,,,0.0,0.0,0.0,,0.0,0.0,0.0,1.0
1402416438717753596,,errorv,,0,,1402416438,717493391,/z_drive,port,,,-0.3,0.3048,0.0,,0.0,0.0,0.0,1.0
1402416438717780738,,errorv,,0,,1402416438,717502858,/z_drive,starboard,,,-0.3,-0.3048,0.0,,0.0,0.0,0.0,1.0
1402416438737707932,,errorv,,0,,1402416438,737465312,base_link,/z_drive,,,0.0,0.0,0.0,,0.0,0.0,0.0,1.0
1402416438737744962,,errorv,,0,,1402416438,737484991,/z_drive,port,,,-0.3,0.3048,0.0,,0.0,0.0,0.0,1.0
1402416438737783188,,errorv,,0,,1402416438,737494216,/z_drive,starboard,,,-0.3,-0.3048,0.0,,0.0,0.0,0.0,1.0
1402416438739280029,,errorv,,0,,1402416438,666662931,/enu,/base_link,,,8.86613562759,28.409461919,-23.5727499973,,0.00666380109472,0.0159039692222,0.563159507031,0.826168280169
1402416438739305797,,errorv,,0,,1402416438,676690101,/enu,/base_link,,,8.87277300107,28.398747426,-23.5748625399,,0.00677320735316,0.0159819873684,0.561587513472,0.827235253392
1402416438739336373,,errorv,,0,,1402416438,687652111,/enu,/base_link,,,8.87980802786,28.3869954501,-23.577537379,,0.00679490682796,0.0157686191459,0.559876333411,0.828398256382
1402416438739358315,,errorv,,0,,1402416438,697640895,/enu,/base_link,,,8.88632839965,28.376160564,-23.5795382754,,0.00680555471083,0.0158898041153,0.558304828701,0.829455795567
1402416438747771824,,errorv,,0,,1402416438,847569367,/base_link,/gps,,,-0.84,0.0,-0.14,,0.0,0.0,0.0,1.0
1402416438747847231,,errorv,,0,,1402416438,847596929,base_link,imu,,,0.13,0.0,-0.1,,1.0,0.0,0.0,0.0
1402416438757731662,,errorv,,0,,1402416438,757556098,base_link,/z_drive,,,0.0,0.0,0.0,,0.0,0.0,0.0,1.0
1402416438757808060,,errorv,,0,,1402416438,757574493,/z_drive,port,,,-0.3,0.3048,0.0,,0.0,0.0,0.0,1.0
1402416438757832898,,errorv,,0,,1402416438,757584013,/z_drive,starboard,,,-0.3,-0.3048,0.0,,0.0,0.0,0.0,1.0
1402416438777659745,,errorv,,0,,1402416438,777469525,base_link,/z_drive,,,0.0,0.0,0.0,,0.0,0.0,0.0,1.0
1402416438777690455,,errorv,,0,,1402416438,777486429,/z_drive,port,,,-0.3,0.3048,0.0,,0.0,0.0,0.0,1.0
1402416438777716652,,errorv,,0,,1402416438,777497968,/z_drive,starboard,,,-0.3,-0.3048,0.0,,0.0,0.0,0.0,1.0
1402416438779183577,,errorv,,0,,1402416438,707638025,/enu,/base_link,,,8.89294580104,28.3653549815,-23.5816696724,,0.00691086141449,0.0156792942321,0.556710740581,0.830529681016
1402416438779213059,,errorv,,0,,1402416438,717632055,/enu,/base_link,,,8.89951370896,28.3546509536,-23.5839357169,,0.00694794651756,0.0158026784154,0.555134330136,0.831581551562
1402416438779239323,,errorv,,0,,1402416438,728622913,/enu,/base_link,,,8.90678203263,28.3428274542,-23.5861806999,,0.00691651129583,0.0159128874498,0.553387801775,0.832742987201
1402416438779260904,,errorv,,0,,1402416438,738636016,/enu,/base_link,,,8.86695425646,28.3121936758,-23.5205995839,,0.00538337561011,0.0141943732168,0.55288534598,0.833119039056
1402416438779294351,,errorv,,0,,1402416438,748622894,/enu,/base_link,,,8.87306677775,28.3014299886,-23.5225412074,,0.00542413452045,0.014285750537,0.551291121338,0.83417300102
1402416438797713462,,errorv,,0,,1402416438,797474724,base_link,/z_drive,,,0.0,0.0,0.0,,0.0,0.0,0.0,1.0
1402416438797745141,,errorv,,0,,1402416438,797491584,/z_drive,port,,,-0.3,0.3048,0.0,,0.0,0.0,0.0,1.0
1402416438797772049,,errorv,,0,,1402416438,797501485,/z_drive,starboard,,,-0.3,-0.3048,0.0,,0.0,0.0,0.0,1.0
1402416438817716214,,errorv,,0,,1402416438,817468896,base_link,/z_drive,,,0.0,0.0,0.0,,0.0,0.0,0.0,1.0
1402416438817747708,,errorv,,0,,1402416438,817487252,/z_drive,port,,,-0.3,0.3048,0.0,,0.0,0.0,0.0,1.0
1402416438817771320,,errorv,,0,,1402416438,817497115,/z_drive,starboard,,,-0.3,-0.3048,0.0,,0.0,0.0,0.0,1.0
1402416438819126456,,errorv,,0,,1402416438,758635044,/enu,/base_link,,,8.87902723717,28.2907335568,-23.5247911974,,0.00545588642139,0.014140258671,0.549682974219,0.835235843485
1402416438819151522,,errorv,,0,,1402416438,769594907,/enu,/base_link,,,8.88561003796,28.2788503768,-23.5267525,,0.0054391344574,0.0141617697429,0.547937451391,0.836381736683
1402416438819175677,,errorv,,0,,1402416438,779599905,/enu,/base_link,,,8.89169650028,28.2681972382,-23.5289671661,,0.00544111919249,0.0140678257448,0.546313474665,0.837444970073
1402416438827254787,,errorv,,0,,1402416438,789613962,/enu,/base_link,,,8.89772123121,28.2573176443,-23.5309163849,,0.00542259618212,0.0140112632266,0.544684195065,0.838506653283
1402416438827449239,,errorv,,0,,1402416438,799595117,/enu,/base_link,,,8.90380163207,28.2465196425,-23.5329724788,,0.00537763250306,0.0139863380261,0.54305437324,0.839563821947
1402416438837740543,,errorv,,0,,1402416438,837490784,base_link,/z_drive,,,0.0,0.0,0.0,,0.0,0.0,0.0,1.0
1402416438837776507,,errorv,,0,,1402416438,837511812,/z_drive,port,,,-0.3,0.3048,0.0,,0.0,0.0,0.0,1.0
1402416438837800148,,errorv,,0,,1402416438,837523863,/z_drive,starboard,,,-0.3,-0.3048,0.0,,0.0,0.0,0.0,1.0
1402416438847931902,,errorv,,0,,1402416438,947681197,/base_link,/gps,,,-0.84,0.0,-0.14,,0.0,0.0,0.0,1.0
1402416438847962132,,errorv,,0,,1402416438,947713926,base_link,imu,,,0.13,0.0,-0.1,,1.0,0.0,0.0,0.0
1402416438857663170,,errorv,,0,,1402416438,857470278,base_link,/z_drive,,,0.0,0.0,0.0,,0.0,0.0,0.0,1.0
1402416438857692853,,errorv,,0,,1402416438,857486115,/z_drive,port,,,-0.3,0.3048,0.0,,0.0,0.0,0.0,1.0
1402416438857717738,,errorv,,0,,1402416438,857495143,/z_drive,starboard,,,-0.3,-0.3048,0.0,,0.0,0.0,0.0,1.0
1402416438867113896,,errorv,,0,,1402416438,809585094,/enu,/base_link,,,8.90983158535,28.2356926172,-23.5350262224,,0.00541097118783,0.0140634884044,0.541408385969,0.840624707754
1402416438867141895,,errorv,,0,,1402416438,819571971,/enu,/base_link,,,8.91601847105,28.2250659479,-23.5376223587,,0.0053696006672,0.0139407921187,0.539768198269,0.84168112361
1402416438877829790,,errorv,,0,,1402416438,877484565,base_link,/z_drive,,,0.0,0.0,0.0,,0.0,0.0,0.0,1.0
1402416438877855940,,errorv,,0,,1402416438,877502418,/z_drive,port,,,-0.3,0.3048,0.0,,0.0,0.0,0.0,1.0
1402416438877880496,,errorv,,0,,1402416438,877512346,/z_drive,starboard,,,-0.3,-0.3048,0.0,,0.0,0.0,0.0,1.0
1402416438897773659,,errorv,,0,,1402416438,897511009,base_link,/z_drive,,,0.0,0.0,0.0,,0.0,0.0,0.0,1.0
1402416438897796435,,errorv,,0,,1402416438,897557422,/z_drive,port,,,-0.3,0.3048,0.0,,0.0,0.0,0.0,1.0
1402416438897823048,,errorv,,0,,1402416438,897566243,/z_drive,starboard,,,-0.3,-0.3048,0.0,,0.0,0.0,0.0,1.0
1402416438907241642,,errorv,,0,,1402416438,830588102,/enu,/base_link,,,8.92271724861,28.2129984161,-23.5397920547,,0.00533898641258,0.0140569197288,0.537963009402,0.842834324614
1402416438907353808,,errorv,,0,,1402416438,840559959,/enu,/base_link,,,8.88025314812,28.1959676796,-23.6228303501,,0.00550974277298,0.00915812370544,0.537303657172,0.843321143749
1402416438907452812,,errorv,,0,,1402416438,850569009,/enu,/base_link,,,8.88533048723,28.1845073568,-23.6251887478,,0.00552246994425,0.00929027952228,0.535613904989,0.844393828622
1402416438907518701,,errorv,,0,,1402416438,860568046,/enu,/base_link,,,8.89041257027,28.1731345158,-23.6276383768,,0.00545596070776,0.00916757386468,0.533912709852,0.845472297796
1402416438917830081,,errorv,,0,,1402416438,917572196,base_link,/z_drive,,,0.0,0.0,0.0,,0.0,0.0,0.0,1.0
1402416438917883510,,errorv,,0,,1402416438,917607563,/z_drive,port,,,-0.3,0.3048,0.0,,0.0,0.0,0.0,1.0
1402416438917907100,,errorv,,0,,1402416438,917612995,/z_drive,starboard,,,-0.3,-0.3048,0.0,,0.0,0.0,0.0,1.0
1402416438937697506,,errorv,,0,,1402416438,937518975,base_link,/z_drive,,,0.0,0.0,0.0,,0.0,0.0,0.0,1.0
1402416438937778904,,errorv,,0,,1402416438,937545480,/z_drive,port,,,-0.3,0.3048,0.0,,0.0,0.0,0.0,1.0
1402416438937873357,,errorv,,0,,1402416438,937585416,/z_drive,starboard,,,-0.3,-0.3048,0.0,,0.0,0.0,0.0,1.0
1402416438947155873,,errorv,,0,,1402416438,871558904,/enu,/base_link,,,8.89597328754,28.1605808785,-23.6304410239,,0.00541559861086,0.00925733753022,0.532074164445,0.846629822605
1402416438947185604,,errorv,,0,,1402416438,881558895,/enu,/base_link,,,8.90105178526,28.1489589259,-23.6325657858,,0.00545244382952,0.00919376162756,0.530386918324,0.847688305024
1402416438947205919,,errorv,,0,,1402416438,891541957,/enu,/base_link,,,8.83579278021,28.1068025331,-23.6266891301,,0.00498812956126,0.00449274491274,0.529893008576,0.848037931503
1402416438947239327,,errorv,,0,,1402416438,901525020,/enu,/base_link,,,8.83987335406,28.0947311912,-23.6290926793,,0.00493249964802,0.00455905687869,0.528208957552,0.849087853293
1402416438947968946,,errorv,,0,,1402416439,47790219,/base_link,/gps,,,-0.84,0.0,-0.14,,0.0,0.0,0.0,1.0
1402416438948054880,,errorv,,0,,1402416439,47812719,base_link,imu,,,0.13,0.0,-0.1,,1.0,0.0,0.0,0.0
1402416438957742685,,errorv,,0,,1402416438,957512005,base_link,/z_drive,,,0.0,0.0,0.0,,0.0,0.0,0.0,1.0
1402416438957809200,,errorv,,0,,1402416438,957547733,/z_drive,port,,,-0.3,0.3048,0.0,,0.0,0.0,0.0,1.0
1402416438957832252,,errorv,,0,,1402416438,957557484,/z_drive,starboard,,,-0.3,-0.3048,0.0,,0.0,0.0,0.0,1.0
1402416438977692082,,errorv,,0,,1402416438,977506731,base_link,/z_drive,,,0.0,0.0,0.0,,0.0,0.0,0.0,1.0
1402416438977719369,,errorv,,0,,1402416438,977543098,/z_drive,port,,,-0.3,0.3048,0.0,,0.0,0.0,0.0,1.0
1402416438977791153,,errorv,,0,,1402416438,977549857,/z_drive,starboard,,,-0.3,-0.3048,0.0,,0.0,0.0,0.0,1.0
1402416438987327938,,errorv,,0,,1402416438,912545919,/enu,/base_link,,,8.8442864113,28.0815502104,-23.6318950731,,0.00498412928534,0.00462456309231,0.52630197062,0.850270549645
1402416438987358637,,errorv,,0,,1402416438,922522068,/enu,/base_link,,,8.8485086521,28.0695111553,-23.6344182576,,0.0050140962803,0.00467511038446,0.524567652919,0.851341165275
1402416438987450083,,errorv,,0,,1402416438,932523965,/enu,/base_link,,,8.85237710357,28.0572554664,-23.6366198209,,0.00496545372939,0.00478488298104,0.522841241369,0.85240218529
1402416438987468106,,errorv,,0,,1402416438,943522930,/enu,/base_link,,,8.76629168356,28.036267187,-23.6894004649,,0.00329126862236,-0.00139505660796,0.522570232346,0.852588748245
1402416438997924117,,errorv,,0,,1402416438,997559139,base_link,/z_drive,,,0.0,0.0,0.0,,0.0,0.0,0.0,1.0
1402416438997947790,,errorv,,0,,1402416438,997576231,/z_drive,port,,,-0.3,0.3048,0.0,,0.0,0.0,0.0,1.0
1402416438997983627,,errorv,,0,,1402416438,997580836,/z_drive,starboard,,,-0.3,-0.3048,0.0,,0.0,0.0,0.0,1.0
1402416439017822540,,errorv,,0,,1402416439,17476609,base_link,/z_drive,,,0.0,0.0,0.0,,0.0,0.0,0.0,1.0
1402416439017853824,,errorv,,0,,1402416439,17502972,/z_drive,port,,,-0.3,0.3048,0.0,,0.0,0.0,0.0,1.0
1402416439017879243,,errorv,,0,,1402416439,17512855,/z_drive,starboard,,,-0.3,-0.3048,0.0,,0.0,0.0,0.0,1.0
1402416439027254645,,errorv,,0,,1402416438,953522920,/enu,/base_link,,,8.76882265473,28.0237638067,-23.6919447332,,0.00338935904044,-0.00117216418343,0.520822027617,0.853657749819
1402416439027276918,,errorv,,0,,1402416438,963525056,/enu,/base_link,,,8.77132387166,28.0112367073,-23.6945382393,,0.00334851790844,-0.000970492880198,0.519046994024,0.854738593703
1402416439027425081,,errorv,,0,,1402416438,973546981,/enu,/base_link,,,8.7735927358,27.9985975754,-23.6969690199,,0.00324675518734,-0.00098914746753,0.517236570536,0.855835737901
1402416439027503348,,errorv,,0,,1402416438,984529018,/enu,/base_link,,,8.7469882561,27.9826698856,-23.6523479776,,0.00172241641864,-0.00117794562254,0.515669030942,0.856785326819
1402416439037920696,,errorv,,0,,1402416439,37599684,base_link,/z_drive,,,0.0,0.0,0.0,,0.0,0.0,0.0,1.0
1402416439038048634,,errorv,,0,,1402416439,37703926,/z_drive,port,,,-0.3,0.3048,0.0,,0.0,0.0,0.0,1.0
1402416439038116955,,errorv,,0,,1402416439,37841725,/z_drive,starboard,,,-0.3,-0.3048,0.0,,0.0,0.0,0.0,1.0
1402416439048151438,,errorv,,0,,1402416439,147899386,/base_link,/gps,,,-0.84,0.0,-0.14,,0.0,0.0,0.0,1.0
1402416439048177738,,errorv,,0,,1402416439,147920719,base_link,imu,,,0.13,0.0,-0.1,,1.0,0.0,0.0,0.0
1402416439057700399,,errorv,,0,,1402416439,57465248,base_link,/z_drive,,,0.0,0.0,0.0,,0.0,0.0,0.0,1.0
1402416439057765047,,errorv,,0,,1402416439,57497846,/z_drive,port,,,-0.3,0.3048,0.0,,0.0,0.0,0.0,1.0
1402416439057832639,,errorv,,0,,1402416439,57533758,/z_drive,starboard,,,-0.3,-0.3048,0.0,,0.0,0.0,0.0,1.0
1402416439067188859,,errorv,,0,,1402416438,994499921,/enu,/base_link,,,8.74909885078,27.970399935,-23.6550087096,,0.0017753875272,-0.00120853195355,0.513850913975,0.857876812635
1402416439067281781,,errorv,,0,,1402416439,4494905,/enu,/base_link,,,8.75109101497,27.957898832,-23.6573220588,,0.00183451332162,-0.00099365808445,0.512063225341,0.858945225528
1402416439067305557,,errorv,,0,,1402416439,15486001,/enu,/base_link,,,8.75346124163,27.9443603648,-23.6600640857,,0.00177362164318,-0.000929338763204,0.510077034324,0.860126391672
1402416439067325882,,errorv,,0,,1402416439,25486946,/enu,/base_link,,,8.75547415727,27.9317134188,-23.6621717304,,0.00188389429018,-0.000744898673198,0.50823784532,0.861214368582
1402416439077765125,,errorv,,0,,1402416439,77526444,base_link,/z_drive,,,0.0,0.0,0.0,,0.0,0.0,0.0,1.0
1402416439077795284,,errorv,,0,,1402416439,77555757,/z_drive,port,,,-0.3,0.3048,0.0,,0.0,0.0,0.0,1.0
1402416439077906805,,errorv,,0,,1402416439,77588977,/z_drive,starboard,,,-0.3,-0.3048,0.0,,0.0,0.0,0.0,1.0
1402416439097890428,,errorv,,0,,1402416439,97525937,base_link,/z_drive,,,0.0,0.0,0.0,,0.0,0.0,0.0,1.0
1402416439097921503,,errorv,,0,,1402416439,97561521,/z_drive,port,,,-0.3,0.3048,0.0,,0.0,0.0,0.0,1.0
1402416439097970926,,errorv,,0,,1402416439,97571257,/z_drive,starboard,,,-0.3,-0.3048,0.0,,0.0,0.0,0.0,1.0
1402416439107131073,,errorv,,0,,1402416439,35487890,/enu,/base_link,,,8.74660634761,27.9278805235,-23.6593191987,,0.000901233206465,-0.000729556937649,0.50647898755,0.862251524032
1402416439107305671,,errorv,,0,,1402416439,46487092,/enu,/base_link,,,8.74871709073,27.9142949668,-23.6618857471,,0.00079136845433,-0.000557480162156,0.504465453463,0.863431334394
1402416439107334113,,errorv,,0,,1402416439,56487083,/enu,/base_link,,,8.75052180405,27.9018541897,-23.6641503338,,0.000823700199588,-0.000523210178311,0.502622344456,0.864505538804
1402416439107428479,,errorv,,0,,1402416439,66484928,/enu,/base_link,,,8.75220055894,27.8897278783,-23.6669400988,,0.000854052569817,-0.000317633724183,0.500789474593,0.865568640744
1402416439107450757,,errorv,,0,,1402416439,77497959,/enu,/base_link,,,8.75391448922,27.8759284473,-23.6694313661,,0.000804109517914,-0.000323642115227,0.498791069905,0.866721822297
1402416439117751148,,errorv,,0,,1402416439,117573584,base_link,/z_drive,,,0.0,0.0,0.0,,0.0,0.0,0.0,1.0
1402416439117888441,,errorv,,0,,1402416439,117598820,/z_drive,port,,,-0.3,0.3048,0.0,,0.0,0.0,0.0,1.0
1402416439117912928,,errorv,,0,,1402416439,117608983,/z_drive,starboard,,,-0.3,-0.3048,0.0,,0.0,0.0,0.0,1.0
1402416439137773105,,errorv,,0,,1402416439,137486347,base_link,/z_drive,,,0.0,0.0,0.0,,0.0,0.0,0.0,1.0
1402416439137804643,,errorv,,0,,1402416439,137513455,/z_drive,port,,,-0.3,0.3048,0.0,,0.0,0.0,0.0,1.0
1402416439137890874,,errorv,,0,,1402416439,137524262,/z_drive,starboard,,,-0.3,-0.3048,0.0,,0.0,0.0,0.0,1.0
1402416439147207869,,errorv,,0,,1402416439,87460041,/enu,/base_link,,,8.77042906132,27.8984541293,-23.6958118144,,-0.00067528329805,0.00162724298817,0.496565524834,0.86799745139
1402416439147232445,,errorv,,0,,1402416439,97457885,/enu,/base_link,,,8.7720573263,27.8864036501,-23.6980741231,,-0.000669599087009,0.00154801666486,0.494757508667,0.869029437303
1402416439147255490,,errorv,,0,,1402416439,108469009,/enu,/base_link,,,8.77391777258,27.8731956928,-23.7007255991,,-0.000666233837808,0.00184661963711,0.492765091892,0.870160163614
1402416439148224431,,errorv,,0,,1402416439,248019103,base_link,imu,,,0.13,0.0,-0.1,,1.0,0.0,0.0,0.0
1402416439148309561,,errorv,,0,,1402416439,247996699,/base_link,/gps,,,-0.84,0.0,-0.14,,0.0,0.0,0.0,1.0
1402416439155353213,,errorv,,0,,1402416439,118448972,/enu,/base_link,,,8.77570954493,27.8613389984,-23.7032876343,,-0.000717781291348,0.0020896461143,0.490952740139,0.871183404984
1402416439155373303,,errorv,,0,,1402416439,128448963,/enu,/base_link,,,8.77723372529,27.8492162411,-23.7055242081,,-0.00071416202544,0.00204660565138,0.489127360903,0.872209680177
1402416439157811560,,errorv,,0,,1402416439,157535228,base_link,/z_drive,,,0.0,0.0,0.0,,0.0,0.0,0.0,1.0
1402416439157834654,,errorv,,0,,1402416439,157576747,/z_drive,port,,,-0.3,0.3048,0.0,,0.0,0.0,0.0,1.0
1402416439157952211,,errorv,,0,,1402416439,157588036,/z_drive,starboard,,,-0.3,-0.3048,0.0,,0.0,0.0,0.0,1.0
1402416439177836417,,errorv,,0,,1402416439,177494929,base_link,/z_drive,,,0.0,0.0,0.0,,0.0,0.0,0.0,1.0
1402416439178005931,,errorv,,0,,1402416439,177587496,/z_drive,port,,,-0.3,0.3048,0.0,,0.0,0.0,0.0,1.0
1402416439178034664,,errorv,,0,,1402416439,177618478,/z_drive,starboard,,,-0.3,-0.3048,0.0,,0.0,0.0,0.0,1.0
1402416439195101715,,errorv,,0,,1402416439,139451980,/enu,/base_link,,,8.76110625983,27.8223209777,-23.6529851909,,-0.00123325573386,0.00209691023188,0.48714720198,0.873316486533
1402416439195130494,,errorv,,0,,1402416439,149432897,/enu,/base_link,,,8.76242492008,27.8102160986,-23.6551263063,,-0.0012738043001,0.00209280244532,0.485375087907,0.874302591578
1402416439197722591,,errorv,,0,,1402416439,197494851,base_link,/z_drive,,,0.0,0.0,0.0,,0.0,0.0,0.0,1.0
1402416439197750399,,errorv,,0,,1402416439,197510350,/z_drive,port,,,-0.3,0.3048,0.0,,0.0,0.0,0.0,1.0
1402416439197893657,,errorv,,0,,1402416439,197515018,/z_drive,starboard,,,-0.3,-0.3048,0.0,,0.0,0.0,0.0,1.0
1402416439217721921,,errorv,,0,,1402416439,217465849,base_link,/z_drive,,,0.0,0.0,0.0,,0.0,0.0,0.0,1.0
1402416439217746751,,errorv,,0,,1402416439,217485965,/z_drive,port,,,-0.3,0.3048,0.0,,0.0,0.0,0.0,1.0
1402416439217809353,,errorv,,0,,1402416439,217572513,/z_drive,starboard,,,-0.3,-0.3048,0.0,,0.0,0.0,0.0,1.0
1402416439235113764,,errorv,,0,,1402416439,159451007,/enu,/base_link,,,8.76387724319,27.7981149158,-23.6573488785,,-0.00120190794739,0.00228155951847,0.483596110238,0.875287468245
1402416439235296556,,errorv,,0,,1402416439,169445037,/enu,/base_link,,,8.76495479602,27.7862178826,-23.6597986195,,-0.00123875813439,0.00233293739318,0.481810930169,0.876271219687
1402416439235360232,,errorv,,0,,1402416439,180414915,/enu,/base_link,,,8.7661682042,27.7729268674,-23.6622641052,,-0.00130277270725,0.00238179193626,0.47985015432,0.877346259609
1402416439235384371,,errorv,,0,,1402416439,190419912,/enu,/base_link,,,8.74302866035,27.7441983953,-23.5750224416,,-0.00266144809562,0.00255805599769,0.477844604286,0.87843662674
1402416439237630623,,errorv,,0,,1402416439,237491803,base_link,/z_drive,,,0.0,0.0,0.0,,0.0,0.0,0.0,1.0
1402416439237784014,,errorv,,0,,1402416439,237507785,/z_drive,port,,,-0.3,0.3048,0.0,,0.0,0.0,0.0,1.0
1402416439237807972,,errorv,,0,,1402416439,237547689,/z_drive,starboard,,,-0.3,-0.3048,0.0,,0.0,0.0,0.0,1.0
1402416439248298329,,errorv,,0,,1402416439,348119764,base_link,imu,,,0.13,0.0,-0.1,,1.0,0.0,0.0,0.0
1402416439248328930,,errorv,,0,,1402416439,348111408,/base_link,/gps,,,-0.84,0.0,-0.14,,0.0,0.0,0.0,1.0
1402416439257723985,,errorv,,0,,1402416439,257496926,base_link,/z_drive,,,0.0,0.0,0.0,,0.0,0.0,0.0,1.0
1402416439257822806,,errorv,,0,,1402416439,257527757,/z_drive,port,,,-0.3,0.3048,0.0,,0.0,0.0,0.0,1.0
1402416439257848378,,errorv,,0,,1402416439,257544687,/z_drive,starboard,,,-0.3,-0.3048,0.0,,0.0,0.0,0.0,1.0
1402416439275094685,,errorv,,0,,1402416439,201431989,/enu,/base_link,,,8.74395682683,27.7313315054,-23.5776288981,,-0.00265890701506,0.00273759466552,0.475868438252,0.87950819511
1402416439275196113,,errorv,,0,,1402416439,211400985,/enu,/base_link,,,8.74476899634,27.7193290625,-23.5796178896,,-0.00265644152487,0.00269128783492,0.474142741129,0.88043986809
1402416439275250880,,errorv,,0,,1402416439,221399068,/enu,/base_link,,,8.74558522495,27.7073464432,-23.5816183476,,-0.00278069466668,0.00284743931914,0.472408171498,0.881370909055
1402416439275374369,,errorv,,0,,1402416439,232403039,/enu,/base_link,,,8.74627424101,27.6944147117,-23.5843220782,,-0.00268672150055,0.00283066437173,0.470507756163,0.882387228068
1402416439277755163,,errorv,,0,,1402416439,277549276,base_link,/z_drive,,,0.0,0.0,0.0,,0.0,0.0,0.0,1.0
1402416439277905784,,errorv,,0,,1402416439,277568221,/z_drive,port,,,-0.3,0.3048,0.0,,0.0,0.0,0.0,1.0
1402416439277934638,,errorv,,0,,1402416439,277711552,/z_drive,starboard,,,-0.3,-0.3048,0.0,,0.0,0.0,0.0,1.0
1402416439297683147,,errorv,,0,,1402416439,297501845,base_link,/z_drive,,,0.0,0.0,0.0,,0.0,0.0,0.0,1.0
1402416439297807746,,errorv,,0,,1402416439,297519600,/z_drive,port,,,-0.3,0.3048,0.0,,0.0,0.0,0.0,1.0
1402416439297836864,,errorv,,0,,1402416439,297528355,/z_drive,starboard,,,-0.3,-0.3048,0.0,,0.0,0.0,0.0,1.0
1402416439315351231,,errorv,,0,,1402416439,242373943,/enu,/base_link,,,8.7469555303,27.6823517302,-23.5862077127,,-0.00275867508582,0.00291953296544,0.468774265049,0.883308866969
1402416439315373532,,errorv,,0,,1402416439,253381967,/enu,/base_link,,,8.74766337122,27.6691497663,-23.5885935457,,-0.00293353404171,0.00277636011797,0.466925409784,0.884287480348
1402416439315392643,,errorv,,0,,1402416439,263375997,/enu,/base_link,,,8.74816223096,27.6572435595,-23.5907941403,,-0.002907434518,0.00273972769692,0.465233369901,0.885179050954
1402416439315410106,,errorv,,0,,1402416439,273403882,/enu,/base_link,,,8.72327101931,27.6211825831,-23.523696772,,-0.00320149287665,0.00221983484468,0.46353464447,0.886070232065
1402416439317753668,,errorv,,0,,1402416439,317506917,base_link,/z_drive,,,0.0,0.0,0.0,,0.0,0.0,0.0,1.0
1402416439317782065,,errorv,,0,,1402416439,317524877,/z_drive,port,,,-0.3,0.3048,0.0,,0.0,0.0,0.0,1.0
1402416439317849020,,errorv,,0,,1402416439,317536983,/z_drive,starboard,,,-0.3,-0.3048,0.0,,0.0,0.0,0.0,1.0
1402416439337679058,,errorv,,0,,1402416439,337474335,base_link,/z_drive,,,0.0,0.0,0.0,,0.0,0.0,0.0,1.0
1402416439337699388,,errorv,,0,,1402416439,337493284,/z_drive,port,,,-0.3,0.3048,0.0,,0.0,0.0,0.0,1.0
1402416439337803913,,errorv,,0,,1402416439,337505133,/z_drive,starboard,,,-0.3,-0.3048,0.0,,0.0,0.0,0.0,1.0
1402416439348416529,,errorv,,0,,1402416439,448223899,/base_link,/gps,,,-0.84,0.0,-0.14,,0.0,0.0,0.0,1.0
1402416439348447486,,errorv,,0,,1402416439,448223902,base_link,imu,,,0.13,0.0,-0.1,,1.0,0.0,0.0,0.0
1402416439355177864,,errorv,,0,,1402416439,283364057,/enu,/base_link,,,8.72364421196,27.6093046725,-23.5260748097,,-0.00321583083967,0.00218772648729,0.461829396565,0.886960247561
1402416439355205123,,errorv,,0,,1402416439,294406890,/enu,/base_link,,,8.72372782747,27.5958826313,-23.5281445213,,-0.00320147917415,0.00229358769429,0.459958273408,0.88793179733
1402416439355228413,,errorv,,0,,1402416439,304349899,/enu,/base_link,,,8.72382387388,27.583853036,-23.5301258666,,-0.00321516517558,0.00227072271276,0.45826064114,0.888809142231
1402416439355251208,,errorv,,0,,1402416439,314346075,/enu,/base_link,,,8.72389337989,27.5715180789,-23.5318975313,,-0.0032448211807,0.00231970550299,0.456567891201,0.889679633815
1402416439355313837,,errorv,,0,,1402416439,324345111,/enu,/base_link,,,8.69622528065,27.5394486341,-23.4764435342,,-0.00390391024797,0.00131807175929,0.454851274725,0.89055788136
1402416439357663009,,errorv,,0,,1402416439,357489270,base_link,/z_drive,,,0.0,0.0,0.0,,0.0,0.0,0.0,1.0
1402416439357692448,,errorv,,0,,1402416439,357506788,/z_drive,port,,,-0.3,0.3048,0.0,,0.0,0.0,0.0,1.0
1402416439357738581,,errorv,,0,,1402416439,357516214,/z_drive,starboard,,,-0.3,-0.3048,0.0,,0.0,0.0,0.0,1.0
1402416439377724945,,errorv,,0,,1402416439,377466725,base_link,/z_drive,,,0.0,0.0,0.0,,0.0,0.0,0.0,1.0
1402416439377792116,,errorv,,0,,1402416439,377524358,/z_drive,port,,,-0.3,0.3048,0.0,,0.0,0.0,0.0,1.0
1402416439377818964,,errorv,,0,,1402416439,377532628,/z_drive,starboard,,,-0.3,-0.3048,0.0,,0.0,0.0,0.0,1.0
1402416439395113801,,errorv,,0,,1402416439,335342884,/enu,/base_link,,,8.69589484333,27.5260932075,-23.4787657431,,-0.00389389377626,0.0013196657241,0.453028652843,0.891486475375
1402416439395158172,,errorv,,0,,1402416439,345319032,/enu,/base_link,,,8.69556393018,27.5138536858,-23.4807829769,,-0.00380135042057,0.00137594096146,0.45135719379,0.892334208767
1402416439395226651,,errorv,,0,,1402416439,355318069,/enu,/base_link,,,8.69524352837,27.5016362229,-23.4829461708,,-0.00375863708188,0.00141637934751,0.449695986422,0.893172652018
1402416439397896522,,errorv,,0,,1402416439,397754153,base_link,/z_drive,,,0.0,0.0,0.0,,0.0,0.0,0.0,1.0
1402416439398123394,,errorv,,0,,1402416439,397773248,/z_drive,port,,,-0.3,0.3048,0.0,,0.0,0.0,0.0,1.0
1402416439398143799,,errorv,,0,,1402416439,397903947,/z_drive,starboard,,,-0.3,-0.3048,0.0,,0.0,0.0,0.0,1.0
1402416439403235924,,errorv,,0,,1402416439,366317987,/enu,/base_link,,,8.69473373243,27.4881502321,-23.4852047825,,-0.00372856994904,0.00147807744099,0.447877925791,0.894085721082
1402416439403334408,,errorv,,0,,1402416439,376317977,/enu,/base_link,,,8.69427103658,27.4759645022,-23.48732523,,-0.00381177031727,0.00147403962322,0.446233151197,0.894907409952
1402416439417744672,,errorv,,0,,1402416439,417481391,base_link,/z_drive,,,0.0,0.0,0.0,,0.0,0.0,0.0,1.0
1402416439417766547,,errorv,,0,,1402416439,417500465,/z_drive,port,,,-0.3,0.3048,0.0,,0.0,0.0,0.0,1.0
1402416439417780187,,errorv,,0,,1402416439,417510443,/z_drive,starboard,,,-0.3,-0.3048,0.0,,0.0,0.0,0.0,1.0
1402416439437635619,,errorv,,0,,1402416439,437448162,base_link,/z_drive,,,0.0,0.0,0.0,,0.0,0.0,0.0,1.0
1402416439437667810,,errorv,,0,,1402416439,437465505,/z_drive,port,,,-0.3,0.3048,0.0,,0.0,0.0,0.0,1.0
1402416439437735590,,errorv,,0,,1402416439,437474993,/z_drive,starboard,,,-0.3,-0.3048,0.0,,0.0,0.0,0.0,1.0
1402416439443072627,,errorv,,0,,1402416439,387290000,/enu,/base_link,,,8.59838744858,27.4342023597,-23.5515566664,,-0.00314531211196,-0.00656563507322,0.44556135556,0.895221803733
1402416439443097149,,errorv,,0,,1402416439,397291898,/enu,/base_link,,,8.59603745176,27.421229164,-23.5540591727,,-0.00322490582749,-0.00655376428068,0.443892242601,0.896050403222
1402416439448519421,,errorv,,0,,1402416439,548323610,/base_link,/gps,,,-0.84,0.0,-0.14,,0.0,0.0,0.0,1.0
1402416439448629703,,errorv,,0,,1402416439,548324903,base_link,imu,,,0.13,0.0,-0.1,,1.0,0.0,0.0,0.0
1402416439457717201,,errorv,,0,,1402416439,457483430,base_link,/z_drive,,,0.0,0.0,0.0,,0.0,0.0,0.0,1.0
1402416439457740399,,errorv,,0,,1402416439,457502211,/z_drive,port,,,-0.3,0.3048,0.0,,0.0,0.0,0.0,1.0
1402416439457815557,,errorv,,0,,1402416439,457512184,/z_drive,starboard,,,-0.3,-0.3048,0.0,,0.0,0.0,0.0,1.0
1402416439477704251,,errorv,,0,,1402416439,477471930,base_link,/z_drive,,,0.0,0.0,0.0,,0.0,0.0,0.0,1.0
1402416439477733547,,errorv,,0,,1402416439,477491199,/z_drive,port,,,-0.3,0.3048,0.0,,0.0,0.0,0.0,1.0
1402416439477788600,,errorv,,0,,1402416439,477500579,/z_drive,starboard,,,-0.3,-0.3048,0.0,,0.0,0.0,0.0,1.0
