rosbagTimestamp,control_method,x_current,x_desired,y_current,y_desired,z_current,z_desired,x_velocity_current,x_velocity_desired,y_velocity_current,y_velocity_desired,z_velocity_current,z_velocity_desired,yaw_current,yaw_desired,yaw_velocity_current,yaw_velocity_desired,roll_current,roll_desired,roll_velocity_current,roll_velocity_desired,pitch_current,pitch_desired,pitch_velocity_current,pitch_velocity_desired,required_force_x,required_force_y,required_moment_z,resultant_force_x,resultant_force_y,resultant_moment_z,current_port_servo_angle,current_port_thruster_force,current_starboard_servo_angle,current_starboard_thruster_force,estimated_port_servo_angle,estimated_port_thruster_force,estimated_starboard_servo_angle,estimated_starboard_thruster_force,cost_value,step,user_defined_1,user_defined_2,user_defined_3,user_defined_4,user_defined_5
1402756757461099922,3,-11.0765280665,-7.1377884924,7.48303064139,2.38304939926,9.5237961021,-3.84635974695,-0.0351570498381,0.0,0.0561055503774,0.0,0.213299061075,0.0,-2.94092529558,0.0,-0.0050659753775,0.0,0.00126600341188,0.0,0.000542460829912,0.0,0.0732243672871,0.0,-0.00820487880678,0.0,0.0,0.0,0.0,-14.1421356237,-127.279220614,130.932134245,0.777150956792,0.0,-0.783288391429,0.0,0.785398163397,-100.0,-0.785398163397,80.0,16763611.889,0.0,0.0,0.0,0.0,0.0,0.0
1402756757480748475,3,-11.0876066586,-7.1377884924,7.49744310347,2.38304939926,9.55958468769,-3.84635974695,-0.0441450995006,0.0,0.0656739186953,0.0,0.213294546501,0.0,-2.94088030874,0.0,-0.00363707295678,0.0,0.00229890383982,0.0,-0.00281630895164,0.0,0.0739209298137,0.0,-0.00776263468221,0.0,0.0,0.0,0.0,-14.1421356237,-127.279220614,130.932134245,0.777150956792,0.0,-0.783288391429,0.0,0.785398163397,-100.0,-0.785398163397,80.0,16763611.889,0.0,0.0,0.0,0.0,0.0,0.0
1402756757500694087,3,-11.0876066586,-7.1377884924,7.49744310347,2.38304939926,9.55958468769,-3.84635974695,-0.0441450995006,0.0,0.0656739186953,0.0,0.213294546501,0.0,-2.94088030874,0.0,-0.00363707295678,0.0,0.00229890383982,0.0,-0.00281630895164,0.0,0.0739209298137,0.0,-0.00776263468221,0.0,0.0,0.0,0.0,-14.1421356237,-127.279220614,130.932134245,0.777150956792,0.0,-0.783288391429,0.0,0.785398163397,-100.0,-0.785398163397,80.0,16763611.889,0.0,0.0,0.0,0.0,0.0,0.0
1402756757521172140,3,-11.0884939403,-7.1377884924,7.49872904848,2.38304939926,9.56423588694,-3.84635974695,-0.0440182680189,0.0,0.066439916415,0.0,0.213582541778,0.0,-2.9408289016,0.0,-0.00337868450818,0.0,0.00232432111875,0.0,-0.00310841472767,0.0,0.0739978819905,0.0,-0.00308799178303,0.0,0.0,0.0,0.0,-14.1421356237,-127.279220614,130.932134245,0.777150956792,0.0,-0.783288391429,0.0,0.785398163397,-100.0,-0.785398163397,80.0,16763611.889,0.0,0.0,0.0,0.0,0.0,0.0
1402756757542318230,3,-11.0884939403,-7.1377884924,7.49872904848,2.38304939926,9.56423588694,-3.84635974695,-0.0440182680189,0.0,0.066439916415,0.0,0.213582541778,0.0,-2.9408289016,0.0,-0.00337868450818,0.0,0.00232432111875,0.0,-0.00310841472767,0.0,0.0739978819905,0.0,-0.00308799178303,0.0,0.0,0.0,0.0,-14.1421356237,-127.279220614,130.932134245,0.777150956792,0.0,-0.783288391429,0.0,0.785398163397,-100.0,-0.785398163397,80.0,16763611.889,0.0,0.0,0.0,0.0,0.0,0.0
1402756757560674577,3,-11.0903314185,-7.1377884924,7.50141108252,2.38304939926,9.57283896071,-3.84635974695,-0.0454207159205,0.0,0.0682122939328,0.0,0.216112598535,0.0,-2.94078787562,0.0,-0.000556663413501,0.0,0.00252380751441,0.0,-0.0022039715841,0.0,0.0741619336253,0.0,-0.0041374001516,0.0,0.0,0.0,0.0,-14.1421356237,-127.279220614,130.932134245,0.777150956792,0.0,-0.783288391429,0.0,0.785398163397,-100.0,-0.785398163397,80.0,16763611.889,0.0,0.0,0.0,0.0,0.0,0.0
1402756757580760025,3,-11.0903314185,-7.1377884924,7.50141108252,2.38304939926,9.57283896071,-3.84635974695,-0.0454207159205,0.0,0.0682122939328,0.0,0.216112598535,0.0,-2.94078787562,0.0,-0.000556663413501,0.0,0.00252380751441,0.0,-0.0022039715841,0.0,0.0741619336253,0.0,-0.0041374001516,0.0,0.0,0.0,0.0,-14.1421356237,-127.279220614,130.932134245,0.777150956792,0.0,-0.783288391429,0.0,0.785398163397,-100.0,-0.785398163397,80.0,16763611.889,0.0,0.0,0.0,0.0,0.0,0.0
1402756757601124243,3,-11.1010324894,-7.1377884924,7.51396441497,2.38304939926,9.6271746575,-3.84635974695,-0.0493384533861,0.0,0.0636735262989,0.0,0.220209325926,0.0,-2.94075306707,0.0,-0.0028934288087,0.0,0.00200195224687,0.0,6.50896062108e-05,0.0,0.0746792543619,0.0,-0.000524696674096,0.0,0.0,0.0,0.0,-14.1421356237,-127.279220614,130.932134245,0.777150956792,0.0,-0.783288391429,0.0,0.785398163397,-100.0,-0.785398163397,80.0,16763611.889,0.0,0.0,0.0,0.0,0.0,0.0
1402756757621518397,3,-11.1010324894,-7.1377884924,7.51396441497,2.38304939926,9.6271746575,-3.84635974695,-0.0493384533861,0.0,0.0636735262989,0.0,0.220209325926,0.0,-2.94075306707,0.0,-0.0028934288087,0.0,0.00200195224687,0.0,6.50896062108e-05,0.0,0.0746792543619,0.0,-0.000524696674096,0.0,0.0,0.0,0.0,-14.1421356237,-127.279220614,130.932134245,0.777150956792,0.0,-0.783288391429,0.0,0.785398163397,-100.0,-0.785398163397,80.0,16763611.889,0.0,0.0,0.0,0.0,0.0,0.0
1402756757640684540,3,-11.098554144,-7.1377884924,7.51987719826,2.38304939926,9.65828058828,-3.84635974695,-0.0342309732711,0.0,0.0594569300732,0.0,0.222056478303,0.0,-2.94092792917,0.0,-0.00817280936194,0.0,0.00130975202335,0.0,-0.000552819880091,0.0,0.0731623109762,0.0,0.00554385417805,0.0,0.0,0.0,0.0,-14.1421356237,-127.279220614,130.932134245,0.777150956792,0.0,-0.783288391429,0.0,0.785398163397,-100.0,-0.785398163397,80.0,16763611.889,0.0,0.0,0.0,0.0,0.0,0.0
1402756757662352519,3,-11.098554144,-7.1377884924,7.51987719826,2.38304939926,9.65828058828,-3.84635974695,-0.0342309732711,0.0,0.0594569300732,0.0,0.222056478303,0.0,-2.94092792917,0.0,-0.00817280936194,0.0,0.00130975202335,0.0,-0.000552819880091,0.0,0.0731623109762,0.0,0.00554385417805,0.0,0.0,0.0,0.0,-14.1421356237,-127.279220614,130.932134245,0.777150956792,0.0,-0.783288391429,0.0,0.785398163397,-100.0,-0.785398163397,80.0,16763611.889,0.0,0.0,0.0,0.0,0.0,0.0
1402756757681388370,3,-11.106675387,-7.1377884924,7.53317662637,2.38304939926,9.70946690095,-3.84635974695,-0.0352206907754,0.0,0.0596097901604,0.0,0.227155443491,0.0,-2.94092487391,0.0,-0.00307330416237,0.0,0.000973783074958,0.0,0.00574592876634,0.0,0.0729370870247,0.0,0.0132567841183,0.0,0.0,0.0,0.0,-14.1421356237,-127.279220614,130.932134245,0.777150956792,0.0,-0.783288391429,0.0,0.785398163397,-100.0,-0.785398163397,80.0,16763611.889,0.0,0.0,0.0,0.0,0.0,0.0
1402756757700633349,3,-11.106675387,-7.1377884924,7.53317662637,2.38304939926,9.70946690095,-3.84635974695,-0.0352206907754,0.0,0.0596097901604,0.0,0.227155443491,0.0,-2.94092487391,0.0,-0.00307330416237,0.0,0.000973783074958,0.0,0.00574592876634,0.0,0.0729370870247,0.0,0.0132567841183,0.0,0.0,0.0,0.0,-14.1421356237,-127.279220614,130.932134245,0.777150956792,0.0,-0.783288391429,0.0,0.785398163397,-100.0,-0.785398163397,80.0,16763611.889,0.0,0.0,0.0,0.0,0.0,0.0
1402756757720509282,3,-11.1080390269,-7.1377884924,7.53919119307,2.38304939926,9.72607970429,-3.84635974695,-0.0317091697918,0.0,0.0608242339153,0.0,0.22787977012,0.0,-2.94095161777,0.0,-0.00626722611607,0.0,0.00101063742452,0.0,0.00348069820388,0.0,0.0721641759491,0.0,0.0105385531031,0.0,0.0,0.0,0.0,-14.1421356237,-127.279220614,130.932134245,0.777150956792,0.0,-0.783288391429,0.0,0.785398163397,-100.0,-0.785398163397,80.0,16763611.889,0.0,0.0,0.0,0.0,0.0,0.0
1402756757740751926,3,-11.1080390269,-7.1377884924,7.53919119307,2.38304939926,9.72607970429,-3.84635974695,-0.0317091697918,0.0,0.0608242339153,0.0,0.22787977012,0.0,-2.94095161777,0.0,-0.00626722611607,0.0,0.00101063742452,0.0,0.00348069820388,0.0,0.0721641759491,0.0,0.0105385531031,0.0,0.0,0.0,0.0,-14.1421356237,-127.279220614,130.932134245,0.777150956792,0.0,-0.783288391429,0.0,0.785398163397,-100.0,-0.785398163397,80.0,16763611.889,0.0,0.0,0.0,0.0,0.0,0.0
1402756757761142108,3,-11.1175312741,-7.1377884924,7.54957946065,2.38304939926,9.76398021339,-3.84635974695,-0.0387783761582,0.0,0.0607120782919,0.0,0.230362202361,0.0,-2.94095076566,0.0,-0.00388366419287,0.0,0.000934912521857,0.0,-0.00273599940989,0.0,0.0724206804502,0.0,0.0146872395458,0.0,0.0,0.0,0.0,-14.1421356237,-127.279220614,130.932134245,0.777150956792,0.0,-0.783288391429,0.0,0.785398163397,-100.0,-0.785398163397,80.0,16763611.889,0.0,0.0,0.0,0.0,0.0,0.0
1402756757780770445,3,-11.1175312741,-7.1377884924,7.54957946065,2.38304939926,9.76398021339,-3.84635974695,-0.0387783761582,0.0,0.0607120782919,0.0,0.230362202361,0.0,-2.94095076566,0.0,-0.00388366419287,0.0,0.000934912521857,0.0,-0.00273599940989,0.0,0.0724206804502,0.0,0.0146872395458,0.0,0.0,0.0,0.0,-14.1421356237,-127.279220614,130.932134245,0.777150956792,0.0,-0.783288391429,0.0,0.785398163397,-100.0,-0.785398163397,80.0,16763611.889,0.0,0.0,0.0,0.0,0.0,0.0
1402756757800666654,3,-11.1248442967,-7.1377884924,7.56235244969,2.38304939926,9.80071917542,-3.84635974695,-0.0406631122174,0.0,0.0690572722866,0.0,0.231742599688,0.0,-2.94079363645,0.0,0.0020296268656,0.0,0.00175905462916,0.0,-0.012075106713,0.0,0.071887650353,0.0,0.0189939781723,0.0,0.0,0.0,0.0,-14.1421356237,-127.279220614,130.932134245,0.777150956792,0.0,-0.783288391429,0.0,0.785398163397,-100.0,-0.785398163397,80.0,16763611.889,0.0,0.0,0.0,0.0,0.0,0.0
1402756757820783242,3,-11.1248442967,-7.1377884924,7.56235244969,2.38304939926,9.80071917542,-3.84635974695,-0.0406631122174,0.0,0.0690572722866,0.0,0.231742599688,0.0,-2.94079363645,0.0,0.0020296268656,0.0,0.00175905462916,0.0,-0.012075106713,0.0,0.071887650353,0.0,0.0189939781723,0.0,0.0,0.0,0.0,-14.1421356237,-127.279220614,130.932134245,0.777150956792,0.0,-0.783288391429,0.0,0.785398163397,-100.0,-0.785398163397,80.0,16763611.889,0.0,0.0,0.0,0.0,0.0,0.0
1402756757841529658,3,-11.1236983674,-7.1377884924,7.56004093251,2.38304939926,9.82217367175,-3.84635974695,-0.032803381666,0.0,0.0492405252001,0.0,0.231756218231,0.0,-2.94096517803,0.0,-0.00222184995953,0.0,-0.000172180951299,0.0,-0.00402238355032,0.0,0.0710956238193,0.0,0.0198397849073,0.0,0.0,0.0,0.0,-14.1421356237,-127.279220614,130.932134245,0.777150956792,0.0,-0.783288391429,0.0,0.785398163397,-100.0,-0.785398163397,80.0,16763611.889,0.0,0.0,0.0,0.0,0.0,0.0
1402756757860624300,3,-11.1236983674,-7.1377884924,7.56004093251,2.38304939926,9.82217367175,-3.84635974695,-0.032803381666,0.0,0.0492405252001,0.0,0.231756218231,0.0,-2.94096517803,0.0,-0.00222184995953,0.0,-0.000172180951299,0.0,-0.00402238355032,0.0,0.0710956238193,0.0,0.0198397849073,0.0,0.0,0.0,0.0,-14.1421356237,-127.279220614,130.932134245,0.777150956792,0.0,-0.783288391429,0.0,0.785398163397,-100.0,-0.785398163397,80.0,16763611.889,0.0,0.0,0.0,0.0,0.0,0.0
1402756757880999434,3,-11.1248915913,-7.1377884924,7.56191475133,2.38304939926,9.83153389904,-3.84635974695,-0.0330409985547,0.0,0.0487423192071,0.0,0.233517499195,0.0,-2.94100950403,0.0,-0.00164233166224,0.0,-0.000138047199026,0.0,-0.00116347997271,0.0,0.0705567230606,0.0,0.0155744881377,0.0,0.0,0.0,0.0,-14.1421356237,-127.279220614,130.932134245,0.777150956792,0.0,-0.783288391429,0.0,0.785398163397,-100.0,-0.785398163397,80.0,16763611.889,0.0,0.0,0.0,0.0,0.0,0.0
1402756757900566799,3,-11.1248915913,-7.1377884924,7.56191475133,2.38304939926,9.83153389904,-3.84635974695,-0.0330409985547,0.0,0.0487423192071,0.0,0.233517499195,0.0,-2.94100950403,0.0,-0.00164233166224,0.0,-0.000138047199026,0.0,-0.00116347997271,0.0,0.0705567230606,0.0,0.0155744881377,0.0,0.0,0.0,0.0,-14.1421356237,-127.279220614,130.932134245,0.777150956792,0.0,-0.783288391429,0.0,0.785398163397,-100.0,-0.785398163397,80.0,16763611.889,0.0,0.0,0.0,0.0,0.0,0.0
1402756757921128106,3,-11.133314769,-7.1377884924,7.57158311202,2.38304939926,9.83820312277,-3.84635974695,-0.0465654866579,0.0,0.0657587217171,0.0,0.231669469518,0.0,-2.94077929446,0.0,0.000457559834689,0.0,0.00186664582902,0.0,-0.00508353491816,0.0,0.0707117245061,0.0,0.012974398778,0.0,0.0,0.0,0.0,-14.1421356237,-127.279220614,130.932134245,0.777150956792,0.0,-0.783288391429,0.0,0.785398163397,-100.0,-0.785398163397,80.0,16763611.889,0.0,0.0,0.0,0.0,0.0,0.0
1402756757940748113,3,-11.133314769,-7.1377884924,7.57158311202,2.38304939926,9.83820312277,-3.84635974695,-0.0465654866579,0.0,0.0657587217171,0.0,0.231669469518,0.0,-2.94077929446,0.0,0.000457559834689,0.0,0.00186664582902,0.0,-0.00508353491816,0.0,0.0707117245061,0.0,0.012974398778,0.0,0.0,0.0,0.0,-14.1421356237,-127.279220614,130.932134245,0.777150956792,0.0,-0.783288391429,0.0,0.785398163397,-100.0,-0.785398163397,80.0,16763611.889,0.0,0.0,0.0,0.0,0.0,0.0
1402756757960742620,3,-11.1317714861,-7.1377884924,7.57288890502,2.38304939926,9.85961286488,-3.84635974695,-0.0400538106122,0.0,0.0587530457126,0.0,0.232520135386,0.0,-2.94091497194,0.0,-0.00244195573341,0.0,0.00118524292416,0.0,0.000959641200005,0.0,0.0696952331661,0.0,0.0126217221903,0.0,0.0,0.0,0.0,-14.1421356237,-127.279220614,130.932134245,0.777150956792,-100.0,-0.783288391429,80.0,0.785398163397,-100.0,-0.785398163397,80.0,16763611.889,0.0,0.0,0.0,0.0,0.0,0.0
1402756757981298391,3,-11.1317714861,-7.1377884924,7.57288890502,2.38304939926,9.85961286488,-3.84635974695,-0.0400538106122,0.0,0.0587530457126,0.0,0.232520135386,0.0,-2.94091497194,0.0,-0.00244195573341,0.0,0.00118524292416,0.0,0.000959641200005,0.0,0.0696952331661,0.0,0.0126217221903,0.0,0.0,0.0,0.0,-14.1421356237,-127.279220614,130.932134245,0.777150956792,-100.0,-0.783288391429,80.0,0.785398163397,-100.0,-0.785398163397,80.0,16763611.889,0.0,0.0,0.0,0.0,0.0,0.0
1402756758001070524,3,-11.1276708793,-7.1377884924,7.57265097458,2.38304939926,9.84768974494,-3.84635974695,-0.0357226738133,0.0,0.0662452278235,0.0,0.229058182578,0.0,-2.94087145068,0.0,-0.00815927020426,0.0,0.00195574825541,0.0,-0.00706312020343,0.0,0.0686006821571,0.0,0.00680715737989,0.0,0.0,0.0,0.0,-14.1421356237,-127.279220614,130.932134245,0.777150956792,-100.0,-0.783288391429,80.0,0.785398163397,-100.0,-0.785398163397,80.0,16763611.889,0.0,0.0,0.0,0.0,0.0,0.0
1402756758020532740,3,-11.1276708793,-7.1377884924,7.57265097458,2.38304939926,9.84768974494,-3.84635974695,-0.0357226738133,0.0,0.0662452278235,0.0,0.229058182578,0.0,-2.94087145068,0.0,-0.00815927020426,0.0,0.00195574825541,0.0,-0.00706312020343,0.0,0.0686006821571,0.0,0.00680715737989,0.0,0.0,0.0,0.0,-14.1421356237,-127.279220614,130.932134245,0.777150956792,-100.0,-0.783288391429,80.0,0.785398163397,-100.0,-0.785398163397,80.0,16763611.889,0.0,0.0,0.0,0.0,0.0,0.0
1402756758040664712,3,-11.1290487471,-7.1377884924,7.57525728969,2.38304939926,9.85680666475,-3.84635974695,-0.0362630035547,0.0,0.0663799593279,0.0,0.228500219515,0.0,-2.94073098147,0.0,0.000189958141902,0.0,0.00180389839357,0.0,0.00291901545391,0.0,0.0683013222535,0.0,0.000400704314051,0.0,0.0,0.0,0.0,-14.1421356237,-127.279220614,130.932134245,0.777150956792,-100.0,-0.783288391429,80.0,0.785398163397,-100.0,-0.785398163397,80.0,16763611.889,0.0,0.0,0.0,0.0,0.0,0.0
1402756758061847860,3,-11.1290487471,-7.1377884924,7.57525728969,2.38304939926,9.85680666475,-3.84635974695,-0.0362630035547,0.0,0.0663799593279,0.0,0.228500219515,0.0,-2.94073098147,0.0,0.000189958141902,0.0,0.00180389839357,0.0,0.00291901545391,0.0,0.0683013222535,0.0,0.000400704314051,0.0,0.0,0.0,0.0,-14.1421356237,-127.279220614,130.932134245,0.777150956792,-100.0,-0.783288391429,80.0,0.785398163397,-100.0,-0.785398163397,80.0,16763611.889,0.0,0.0,0.0,0.0,0.0,0.0
1402756758080727643,3,-11.1317419042,-7.1377884924,7.57447960538,2.38304939926,9.86412440911,-3.84635974695,-0.0410828099571,0.0,0.0609267173069,0.0,0.226127279085,0.0,-2.94076263509,0.0,-0.00181979394447,0.0,0.00107312389071,0.0,0.00182642367407,0.0,0.0687548263669,0.0,0.00479711282284,0.0,0.0,0.0,0.0,-14.1421356237,-127.279220614,130.932134245,0.777150956792,-100.0,-0.783288391429,80.0,0.785398163397,-100.0,-0.785398163397,80.0,16763611.889,0.0,0.0,0.0,0.0,0.0,0.0
1402756758100536197,3,-11.1317419042,-7.1377884924,7.57447960538,2.38304939926,9.86412440911,-3.84635974695,-0.0410828099571,0.0,0.0609267173069,0.0,0.226127279085,0.0,-2.94076263509,0.0,-0.00181979394447,0.0,0.00107312389071,0.0,0.00182642367407,0.0,0.0687548263669,0.0,0.00479711282284,0.0,0.0,0.0,0.0,-14.1421356237,-127.279220614,130.932134245,0.777150956792,-100.0,-0.781754167872,80.0,0.785398163397,-100.0,-0.785398163397,80.0,16763611.889,0.0,0.0,0.0,0.0,0.0,0.0
1402756758120958543,3,-11.1331241072,-7.1377884924,7.5782060348,2.38304939926,9.86200566826,-3.84635974695,-0.0432127514458,0.0,0.0675626507953,0.0,0.222982011413,0.0,-2.9406181643,0.0,-0.0031976049625,0.0,0.0016343087932,0.0,0.0165875947636,0.0,0.0688214159992,0.0,0.000473150840784,0.0,0.0,0.0,0.0,-14.1421356237,-127.279220614,130.932134245,0.777150956792,-100.0,-0.778685482341,80.0,0.785398163397,-100.0,-0.785398163397,80.0,16763611.889,0.0,0.0,0.0,0.0,0.0,0.0
1402756758140660756,3,-11.1331241072,-7.1377884924,7.5782060348,2.38304939926,9.86200566826,-3.84635974695,-0.0432127514458,0.0,0.0675626507953,0.0,0.222982011413,0.0,-2.9406181643,0.0,-0.0031976049625,0.0,0.0016343087932,0.0,0.0165875947636,0.0,0.0688214159992,0.0,0.000473150840784,0.0,0.0,0.0,0.0,-14.1421356237,-127.279220614,130.932134245,0.777150956792,-100.0,-0.778685482341,80.0,0.785398163397,-100.0,-0.785398163397,80.0,16763611.889,0.0,0.0,0.0,0.0,0.0,0.0
1402756758161317652,3,-11.1332672403,-7.1377884924,7.57935957901,2.38304939926,9.89493616636,-3.84635974695,-0.0333390592924,0.0,0.0314099633912,0.0,0.216339753991,0.0,-2.94099800851,0.0,-0.0198686147828,0.0,-0.00123942346281,0.0,0.0237172143777,0.0,0.0686585034092,0.0,0.016715826824,0.0,0.0,0.0,0.0,-14.1421356237,-127.279220614,130.932134245,0.777150956792,-100.0,-0.778685482341,80.0,0.785398163397,-100.0,-0.785398163397,80.0,16763611.889,0.0,0.0,0.0,0.0,0.0,0.0
1402756758180608332,3,-11.1332672403,-7.1377884924,7.57935957901,2.38304939926,9.89493616636,-3.84635974695,-0.0333390592924,0.0,0.0314099633912,0.0,0.216339753991,0.0,-2.94099800851,0.0,-0.0198686147828,0.0,-0.00123942346281,0.0,0.0237172143777,0.0,0.0686585034092,0.0,0.016715826824,0.0,0.0,0.0,0.0,-14.1421356237,-127.279220614,130.932134245,0.777150956792,-100.0,-0.778685482341,80.0,0.785398163397,-100.0,-0.785398163397,80.0,16763611.889,0.0,0.0,0.0,0.0,0.0,0.0
1402756758202164702,3,-11.1348780069,-7.1377884924,7.5825064567,2.38304939926,9.88324451117,-3.84635974695,-0.0348675003305,0.0,0.0413131108566,0.0,0.206936507689,0.0,-2.94168638525,0.0,-0.0369352579129,0.0,0.00475526478837,0.0,-0.0488621762147,0.0,0.0691575095037,0.0,-0.0137490793607,0.0,0.0,0.0,0.0,-14.1421356237,-127.279220614,130.932134245,0.777150956792,-100.0,-0.778685482341,80.0,0.785398163397,-100.0,-0.785398163397,80.0,16763611.889,0.0,0.0,0.0,0.0,0.0,0.0
1402756758220344666,3,-11.1348780069,-7.1377884924,7.5825064567,2.38304939926,9.88324451117,-3.84635974695,-0.0348675003305,0.0,0.0413131108566,0.0,0.206936507689,0.0,-2.94168638525,0.0,-0.0369352579129,0.0,0.00475526478837,0.0,-0.0488621762147,0.0,0.0691575095037,0.0,-0.0137490793607,0.0,0.0,0.0,0.0,-14.1421356237,-127.279220614,130.932134245,0.777150956792,-100.0,-0.778685482341,80.0,0.785398163397,-100.0,-0.785398163397,80.0,16763611.889,0.0,0.0,0.0,0.0,0.0,0.0
1402756758240594838,3,-11.1405456567,-7.1377884924,7.58219816774,2.38304939926,9.90565689304,-3.84635974695,-0.0359892247289,0.0,0.0176980256064,0.0,0.21189355417,0.0,-2.94405177992,0.0,-0.0629928248701,0.0,0.00598398886358,0.0,-0.1676834533,0.0,0.0704231517702,0.0,-0.0317005786584,0.0,0.0,0.0,0.0,-14.1421356237,-127.279220614,130.932134245,0.775616494817,-100.0,-0.778685482341,80.0,0.785398163397,-100.0,-0.785398163397,80.0,16763611.889,0.0,0.0,0.0,0.0,0.0,0.0
1402756758261108089,3,-11.1405456567,-7.1377884924,7.58219816774,2.38304939926,9.90565689304,-3.84635974695,-0.0359892247289,0.0,0.0176980256064,0.0,0.21189355417,0.0,-2.94405177992,0.0,-0.0629928248701,0.0,0.00598398886358,0.0,-0.1676834533,0.0,0.0704231517702,0.0,-0.0317005786584,0.0,0.0,0.0,0.0,-14.1421356237,-127.279220614,130.932134245,0.775616494817,-100.0,-0.780219705897,80.0,0.785398163397,-100.0,-0.785398163397,80.0,16763611.889,0.0,0.0,0.0,0.0,0.0,0.0
1402756758280946129,3,-11.1421098037,-7.1377884924,7.58240301466,2.38304939926,9.91403121576,-3.84635974695,-0.0294776552621,0.0,-0.00236541851203,0.0,0.210802650863,0.0,-2.94608465958,0.0,-0.0696276314999,0.0,0.0102039252339,0.0,-0.0813328379493,0.0,0.0705505844847,0.0,-0.009869561351,0.0,0.0,0.0,0.0,-14.1421356237,-127.279220614,130.932134245,0.775616494817,-100.0,-0.780219705897,80.0,0.785398163397,-100.0,-0.785398163397,80.0,16763611.889,0.0,0.0,0.0,0.0,0.0,0.0
1402756758300685443,3,-11.1421098037,-7.1377884924,7.58240301466,2.38304939926,9.91403121576,-3.84635974695,-0.0294776552621,0.0,-0.00236541851203,0.0,0.210802650863,0.0,-2.94608465958,0.0,-0.0696276314999,0.0,0.0102039252339,0.0,-0.0813328379493,0.0,0.0705505844847,0.0,-0.009869561351,0.0,0.0,0.0,0.0,-14.1421356237,-127.279220614,130.932134245,0.775616494817,-100.0,-0.780219705897,80.0,0.785398163397,-100.0,-0.785398163397,80.0,16763611.889,0.0,0.0,0.0,0.0,0.0,0.0
1402756758321136465,3,-11.1453725631,-7.1377884924,7.58509966074,2.38304939926,9.93549827658,-3.84635974695,-0.0309541718055,0.0,-0.0132127065955,0.0,0.219092684596,0.0,-2.94969000845,0.0,-0.0918017423582,0.0,0.0173345898433,0.0,-0.113822723776,0.0,0.0704256320974,0.0,-0.0213063041732,0.0,0.0,0.0,0.0,-14.1421356237,-127.279220614,130.932134245,0.775616494817,-100.0,-0.780219705897,80.0,0.785398163397,-100.0,-0.785398163397,80.0,16763611.889,0.0,0.0,0.0,0.0,0.0,0.0
1402756758340446715,3,-11.1453725631,-7.1377884924,7.58509966074,2.38304939926,9.93549827658,-3.84635974695,-0.0309541718055,0.0,-0.0132127065955,0.0,0.219092684596,0.0,-2.94969000845,0.0,-0.0918017423582,0.0,0.0173345898433,0.0,-0.113822723776,0.0,0.0704256320974,0.0,-0.0213063041732,0.0,0.0,0.0,0.0,-14.1421356237,-127.279220614,130.932134245,0.77408227126,-100.0,-0.778685482341,80.0,0.785398163397,-100.0,-0.785398163397,80.0,16763611.889,0.0,0.0,0.0,0.0,0.0,0.0
1402756758360611143,3,-11.145339219,-7.1377884924,7.58652466916,2.38304939926,9.93809734807,-3.84635974695,-0.0267749333325,0.0,-0.0212099502329,0.0,0.217471245731,0.0,-2.95357207126,0.0,-0.105226161397,0.0,0.023741387264,0.0,-0.111823735211,0.0,0.0693569808295,0.0,-0.0142596107722,0.0,0.0,0.0,0.0,-14.1421356237,-127.279220614,130.932134245,0.77408227126,-100.0,-0.780219705897,80.0,0.785398163397,-100.0,-0.785398163397,80.0,16763611.889,0.0,0.0,0.0,0.0,0.0,0.0
1402756758381203352,3,-11.145339219,-7.1377884924,7.58652466916,2.38304939926,9.93809734807,-3.84635974695,-0.0267749333325,0.0,-0.0212099502329,0.0,0.217471245731,0.0,-2.95357207126,0.0,-0.105226161397,0.0,0.023741387264,0.0,-0.111823735211,0.0,0.0693569808295,0.0,-0.0142596107722,0.0,0.0,0.0,0.0,-14.1421356237,-127.279220614,130.932134245,0.77408227126,-100.0,-0.778685482341,80.0,0.785398163397,-100.0,-0.785398163397,80.0,16763611.889,0.0,0.0,0.0,0.0,0.0,0.0
1402756758400706371,3,-11.1415389086,-7.1377884924,7.5816336868,2.38304939926,9.95386915776,-3.84635974695,-0.0144491823104,0.0,-0.0490519476007,0.0,0.218951908322,0.0,-2.95551739284,0.0,-0.112527165796,0.0,0.0236677128393,0.0,-0.0732477193719,0.0,0.0685393923596,0.0,-0.00498704129762,0.0,0.0,0.0,0.0,-14.1421356237,-127.279220614,130.932134245,0.77408227126,-100.0,-0.780219705897,80.0,0.785398163397,-100.0,-0.785398163397,80.0,16763611.889,0.0,0.0,0.0,0.0,0.0,0.0
1402756758420504635,3,-11.1415389086,-7.1377884924,7.5816336868,2.38304939926,9.95386915776,-3.84635974695,-0.0144491823104,0.0,-0.0490519476007,0.0,0.218951908322,0.0,-2.95551739284,0.0,-0.112527165796,0.0,0.0236677128393,0.0,-0.0732477193719,0.0,0.0685393923596,0.0,-0.00498704129762,0.0,0.0,0.0,0.0,-14.1421356237,-127.279220614,130.932134245,0.77408227126,-100.0,-0.780219705897,80.0,0.785398163397,-100.0,-0.785398163397,80.0,16763611.889,0.0,0.0,0.0,0.0,0.0,0.0
1402756758441053488,3,-11.1468518058,-7.1377884924,7.58409103556,2.38304939926,9.95045220553,-3.84635974695,-0.0205782992465,0.0,-0.0485085446853,0.0,0.208374982009,0.0,-2.96011051042,0.0,-0.113258778526,0.0,0.027477773782,0.0,-0.0460557065036,0.0,0.0689666833438,0.0,0.00154031606872,0.0,0.0,0.0,0.0,-14.1421356237,-127.279220614,130.932134245,0.77408227126,-100.0,-0.780219705897,80.0,0.785398163397,-100.0,-0.785398163397,80.0,16763611.889,0.0,0.0,0.0,0.0,0.0,0.0
1402756758460518389,3,-11.1468518058,-7.1377884924,7.58409103556,2.38304939926,9.95045220553,-3.84635974695,-0.0205782992465,0.0,-0.0485085446853,0.0,0.208374982009,0.0,-2.96011051042,0.0,-0.113258778526,0.0,0.027477773782,0.0,-0.0460557065036,0.0,0.0689666833438,0.0,0.00154031606872,0.0,0.0,0.0,0.0,-14.1421356237,-127.279220614,130.932134245,0.77408227126,-100.0,-0.780219705897,80.0,0.785398163397,-100.0,-0.785398163397,80.0,16763611.889,0.0,0.0,0.0,0.0,0.0,0.0
1402756758480838537,3,-11.1474497952,-7.1377884924,7.58170520183,2.38304939926,9.95883439153,-3.84635974695,-0.0177141040414,0.0,-0.068576409548,0.0,0.206546189159,0.0,-2.964607771,0.0,-0.118600003513,0.0,0.0278520292049,0.0,-0.00276051407404,0.0,0.0686684469193,0.0,0.00685517516079,0.0,0.0,0.0,0.0,-14.1421356237,-127.279220614,130.932134245,0.77408227126,-100.0,-0.780219705897,80.0,0.785398163397,-100.0,-0.785398163397,80.0,16763611.889,0.0,0.0,0.0,0.0,0.0,0.0
1402756758501128916,3,-11.1474497952,-7.1377884924,7.58170520183,2.38304939926,9.95883439153,-3.84635974695,-0.0177141040414,0.0,-0.068576409548,0.0,0.206546189159,0.0,-2.964607771,0.0,-0.118600003513,0.0,0.0278520292049,0.0,-0.00276051407404,0.0,0.0686684469193,0.0,0.00685517516079,0.0,0.0,0.0,0.0,-14.1421356237,-127.279220614,130.932134245,0.77408227126,-100.0,-0.780219705897,80.0,0.785398163397,-100.0,-0.785398163397,80.0,16763611.889,0.0,0.0,0.0,0.0,0.0,0.0
1402756758520874095,3,-11.1516806348,-7.1377884924,7.58170406372,2.38304939926,9.98250260586,-3.84635974695,-0.0169518142734,0.0,-0.0894531353068,0.0,0.204422864989,0.0,-2.970019637,0.0,-0.118225066708,0.0,0.026770654259,0.0,0.0417485040508,0.0,0.0688217875944,0.0,0.0205724309266,0.0,0.0,0.0,0.0,-14.1421356237,-127.279220614,130.932134245,0.77408227126,-100.0,-0.780219705897,80.0,0.785398163397,-100.0,-0.785398163397,80.0,16763611.889,0.0,0.0,0.0,0.0,0.0,0.0
1402756758540608308,3,-11.1516806348,-7.1377884924,7.58170406372,2.38304939926,9.98250260586,-3.84635974695,-0.0169518142734,0.0,-0.0894531353068,0.0,0.204422864989,0.0,-2.970019637,0.0,-0.118225066708,0.0,0.026770654259,0.0,0.0417485040508,0.0,0.0688217875944,0.0,0.0205724309266,0.0,0.0,0.0,0.0,-14.1421356237,-127.279220614,130.932134245,0.77408227126,-100.0,-0.780219705897,80.0,0.785398163397,-100.0,-0.785398163397,80.0,16763611.889,0.0,0.0,0.0,0.0,0.0,0.0
1402756758560313518,3,-11.1524914405,-7.1377884924,7.57785828875,2.38304939926,9.99080542516,-3.84635974695,-0.0154175599018,0.0,-0.106170539007,0.0,0.213371588727,0.0,-2.97500197107,0.0,-0.131774894488,0.0,0.0251793763705,0.0,0.0512321608211,0.0,0.0685085579983,0.0,0.00867073559051,0.0,0.0,0.0,0.0,-14.1421356237,-127.279220614,130.932134245,0.772547809285,-100.0,-0.778685482341,80.0,0.785398163397,-100.0,-0.785398163397,80.0,16763611.889,0.0,0.0,0.0,0.0,0.0,0.0
1402756758580540964,3,-11.1524914405,-7.1377884924,7.57785828875,2.38304939926,9.99080542516,-3.84635974695,-0.0154175599018,0.0,-0.106170539007,0.0,0.213371588727,0.0,-2.97500197107,0.0,-0.131774894488,0.0,0.0251793763705,0.0,0.0512321608211,0.0,0.0685085579983,0.0,0.00867073559051,0.0,0.0,0.0,0.0,-14.1421356237,-127.279220614,130.932134245,0.77408227126,-100.0,-0.780219705897,80.0,0.785398163397,-100.0,-0.785398163397,80.0,16763611.889,0.0,0.0,0.0,0.0,0.0,0.0
1402756758600883314,3,-11.1496200194,-7.1377884924,7.56790612431,2.38304939926,10.0025908251,-3.84635974695,-0.00365023361905,0.0,-0.136476712171,0.0,0.208910036717,0.0,-2.98005472571,0.0,-0.110279949966,0.0,0.0212341009562,0.0,0.0642049700387,0.0,0.0680278467507,0.0,0.00903911329697,0.0,0.0,0.0,0.0,-14.1421356237,-127.279220614,130.932134245,0.772547809285,-100.0,-0.780219705897,80.0,0.785398163397,-100.0,-0.785398163397,80.0,16763611.889,0.0,0.0,0.0,0.0,0.0,0.0
1402756758621040608,3,-11.1496200194,-7.1377884924,7.56790612431,2.38304939926,10.0025908251,-3.84635974695,-0.00365023361905,0.0,-0.136476712171,0.0,0.208910036717,0.0,-2.98005472571,0.0,-0.110279949966,0.0,0.0212341009562,0.0,0.0642049700387,0.0,0.0680278467507,0.0,0.00903911329697,0.0,0.0,0.0,0.0,-14.1421356237,-127.279220614,130.932134245,0.772547809285,-100.0,-0.780219705897,80.0,0.785398163397,-100.0,-0.785398163397,80.0,16763611.889,0.0,0.0,0.0,0.0,0.0,0.0
1402756758640722789,3,-11.1485710143,-7.1377884924,7.56597923417,2.38304939926,10.023519159,-3.84635974695,0.00857211297466,0.0,-0.154163410009,0.0,0.205683249059,0.0,-2.98425017026,0.0,-0.121923390051,0.0,0.0187053683863,0.0,0.0475400045827,0.0,0.0669720484713,0.0,0.0115831517151,0.0,0.0,0.0,0.0,-14.1421356237,-127.279220614,130.932134245,0.772547809285,-100.0,-0.780219705897,80.0,0.785398163397,-100.0,-0.785398163397,80.0,16763611.889,0.0,0.0,0.0,0.0,0.0,0.0
1402756758660639755,3,-11.1485710143,-7.1377884924,7.56597923417,2.38304939926,10.023519159,-3.84635974695,0.00857211297466,0.0,-0.154163410009,0.0,0.205683249059,0.0,-2.98425017026,0.0,-0.121923390051,0.0,0.0187053683863,0.0,0.0475400045827,0.0,0.0669720484713,0.0,0.0115831517151,0.0,0.0,0.0,0.0,-14.1421356237,-127.279220614,130.932134245,0.772547809285,-100.0,-0.780219705897,80.0,0.785398163397,-100.0,-0.785398163397,80.0,16763611.889,0.0,0.0,0.0,0.0,0.0,0.0
1402756758680851385,3,-11.153702393,-7.1377884924,7.5688855239,2.38304939926,10.0469371792,-3.84635974695,0.0081596843572,0.0,-0.160639431723,0.0,0.208240964751,0.0,-2.98890468561,0.0,-0.122378809108,0.0,0.0172625991619,0.0,0.0483754091684,0.0,0.0670148725852,0.0,0.0065151289872,0.0,0.0,0.0,0.0,-14.1421356237,-127.279220614,130.932134245,0.772547809285,-100.0,-0.780219705897,80.0,0.785398163397,-100.0,-0.785398163397,80.0,16763611.889,0.0,0.0,0.0,0.0,0.0,0.0
1402756758700937258,3,-11.153702393,-7.1377884924,7.5688855239,2.38304939926,10.0469371792,-3.84635974695,0.0081596843572,0.0,-0.160639431723,0.0,0.208240964751,0.0,-2.98890468561,0.0,-0.122378809108,0.0,0.0172625991619,0.0,0.0483754091684,0.0,0.0670148725852,0.0,0.0065151289872,0.0,0.0,0.0,0.0,-14.1421356237,-127.279220614,130.932134245,0.772547809285,-100.0,-0.780219705897,80.0,0.785398163397,-100.0,-0.785398163397,80.0,16763611.889,0.0,0.0,0.0,0.0,0.0,0.0
1402756758720598806,3,-11.1554276469,-7.1377884924,7.55924333806,2.38304939926,10.063380387,-3.84635974695,0.012188049084,0.0,-0.187048599441,0.0,0.207796662649,0.0,-2.99458414869,0.0,-0.11542621879,0.0,0.0134792148333,0.0,0.0554053247574,0.0,0.0672080371024,0.0,0.0262650096845,0.0,0.0,0.0,0.0,-14.1421356237,-127.279220614,130.932134245,0.771013585729,-100.0,-0.778685482341,80.0,0.785398163397,-100.0,-0.785398163397,80.0,16763611.889,0.0,0.0,0.0,0.0,0.0,0.0
1402756758741754730,3,-11.1554276469,-7.1377884924,7.55924333806,2.38304939926,10.063380387,-3.84635974695,0.012188049084,0.0,-0.187048599441,0.0,0.207796662649,0.0,-2.99458414869,0.0,-0.11542621879,0.0,0.0134792148333,0.0,0.0554053247574,0.0,0.0672080371024,0.0,0.0262650096845,0.0,0.0,0.0,0.0,-14.1421356237,-127.279220614,130.932134245,0.772547809285,-100.0,-0.780219705897,80.0,0.785398163397,-100.0,-0.785398163397,80.0,16763611.889,0.0,0.0,0.0,0.0,0.0,0.0
1402756758760858931,3,-11.1592497756,-7.1377884924,7.56216114455,2.38304939926,10.077615635,-3.84635974695,0.00537924767174,0.0,-0.175393809432,0.0,0.219125932939,0.0,-2.99891761041,0.0,-0.112059653635,0.0,0.0135224470946,0.0,0.0322261159694,0.0,0.0671051960102,0.0,0.00120662526479,0.0,0.0,0.0,0.0,-14.1421356237,-127.279220614,130.932134245,0.771013585729,-100.0,-0.780219705897,80.0,0.785398163397,-100.0,-0.785398163397,80.0,16763611.889,0.0,0.0,0.0,0.0,0.0,0.0
1402756758780501267,3,-11.1592497756,-7.1377884924,7.56216114455,2.38304939926,10.077615635,-3.84635974695,0.00537924767174,0.0,-0.175393809432,0.0,0.219125932939,0.0,-2.99891761041,0.0,-0.112059653635,0.0,0.0135224470946,0.0,0.0322261159694,0.0,0.0671051960102,0.0,0.00120662526479,0.0,0.0,0.0,0.0,-14.1421356237,-127.279220614,130.932134245,0.771013585729,-100.0,-0.780219705897,80.0,0.785398163397,-100.0,-0.785398163397,80.0,16763611.889,0.0,0.0,0.0,0.0,0.0,0.0
1402756758801083087,3,-11.1562663843,-7.1377884924,7.55226775066,2.38304939926,10.0868032166,-3.84635974695,0.0142416330738,0.0,-0.194046769621,0.0,0.22263366166,0.0,-3.00324981214,0.0,-0.109377165002,0.0,0.0112421840163,0.0,0.0196373666968,0.0,0.0667438644485,0.0,-0.0023910031717,0.0,0.0,0.0,0.0,-14.1421356237,-127.279220614,130.932134245,0.771013585729,-100.0,-0.780219705897,80.0,0.785398163397,-100.0,-0.785398163397,80.0,16763611.889,0.0,0.0,0.0,0.0,0.0,0.0
1402756758821111945,3,-11.1562663843,-7.1377884924,7.55226775066,2.38304939926,10.0868032166,-3.84635974695,0.0142416330738,0.0,-0.194046769621,0.0,0.22263366166,0.0,-3.00324981214,0.0,-0.109377165002,0.0,0.0112421840163,0.0,0.0196373666968,0.0,0.0667438644485,0.0,-0.0023910031717,0.0,0.0,0.0,0.0,-14.1421356237,-127.279220614,130.932134245,0.771013585729,-100.0,-0.780219705897,80.0,0.785398163397,-100.0,-0.785398163397,80.0,16763611.889,0.0,0.0,0.0,0.0,0.0,0.0
1402756758840632864,3,-11.1616109029,-7.1377884924,7.54337401448,2.38304939926,10.0930536997,-3.84635974695,0.00634163476661,0.0,-0.208517381109,0.0,0.211478065074,0.0,-3.00869687086,0.0,-0.106134165168,0.0,0.00952622891496,0.0,0.0200812393893,0.0,0.0680435976855,0.0,0.0143872149115,0.0,0.0,0.0,0.0,-14.1421356237,-127.279220614,130.932134245,0.771013585729,-100.0,-0.780219705897,80.0,0.785398163397,-100.0,-0.785398163397,80.0,16763611.889,0.0,0.0,0.0,0.0,0.0,0.0
1402756758861229892,3,-11.1616109029,-7.1377884924,7.54337401448,2.38304939926,10.0930536997,-3.84635974695,0.00634163476661,0.0,-0.208517381109,0.0,0.211478065074,0.0,-3.00869687086,0.0,-0.106134165168,0.0,0.00952622891496,0.0,0.0200812393893,0.0,0.0680435976855,0.0,0.0143872149115,0.0,0.0,0.0,0.0,-14.1421356237,-127.279220614,130.932134245,0.771013585729,-100.0,-0.780219705897,80.0,0.785398163397,-100.0,-0.785398163397,80.0,16763611.889,0.0,0.0,0.0,0.0,0.0,0.0
1402756758880562492,3,-11.1608691554,-7.1377884924,7.54705205432,2.38304939926,10.1181116193,-3.84635974695,0.0194902126247,0.0,-0.19753215478,0.0,0.206170442168,0.0,-3.01189732162,0.0,-0.109056515781,0.0,0.01048259045,0.0,0.0165617679752,0.0,0.066705599091,0.0,0.0103852329781,0.0,0.0,0.0,0.0,-14.1421356237,-127.279220614,130.932134245,0.771013585729,-100.0,-0.780219705897,80.0,0.785398163397,-100.0,-0.785398163397,80.0,16763611.889,0.0,0.0,0.0,0.0,0.0,0.0
1402756758900628196,3,-11.1608691554,-7.1377884924,7.54705205432,2.38304939926,10.1181116193,-3.84635974695,0.0194902126247,0.0,-0.19753215478,0.0,0.206170442168,0.0,-3.01189732162,0.0,-0.109056515781,0.0,0.01048259045,0.0,0.0165617679752,0.0,0.066705599091,0.0,0.0103852329781,0.0,0.0,0.0,0.0,-14.1421356237,-127.279220614,130.932134245,0.771013585729,-100.0,-0.780219705897,80.0,0.785398163397,-100.0,-0.785398163397,80.0,16763611.889,0.0,0.0,0.0,0.0,0.0,0.0
1402756758920419729,3,-11.1601352021,-7.1377884924,7.5389220856,2.38304939926,10.1266603483,-3.84635974695,0.0214250871822,0.0,-0.201642032472,0.0,0.211583250373,0.0,-3.01616500895,0.0,-0.101911678811,0.0,0.0102591711421,0.0,0.00581616513374,0.0,0.0668649960772,0.0,0.00371664857918,0.0,0.0,0.0,0.0,-14.1421356237,-127.279220614,130.932134245,0.771013585729,-100.0,-0.778685482341,80.0,0.785398163397,-100.0,-0.785398163397,80.0,16763611.889,0.0,0.0,0.0,0.0,0.0,0.0
1402756758941431979,3,-11.1601352021,-7.1377884924,7.5389220856,2.38304939926,10.1266603483,-3.84635974695,0.0214250871822,0.0,-0.201642032472,0.0,0.211583250373,0.0,-3.01616500895,0.0,-0.101911678811,0.0,0.0102591711421,0.0,0.00581616513374,0.0,0.0668649960772,0.0,0.00371664857918,0.0,0.0,0.0,0.0,-14.1421356237,-127.279220614,130.932134245,0.769479123754,-100.0,-0.778685482341,80.0,0.785398163397,-100.0,-0.785398163397,80.0,16763611.889,0.0,0.0,0.0,0.0,0.0,0.0
1402756758960725632,3,-11.1571855631,-7.1377884924,7.52347013124,2.38304939926,10.1252926881,-3.84635974695,0.0239580770699,0.0,-0.220061703709,0.0,0.211708540454,0.0,-3.02031910218,0.0,-0.101361734073,0.0,0.00887072507036,0.0,-0.00901431918441,0.0,0.0673738379322,0.0,-0.00430211098576,0.0,0.0,0.0,0.0,-14.1421356237,-127.279220614,130.932134245,0.771013585729,-100.0,-0.780219705897,80.0,0.785398163397,-100.0,-0.785398163397,80.0,16763611.889,0.0,0.0,0.0,0.0,0.0,0.0
1402756758981038183,3,-11.1571855631,-7.1377884924,7.52347013124,2.38304939926,10.1252926881,-3.84635974695,0.0239580770699,0.0,-0.220061703709,0.0,0.211708540454,0.0,-3.02031910218,0.0,-0.101361734073,0.0,0.00887072507036,0.0,-0.00901431918441,0.0,0.0673738379322,0.0,-0.00430211098576,0.0,0.0,0.0,0.0,-14.1421356237,-127.279220614,130.932134245,0.771013585729,-100.0,-0.778685482341,80.0,0.785398163397,-100.0,-0.785398163397,80.0,16763611.889,0.0,0.0,0.0,0.0,0.0,0.0
1402756759000770283,3,-11.1617486535,-7.1377884924,7.51478470095,2.38304939926,10.1166939137,-3.84635974695,0.0137653933331,0.0,-0.221069037281,0.0,0.206690241938,0.0,-3.02577744161,0.0,-0.0963949549421,0.0,0.0103577342898,0.0,-0.0183754239184,0.0,0.0688106484201,0.0,-0.000427670433282,0.0,0.0,0.0,0.0,-14.1421356237,-127.279220614,130.932134245,0.771013585729,-100.0,-0.780219705897,80.0,0.785398163397,-100.0,-0.785398163397,80.0,16763611.889,0.0,0.0,0.0,0.0,0.0,0.0
1402756759020529735,3,-11.1617486535,-7.1377884924,7.51478470095,2.38304939926,10.1166939137,-3.84635974695,0.0137653933331,0.0,-0.221069037281,0.0,0.206690241938,0.0,-3.02577744161,0.0,-0.0963949549421,0.0,0.0103577342898,0.0,-0.0183754239184,0.0,0.0688106484201,0.0,-0.000427670433282,0.0,0.0,0.0,0.0,-14.1421356237,-127.279220614,130.932134245,0.771013585729,-100.0,-0.780219705897,80.0,0.785398163397,-100.0,-0.785398163397,80.0,16763611.889,0.0,0.0,0.0,0.0,0.0,0.0
1402756759041331911,3,-11.1628677313,-7.1377884924,7.50596200306,2.38304939926,10.140215203,-3.84635974695,0.0138412133261,0.0,-0.241602883742,0.0,0.215710448984,0.0,-3.02878882597,0.0,-0.0926140981579,0.0,0.0087588795967,0.0,-0.0244588852691,0.0,0.0694194096056,0.0,-0.0124313449867,0.0,0.0,0.0,0.0,-14.1421356237,-127.279220614,130.932134245,0.771013585729,-100.0,-0.780219705897,80.0,0.785398163397,-100.0,-0.785398163397,80.0,16763611.889,0.0,0.0,0.0,0.0,0.0,0.0
1402756759060524467,3,-11.1625942817,-7.1377884924,7.50079185773,2.38304939926,10.1447144684,-3.84635974695,0.0164989841446,0.0,-0.248180415532,0.0,0.208093763739,0.0,-3.03070860723,0.0,-0.0947697274813,0.0,0.00925177678893,0.0,-0.0299209987781,0.0,0.0694776132918,0.0,-0.00916186302892,0.0,0.0,0.0,0.0,-14.1421356237,-127.279220614,130.932134245,0.769479123754,-100.0,-0.778685482341,80.0,0.785398163397,-100.0,-0.785398163397,80.0,16763611.889,0.0,0.0,0.0,0.0,0.0,0.0
1402756759080548530,3,-11.1625942817,-7.1377884924,7.50079185773,2.38304939926,10.1447144684,-3.84635974695,0.0164989841446,0.0,-0.248180415532,0.0,0.208093763739,0.0,-3.03070860723,0.0,-0.0947697274813,0.0,0.00925177678893,0.0,-0.0299209987781,0.0,0.0694776132918,0.0,-0.00916186302892,0.0,0.0,0.0,0.0,-14.1421356237,-127.279220614,130.932134245,0.771013585729,-100.0,-0.778685482341,80.0,0.785398163397,-100.0,-0.785398163397,80.0,16763611.889,0.0,0.0,0.0,0.0,0.0,0.0
1402756759101273582,3,-11.1545360462,-7.1377884924,7.49269825787,2.38304939926,10.1391565053,-3.84635974695,0.0330514195805,0.0,-0.262187428423,0.0,0.201830115901,0.0,-3.03218447753,0.0,-0.0962914138728,0.0,0.0091508518494,0.0,-0.0121898656225,0.0,0.0681624253497,0.0,0.00559307096334,0.0,0.0,0.0,0.0,-14.1421356237,-127.279220614,130.932134245,0.769479123754,-100.0,-0.778685482341,80.0,0.785398163397,-100.0,-0.785398163397,80.0,16763611.889,0.0,0.0,0.0,0.0,0.0,0.0
1402756759120577292,3,-11.1545360462,-7.1377884924,7.49269825787,2.38304939926,10.1391565053,-3.84635974695,0.0330514195805,0.0,-0.262187428423,0.0,0.201830115901,0.0,-3.03218447753,0.0,-0.0962914138728,0.0,0.0091508518494,0.0,-0.0121898656225,0.0,0.0681624253497,0.0,0.00559307096334,0.0,0.0,0.0,0.0,-14.1421356237,-127.279220614,130.932134245,0.769479123754,-100.0,-0.780219705897,80.0,0.785398163397,-100.0,-0.785398163397,80.0,16763611.889,0.0,0.0,0.0,0.0,0.0,0.0
1402756759140596328,3,-11.1534208576,-7.1377884924,7.48212193732,2.38304939926,10.1475170181,-3.84635974695,0.0342762734671,0.0,-0.270950698525,0.0,0.205327666875,0.0,-3.03563349396,0.0,-0.0835238166339,0.0,0.0101180950387,0.0,-0.00830610953552,0.0,0.0683776366914,0.0,0.00519187209456,0.0,0.0,0.0,0.0,-14.1421356237,-127.279220614,130.932134245,0.769479123754,-100.0,-0.780219705897,80.0,0.785398163397,-100.0,-0.785398163397,80.0,16763611.889,0.0,0.0,0.0,0.0,0.0,0.0
1402756759161185993,3,-11.1534208576,-7.1377884924,7.48212193732,2.38304939926,10.1475170181,-3.84635974695,0.0342762734671,0.0,-0.270950698525,0.0,0.205327666875,0.0,-3.03563349396,0.0,-0.0835238166339,0.0,0.0101180950387,0.0,-0.00830610953552,0.0,0.0683776366914,0.0,0.00519187209456,0.0,0.0,0.0,0.0,-14.1421356237,-127.279220614,130.932134245,0.767944900197,-100.0,-0.780219705897,80.0,0.785398163397,-100.0,-0.785398163397,80.0,16763611.889,0.0,0.0,0.0,0.0,0.0,0.0
1402756759180571019,3,-11.1525803599,-7.1377884924,7.47287082379,2.38304939926,10.1329010796,-3.84635974695,0.025811219589,0.0,-0.269821088173,0.0,0.212830077453,0.0,-3.03897820005,0.0,-0.086280800316,0.0,0.0122641343522,0.0,-0.0240044091716,0.0,0.0691233582657,0.0,-0.022356629366,0.0,0.0,0.0,0.0,-14.1421356237,-127.279220614,130.932134245,0.767944900197,-100.0,-0.780219705897,80.0,0.785398163397,-100.0,-0.785398163397,80.0,16763611.889,0.0,0.0,0.0,0.0,0.0,0.0
1402756759200663667,3,-11.1525803599,-7.1377884924,7.47287082379,2.38304939926,10.1329010796,-3.84635974695,0.025811219589,0.0,-0.269821088173,0.0,0.212830077453,0.0,-3.03897820005,0.0,-0.086280800316,0.0,0.0122641343522,0.0,-0.0240044091716,0.0,0.0691233582657,0.0,-0.022356629366,0.0,0.0,0.0,0.0,-14.1421356237,-127.279220614,130.932134245,0.767944900197,-100.0,-0.780219705897,80.0,0.785398163397,-100.0,-0.785398163397,80.0,16763611.889,0.0,0.0,0.0,0.0,0.0,0.0
1402756759221269691,3,-11.1547601401,-7.1377884924,7.46444590971,2.38304939926,10.1402910466,-3.84635974695,0.0227342699167,0.0,-0.272559657921,0.0,0.2167627313,0.0,-3.04185888542,0.0,-0.0668045171009,0.0,0.0130905509191,0.0,-0.0127365756522,0.0,0.0699639634041,0.0,-0.0173152968465,0.0,0.0,0.0,0.0,-14.1421356237,-127.279220614,130.932134245,0.767944900197,-100.0,-0.780219705897,80.0,0.785398163397,-100.0,-0.785398163397,80.0,16763611.889,0.0,0.0,0.0,0.0,0.0,0.0
1402756759240500307,3,-11.1547601401,-7.1377884924,7.46444590971,2.38304939926,10.1402910466,-3.84635974695,0.0227342699167,0.0,-0.272559657921,0.0,0.2167627313,0.0,-3.04185888542,0.0,-0.0668045171009,0.0,0.0130905509191,0.0,-0.0127365756522,0.0,0.0699639634041,0.0,-0.0173152968465,0.0,0.0,0.0,0.0,-14.1421356237,-127.279220614,130.932134245,0.767944900197,-100.0,-0.778685482341,80.0,0.785398163397,-100.0,-0.785398163397,80.0,16763611.889,0.0,0.0,0.0,0.0,0.0,0.0
1402756759260479885,3,-11.1503189803,-7.1377884924,7.45218961,2.38304939926,10.1553757178,-3.84635974695,0.0347968582038,0.0,-0.288935264142,0.0,0.219283495638,0.0,-3.04440301478,0.0,-0.066293905046,0.0,0.0125306147818,0.0,-0.00992232396388,0.0,0.0694562457446,0.0,-0.0130792596534,0.0,0.0,0.0,0.0,-14.1421356237,-127.279220614,130.932134245,0.767944900197,-100.0,-0.778685482341,80.0,0.785398163397,-100.0,-0.785398163397,80.0,16763611.889,0.0,0.0,0.0,0.0,0.0,0.0
1402756759280989334,3,-11.1503189803,-7.1377884924,7.45218961,2.38304939926,10.1553757178,-3.84635974695,0.0347968582038,0.0,-0.288935264142,0.0,0.219283495638,0.0,-3.04440301478,0.0,-0.066293905046,0.0,0.0125306147818,0.0,-0.00992232396388,0.0,0.0694562457446,0.0,-0.0130792596534,0.0,0.0,0.0,0.0,-14.1421356237,-127.279220614,130.932134245,0.767944900197,-100.0,-0.780219705897,80.0,0.785398163397,-100.0,-0.785398163397,80.0,16763611.889,0.0,0.0,0.0,0.0,0.0,0.0
1402756759300601713,3,-11.1474427768,-7.1377884924,7.4343623069,2.38304939926,10.1267604165,-3.84635974695,0.0339032617031,0.0,-0.293308420692,0.0,0.223906784735,0.0,-3.04695521502,0.0,-0.0629052988449,0.0,0.0124689433128,0.0,0.0130903527964,0.0,0.0703776350136,0.0,0.0082420057874,0.0,0.0,0.0,0.0,-14.1421356237,-127.279220614,130.932134245,0.767944900197,-100.0,-0.778685482341,80.0,0.785398163397,-100.0,-0.785398163397,80.0,16763611.889,0.0,0.0,0.0,0.0,0.0,0.0
1402756759320424644,3,-11.1474427768,-7.1377884924,7.4343623069,2.38304939926,10.1267604165,-3.84635974695,0.0339032617031,0.0,-0.293308420692,0.0,0.223906784735,0.0,-3.04695521502,0.0,-0.0629052988449,0.0,0.0124689433128,0.0,0.0130903527964,0.0,0.0703776350136,0.0,0.0082420057874,0.0,0.0,0.0,0.0,-14.1421356237,-127.279220614,130.932134245,0.767944900197,-100.0,-0.780219705897,80.0,0.785398163397,-100.0,-0.785398163397,80.0,16763611.889,0.0,0.0,0.0,0.0,0.0,0.0
1402756759341219022,3,-11.1462013897,-7.1377884924,7.42254433612,2.38304939926,10.1360791628,-3.84635974695,0.0363664943617,0.0,-0.299056187542,0.0,0.236529942914,0.0,-3.04926810019,0.0,-0.0533712967823,0.0,0.0118547080409,0.0,0.0223980383722,0.0,0.0706757765835,0.0,0.00766344790669,0.0,0.0,0.0,0.0,-14.1421356237,-127.279220614,130.932134245,0.767944900197,-100.0,-0.780219705897,80.0,0.785398163397,-100.0,-0.785398163397,80.0,16763611.889,0.0,0.0,0.0,0.0,0.0,0.0
1402756759360445892,3,-11.1462013897,-7.1377884924,7.42254433612,2.38304939926,10.1360791628,-3.84635974695,0.0363664943617,0.0,-0.299056187542,0.0,0.236529942914,0.0,-3.04926810019,0.0,-0.0533712967823,0.0,0.0118547080409,0.0,0.0223980383722,0.0,0.0706757765835,0.0,0.00766344790669,0.0,0.0,0.0,0.0,-14.1421356237,-127.279220614,130.932134245,0.767944900197,-100.0,-0.780219705897,80.0,0.785398163397,-100.0,-0.785398163397,80.0,16763611.889,0.0,0.0,0.0,0.0,0.0,0.0
1402756759380614807,3,-11.1359949221,-7.1377884924,7.40550231487,2.38304939926,10.1262847419,-3.84635974695,0.0482319010219,0.0,-0.307735175812,0.0,0.247592731386,0.0,-3.05163793973,0.0,-0.0583569188867,0.0,0.0111407687371,0.0,0.00858419704153,0.0,0.0696470541354,0.0,-0.0132708172205,0.0,0.0,0.0,0.0,-14.1421356237,-127.279220614,130.932134245,0.767944900197,-100.0,-0.780219705897,80.0,0.785398163397,-100.0,-0.785398163397,80.0,16763611.889,0.0,0.0,0.0,0.0,0.0,0.0
1402756759401069260,3,-11.1359949221,-7.1377884924,7.40550231487,2.38304939926,10.1262847419,-3.84635974695,0.0482319010219,0.0,-0.307735175812,0.0,0.247592731386,0.0,-3.05163793973,0.0,-0.0583569188867,0.0,0.0111407687371,0.0,0.00858419704153,0.0,0.0696470541354,0.0,-0.0132708172205,0.0,0.0,0.0,0.0,-14.1421356237,-127.279220614,130.932134245,0.769479123754,-100.0,-0.778685482341,80.0,0.785398163397,-100.0,-0.785398163397,80.0,16763611.889,0.0,0.0,0.0,0.0,0.0,0.0
1402756759420722261,3,-11.1309159549,-7.1377884924,7.38874789013,2.38304939926,10.0959859266,-3.84635974695,0.0454736207937,0.0,-0.308799341807,0.0,0.251255342159,0.0,-3.0536130589,0.0,-0.0501945813754,0.0,0.0114645902389,0.0,0.00354384677068,0.0,0.0699077313479,0.0,-0.0106578067629,0.0,0.0,0.0,0.0,-14.1421356237,-127.279220614,130.932134245,0.767944900197,-100.0,-0.780219705897,80.0,0.785398163397,-100.0,-0.785398163397,80.0,16763611.889,0.0,0.0,0.0,0.0,0.0,0.0
1402756759440859326,3,-11.1309159549,-7.1377884924,7.38874789013,2.38304939926,10.0959859266,-3.84635974695,0.0454736207937,0.0,-0.308799341807,0.0,0.251255342159,0.0,-3.0536130589,0.0,-0.0501945813754,0.0,0.0114645902389,0.0,0.00354384677068,0.0,0.0699077313479,0.0,-0.0106578067629,0.0,0.0,0.0,0.0,-14.1421356237,-127.279220614,130.932134245,0.767944900197,-100.0,-0.778685482341,80.0,0.785398163397,-100.0,-0.785398163397,80.0,16763611.889,0.0,0.0,0.0,0.0,0.0,0.0
1402756759461182795,3,-11.1250060287,-7.1377884924,7.37082067771,2.38304939926,10.0674820012,-3.84635974695,0.0501519161227,0.0,-0.314187194779,0.0,0.231206851639,0.0,-3.05538998966,0.0,-0.0424232117143,0.0,0.011644884286,0.0,0.00471175018979,0.0,0.0695870976469,0.0,0.0205595552119,0.0,0.0,0.0,0.0,-14.1421356237,-127.279220614,130.932134245,0.767944900197,-100.0,-0.780219705897,80.0,0.785398163397,-100.0,-0.785398163397,80.0,16763611.889,0.0,0.0,0.0,0.0,0.0,0.0
1402756759480529286,3,-11.1250060287,-7.1377884924,7.37082067771,2.38304939926,10.0674820012,-3.84635974695,0.0501519161227,0.0,-0.314187194779,0.0,0.231206851639,0.0,-3.05538998966,0.0,-0.0424232117143,0.0,0.011644884286,0.0,0.00471175018979,0.0,0.0695870976469,0.0,0.0205595552119,0.0,0.0,0.0,0.0,-14.1421356237,-127.279220614,130.932134245,0.767944900197,-100.0,-0.778685482341,80.0,0.785398163397,-100.0,-0.785398163397,80.0,16763611.889,0.0,0.0,0.0,0.0,0.0,0.0
1402756759500775960,3,-11.1117224375,-7.1377884924,7.34471329731,2.38304939926,10.0253573266,-3.84635974695,0.0611375634536,0.0,-0.327459007696,0.0,0.224519794843,0.0,-3.05705935872,0.0,-0.0408169757861,0.0,0.0110493601599,0.0,0.00981353680999,0.0,0.0686922275717,0.0,0.0153674996999,0.0,0.0,0.0,0.0,-14.1421356237,-127.279220614,130.932134245,0.767944900197,-100.0,-0.780219705897,80.0,0.785398163397,-100.0,-0.785398163397,80.0,16763611.889,0.0,0.0,0.0,0.0,0.0,0.0
1402756759521271416,3,-11.1117224375,-7.1377884924,7.34471329731,2.38304939926,10.0253573266,-3.84635974695,0.0611375634536,0.0,-0.327459007696,0.0,0.224519794843,0.0,-3.05705935872,0.0,-0.0408169757861,0.0,0.0110493601599,0.0,0.00981353680999,0.0,0.0686922275717,0.0,0.0153674996999,0.0,0.0,0.0,0.0,-14.1421356237,-127.279220614,130.932134245,0.767944900197,-100.0,-0.780219705897,80.0,0.785398163397,-100.0,-0.785398163397,80.0,16763611.889,0.0,0.0,0.0,0.0,0.0,0.0
1402756759540525545,3,-11.1092698655,-7.1377884924,7.33101545397,2.38304939926,10.0351007731,-3.84635974695,0.0593183290098,0.0,-0.335074928277,0.0,0.235373618195,0.0,-3.05836044763,0.0,-0.0303704354695,0.0,0.0108157070506,0.0,0.0169801956437,0.0,0.0684808605598,0.0,0.0181742118409,0.0,0.0,0.0,0.0,-14.1421356237,-127.279220614,130.932134245,0.767944900197,-100.0,-0.780219705897,80.0,0.785398163397,-100.0,-0.785398163397,80.0,16763611.889,0.0,0.0,0.0,0.0,0.0,0.0
1402756759560669168,3,-11.1092698655,-7.1377884924,7.33101545397,2.38304939926,10.0351007731,-3.84635974695,0.0593183290098,0.0,-0.335074928277,0.0,0.235373618195,0.0,-3.05836044763,0.0,-0.0303704354695,0.0,0.0108157070506,0.0,0.0169801956437,0.0,0.0684808605598,0.0,0.0181742118409,0.0,0.0,0.0,0.0,-14.1421356237,-127.279220614,130.932134245,0.767944900197,-100.0,-0.780219705897,80.0,0.785398163397,-100.0,-0.785398163397,80.0,16763611.889,0.0,0.0,0.0,0.0,0.0,0.0
1402756759581119806,3,-11.1069868305,-7.1377884924,7.31743231526,2.38304939926,10.0446934466,-3.84635974695,0.0600201483535,0.0,-0.344694951433,0.0,0.236212213742,0.0,-3.05917233128,0.0,-0.0137628658735,0.0,0.0109834749005,0.0,0.0132553222,0.0,0.0685328315394,0.0,0.0106064439941,0.0,0.0,0.0,0.0,-14.1421356237,-127.279220614,130.932134245,0.769479123754,-100.0,-0.780219705897,80.0,0.785398163397,-100.0,-0.785398163397,80.0,16763611.889,0.0,0.0,0.0,0.0,0.0,0.0
1402756759600632388,3,-11.1069868305,-7.1377884924,7.31743231526,2.38304939926,10.0446934466,-3.84635974695,0.0600201483535,0.0,-0.344694951433,0.0,0.236212213742,0.0,-3.05917233128,0.0,-0.0137628658735,0.0,0.0109834749005,0.0,0.0132553222,0.0,0.0685328315394,0.0,0.0106064439941,0.0,0.0,0.0,0.0,-14.1421356237,-127.279220614,130.932134245,0.767944900197,-100.0,-0.780219705897,80.0,0.785398163397,-100.0,-0.785398163397,80.0,16763611.889,0.0,0.0,0.0,0.0,0.0,0.0
1402756759621371112,3,-11.0951780213,-7.1377884924,7.28402167678,2.38304939926,9.97931056035,-3.84635974695,0.0539633840483,0.0,-0.354208128517,0.0,0.232755895739,0.0,-3.05935166148,0.0,-0.0109208870921,0.0,0.010722592771,0.0,-0.0147953757967,0.0,0.0692100460942,0.0,-0.0179179830395,0.0,0.0,0.0,0.0,-14.1421356237,-127.279220614,130.932134245,0.767944900197,-100.0,-0.778685482341,80.0,0.785398163397,-100.0,-0.785398163397,80.0,16763611.889,0.0,0.0,0.0,0.0,0.0,0.0
1402756759640962650,3,-11.0951780213,-7.1377884924,7.28402167678,2.38304939926,9.97931056035,-3.84635974695,0.0539633840483,0.0,-0.354208128517,0.0,0.232755895739,0.0,-3.05935166148,0.0,-0.0109208870921,0.0,0.010722592771,0.0,-0.0147953757967,0.0,0.0692100460942,0.0,-0.0179179830395,0.0,0.0,0.0,0.0,-14.1421356237,-127.279220614,130.932134245,0.767944900197,-100.0,-0.780219705897,80.0,0.785398163397,-100.0,-0.785398163397,80.0,16763611.889,0.0,0.0,0.0,0.0,0.0,0.0
1402756759660616845,3,-11.0906897236,-7.1377884924,7.26773436944,2.38304939926,9.96031721051,-3.84635974695,0.0519276232049,0.0,-0.361648929532,0.0,0.216308437648,0.0,-3.0593561267,0.0,0.00369496077395,0.0,0.0116483780614,0.0,0.00730968395094,0.0,0.069635060049,0.0,0.00344111695054,0.0,0.0,0.0,0.0,-14.1421356237,-127.279220614,130.932134245,0.767944900197,-100.0,-0.780219705897,80.0,0.785398163397,-100.0,-0.785398163397,80.0,16763611.889,0.0,0.0,0.0,0.0,0.0,0.0
1402756759680513960,3,-11.0906897236,-7.1377884924,7.26773436944,2.38304939926,9.96031721051,-3.84635974695,0.0519276232049,0.0,-0.361648929532,0.0,0.216308437648,0.0,-3.0593561267,0.0,0.00369496077395,0.0,0.0116483780614,0.0,0.00730968395094,0.0,0.069635060049,0.0,0.00344111695054,0.0,0.0,0.0,0.0,-14.1421356237,-127.279220614,130.932134245,0.767944900197,-100.0,-0.780219705897,80.0,0.785398163397,-100.0,-0.785398163397,80.0,16763611.889,0.0,0.0,0.0,0.0,0.0,0.0
1402756759701169845,3,-11.0728095434,-7.1377884924,7.23673270397,2.38304939926,9.91078190432,-3.84635974695,0.0646886905429,0.0,-0.376189070431,0.0,0.205788025096,0.0,-3.05940802912,0.0,0.00630828752411,0.0,0.0111702309551,0.0,0.0225201270063,0.0,0.0690582610841,0.0,0.00271494949428,0.0,0.0,0.0,0.0,-14.1421356237,-127.279220614,130.932134245,0.767944900197,-100.0,-0.780219705897,80.0,0.785398163397,-100.0,-0.785398163397,80.0,16763611.889,0.0,0.0,0.0,0.0,0.0,0.0
1402756759720515775,3,-11.0728095434,-7.1377884924,7.23673270397,2.38304939926,9.91078190432,-3.84635974695,0.0646886905429,0.0,-0.376189070431,0.0,0.205788025096,0.0,-3.05940802912,0.0,0.00630828752411,0.0,0.0111702309551,0.0,0.0225201270063,0.0,0.0690582610841,0.0,0.00271494949428,0.0,0.0,0.0,0.0,-14.1421356237,-127.279220614,130.932134245,0.767944900197,-100.0,-0.780219705897,80.0,0.785398163397,-100.0,-0.785398163397,80.0,16763611.889,0.0,0.0,0.0,0.0,0.0,0.0
1402756759740681095,3,-11.0597219003,-7.1377884924,7.20604243833,2.38304939926,9.8517767467,-3.84635974695,0.0579434247888,0.0,-0.3793571847,0.0,0.215012576802,0.0,-3.05909033695,0.0,0.00280871857734,0.0,0.0113999651764,0.0,0.00716114319115,0.0,0.0701892727409,0.0,-0.0370308065214,0.0,0.0,0.0,0.0,-14.1421356237,-127.279220614,130.932134245,0.767944900197,-100.0,-0.780219705897,80.0,0.785398163397,-100.0,-0.785398163397,80.0,16763611.889,0.0,0.0,0.0,0.0,0.0,0.0
1402756759761101735,3,-11.0597219003,-7.1377884924,7.20604243833,2.38304939926,9.8517767467,-3.84635974695,0.0579434247888,0.0,-0.3793571847,0.0,0.215012576802,0.0,-3.05909033695,0.0,0.00280871857734,0.0,0.0113999651764,0.0,0.00716114319115,0.0,0.0701892727409,0.0,-0.0370308065214,0.0,0.0,0.0,0.0,-14.1421356237,-127.279220614,130.932134245,0.767944900197,-100.0,-0.780219705897,80.0,0.785398163397,-100.0,-0.785398163397,80.0,16763611.889,0.0,0.0,0.0,0.0,0.0,0.0
1402756759780444126,3,-11.0458047274,-7.1377884924,7.17565756325,2.38304939926,9.78356977489,-3.84635974695,0.0590071289688,0.0,-0.377605723483,0.0,0.220721179486,0.0,-3.05894037884,0.0,0.00100972085816,0.0,0.0117734170265,0.0,0.0124876401689,0.0,0.0712136579354,0.0,-0.0393845120518,0.0,0.0,0.0,0.0,-14.1421356237,-127.279220614,130.932134245,0.767944900197,-100.0,-0.778685482341,80.0,0.785398163397,-100.0,-0.785398163397,80.0,16763611.889,0.0,0.0,0.0,0.0,0.0,0.0
1402756759800499518,3,-11.0458047274,-7.1377884924,7.17565756325,2.38304939926,9.78356977489,-3.84635974695,0.0590071289688,0.0,-0.377605723483,0.0,0.220721179486,0.0,-3.05894037884,0.0,0.00100972085816,0.0,0.0117734170265,0.0,0.0124876401689,0.0,0.0712136579354,0.0,-0.0393845120518,0.0,0.0,0.0,0.0,-14.1421356237,-127.279220614,130.932134245,0.767944900197,-100.0,-0.780219705897,80.0,0.785398163397,-100.0,-0.785398163397,80.0,16763611.889,0.0,0.0,0.0,0.0,0.0,0.0
1402756759821272482,3,-11.038624665,-7.1377884924,7.1565238993,2.38304939926,9.77724566747,-3.84635974695,0.0641838664687,0.0,-0.381812986685,0.0,0.212191441926,0.0,-3.05836808467,0.0,0.0133165439649,0.0,0.0112162018989,0.0,0.00535053372919,0.0,0.0720438692503,0.0,-0.0388331310902,0.0,0.0,0.0,0.0,-14.1421356237,-127.279220614,130.932134245,0.767944900197,-100.0,-0.778685482341,80.0,0.785398163397,-100.0,-0.785398163397,80.0,16763611.889,0.0,0.0,0.0,0.0,0.0,0.0
1402756759840503881,3,-11.038624665,-7.1377884924,7.1565238993,2.38304939926,9.77724566747,-3.84635974695,0.0641838664687,0.0,-0.381812986685,0.0,0.212191441926,0.0,-3.05836808467,0.0,0.0133165439649,0.0,0.0112162018989,0.0,0.00535053372919,0.0,0.0720438692503,0.0,-0.0388331310902,0.0,0.0,0.0,0.0,-14.1421356237,-127.279220614,130.932134245,0.767944900197,-100.0,-0.780219705897,80.0,0.785398163397,-100.0,-0.785398163397,80.0,16763611.889,0.0,0.0,0.0,0.0,0.0,0.0
1402756759860598111,3,-11.0207630382,-7.1377884924,7.11912790435,2.38304939926,9.7270777622,-3.84635974695,0.0764809165156,0.0,-0.395845899315,0.0,0.200696443953,0.0,-3.05801456335,0.0,0.00629373337828,0.0,0.0100000482681,0.0,0.0213756880292,0.0,0.0725397323719,0.0,-0.022292264782,0.0,0.0,0.0,0.0,-14.1421356237,-127.279220614,130.932134245,0.767944900197,-100.0,-0.778685482341,80.0,0.785398163397,-100.0,-0.785398163397,80.0,16763611.889,0.0,0.0,0.0,0.0,0.0,0.0
1402756759880822931,3,-11.0207630382,-7.1377884924,7.11912790435,2.38304939926,9.7270777622,-3.84635974695,0.0764809165156,0.0,-0.395845899315,0.0,0.200696443953,0.0,-3.05801456335,0.0,0.00629373337828,0.0,0.0100000482681,0.0,0.0213756880292,0.0,0.0725397323719,0.0,-0.022292264782,0.0,0.0,0.0,0.0,-14.1421356237,-127.279220614,130.932134245,0.767944900197,-100.0,-0.780219705897,80.0,0.785398163397,-100.0,-0.785398163397,80.0,16763611.889,0.0,0.0,0.0,0.0,0.0,0.0
1402756759901872367,3,-11.0116386226,-7.1377884924,7.07368169068,2.38304939926,9.68028568094,-3.84635974695,0.0674735069447,0.0,-0.411973149094,0.0,0.195582569063,0.0,-3.05709020927,0.0,0.00846988948705,0.0,0.00842693347095,0.0,0.0228995933755,0.0,0.0751611457104,0.0,0.00513110072661,0.0,0.0,0.0,0.0,-14.1421356237,-127.279220614,130.932134245,0.767944900197,-100.0,-0.780219705897,80.0,0.785398163397,-100.0,-0.785398163397,80.0,16763611.889,0.0,0.0,0.0,0.0,0.0,0.0
1402756759920872112,3,-11.0116386226,-7.1377884924,7.07368169068,2.38304939926,9.68028568094,-3.84635974695,0.0674735069447,0.0,-0.411973149094,0.0,0.195582569063,0.0,-3.05709020927,0.0,0.00846988948705,0.0,0.00842693347095,0.0,0.0228995933755,0.0,0.0751611457104,0.0,0.00513110072661,0.0,0.0,0.0,0.0,-14.1421356237,-127.279220614,130.932134245,0.767944900197,-100.0,-0.780219705897,80.0,0.785398163397,-100.0,-0.785398163397,80.0,16763611.889,0.0,0.0,0.0,0.0,0.0,0.0
1402756759941180820,3,-11.0056934329,-7.1377884924,7.0606143731,2.38304939926,9.65032882451,-3.84635974695,0.0652925488011,0.0,-0.402636471548,0.0,0.207772314591,0.0,-3.05679429411,0.0,0.01279437412,0.0,0.00900600403662,0.0,0.0136996776172,0.0,0.0754509828573,0.0,-0.00823112021462,0.0,0.0,0.0,0.0,-14.1421356237,-127.279220614,130.932134245,0.767944900197,-100.0,-0.780219705897,80.0,0.785398163397,-100.0,-0.785398163397,80.0,16763611.889,0.0,0.0,0.0,0.0,0.0,0.0
1402756759960642825,3,-11.0056934329,-7.1377884924,7.0606143731,2.38304939926,9.65032882451,-3.84635974695,0.0652925488011,0.0,-0.402636471548,0.0,0.207772314591,0.0,-3.05679429411,0.0,0.01279437412,0.0,0.00900600403662,0.0,0.0136996776172,0.0,0.0754509828573,0.0,-0.00823112021462,0.0,0.0,0.0,0.0,-14.1421356237,-127.279220614,130.932134245,0.767944900197,-100.0,-0.780219705897,80.0,0.785398163397,-100.0,-0.785398163397,80.0,16763611.889,0.0,0.0,0.0,0.0,0.0,0.0
