rosbagTimestamp,control_method,x_current,x_desired,y_current,y_desired,x_velocity_current,x_velocity_desired,y_velocity_current,y_velocity_desired,yaw_current,yaw_desired,required_force_x,required_force_y,required_moment_z,resultant_force_x,resultant_force_y,resultant_moment_z,current_port_servo_angle,current_port_thruster_force,current_starboard_servo_angle,current_starboard_thruster_force,estimated_port_servo_angle,estimated_port_thruster_force,estimated_starboard_servo_angle,estimated_starboard_thruster_force,cost_value,step,user_defined_1,user_defined_2,user_defined_3,user_defined_4,user_defined_5
1402598085682652279,0,7.55891092632,-0.114322152727,-13.4760922082,0.043815185726,-0.165256808463,0.0,-0.0633725984285,0.0,-2.4615854925,0.0,0.0,0.0,0.0,-0.0,-0.0,0.0,-0.00383606751517,-0.0,0.108172027272,-0.0,0.0,-0.0,0.110603056636,-0.0,1.03126588728e-07,0.0,0.0,0.0,0.0,0.0,0.0
1402598085702386599,0,7.55891092632,-0.114322152727,-13.4760922082,0.043815185726,-0.165256808463,0.0,-0.0633725984285,0.0,-2.4615854925,0.0,0.0,0.0,0.0,21.1775973439,0.0,-0.235978056192,-0.00383606751517,-0.0,0.108172027272,-0.0,0.0,10.9759017825,0.0,10.2016955614,23575.0994045,0.0,0.0,0.0,0.0,0.0,0.0
1402598085722515546,0,7.55105711682,-0.114322152727,-13.4797499586,0.043815185726,-0.164759292835,0.0,-0.0630568087679,0.0,-2.46080016402,0.0,0.0,0.0,0.0,153.372714506,6.16944347725,-1.29926373099,-0.00230160554007,10.9759017825,0.108172027272,10.2016955614,0.0144294471244,71.4989244938,0.0626646940962,82.0422649384,1255249.68449,0.0,0.0,0.0,0.0,0.0,0.0
1402598085742189546,0,7.55105711682,-0.114322152727,-13.4797499586,0.043815185726,-0.164759292835,0.0,-0.0630568087679,0.0,-2.46080016402,0.0,0.0,0.0,0.0,196.780990068,25.168233181,-19.200438227,-0.00230160554007,71.4989244938,0.106637803716,82.0422649384,0.0,100.0,0.254418150756,100.0,2537186.2975,0.0,0.0,0.0,0.0,0.0,0.0
1402598085762823207,0,7.54057014988,-0.114322152727,-13.4812173041,0.043815185726,-0.164278020704,0.0,-0.0601761911953,0.0,-2.45997047992,0.0,0.0,0.0,0.0,196.780990068,25.168233181,-19.200438227,0.000767318410122,100.0,0.0912941376392,100.0,0.0,100.0,0.254418150756,100.0,2537186.29752,0.0,0.0,0.0,0.0,0.0,0.0
1402598085782192393,0,7.54057014988,-0.114322152727,-13.4812173041,0.043815185726,-0.164278020704,0.0,-0.0601761911953,0.0,-2.45997047992,0.0,0.0,0.0,0.0,196.780990068,25.168233181,-19.200438227,0.00537022749826,100.0,0.0744162480061,100.0,0.0,100.0,0.254418150756,100.0,2537186.29755,0.0,0.0,0.0,0.0,0.0,0.0
1402598085803029706,0,7.53721495311,-0.114322152727,-13.4825290094,0.043815185726,-0.163798072045,0.0,-0.0605381265601,0.0,-2.45972801804,0.0,0.0,0.0,0.0,196.780990068,25.168233181,-19.200438227,0.00383600394174,100.0,0.0790191570942,100.0,0.0,100.0,0.254418150756,100.0,2537186.29754,0.0,0.0,0.0,0.0,0.0,0.0
1402598085822730805,0,7.53721495311,-0.114322152727,-13.4825290094,0.043815185726,-0.163798072045,0.0,-0.0605381265601,0.0,-2.45972801804,0.0,0.0,0.0,0.0,196.780990068,25.168233181,-19.200438227,0.00383600394174,100.0,0.095897285146,100.0,0.0,100.0,0.254418150756,100.0,2537186.29751,0.0,0.0,0.0,0.0,0.0,0.0
1402598085842860156,0,7.53090188946,-0.114322152727,-13.4853926991,0.043815185726,-0.163226894597,0.0,-0.0628542835757,0.0,-2.45907187202,0.0,0.0,0.0,0.0,196.780990068,25.168233181,-19.200438227,0.00383600394174,100.0,0.135790197057,100.0,0.0,100.0,0.254418150756,100.0,2537186.29746,0.0,0.0,0.0,0.0,0.0,0.0
1402598085862194096,0,7.53090188946,-0.114322152727,-13.4853926991,0.043815185726,-0.163226894597,0.0,-0.0628542835757,0.0,-2.45907187202,0.0,0.0,0.0,0.0,196.780990068,25.168233181,-19.200438227,0.00383600394174,100.0,0.164943067235,100.0,0.0,100.0,0.254418150756,100.0,2537186.29743,0.0,0.0,0.0,0.0,0.0,0.0
1402598085882829632,0,7.5212131832,-0.114322152727,-13.4788465283,0.043815185726,-0.168465976089,0.0,-0.0534899568395,0.0,-2.45862774415,0.0,0.0,0.0,0.0,196.780990068,25.168233181,-19.200438227,0.00383600394174,100.0,0.214042512578,100.0,0.0,100.0,0.254418150756,100.0,2537186.2974,0.0,0.0,0.0,0.0,0.0,0.0
1402598085902024505,0,7.5212131832,-0.114322152727,-13.4788465283,0.043815185726,-0.168465976089,0.0,-0.0534899568395,0.0,-2.45862774415,0.0,0.0,0.0,0.0,196.780990068,25.168233181,-19.200438227,0.00230154196664,100.0,0.22785171668,100.0,0.0,100.0,0.254418150756,100.0,2537186.29739,0.0,0.0,0.0,0.0,0.0,0.0
1402598085922936011,0,7.51210659574,-0.114322152727,-13.477437917,0.043815185726,-0.198016504689,0.0,-0.0817615020679,0.0,-2.45857155327,0.0,0.0,0.0,0.0,196.780990068,25.168233181,-19.200438227,0.00230154196664,100.0,0.243195382756,100.0,0.0,100.0,0.254418150756,100.0,2537186.29739,0.0,0.0,0.0,0.0,0.0,0.0
1402598085942095738,0,7.51210659574,-0.114322152727,-13.477437917,0.043815185726,-0.198016504689,0.0,-0.0817615020679,0.0,-2.45857155327,0.0,0.0,0.0,0.0,196.780990068,25.168233181,-19.200438227,0.00383600394174,100.0,0.250866977376,100.0,0.0,100.0,0.254418150756,100.0,2537186.29739,0.0,0.0,0.0,0.0,0.0,0.0
1402598085962837826,0,7.503297609,-0.114322152727,-13.4816179612,0.043815185726,-0.24698441872,0.0,-0.114696209999,0.0,-2.45886893625,0.0,0.0,0.0,0.0,196.780990068,25.168233181,-19.200438227,0.00383600394174,100.0,0.260073033971,100.0,0.0,100.0,0.254418150756,100.0,2537186.29739,0.0,0.0,0.0,0.0,0.0,0.0
1402598085982426848,0,7.503297609,-0.114322152727,-13.4816179612,0.043815185726,-0.24698441872,0.0,-0.114696209999,0.0,-2.45886893625,0.0,0.0,0.0,0.0,196.780990068,25.168233181,-19.200438227,0.00230154196664,100.0,0.261607495946,100.0,0.0,100.0,0.254418150756,100.0,2537186.29739,0.0,0.0,0.0,0.0,0.0,0.0
1402598086002222917,0,7.49843080601,-0.114322152727,-13.48276877,0.043815185726,-0.28318181996,0.0,-0.153301431356,0.0,-2.45924791288,0.0,0.0,0.0,0.0,196.780990068,25.168233181,-19.200438227,0.00230154196664,100.0,0.264676419896,100.0,0.0,100.0,0.254418150756,100.0,2537186.29739,0.0,0.0,0.0,0.0,0.0,0.0
1402598086022215024,0,7.49843080601,-0.114322152727,-13.48276877,0.043815185726,-0.28318181996,0.0,-0.153301431356,0.0,-2.45924791288,0.0,0.0,0.0,0.0,196.780990068,25.168233181,-19.200438227,0.00230154196664,100.0,0.264676419896,100.0,0.0,100.0,0.254418150756,100.0,2537186.29739,0.0,0.0,0.0,0.0,0.0,0.0
1402598086042626870,0,7.47304245764,-0.114322152727,-13.4873825183,0.043815185726,-0.338856811311,0.0,-0.195528393344,0.0,-2.46035978274,0.0,0.0,0.0,0.0,196.780990068,25.168233181,-19.200438227,0.00230154196664,100.0,0.263141957921,100.0,0.0,100.0,0.254418150756,100.0,2537186.29739,0.0,0.0,0.0,0.0,0.0,0.0
1402598086062091061,0,7.47304245764,-0.114322152727,-13.4873825183,0.043815185726,-0.338856811311,0.0,-0.195528393344,0.0,-2.46035978274,0.0,0.0,0.0,0.0,196.780990068,25.168233181,-19.200438227,0.00230154196664,100.0,0.261607495946,100.0,0.0,100.0,0.254418150756,100.0,2537186.29739,0.0,0.0,0.0,0.0,0.0,0.0
1402598086082940081,0,7.46423573125,-0.114322152727,-13.5040305436,0.043815185726,-0.373724881877,0.0,-0.242603798798,0.0,-2.45808675392,0.0,0.0,0.0,0.0,196.780990068,25.168233181,-19.200438227,0.00230154196664,100.0,0.261607495946,100.0,0.0,100.0,0.254418150756,100.0,2537186.29739,0.0,0.0,0.0,0.0,0.0,0.0
1402598086102057715,0,7.46423573125,-0.114322152727,-13.5040305436,0.043815185726,-0.373724881877,0.0,-0.242603798798,0.0,-2.45808675392,0.0,0.0,0.0,0.0,196.780990068,25.168233181,-19.200438227,0.00383600394174,100.0,0.261607495946,100.0,0.0,100.0,0.254418150756,100.0,2537186.29739,0.0,0.0,0.0,0.0,0.0,0.0
1402598086122633943,0,7.44497398543,-0.114322152727,-13.5165561406,0.043815185726,-0.411121753051,0.0,-0.278397803324,0.0,-2.45679786411,0.0,0.0,0.0,0.0,196.780990068,25.168233181,-19.200438227,0.00230154196664,100.0,0.261607495946,100.0,0.0,100.0,0.254418150756,100.0,2537186.29739,0.0,0.0,0.0,0.0,0.0,0.0
1402598086142270816,0,7.43653580492,-0.114322152727,-13.5226358671,0.043815185726,-0.435704552007,0.0,-0.299668571707,0.0,-2.4573285694,0.0,0.0,0.0,0.0,196.780990068,25.168233181,-19.200438227,0.00230154196664,100.0,0.261607495946,100.0,0.0,100.0,0.254418150756,100.0,2537186.29739,0.0,0.0,0.0,0.0,0.0,0.0
1402598086162738757,0,7.43653580492,-0.114322152727,-13.5226358671,0.043815185726,-0.435704552007,0.0,-0.299668571707,0.0,-2.4573285694,0.0,0.0,0.0,0.0,196.780990068,25.168233181,-19.200438227,0.00230154196664,100.0,0.260073033971,100.0,0.0,100.0,0.254418150756,100.0,2537186.29739,0.0,0.0,0.0,0.0,0.0,0.0
1402598086182375708,0,7.42713014918,-0.114322152727,-13.5292826164,0.043815185726,-0.461466528619,0.0,-0.319970624144,0.0,-2.45786489176,0.0,0.0,0.0,0.0,196.780990068,25.168233181,-19.200438227,0.00230154196664,100.0,0.260073033971,100.0,0.0,100.0,0.254418150756,100.0,2537186.29739,0.0,0.0,0.0,0.0,0.0,0.0
1402598086202685092,0,7.42713014918,-0.114322152727,-13.5292826164,0.043815185726,-0.461466528619,0.0,-0.319970624144,0.0,-2.45786489176,0.0,0.0,0.0,0.0,196.780990068,25.168233181,-19.200438227,0.00383600394174,100.0,0.261607495946,100.0,0.0,100.0,0.254418150756,100.0,2537186.29739,0.0,0.0,0.0,0.0,0.0,0.0
1402598086222199054,0,7.40719629792,-0.114322152727,-13.5435825348,0.043815185726,-0.507519278684,0.0,-0.357942825017,0.0,-2.45870432629,0.0,0.0,0.0,0.0,196.780990068,25.168233181,-19.200438227,0.00230154196664,100.0,0.260073033971,100.0,0.0,100.0,0.254418150756,100.0,2537186.29739,0.0,0.0,0.0,0.0,0.0,0.0
1402598086242842346,0,7.40719629792,-0.114322152727,-13.5435825348,0.043815185726,-0.507519278684,0.0,-0.357942825017,0.0,-2.45870432629,0.0,0.0,0.0,0.0,196.780990068,25.168233181,-19.200438227,0.00230154196664,100.0,0.260073033971,100.0,0.0,100.0,0.254418150756,100.0,2537186.29739,0.0,0.0,0.0,0.0,0.0,0.0
1402598086262229706,0,7.38514407918,-0.114322152727,-13.5597163885,0.043815185726,-0.558147092453,0.0,-0.394830543579,0.0,-2.45910755089,0.0,0.0,0.0,0.0,196.780990068,25.168233181,-19.200438227,0.00230154196664,100.0,0.260073033971,100.0,0.0,100.0,0.254418150756,100.0,2537186.29739,0.0,0.0,0.0,0.0,0.0,0.0
1402598086282707096,0,7.38514407918,-0.114322152727,-13.5597163885,0.043815185726,-0.558147092453,0.0,-0.394830543579,0.0,-2.45910755089,0.0,0.0,0.0,0.0,196.780990068,25.168233181,-19.200438227,0.00230154196664,100.0,0.260073033971,100.0,0.0,100.0,0.254418150756,100.0,2537186.29739,0.0,0.0,0.0,0.0,0.0,0.0
1402598086302285959,0,7.36782967762,-0.114322152727,-13.5792423256,0.043815185726,-0.580382924893,0.0,-0.429428848862,0.0,-2.4568433773,0.0,0.0,0.0,0.0,196.780990068,25.168233181,-19.200438227,0.00230154196664,100.0,0.261607495946,100.0,0.0,100.0,0.254418150756,100.0,2537186.29739,0.0,0.0,0.0,0.0,0.0,0.0
1402598086322826414,0,7.36782967762,-0.114322152727,-13.5792423256,0.043815185726,-0.580382924893,0.0,-0.429428848862,0.0,-2.4568433773,0.0,0.0,0.0,0.0,196.780990068,25.168233181,-19.200438227,0.00230154196664,100.0,0.260073033971,100.0,0.0,100.0,0.254418150756,100.0,2537186.29739,0.0,0.0,0.0,0.0,0.0,0.0
1402598086342368452,0,7.32235740019,-0.114322152727,-13.5916643866,0.043815185726,-0.650142331226,0.0,-0.469069147602,0.0,-2.45897426603,0.0,0.0,0.0,0.0,196.780990068,25.168233181,-19.200438227,0.00230154196664,100.0,0.260073033971,100.0,0.0,100.0,0.254418150756,100.0,2537186.29739,0.0,0.0,0.0,0.0,0.0,0.0
1402598086362961315,0,7.32235740019,-0.114322152727,-13.5916643866,0.043815185726,-0.650142331226,0.0,-0.469069147602,0.0,-2.45897426603,0.0,0.0,0.0,0.0,196.780990068,25.168233181,-19.200438227,0.00230154196664,100.0,0.260073033971,100.0,0.0,100.0,0.254418150756,100.0,2537186.29739,0.0,0.0,0.0,0.0,0.0,0.0
1402598086382410971,0,7.2704644346,-0.114322152727,-13.5975554919,0.043815185726,-0.716524704763,0.0,-0.502141322439,0.0,-2.46408995961,0.0,0.0,0.0,0.0,196.780990068,25.168233181,-19.200438227,0.00230154196664,100.0,0.260073033971,100.0,0.0,100.0,0.254418150756,100.0,2537186.29739,0.0,0.0,0.0,0.0,0.0,0.0
1402598086402918744,0,7.2704644346,-0.114322152727,-13.5975554919,0.043815185726,-0.716524704763,0.0,-0.502141322439,0.0,-2.46408995961,0.0,0.0,0.0,0.0,196.780990068,25.168233181,-19.200438227,0.00230154196664,100.0,0.260073033971,100.0,0.0,100.0,0.254418150756,100.0,2537186.29739,0.0,0.0,0.0,0.0,0.0,0.0
1402598086422094712,0,7.23225186403,-0.114322152727,-13.6250550301,0.043815185726,-0.767257048209,0.0,-0.540618338442,0.0,-2.46324804237,0.0,0.0,0.0,0.0,196.780990068,25.168233181,-19.200438227,0.00230154196664,100.0,0.260073033971,100.0,0.0,100.0,0.254418150756,100.0,2537186.29739,0.0,0.0,0.0,0.0,0.0,0.0
1402598086442644087,0,7.23225186403,-0.114322152727,-13.6250550301,0.043815185726,-0.767257048209,0.0,-0.540618338442,0.0,-2.46324804237,0.0,0.0,0.0,0.0,196.780990068,25.168233181,-19.200438227,0.00230154196664,100.0,0.260073033971,100.0,0.0,100.0,0.254418150756,100.0,2537186.29739,0.0,0.0,0.0,0.0,0.0,0.0
1402598086462235908,0,7.21601170918,-0.114322152727,-13.6365333481,0.043815185726,-0.786606176001,0.0,-0.556613429588,0.0,-2.4628958827,0.0,0.0,0.0,0.0,196.780990068,25.168233181,-19.200438227,0.00230154196664,100.0,0.260073033971,100.0,0.0,100.0,0.254418150756,100.0,2537186.29739,0.0,0.0,0.0,0.0,0.0,0.0
1402598086482820809,0,7.21601170918,-0.114322152727,-13.6365333481,0.043815185726,-0.786606176001,0.0,-0.556613429588,0.0,-2.4628958827,0.0,0.0,0.0,0.0,196.780990068,25.168233181,-19.200438227,0.00230154196664,100.0,0.260073033971,100.0,0.0,100.0,0.254418150756,100.0,2537186.29739,0.0,0.0,0.0,0.0,0.0,0.0
1402598086502132786,0,7.1907795803,-0.114322152727,-13.6710077711,0.043815185726,-0.801621457567,0.0,-0.589207728666,0.0,-2.45782523421,0.0,0.0,0.0,0.0,196.780990068,25.168233181,-19.200438227,0.00230154196664,100.0,0.260073033971,100.0,0.0,100.0,0.254418150756,100.0,2537186.29739,0.0,0.0,0.0,0.0,0.0,0.0
1402598086522721956,0,7.1907795803,-0.114322152727,-13.6710077711,0.043815185726,-0.801621457567,0.0,-0.589207728666,0.0,-2.45782523421,0.0,0.0,0.0,0.0,196.780990068,25.168233181,-19.200438227,0.00230154196664,100.0,0.260073033971,100.0,0.0,100.0,0.254418150756,100.0,2537186.29739,0.0,0.0,0.0,0.0,0.0,0.0
1402598086542350526,0,7.15674137946,-0.114322152727,-13.6966828802,0.043815185726,-0.834616745944,0.0,-0.618662532833,0.0,-2.45695035948,0.0,0.0,0.0,0.0,196.780990068,25.168233181,-19.200438227,0.00230154196664,100.0,0.260073033971,100.0,0.0,100.0,0.254418150756,100.0,2537186.29739,0.0,0.0,0.0,0.0,0.0,0.0
1402598086562887773,0,7.15674137946,-0.114322152727,-13.6966828802,0.043815185726,-0.834616745944,0.0,-0.618662532833,0.0,-2.45695035948,0.0,0.0,0.0,0.0,196.780990068,25.168233181,-19.200438227,0.00230154196664,100.0,0.260073033971,100.0,0.0,100.0,0.254418150756,100.0,2537186.29739,0.0,0.0,0.0,0.0,0.0,0.0
1402598086582389112,0,7.12115988224,-0.114322152727,-13.7233960593,0.043815185726,-0.86584964039,0.0,-0.643211083154,0.0,-2.45608572786,0.0,0.0,0.0,0.0,196.780990068,25.168233181,-19.200438227,0.00230154196664,100.0,0.260073033971,100.0,0.0,100.0,0.254418150756,100.0,2537186.29739,0.0,0.0,0.0,0.0,0.0,0.0
1402598086602787141,0,7.12115988224,-0.114322152727,-13.7233960593,0.043815185726,-0.86584964039,0.0,-0.643211083154,0.0,-2.45608572786,0.0,0.0,0.0,0.0,196.780990068,25.168233181,-19.200438227,0.00230154196664,100.0,0.260073033971,100.0,0.0,100.0,0.254418150756,100.0,2537186.29739,0.0,0.0,0.0,0.0,0.0,0.0
1402598086622466145,0,7.06836843168,-0.114322152727,-13.7292316159,0.043815185726,-0.900889138602,0.0,-0.650748693057,0.0,-2.46105928236,0.0,0.0,0.0,0.0,196.780990068,25.168233181,-19.200438227,0.00230154196664,100.0,0.260073033971,100.0,0.0,100.0,0.254418150756,100.0,2537186.29739,0.0,0.0,0.0,0.0,0.0,0.0
1402598086642899355,0,7.06836843168,-0.114322152727,-13.7292316159,0.043815185726,-0.900889138602,0.0,-0.650748693057,0.0,-2.46105928236,0.0,0.0,0.0,0.0,196.780990068,25.168233181,-19.200438227,0.00230154196664,100.0,0.260073033971,100.0,0.0,100.0,0.254418150756,100.0,2537186.29739,0.0,0.0,0.0,0.0,0.0,0.0
1402598086662285192,0,7.02462902503,-0.114322152727,-13.7751334447,0.043815185726,-0.912649530024,0.0,-0.685943967709,0.0,-2.45595493898,0.0,0.0,0.0,0.0,196.780990068,25.168233181,-19.200438227,0.00230154196664,100.0,0.260073033971,100.0,0.0,100.0,0.254418150756,100.0,2537186.29739,0.0,0.0,0.0,0.0,0.0,0.0
1402598086682809726,0,7.02462902503,-0.114322152727,-13.7751334447,0.043815185726,-0.912649530024,0.0,-0.685943967709,0.0,-2.45595493898,0.0,0.0,0.0,0.0,196.780990068,25.168233181,-19.200438227,0.00230154196664,100.0,0.260073033971,100.0,0.0,100.0,0.254418150756,100.0,2537186.29739,0.0,0.0,0.0,0.0,0.0,0.0
1402598086702326812,0,6.99608533515,-0.114322152727,-13.7967220588,0.043815185726,-0.932234227956,0.0,-0.701108992561,0.0,-2.45492398147,0.0,0.0,0.0,0.0,196.780990068,25.168233181,-19.200438227,0.00230154196664,100.0,0.261607495946,100.0,0.0,100.0,0.254418150756,100.0,2537186.29739,0.0,0.0,0.0,0.0,0.0,0.0
1402598086722920941,0,6.97640371852,-0.114322152727,-13.8117222498,0.043815185726,-0.943808765674,0.0,-0.714145566863,0.0,-2.45405298049,0.0,0.0,0.0,0.0,196.780990068,25.168233181,-19.200438227,0.00230154196664,100.0,0.261607495946,100.0,0.0,100.0,0.254418150756,100.0,2537186.29739,0.0,0.0,0.0,0.0,0.0,0.0
1402598086742377779,0,6.97640371852,-0.114322152727,-13.8117222498,0.043815185726,-0.943808765674,0.0,-0.714145566863,0.0,-2.45405298049,0.0,0.0,0.0,0.0,196.780990068,25.168233181,-19.200438227,0.00230154196664,100.0,0.260073033971,100.0,0.0,100.0,0.254418150756,100.0,2537186.29739,0.0,0.0,0.0,0.0,0.0,0.0
1402598086762945503,0,6.9452246378,-0.114322152727,-13.8173927521,0.043815185726,-0.956611753868,0.0,-0.714173270939,0.0,-2.45554448467,0.0,0.0,0.0,0.0,196.780990068,25.168233181,-19.200438227,0.00230154196664,100.0,0.260073033971,100.0,0.0,100.0,0.254418150756,100.0,2537186.29739,0.0,0.0,0.0,0.0,0.0,0.0
1402598086782180154,0,6.9452246378,-0.114322152727,-13.8173927521,0.043815185726,-0.956611753868,0.0,-0.714173270939,0.0,-2.45554448467,0.0,0.0,0.0,0.0,196.780990068,25.168233181,-19.200438227,0.00230154196664,100.0,0.260073033971,100.0,0.0,100.0,0.254418150756,100.0,2537186.29739,0.0,0.0,0.0,0.0,0.0,0.0
1402598086802786475,0,6.90481640829,-0.114322152727,-13.848186662,0.043815185726,-0.978867355757,0.0,-0.736930588305,0.0,-2.45375470509,0.0,0.0,0.0,0.0,196.780990068,25.168233181,-19.200438227,0.00230154196664,100.0,0.260073033971,100.0,0.0,100.0,0.254418150756,100.0,2537186.29739,0.0,0.0,0.0,0.0,0.0,0.0
1402598086822018122,0,6.90481640829,-0.114322152727,-13.848186662,0.043815185726,-0.978867355757,0.0,-0.736930588305,0.0,-2.45375470509,0.0,0.0,0.0,0.0,196.780990068,25.168233181,-19.200438227,0.00230154196664,100.0,0.261607495946,100.0,0.0,100.0,0.254418150756,100.0,2537186.29739,0.0,0.0,0.0,0.0,0.0,0.0
1402598086842784589,0,6.83577398645,-0.114322152727,-13.8847081119,0.043815185726,-1.03352074986,0.0,-0.77073202938,0.0,-2.45352420102,0.0,0.0,0.0,0.0,196.780990068,25.168233181,-19.200438227,0.00230154196664,100.0,0.260073033971,100.0,0.0,100.0,0.254418150756,100.0,2537186.29739,0.0,0.0,0.0,0.0,0.0,0.0
1402598086862210275,0,6.83577398645,-0.114322152727,-13.8847081119,0.043815185726,-1.03352074986,0.0,-0.77073202938,0.0,-2.45352420102,0.0,0.0,0.0,0.0,196.780990068,25.168233181,-19.200438227,0.00230154196664,100.0,0.260073033971,100.0,0.0,100.0,0.254418150756,100.0,2537186.29739,0.0,0.0,0.0,0.0,0.0,0.0
1402598086882962486,0,6.76488539666,-0.114322152727,-13.9126217436,0.043815185726,-1.07572556522,0.0,-0.78759209416,0.0,-2.45450202948,0.0,0.0,0.0,0.0,196.780990068,25.168233181,-19.200438227,0.00230154196664,100.0,0.261607495946,100.0,0.0,100.0,0.254418150756,100.0,2537186.29739,0.0,0.0,0.0,0.0,0.0,0.0
1402598086902162198,0,6.76488539666,-0.114322152727,-13.9126217436,0.043815185726,-1.07572556522,0.0,-0.78759209416,0.0,-2.45450202948,0.0,0.0,0.0,0.0,196.780990068,25.168233181,-19.200438227,0.00230154196664,100.0,0.260073033971,100.0,0.0,100.0,0.254418150756,100.0,2537186.29739,0.0,0.0,0.0,0.0,0.0,0.0
1402598086922585969,0,6.74220954251,-0.114322152727,-13.9294436322,0.043815185726,-1.08670730899,0.0,-0.796473149681,0.0,-2.45345910989,0.0,0.0,0.0,0.0,196.780990068,25.168233181,-19.200438227,0.00230154196664,100.0,0.261607495946,100.0,0.0,100.0,0.254418150756,100.0,2537186.29739,0.0,0.0,0.0,0.0,0.0,0.0
1402598086942106764,0,6.74220954251,-0.114322152727,-13.9294436322,0.043815185726,-1.08670730899,0.0,-0.796473149681,0.0,-2.45345910989,0.0,0.0,0.0,0.0,196.780990068,25.168233181,-19.200438227,0.00230154196664,100.0,0.261607495946,100.0,0.0,100.0,0.254418150756,100.0,2537186.29739,0.0,0.0,0.0,0.0,0.0,0.0
1402598086962732395,0,6.6970907903,-0.114322152727,-13.9625529999,0.043815185726,-1.10924417709,0.0,-0.813230650619,0.0,-2.45145286983,0.0,0.0,0.0,0.0,196.780990068,25.168233181,-19.200438227,0.00230154196664,100.0,0.261607495946,100.0,0.0,100.0,0.254418150756,100.0,2537186.29739,0.0,0.0,0.0,0.0,0.0,0.0
1402598086982252859,0,6.6970907903,-0.114322152727,-13.9625529999,0.043815185726,-1.10924417709,0.0,-0.813230650619,0.0,-2.45145286983,0.0,0.0,0.0,0.0,196.780990068,25.168233181,-19.200438227,0.00230154196664,100.0,0.260073033971,100.0,0.0,100.0,0.254418150756,100.0,2537186.29739,0.0,0.0,0.0,0.0,0.0,0.0
1402598087002871112,0,6.65905996402,-0.114322152727,-14.0151889803,0.043815185726,-1.11646131207,0.0,-0.843124734754,0.0,-2.44609343651,0.0,0.0,0.0,0.0,196.780990068,25.168233181,-19.200438227,0.00230154196664,100.0,0.260073033971,100.0,0.0,100.0,0.254418150756,100.0,2537186.29739,0.0,0.0,0.0,0.0,0.0,0.0
1402598087022239441,0,6.65905996402,-0.114322152727,-14.0151889803,0.043815185726,-1.11646131207,0.0,-0.843124734754,0.0,-2.44609343651,0.0,0.0,0.0,0.0,196.780990068,25.168233181,-19.200438227,0.00230154196664,100.0,0.260073033971,100.0,0.0,100.0,0.254418150756,100.0,2537186.29739,0.0,0.0,0.0,0.0,0.0,0.0
1402598087042772699,0,6.59308823694,-0.114322152727,-14.0527671344,0.043815185726,-1.1442129952,0.0,-0.85273516723,0.0,-2.44506619717,0.0,0.0,0.0,0.0,196.780990068,25.168233181,-19.200438227,0.00383600394174,100.0,0.260073033971,100.0,0.0,100.0,0.254418150756,100.0,2537186.29739,0.0,0.0,0.0,0.0,0.0,0.0
1402598087062194741,0,6.59308823694,-0.114322152727,-14.0527671344,0.043815185726,-1.1442129952,0.0,-0.85273516723,0.0,-2.44506619717,0.0,0.0,0.0,0.0,196.780990068,25.168233181,-19.200438227,0.00230154196664,100.0,0.260073033971,100.0,0.0,100.0,0.254418150756,100.0,2537186.29739,0.0,0.0,0.0,0.0,0.0,0.0
1402598087082733630,0,6.5574707331,-0.114322152727,-14.0795193377,0.043815185726,-1.15754080851,0.0,-0.864476177881,0.0,-2.44358349077,0.0,0.0,0.0,0.0,196.780990068,25.168233181,-19.200438227,0.00383600394174,100.0,0.260073033971,100.0,0.0,100.0,0.254418150756,100.0,2537186.29739,0.0,0.0,0.0,0.0,0.0,0.0
1402598087102289516,0,6.53325314296,-0.114322152727,-14.0980088788,0.043815185726,-1.16622578676,0.0,-0.872686951937,0.0,-2.44256803856,0.0,0.0,0.0,0.0,196.780990068,25.168233181,-19.200438227,0.00230154196664,100.0,0.261607495946,100.0,0.0,100.0,0.254418150756,100.0,2537186.29739,0.0,0.0,0.0,0.0,0.0,0.0
1402598087122841084,0,6.53325314296,-0.114322152727,-14.0980088788,0.043815185726,-1.16622578676,0.0,-0.872686951937,0.0,-2.44256803856,0.0,0.0,0.0,0.0,196.780990068,25.168233181,-19.200438227,0.00230154196664,100.0,0.261607495946,100.0,0.0,100.0,0.254418150756,100.0,2537186.29739,0.0,0.0,0.0,0.0,0.0,0.0
1402598087142307623,0,6.50150943208,-0.114322152727,-14.1141611036,0.043815185726,-1.18174963978,0.0,-0.87125943592,0.0,-2.44242447134,0.0,0.0,0.0,0.0,196.780990068,25.168233181,-19.200438227,0.00230154196664,100.0,0.261607495946,100.0,0.0,100.0,0.254418150756,100.0,2537186.29739,0.0,0.0,0.0,0.0,0.0,0.0
1402598087162857516,0,6.50150943208,-0.114322152727,-14.1141611036,0.043815185726,-1.18174963978,0.0,-0.87125943592,0.0,-2.44242447134,0.0,0.0,0.0,0.0,196.780990068,25.168233181,-19.200438227,0.00230154196664,100.0,0.260073033971,100.0,0.0,100.0,0.254418150756,100.0,2537186.29739,0.0,0.0,0.0,0.0,0.0,0.0
1402598087182299077,0,6.45175590154,-0.114322152727,-14.1512502003,0.043815185726,-1.19790147202,0.0,-0.888933914899,0.0,-2.44029283879,0.0,0.0,0.0,0.0,196.780990068,25.168233181,-19.200438227,0.00230154196664,100.0,0.261607495946,100.0,0.0,100.0,0.254418150756,100.0,2537186.29739,0.0,0.0,0.0,0.0,0.0,0.0
1402598087202861487,0,6.45175590154,-0.114322152727,-14.1512502003,0.043815185726,-1.19790147202,0.0,-0.888933914899,0.0,-2.44029283879,0.0,0.0,0.0,0.0,196.780990068,25.168233181,-19.200438227,0.00230154196664,100.0,0.260073033971,100.0,0.0,100.0,0.254418150756,100.0,2537186.29739,0.0,0.0,0.0,0.0,0.0,0.0
1402598087222226143,0,6.40581084442,-0.114322152727,-14.1905297423,0.043815185726,-1.20511576391,0.0,-0.900751149375,0.0,-2.43787719958,0.0,0.0,0.0,0.0,196.780990068,25.168233181,-19.200438227,0.00230154196664,100.0,0.261607495946,100.0,0.0,100.0,0.254418150756,100.0,2537186.29739,0.0,0.0,0.0,0.0,0.0,0.0
1402598087242740862,0,6.40581084442,-0.114322152727,-14.1905297423,0.043815185726,-1.20511576391,0.0,-0.900751149375,0.0,-2.43787719958,0.0,0.0,0.0,0.0,196.780990068,25.168233181,-19.200438227,0.00230154196664,100.0,0.261607495946,100.0,0.0,100.0,0.254418150756,100.0,2537186.29739,0.0,0.0,0.0,0.0,0.0,0.0
1402598087262222160,0,6.35032837178,-0.114322152727,-14.2533625853,0.043815185726,-1.206223945,0.0,-0.946391598824,0.0,-2.43392900263,0.0,0.0,0.0,0.0,196.780990068,25.168233181,-19.200438227,0.00230154196664,100.0,0.260073033971,100.0,0.0,100.0,0.254418150756,100.0,2537186.29739,0.0,0.0,0.0,0.0,0.0,0.0
1402598087282697395,0,6.35032837178,-0.114322152727,-14.2533625853,0.043815185726,-1.206223945,0.0,-0.946391598824,0.0,-2.43392900263,0.0,0.0,0.0,0.0,196.780990068,25.168233181,-19.200438227,0.00230154196664,100.0,0.260073033971,100.0,0.0,100.0,0.254418150756,100.0,2537186.29739,0.0,0.0,0.0,0.0,0.0,0.0
1402598087302283840,0,6.25515066247,-0.114322152727,-14.3061113437,0.043815185726,-1.22501309429,0.0,-0.934451183639,0.0,-2.42918747325,0.0,0.0,0.0,0.0,196.780990068,25.168233181,-19.200438227,0.00230154196664,100.0,0.261607495946,100.0,0.0,100.0,0.254418150756,100.0,2537186.29739,0.0,0.0,0.0,0.0,0.0,0.0
1402598087322879758,0,6.25515066247,-0.114322152727,-14.3061113437,0.043815185726,-1.22501309429,0.0,-0.934451183639,0.0,-2.42918747325,0.0,0.0,0.0,0.0,196.780990068,25.168233181,-19.200438227,0.00230154196664,100.0,0.261607495946,100.0,0.0,100.0,0.254418150756,100.0,2537186.29739,0.0,0.0,0.0,0.0,0.0,0.0
1402598087342192338,0,6.20436334538,-0.114322152727,-14.3464919002,0.043815185726,-1.22822130511,0.0,-0.956425906787,0.0,-2.42669472898,0.0,0.0,0.0,0.0,196.780990068,25.168233181,-19.200438227,0.00230154196664,100.0,0.260073033971,100.0,0.0,100.0,0.254418150756,100.0,2537186.29739,0.0,0.0,0.0,0.0,0.0,0.0
1402598087362820786,0,6.20436334538,-0.114322152727,-14.3464919002,0.043815185726,-1.22822130511,0.0,-0.956425906787,0.0,-2.42669472898,0.0,0.0,0.0,0.0,196.780990068,25.168233181,-19.200438227,0.00230154196664,100.0,0.261607495946,100.0,0.0,100.0,0.254418150756,100.0,2537186.29739,0.0,0.0,0.0,0.0,0.0,0.0
1402598087382310546,0,6.18001990079,-0.114322152727,-14.3658898795,0.043815185726,-1.23268939785,0.0,-0.961927990108,0.0,-2.4252739255,0.0,0.0,0.0,0.0,196.780990068,25.168233181,-19.200438227,0.00230154196664,100.0,0.261607495946,100.0,0.0,100.0,0.254418150756,100.0,2537186.29739,0.0,0.0,0.0,0.0,0.0,0.0
1402598087402930279,0,6.18001990079,-0.114322152727,-14.3658898795,0.043815185726,-1.23268939785,0.0,-0.961927990108,0.0,-2.4252739255,0.0,0.0,0.0,0.0,196.780990068,25.168233181,-19.200438227,0.00230154196664,100.0,0.261607495946,100.0,0.0,100.0,0.254418150756,100.0,2537186.29739,0.0,0.0,0.0,0.0,0.0,0.0
1402598087422237740,0,6.15432615226,-0.114322152727,-14.3862932172,0.043815185726,-1.23568245377,0.0,-0.96810619763,0.0,-2.42370015003,0.0,0.0,0.0,0.0,196.780990068,25.168233181,-19.200438227,0.00230154196664,100.0,0.260073033971,100.0,0.0,100.0,0.254418150756,100.0,2537186.29739,0.0,0.0,0.0,0.0,0.0,0.0
1402598087442692048,0,6.15432615226,-0.114322152727,-14.3862932172,0.043815185726,-1.23568245377,0.0,-0.96810619763,0.0,-2.42370015003,0.0,0.0,0.0,0.0,196.780990068,25.168233181,-19.200438227,0.00230154196664,100.0,0.261607495946,100.0,0.0,100.0,0.254418150756,100.0,2537186.29739,0.0,0.0,0.0,0.0,0.0,0.0
1402598087462174138,0,6.10105749407,-0.114322152727,-14.4249732372,0.043815185726,-1.23874503976,0.0,-0.974880825713,0.0,-2.42001971837,0.0,0.0,0.0,0.0,196.780990068,25.168233181,-19.200438227,0.00230154196664,100.0,0.261607495946,100.0,0.0,100.0,0.254418150756,100.0,2537186.29739,0.0,0.0,0.0,0.0,0.0,0.0
1402598087483094948,0,6.10105749407,-0.114322152727,-14.4249732372,0.043815185726,-1.23874503976,0.0,-0.974880825713,0.0,-2.42001971837,0.0,0.0,0.0,0.0,196.780990068,25.168233181,-19.200438227,0.00230154196664,100.0,0.261607495946,100.0,0.0,100.0,0.254418150756,100.0,2537186.29739,0.0,0.0,0.0,0.0,0.0,0.0
1402598087502090546,0,6.03180591721,-0.114322152727,-14.480242395,0.043815185726,-1.25152384464,0.0,-0.997058490901,0.0,-2.41702855605,0.0,0.0,0.0,0.0,196.780990068,25.168233181,-19.200438227,0.00230154196664,100.0,0.261607495946,100.0,0.0,100.0,0.254418150756,100.0,2537186.29739,0.0,0.0,0.0,0.0,0.0,0.0
1402598087522589701,0,6.03180591721,-0.114322152727,-14.480242395,0.043815185726,-1.25152384464,0.0,-0.997058490901,0.0,-2.41702855605,0.0,0.0,0.0,0.0,196.780990068,25.168233181,-19.200438227,0.00230154196664,100.0,0.261607495946,100.0,0.0,100.0,0.254418150756,100.0,2537186.29739,0.0,0.0,0.0,0.0,0.0,0.0
1402598087542000486,0,5.96688883532,-0.114322152727,-14.5327069535,0.043815185726,-1.25976190327,0.0,-1.00875521665,0.0,-2.41277468804,0.0,0.0,0.0,0.0,196.780990068,25.168233181,-19.200438227,0.00230154196664,100.0,0.261607495946,100.0,0.0,100.0,0.254418150756,100.0,2537186.29739,0.0,0.0,0.0,0.0,0.0,0.0
1402598087562790459,0,5.96688883532,-0.114322152727,-14.5327069535,0.043815185726,-1.25976190327,0.0,-1.00875521665,0.0,-2.41277468804,0.0,0.0,0.0,0.0,196.780990068,25.168233181,-19.200438227,0.00230154196664,100.0,0.261607495946,100.0,0.0,100.0,0.254418150756,100.0,2537186.29739,0.0,0.0,0.0,0.0,0.0,0.0
1402598087582339067,0,5.93796014447,-0.114322152727,-14.5542239289,0.043815185726,-1.25921161017,0.0,-1.01994250599,0.0,-2.4109157108,0.0,0.0,0.0,0.0,196.780990068,25.168233181,-19.200438227,0.00230154196664,100.0,0.261607495946,100.0,0.0,100.0,0.254418150756,100.0,2537186.29739,0.0,0.0,0.0,0.0,0.0,0.0
1402598087602791007,0,5.93796014447,-0.114322152727,-14.5542239289,0.043815185726,-1.25921161017,0.0,-1.01994250599,0.0,-2.4109157108,0.0,0.0,0.0,0.0,196.780990068,25.168233181,-19.200438227,0.00230154196664,100.0,0.260073033971,100.0,0.0,100.0,0.254418150756,100.0,2537186.29739,0.0,0.0,0.0,0.0,0.0,0.0
1402598087622188054,0,5.88494915487,-0.114322152727,-14.5973793329,0.043815185726,-1.26681508578,0.0,-1.02792597615,0.0,-2.40737834607,0.0,0.0,0.0,0.0,196.780990068,25.168233181,-19.200438227,0.00230154196664,100.0,0.261607495946,100.0,0.0,100.0,0.254418150756,100.0,2537186.29739,0.0,0.0,0.0,0.0,0.0,0.0
1402598087642634093,0,5.88494915487,-0.114322152727,-14.5973793329,0.043815185726,-1.26681508578,0.0,-1.02792597615,0.0,-2.40737834607,0.0,0.0,0.0,0.0,196.780990068,25.168233181,-19.200438227,0.00230154196664,100.0,0.260073033971,100.0,0.0,100.0,0.254418150756,100.0,2537186.29739,0.0,0.0,0.0,0.0,0.0,0.0
1402598087662207973,0,5.83758190619,-0.114322152727,-14.6451344445,0.043815185726,-1.26390417088,0.0,-1.03999004306,0.0,-2.40476857576,0.0,0.0,0.0,0.0,196.780990068,25.168233181,-19.200438227,0.00230154196664,100.0,0.260073033971,100.0,0.0,100.0,0.254418150756,100.0,2537186.29739,0.0,0.0,0.0,0.0,0.0,0.0
1402598087682828989,0,5.83758190619,-0.114322152727,-14.6451344445,0.043815185726,-1.26390417088,0.0,-1.03999004306,0.0,-2.40476857576,0.0,0.0,0.0,0.0,196.780990068,25.168233181,-19.200438227,0.00230154196664,100.0,0.261607495946,100.0,0.0,100.0,0.254418150756,100.0,2537186.29739,0.0,0.0,0.0,0.0,0.0,0.0
1402598087702194147,0,5.78044637609,-0.114322152727,-14.6940596605,0.043815185726,-1.27274145168,0.0,-1.06870685672,0.0,-2.40316751939,0.0,0.0,0.0,0.0,196.780990068,25.168233181,-19.200438227,0.00230154196664,100.0,0.261607495946,100.0,0.0,100.0,0.254418150756,100.0,2537186.29739,0.0,0.0,0.0,0.0,0.0,0.0
1402598087722754446,0,5.78044637609,-0.114322152727,-14.6940596605,0.043815185726,-1.27274145168,0.0,-1.06870685672,0.0,-2.40316751939,0.0,0.0,0.0,0.0,196.780990068,25.168233181,-19.200438227,0.00230154196664,100.0,0.260073033971,100.0,0.0,100.0,0.254418150756,100.0,2537186.29739,0.0,0.0,0.0,0.0,0.0,0.0
1402598087742316976,0,5.71993693695,-0.114322152727,-14.7490723614,0.043815185726,-1.26485271399,0.0,-1.07642154188,0.0,-2.39782759321,0.0,0.0,0.0,0.0,196.780990068,25.168233181,-19.200438227,0.00230154196664,100.0,0.261607495946,100.0,0.0,100.0,0.254418150756,100.0,2537186.29739,0.0,0.0,0.0,0.0,0.0,0.0
1402598087762737817,0,5.71993693695,-0.114322152727,-14.7490723614,0.043815185726,-1.26485271399,0.0,-1.07642154188,0.0,-2.39782759321,0.0,0.0,0.0,0.0,196.780990068,25.168233181,-19.200438227,0.000767318410122,100.0,0.260073033971,100.0,0.0,100.0,0.254418150756,100.0,2537186.29739,0.0,0.0,0.0,0.0,0.0,0.0
1402598087782306935,0,5.68454966367,-0.114322152727,-14.786093251,0.043815185726,-1.25596928335,0.0,-1.08188101886,0.0,-2.39506297796,0.0,0.0,0.0,0.0,196.780990068,25.168233181,-19.200438227,0.00230154196664,100.0,0.260073033971,100.0,0.0,100.0,0.254418150756,100.0,2537186.29739,0.0,0.0,0.0,0.0,0.0,0.0
1402598087802165303,0,5.65998211632,-0.114322152727,-14.8074926836,0.043815185726,-1.25770262201,0.0,-1.08628809971,0.0,-2.39332907057,0.0,0.0,0.0,0.0,196.780990068,25.168233181,-19.200438227,0.00230154196664,100.0,0.261607495946,100.0,0.0,100.0,0.254418150756,100.0,2537186.29739,0.0,0.0,0.0,0.0,0.0,0.0
1402598087822710708,0,5.65998211632,-0.114322152727,-14.8074926836,0.043815185726,-1.25770262201,0.0,-1.08628809971,0.0,-2.39332907057,0.0,0.0,0.0,0.0,196.780990068,25.168233181,-19.200438227,0.00230154196664,100.0,0.261607495946,100.0,0.0,100.0,0.254418150756,100.0,2537186.29739,0.0,0.0,0.0,0.0,0.0,0.0
1402598087842399580,0,5.62666735002,-0.114322152727,-14.8353363479,0.043815185726,-1.26876234828,0.0,-1.09981061527,0.0,-2.39188955708,0.0,0.0,0.0,0.0,196.780990068,25.168233181,-19.200438227,0.00230154196664,100.0,0.260073033971,100.0,0.0,100.0,0.254418150756,100.0,2537186.29739,0.0,0.0,0.0,0.0,0.0,0.0
1402598087862851234,0,5.62666735002,-0.114322152727,-14.8353363479,0.043815185726,-1.26876234828,0.0,-1.09981061527,0.0,-2.39188955708,0.0,0.0,0.0,0.0,196.780990068,25.168233181,-19.200438227,0.00230154196664,100.0,0.261607495946,100.0,0.0,100.0,0.254418150756,100.0,2537186.29739,0.0,0.0,0.0,0.0,0.0,0.0
1402598087882246536,0,5.58114491135,-0.114322152727,-14.8849771832,0.043815185726,-1.25954387163,0.0,-1.10442382735,0.0,-2.38914925939,0.0,0.0,0.0,0.0,196.780990068,25.168233181,-19.200438227,0.000767318410122,100.0,0.261607495946,100.0,0.0,100.0,0.254418150756,100.0,2537186.29739,0.0,0.0,0.0,0.0,0.0,0.0
1402598087902774497,0,5.58114491135,-0.114322152727,-14.8849771832,0.043815185726,-1.25954387163,0.0,-1.10442382735,0.0,-2.38914925939,0.0,0.0,0.0,0.0,196.780990068,25.168233181,-19.200438227,0.000767318410122,100.0,0.260073033971,100.0,0.0,100.0,0.254418150756,100.0,2537186.29739,0.0,0.0,0.0,0.0,0.0,0.0
1402598087922202737,0,5.53001743517,-0.114322152727,-14.9304891019,0.043815185726,-1.2578178981,0.0,-1.11663700337,0.0,-2.38589337492,0.0,0.0,0.0,0.0,196.780990068,25.168233181,-19.200438227,0.00230154196664,100.0,0.260073033971,100.0,0.0,100.0,0.254418150756,100.0,2537186.29739,0.0,0.0,0.0,0.0,0.0,0.0
1402598087942935951,0,5.53001743517,-0.114322152727,-14.9304891019,0.043815185726,-1.2578178981,0.0,-1.11663700337,0.0,-2.38589337492,0.0,0.0,0.0,0.0,196.780990068,25.168233181,-19.200438227,0.00230154196664,100.0,0.261607495946,100.0,0.0,100.0,0.254418150756,100.0,2537186.29739,0.0,0.0,0.0,0.0,0.0,0.0
1402598087962605622,0,5.472457691,-0.114322152727,-14.9810413295,0.043815185726,-1.268813254,0.0,-1.13651426065,0.0,-2.382801704,0.0,0.0,0.0,0.0,196.780990068,25.168233181,-19.200438227,0.000767318410122,100.0,0.260073033971,100.0,0.0,100.0,0.254418150756,100.0,2537186.29739,0.0,0.0,0.0,0.0,0.0,0.0
1402598087982528501,0,5.472457691,-0.114322152727,-14.9810413295,0.043815185726,-1.268813254,0.0,-1.13651426065,0.0,-2.382801704,0.0,0.0,0.0,0.0,196.780990068,25.168233181,-19.200438227,0.00230154196664,100.0,0.261607495946,100.0,0.0,100.0,0.254418150756,100.0,2537186.29739,0.0,0.0,0.0,0.0,0.0,0.0
1402598088002300416,0,5.42223335708,-0.114322152727,-15.0311761552,0.043815185726,-1.26977876726,0.0,-1.12721367414,0.0,-2.37636397345,0.0,0.0,0.0,0.0,196.780990068,25.168233181,-19.200438227,0.00230154196664,100.0,0.261607495946,100.0,0.0,100.0,0.254418150756,100.0,2537186.29739,0.0,0.0,0.0,0.0,0.0,0.0
1402598088022841075,0,5.42223335708,-0.114322152727,-15.0311761552,0.043815185726,-1.26977876726,0.0,-1.12721367414,0.0,-2.37636397345,0.0,0.0,0.0,0.0,196.780990068,25.168233181,-19.200438227,0.00230154196664,100.0,0.261607495946,100.0,0.0,100.0,0.254418150756,100.0,2537186.29739,0.0,0.0,0.0,0.0,0.0,0.0
1402598088042215376,0,5.36323226368,-0.114322152727,-15.0828481747,0.043815185726,-1.28189594813,0.0,-1.1420699294,0.0,-2.37407856171,0.0,0.0,0.0,0.0,196.780990068,25.168233181,-19.200438227,0.00230154196664,100.0,0.261607495946,100.0,0.0,100.0,0.254418150756,100.0,2537186.29739,0.0,0.0,0.0,0.0,0.0,0.0
1402598088062640939,0,5.36323226368,-0.114322152727,-15.0828481747,0.043815185726,-1.28189594813,0.0,-1.1420699294,0.0,-2.37407856171,0.0,0.0,0.0,0.0,196.780990068,25.168233181,-19.200438227,0.000767318410122,100.0,0.261607495946,100.0,0.0,100.0,0.254418150756,100.0,2537186.29739,0.0,0.0,0.0,0.0,0.0,0.0
1402598088082239984,0,5.31774926898,-0.114322152727,-15.1315168949,0.043815185726,-1.26627625095,0.0,-1.14967610004,0.0,-2.3721747835,0.0,0.0,0.0,0.0,196.780990068,25.168233181,-19.200438227,0.000767318410122,100.0,0.261607495946,100.0,0.0,100.0,0.254418150756,100.0,2537186.29739,0.0,0.0,0.0,0.0,0.0,0.0
1402598088102750770,0,5.31774926898,-0.114322152727,-15.1315168949,0.043815185726,-1.26627625095,0.0,-1.14967610004,0.0,-2.3721747835,0.0,0.0,0.0,0.0,196.780990068,25.168233181,-19.200438227,0.00230154196664,100.0,0.261607495946,100.0,0.0,100.0,0.254418150756,100.0,2537186.29739,0.0,0.0,0.0,0.0,0.0,0.0
1402598088122173434,0,5.24805864995,-0.114322152727,-15.1955004626,0.043815185726,-1.26893296287,0.0,-1.16762974473,0.0,-2.36999247417,0.0,0.0,0.0,0.0,196.780990068,25.168233181,-19.200438227,0.00230154196664,100.0,0.260073033971,100.0,0.0,100.0,0.254418150756,100.0,2537186.29739,0.0,0.0,0.0,0.0,0.0,0.0
1402598088142694345,0,5.24805864995,-0.114322152727,-15.1955004626,0.043815185726,-1.26893296287,0.0,-1.16762974473,0.0,-2.36999247417,0.0,0.0,0.0,0.0,196.780990068,25.168233181,-19.200438227,0.00230154196664,100.0,0.261607495946,100.0,0.0,100.0,0.254418150756,100.0,2537186.29739,0.0,0.0,0.0,0.0,0.0,0.0
1402598088162403777,0,5.18341932989,-0.114322152727,-15.2590060212,0.043815185726,-1.26625204884,0.0,-1.17981259032,0.0,-2.36639584309,0.0,0.0,0.0,0.0,196.780990068,25.168233181,-19.200438227,0.00230154196664,100.0,0.261607495946,100.0,0.0,100.0,0.254418150756,100.0,2537186.29739,0.0,0.0,0.0,0.0,0.0,0.0
1402598088182740467,0,5.18341932989,-0.114322152727,-15.2590060212,0.043815185726,-1.26625204884,0.0,-1.17981259032,0.0,-2.36639584309,0.0,0.0,0.0,0.0,196.780990068,25.168233181,-19.200438227,0.000767318410122,100.0,0.261607495946,100.0,0.0,100.0,0.254418150756,100.0,2537186.29739,0.0,0.0,0.0,0.0,0.0,0.0
1402598088202174678,0,5.15810619791,-0.114322152727,-15.2826859236,0.043815185726,-1.26469995473,0.0,-1.18133822725,0.0,-2.36495755502,0.0,0.0,0.0,0.0,196.780990068,25.168233181,-19.200438227,0.00230154196664,100.0,0.261607495946,100.0,0.0,100.0,0.254418150756,100.0,2537186.29739,0.0,0.0,0.0,0.0,0.0,0.0
1402598088222788029,0,5.15810619791,-0.114322152727,-15.2826859236,0.043815185726,-1.26469995473,0.0,-1.18133822725,0.0,-2.36495755502,0.0,0.0,0.0,0.0,196.780990068,25.168233181,-19.200438227,0.000767318410122,100.0,0.261607495946,100.0,0.0,100.0,0.254418150756,100.0,2537186.29739,0.0,0.0,0.0,0.0,0.0,0.0
1402598088242159089,0,5.10057980364,-0.114322152727,-15.3362010655,0.043815185726,-1.26820325821,0.0,-1.19589273284,0.0,-2.36136149717,0.0,0.0,0.0,0.0,196.780990068,25.168233181,-19.200438227,0.000767318410122,100.0,0.261607495946,100.0,0.0,100.0,0.254418150756,100.0,2537186.29739,0.0,0.0,0.0,0.0,0.0,0.0
1402598088262862428,0,5.10057980364,-0.114322152727,-15.3362010655,0.043815185726,-1.26820325821,0.0,-1.19589273284,0.0,-2.36136149717,0.0,0.0,0.0,0.0,196.780990068,25.168233181,-19.200438227,0.00230154196664,100.0,0.261607495946,100.0,0.0,100.0,0.254418150756,100.0,2537186.29739,0.0,0.0,0.0,0.0,0.0,0.0
1402598088282496533,0,5.04872339169,-0.114322152727,-15.3856761041,0.043815185726,-1.26650329565,0.0,-1.20141268101,0.0,-2.35851045381,0.0,0.0,0.0,0.0,196.780990068,25.168233181,-19.200438227,0.00230154196664,100.0,0.261607495946,100.0,0.0,100.0,0.254418150756,100.0,2537186.29739,0.0,0.0,0.0,0.0,0.0,0.0
1402598088302785515,0,5.04872339169,-0.114322152727,-15.3856761041,0.043815185726,-1.26650329565,0.0,-1.20141268101,0.0,-2.35851045381,0.0,0.0,0.0,0.0,196.780990068,25.168233181,-19.200438227,0.00230154196664,100.0,0.260073033971,100.0,0.0,100.0,0.254418150756,100.0,2537186.29739,0.0,0.0,0.0,0.0,0.0,0.0
1402598088322268898,0,4.98899918434,-0.114322152727,-15.4409173848,0.043815185726,-1.28358947278,0.0,-1.20909988081,0.0,-2.35451626147,0.0,0.0,0.0,0.0,196.780990068,25.168233181,-19.200438227,0.00230154196664,100.0,0.260073033971,100.0,0.0,100.0,0.254418150756,100.0,2537186.29739,0.0,0.0,0.0,0.0,0.0,0.0
1402598088342214177,0,4.98899918434,-0.114322152727,-15.4409173848,0.043815185726,-1.28358947278,0.0,-1.20909988081,0.0,-2.35451626147,0.0,0.0,0.0,0.0,196.780990068,25.168233181,-19.200438227,0.00230154196664,100.0,0.260073033971,100.0,0.0,100.0,0.254418150756,100.0,2537186.29739,0.0,0.0,0.0,0.0,0.0,0.0
1402598088362703500,0,4.93676230133,-0.114322152727,-15.4909707374,0.043815185726,-1.28175925693,0.0,-1.21876814077,0.0,-2.35155955908,0.0,0.0,0.0,0.0,196.780990068,25.168233181,-19.200438227,0.000767318410122,100.0,0.261607495946,100.0,0.0,100.0,0.254418150756,100.0,2537186.29739,0.0,0.0,0.0,0.0,0.0,0.0
1402598088382258458,0,4.93676230133,-0.114322152727,-15.4909707374,0.043815185726,-1.28175925693,0.0,-1.21876814077,0.0,-2.35155955908,0.0,0.0,0.0,0.0,196.780990068,25.168233181,-19.200438227,0.00230154196664,100.0,0.261607495946,100.0,0.0,100.0,0.254418150756,100.0,2537186.29739,0.0,0.0,0.0,0.0,0.0,0.0
1402598088402840372,0,4.86432963867,-0.114322152727,-15.5619781925,0.043815185726,-1.28330258635,0.0,-1.23023312275,0.0,-2.34666395855,0.0,0.0,0.0,0.0,196.780990068,25.168233181,-19.200438227,0.00230154196664,100.0,0.261607495946,100.0,0.0,100.0,0.254418150756,100.0,2537186.29739,0.0,0.0,0.0,0.0,0.0,0.0
1402598088422244264,0,4.86432963867,-0.114322152727,-15.5619781925,0.043815185726,-1.28330258635,0.0,-1.23023312275,0.0,-2.34666395855,0.0,0.0,0.0,0.0,196.780990068,25.168233181,-19.200438227,0.00230154196664,100.0,0.261607495946,100.0,0.0,100.0,0.254418150756,100.0,2537186.29739,0.0,0.0,0.0,0.0,0.0,0.0
1402598088442819989,0,4.82553818344,-0.114322152727,-15.5996457827,0.043815185726,-1.28173441615,0.0,-1.23538041144,0.0,-2.34445989811,0.0,0.0,0.0,0.0,196.780990068,25.168233181,-19.200438227,0.00230154196664,100.0,0.261607495946,100.0,0.0,100.0,0.254418150756,100.0,2537186.29739,0.0,0.0,0.0,0.0,0.0,0.0
1402598088462190155,0,4.80667943977,-0.114322152727,-15.6244912309,0.043815185726,-1.26004144059,0.0,-1.22368937135,0.0,-2.34124077325,0.0,0.0,0.0,0.0,196.780990068,25.168233181,-19.200438227,0.00230154196664,100.0,0.261607495946,100.0,0.0,100.0,0.254418150756,100.0,2537186.29739,0.0,0.0,0.0,0.0,0.0,0.0
1402598088482628128,0,4.80667943977,-0.114322152727,-15.6244912309,0.043815185726,-1.26004144059,0.0,-1.22368937135,0.0,-2.34124077325,0.0,0.0,0.0,0.0,196.780990068,25.168233181,-19.200438227,0.00230154196664,100.0,0.261607495946,100.0,0.0,100.0,0.254418150756,100.0,2537186.29739,0.0,0.0,0.0,0.0,0.0,0.0
1402598088502079687,0,4.78037128117,-0.114322152727,-15.6502120058,0.043815185726,-1.25777295785,0.0,-1.22705597054,0.0,-2.33970828996,0.0,0.0,0.0,0.0,196.780990068,25.168233181,-19.200438227,0.000767318410122,100.0,0.261607495946,100.0,0.0,100.0,0.254418150756,100.0,2537186.29739,0.0,0.0,0.0,0.0,0.0,0.0
1402598088522702574,0,4.78037128117,-0.114322152727,-15.6502120058,0.043815185726,-1.25777295785,0.0,-1.22705597054,0.0,-2.33970828996,0.0,0.0,0.0,0.0,196.780990068,25.168233181,-19.200438227,0.000767318410122,100.0,0.261607495946,100.0,0.0,100.0,0.254418150756,100.0,2537186.29739,0.0,0.0,0.0,0.0,0.0,0.0
1402598088542199251,0,4.71509472318,-0.114322152727,-15.714386063,0.043815185726,-1.24590317209,0.0,-1.23964358647,0.0,-2.33600440142,0.0,0.0,0.0,0.0,196.780990068,25.168233181,-19.200438227,0.00230154196664,100.0,0.261607495946,100.0,0.0,100.0,0.254418150756,100.0,2537186.29739,0.0,0.0,0.0,0.0,0.0,0.0
1402598088562788126,0,4.71509472318,-0.114322152727,-15.714386063,0.043815185726,-1.24590317209,0.0,-1.23964358647,0.0,-2.33600440142,0.0,0.0,0.0,0.0,196.780990068,25.168233181,-19.200438227,0.00230154196664,100.0,0.261607495946,100.0,0.0,100.0,0.254418150756,100.0,2537186.29739,0.0,0.0,0.0,0.0,0.0,0.0
1402598088582177038,0,4.6506040294,-0.114322152727,-15.7792172389,0.043815185726,-1.24453392466,0.0,-1.24165446691,0.0,-2.33243431569,0.0,0.0,0.0,0.0,196.780990068,25.168233181,-19.200438227,0.00230154196664,100.0,0.261607495946,100.0,0.0,100.0,0.254418150756,100.0,2537186.29739,0.0,0.0,0.0,0.0,0.0,0.0
1402598088602726805,0,4.6506040294,-0.114322152727,-15.7792172389,0.043815185726,-1.24453392466,0.0,-1.24165446691,0.0,-2.33243431569,0.0,0.0,0.0,0.0,196.780990068,25.168233181,-19.200438227,0.00230154196664,100.0,0.261607495946,100.0,0.0,100.0,0.254418150756,100.0,2537186.29739,0.0,0.0,0.0,0.0,0.0,0.0
1402598088622259981,0,4.62469904888,-0.114322152727,-15.8053128661,0.043815185726,-1.24634335882,0.0,-1.24524435394,0.0,-2.3310334339,0.0,0.0,0.0,0.0,196.780990068,25.168233181,-19.200438227,0.000767318410122,100.0,0.261607495946,100.0,0.0,100.0,0.254418150756,100.0,2537186.29739,0.0,0.0,0.0,0.0,0.0,0.0
1402598088642878287,0,4.62469904888,-0.114322152727,-15.8053128661,0.043815185726,-1.24634335882,0.0,-1.24524435394,0.0,-2.3310334339,0.0,0.0,0.0,0.0,196.780990068,25.168233181,-19.200438227,0.000767318410122,100.0,0.261607495946,100.0,0.0,100.0,0.254418150756,100.0,2537186.29739,0.0,0.0,0.0,0.0,0.0,0.0
1402598088662375381,0,4.55570122769,-0.114322152727,-15.8611639396,0.043815185726,-1.26692449092,0.0,-1.25651514176,0.0,-2.32789622712,0.0,0.0,0.0,0.0,196.780990068,25.168233181,-19.200438227,0.00230154196664,100.0,0.261607495946,100.0,0.0,100.0,0.254418150756,100.0,2537186.29739,0.0,0.0,0.0,0.0,0.0,0.0
1402598088682856590,0,4.55570122769,-0.114322152727,-15.8611639396,0.043815185726,-1.26692449092,0.0,-1.25651514176,0.0,-2.32789622712,0.0,0.0,0.0,0.0,196.780990068,25.168233181,-19.200438227,0.00230154196664,100.0,0.261607495946,100.0,0.0,100.0,0.254418150756,100.0,2537186.29739,0.0,0.0,0.0,0.0,0.0,0.0
1402598088702207250,0,4.5055697585,-0.114322152727,-15.9123135554,0.043815185726,-1.24886240166,0.0,-1.24082540696,0.0,-2.32366701693,0.0,0.0,0.0,0.0,196.780990068,25.168233181,-19.200438227,0.000767318410122,100.0,0.261607495946,100.0,0.0,100.0,0.254418150756,100.0,2537186.29739,0.0,0.0,0.0,0.0,0.0,0.0
1402598088722885725,0,4.5055697585,-0.114322152727,-15.9123135554,0.043815185726,-1.24886240166,0.0,-1.24082540696,0.0,-2.32366701693,0.0,0.0,0.0,0.0,196.780990068,25.168233181,-19.200438227,0.000767318410122,100.0,0.260073033971,100.0,0.0,100.0,0.254418150756,100.0,2537186.29739,0.0,0.0,0.0,0.0,0.0,0.0
1402598088742358040,0,4.4493770019,-0.114322152727,-15.9659756521,0.043815185726,-1.22961965046,0.0,-1.26129124674,0.0,-2.32367639018,0.0,0.0,0.0,0.0,196.780990068,25.168233181,-19.200438227,0.00230154196664,100.0,0.260073033971,100.0,0.0,100.0,0.254418150756,100.0,2537186.29739,0.0,0.0,0.0,0.0,0.0,0.0
1402598088763019347,0,4.4493770019,-0.114322152727,-15.9659756521,0.043815185726,-1.22961965046,0.0,-1.26129124674,0.0,-2.32367639018,0.0,0.0,0.0,0.0,196.780990068,25.168233181,-19.200438227,0.00230154196664,100.0,0.261607495946,100.0,0.0,100.0,0.254418150756,100.0,2537186.29739,0.0,0.0,0.0,0.0,0.0,0.0
1402598088782390293,0,4.39922240989,-0.114322152727,-16.0179083443,0.043815185726,-1.22408142664,0.0,-1.26612225721,0.0,-2.32094031265,0.0,0.0,0.0,0.0,196.780990068,25.168233181,-19.200438227,0.00230154196664,100.0,0.261607495946,100.0,0.0,100.0,0.254418150756,100.0,2537186.29739,0.0,0.0,0.0,0.0,0.0,0.0
1402598088802804713,0,4.39922240989,-0.114322152727,-16.0179083443,0.043815185726,-1.22408142664,0.0,-1.26612225721,0.0,-2.32094031265,0.0,0.0,0.0,0.0,196.780990068,25.168233181,-19.200438227,0.00230154196664,100.0,0.261607495946,100.0,0.0,100.0,0.254418150756,100.0,2537186.29739,0.0,0.0,0.0,0.0,0.0,0.0
1402598088822293970,0,4.3366842346,-0.114322152727,-16.0704605942,0.043815185726,-1.23766365805,0.0,-1.26149095896,0.0,-2.31588173991,0.0,0.0,0.0,0.0,196.780990068,25.168233181,-19.200438227,0.00230154196664,100.0,0.261607495946,100.0,0.0,100.0,0.254418150756,100.0,2537186.29739,0.0,0.0,0.0,0.0,0.0,0.0
1402598088842636698,0,4.3366842346,-0.114322152727,-16.0704605942,0.043815185726,-1.23766365805,0.0,-1.26149095896,0.0,-2.31588173991,0.0,0.0,0.0,0.0,196.780990068,25.168233181,-19.200438227,0.00230154196664,100.0,0.261607495946,100.0,0.0,100.0,0.254418150756,100.0,2537186.29739,0.0,0.0,0.0,0.0,0.0,0.0
1402598088862181607,0,4.25502356349,-0.114322152727,-16.1438795012,0.043815185726,-1.25159965795,0.0,-1.28379264085,0.0,-2.31272689659,0.0,0.0,0.0,0.0,196.780990068,25.168233181,-19.200438227,0.00230154196664,100.0,0.260073033971,100.0,0.0,100.0,0.254418150756,100.0,2537186.29739,0.0,0.0,0.0,0.0,0.0,0.0
1402598088882831704,0,4.25502356349,-0.114322152727,-16.1438795012,0.043815185726,-1.25159965795,0.0,-1.28379264085,0.0,-2.31272689659,0.0,0.0,0.0,0.0,196.780990068,25.168233181,-19.200438227,0.00230154196664,100.0,0.261607495946,100.0,0.0,100.0,0.254418150756,100.0,2537186.29739,0.0,0.0,0.0,0.0,0.0,0.0
1402598088902335327,0,4.21648982061,-0.114322152727,-16.183916499,0.043815185726,-1.24590474363,0.0,-1.29125950366,0.0,-2.31034237752,0.0,0.0,0.0,0.0,196.780990068,25.168233181,-19.200438227,0.00230154196664,100.0,0.261607495946,100.0,0.0,100.0,0.254418150756,100.0,2537186.29739,0.0,0.0,0.0,0.0,0.0,0.0
1402598088922778354,0,4.19519661743,-0.114322152727,-16.204636144,0.043815185726,-1.22236388592,0.0,-1.27467604608,0.0,-2.30830780013,0.0,0.0,0.0,0.0,196.780990068,25.168233181,-19.200438227,0.00230154196664,100.0,0.261607495946,100.0,0.0,100.0,0.254418150756,100.0,2537186.29739,0.0,0.0,0.0,0.0,0.0,0.0
1402598088942218493,0,4.19519661743,-0.114322152727,-16.204636144,0.043815185726,-1.22236388592,0.0,-1.27467604608,0.0,-2.30830780013,0.0,0.0,0.0,0.0,196.780990068,25.168233181,-19.200438227,0.00230154196664,100.0,0.261607495946,100.0,0.0,100.0,0.254418150756,100.0,2537186.29739,0.0,0.0,0.0,0.0,0.0,0.0
1402598088962928481,0,4.17002513493,-0.114322152727,-16.2314952605,0.043815185726,-1.21999004797,0.0,-1.2771150799,0.0,-2.30664376573,0.0,0.0,0.0,0.0,196.780990068,25.168233181,-19.200438227,0.00230154196664,100.0,0.261607495946,100.0,0.0,100.0,0.254418150756,100.0,2537186.29739,0.0,0.0,0.0,0.0,0.0,0.0
1402598088982228999,0,4.17002513493,-0.114322152727,-16.2314952605,0.043815185726,-1.21999004797,0.0,-1.2771150799,0.0,-2.30664376573,0.0,0.0,0.0,0.0,196.780990068,25.168233181,-19.200438227,0.00230154196664,100.0,0.261607495946,100.0,0.0,100.0,0.254418150756,100.0,2537186.29739,0.0,0.0,0.0,0.0,0.0,0.0
1402598089002724750,0,4.12338718497,-0.114322152727,-16.2904259555,0.043815185726,-1.21207540037,0.0,-1.29048937732,0.0,-2.30460167017,0.0,0.0,0.0,0.0,196.780990068,25.168233181,-19.200438227,0.000767318410122,100.0,0.261607495946,100.0,0.0,100.0,0.254418150756,100.0,2537186.29739,0.0,0.0,0.0,0.0,0.0,0.0
1402598089022376014,0,4.12338718497,-0.114322152727,-16.2904259555,0.043815185726,-1.21207540037,0.0,-1.29048937732,0.0,-2.30460167017,0.0,0.0,0.0,0.0,196.780990068,25.168233181,-19.200438227,0.000767318410122,100.0,0.261607495946,100.0,0.0,100.0,0.254418150756,100.0,2537186.29739,0.0,0.0,0.0,0.0,0.0,0.0
1402598089042895518,0,4.07459624661,-0.114322152727,-16.346330049,0.043815185726,-1.21234133708,0.0,-1.277640648,0.0,-2.29951887208,0.0,0.0,0.0,0.0,196.780990068,25.168233181,-19.200438227,0.00230154196664,100.0,0.261607495946,100.0,0.0,100.0,0.254418150756,100.0,2537186.29739,0.0,0.0,0.0,0.0,0.0,0.0
1402598089062235788,0,4.07459624661,-0.114322152727,-16.346330049,0.043815185726,-1.21234133708,0.0,-1.277640648,0.0,-2.29951887208,0.0,0.0,0.0,0.0,196.780990068,25.168233181,-19.200438227,0.00230154196664,100.0,0.261607495946,100.0,0.0,100.0,0.254418150756,100.0,2537186.29739,0.0,0.0,0.0,0.0,0.0,0.0
1402598089082729375,0,4.0249980596,-0.114322152727,-16.3986581877,0.043815185726,-1.21450311035,0.0,-1.27466334925,0.0,-2.29624998389,0.0,0.0,0.0,0.0,196.780990068,25.168233181,-19.200438227,0.00230154196664,100.0,0.261607495946,100.0,0.0,100.0,0.254418150756,100.0,2537186.29739,0.0,0.0,0.0,0.0,0.0,0.0
1402598089102218307,0,4.0249980596,-0.114322152727,-16.3986581877,0.043815185726,-1.21450311035,0.0,-1.27466334925,0.0,-2.29624998389,0.0,0.0,0.0,0.0,196.780990068,25.168233181,-19.200438227,0.00230154196664,100.0,0.261607495946,100.0,0.0,100.0,0.254418150756,100.0,2537186.29739,0.0,0.0,0.0,0.0,0.0,0.0
1402598089122656731,0,3.97855378458,-0.114322152727,-16.4583788451,0.043815185726,-1.21332372065,0.0,-1.27037443863,0.0,-2.29262739217,0.0,0.0,0.0,0.0,196.780990068,25.168233181,-19.200438227,0.00230154196664,100.0,0.261607495946,100.0,0.0,100.0,0.254418150756,100.0,2537186.29739,0.0,0.0,0.0,0.0,0.0,0.0
1402598089142432161,0,3.97855378458,-0.114322152727,-16.4583788451,0.043815185726,-1.21332372065,0.0,-1.27037443863,0.0,-2.29262739217,0.0,0.0,0.0,0.0,196.780990068,25.168233181,-19.200438227,0.00230154196664,100.0,0.261607495946,100.0,0.0,100.0,0.254418150756,100.0,2537186.29739,0.0,0.0,0.0,0.0,0.0,0.0
1402598089162859369,0,3.91785510475,-0.114322152727,-16.5417078817,0.043815185726,-1.20897167303,0.0,-1.30182357582,0.0,-2.28975353149,0.0,0.0,0.0,0.0,196.780990068,25.168233181,-19.200438227,0.00230154196664,100.0,0.261607495946,100.0,0.0,100.0,0.254418150756,100.0,2537186.29739,0.0,0.0,0.0,0.0,0.0,0.0
1402598089182912147,0,3.91785510475,-0.114322152727,-16.5417078817,0.043815185726,-1.20897167303,0.0,-1.30182357582,0.0,-2.28975353149,0.0,0.0,0.0,0.0,196.780990068,25.168233181,-19.200438227,0.00230154196664,100.0,0.260073033971,100.0,0.0,100.0,0.254418150756,100.0,2537186.29739,0.0,0.0,0.0,0.0,0.0,0.0
1402598089202812811,0,3.86371449858,-0.114322152727,-16.6084880235,0.043815185726,-1.19355466946,0.0,-1.28417318798,0.0,-2.28495682827,0.0,0.0,0.0,0.0,196.780990068,25.168233181,-19.200438227,0.000767318410122,100.0,0.260073033971,100.0,0.0,100.0,0.254418150756,100.0,2537186.29739,0.0,0.0,0.0,0.0,0.0,0.0
1402598089222386733,0,3.86371449858,-0.114322152727,-16.6084880235,0.043815185726,-1.19355466946,0.0,-1.28417318798,0.0,-2.28495682827,0.0,0.0,0.0,0.0,196.780990068,25.168233181,-19.200438227,0.00230154196664,100.0,0.261607495946,100.0,0.0,100.0,0.254418150756,100.0,2537186.29739,0.0,0.0,0.0,0.0,0.0,0.0
1402598089243029665,0,3.82651442824,-0.114322152727,-16.6442438152,0.043815185726,-1.21892973871,0.0,-1.29885145187,0.0,-2.28246817349,0.0,0.0,0.0,0.0,196.780990068,25.168233181,-19.200438227,0.000767318410122,100.0,0.261607495946,100.0,0.0,100.0,0.254418150756,100.0,2537186.29739,0.0,0.0,0.0,0.0,0.0,0.0
1402598089262390714,0,3.82651442824,-0.114322152727,-16.6442438152,0.043815185726,-1.21892973871,0.0,-1.29885145187,0.0,-2.28246817349,0.0,0.0,0.0,0.0,196.780990068,25.168233181,-19.200438227,0.00230154196664,100.0,0.261607495946,100.0,0.0,100.0,0.254418150756,100.0,2537186.29739,0.0,0.0,0.0,0.0,0.0,0.0
1402598089282760367,0,3.77863118847,-0.114322152727,-16.7001943294,0.043815185726,-1.20589438002,0.0,-1.28683896731,0.0,-2.27906182384,0.0,0.0,0.0,0.0,196.780990068,25.168233181,-19.200438227,0.000767318410122,100.0,0.261607495946,100.0,0.0,100.0,0.254418150756,100.0,2537186.29739,0.0,0.0,0.0,0.0,0.0,0.0
1402598089302325400,0,3.77863118847,-0.114322152727,-16.7001943294,0.043815185726,-1.20589438002,0.0,-1.28683896731,0.0,-2.27906182384,0.0,0.0,0.0,0.0,196.780990068,25.168233181,-19.200438227,0.00230154196664,100.0,0.261607495946,100.0,0.0,100.0,0.254418150756,100.0,2537186.29739,0.0,0.0,0.0,0.0,0.0,0.0
1402598089322921878,0,3.72861495342,-0.114322152727,-16.7546150578,0.043815185726,-1.19803212717,0.0,-1.29193934939,0.0,-2.27575755866,0.0,0.0,0.0,0.0,196.780990068,25.168233181,-19.200438227,0.00230154196664,100.0,0.261607495946,100.0,0.0,100.0,0.254418150756,100.0,2537186.29739,0.0,0.0,0.0,0.0,0.0,0.0
1402598089342254766,0,3.72861495342,-0.114322152727,-16.7546150578,0.043815185726,-1.19803212717,0.0,-1.29193934939,0.0,-2.27575755866,0.0,0.0,0.0,0.0,196.780990068,25.168233181,-19.200438227,0.000767318410122,100.0,0.261607495946,100.0,0.0,100.0,0.254418150756,100.0,2537186.29739,0.0,0.0,0.0,0.0,0.0,0.0
1402598089362784007,0,3.66918283545,-0.114322152727,-16.8285174152,0.043815185726,-1.19903791815,0.0,-1.28498035656,0.0,-2.27108154309,0.0,0.0,0.0,0.0,196.780990068,25.168233181,-19.200438227,0.00230154196664,100.0,0.260073033971,100.0,0.0,100.0,0.254418150756,100.0,2537186.29739,0.0,0.0,0.0,0.0,0.0,0.0
1402598089382280410,0,3.66918283545,-0.114322152727,-16.8285174152,0.043815185726,-1.19903791815,0.0,-1.28498035656,0.0,-2.27108154309,0.0,0.0,0.0,0.0,196.780990068,25.168233181,-19.200438227,0.00230154196664,100.0,0.261607495946,100.0,0.0,100.0,0.254418150756,100.0,2537186.29739,0.0,0.0,0.0,0.0,0.0,0.0
1402598089402877783,0,3.63481080181,-0.114322152727,-16.9365396911,0.043815185726,-1.15485844658,0.0,-1.34233957121,0.0,-2.27143375784,0.0,0.0,0.0,0.0,196.780990068,25.168233181,-19.200438227,0.00230154196664,100.0,0.260073033971,100.0,0.0,100.0,0.254418150756,100.0,2537186.29739,0.0,0.0,0.0,0.0,0.0,0.0
1402598089422209557,0,3.63481080181,-0.114322152727,-16.9365396911,0.043815185726,-1.15485844658,0.0,-1.34233957121,0.0,-2.27143375784,0.0,0.0,0.0,0.0,196.780990068,25.168233181,-19.200438227,0.00230154196664,100.0,0.261607495946,100.0,0.0,100.0,0.254418150756,100.0,2537186.29739,0.0,0.0,0.0,0.0,0.0,0.0
1402598089442737634,0,3.61174191381,-0.114322152727,-16.9632653855,0.043815185726,-1.1530433879,0.0,-1.34394720553,0.0,-2.27001376318,0.0,0.0,0.0,0.0,196.780990068,25.168233181,-19.200438227,0.000767318410122,100.0,0.261607495946,100.0,0.0,100.0,0.254418150756,100.0,2537186.29739,0.0,0.0,0.0,0.0,0.0,0.0
1402598089462174173,0,3.61174191381,-0.114322152727,-16.9632653855,0.043815185726,-1.1530433879,0.0,-1.34394720553,0.0,-2.27001376318,0.0,0.0,0.0,0.0,196.780990068,25.168233181,-19.200438227,0.00230154196664,100.0,0.261607495946,100.0,0.0,100.0,0.254418150756,100.0,2537186.29739,0.0,0.0,0.0,0.0,0.0,0.0
1402598089482883582,0,3.58673103985,-0.114322152727,-17.0363573891,0.043815185726,-1.12399580757,0.0,-1.34997671746,0.0,-2.26836757686,0.0,0.0,0.0,0.0,196.780990068,25.168233181,-19.200438227,0.00230154196664,100.0,0.261607495946,100.0,0.0,100.0,0.254418150756,100.0,2537186.29739,0.0,0.0,0.0,0.0,0.0,0.0
1402598089502036378,0,3.58673103985,-0.114322152727,-17.0363573891,0.043815185726,-1.12399580757,0.0,-1.34997671746,0.0,-2.26836757686,0.0,0.0,0.0,0.0,196.780990068,25.168233181,-19.200438227,0.000767318410122,100.0,0.261607495946,100.0,0.0,100.0,0.254418150756,100.0,2537186.29739,0.0,0.0,0.0,0.0,0.0,0.0
1402598089522661472,0,3.53991084298,-0.114322152727,-17.0933813534,0.043815185726,-1.11932764305,0.0,-1.35478738545,0.0,-2.26537511505,0.0,0.0,0.0,0.0,196.780990068,25.168233181,-19.200438227,0.00230154196664,100.0,0.261607495946,100.0,0.0,100.0,0.254418150756,100.0,2537186.29739,0.0,0.0,0.0,0.0,0.0,0.0
