rosbagTimestamp,control_method,x_current,x_desired,y_current,y_desired,x_velocity_current,x_velocity_desired,y_velocity_current,y_velocity_desired,yaw_current,yaw_desired,required_force_x,required_force_y,required_moment_z,resultant_force_x,resultant_force_y,resultant_moment_z,current_port_servo_angle,current_port_thruster_force,current_starboard_servo_angle,current_starboard_thruster_force,estimated_port_servo_angle,estimated_port_thruster_force,estimated_starboard_servo_angle,estimated_starboard_thruster_force,cost_value,step,user_defined_1,user_defined_2,user_defined_3,user_defined_4,user_defined_5
1402598740063821624,0,10.611450006,-0.114322152727,-28.9791792274,0.043815185726,0.235630119657,0.0,-0.255471384759,0.0,-1.0220714221,0.0,0.0,0.0,0.0,100.0,0.0,-30.48,0.00537022749826,100.0,0.000767318410122,-0.0,0.0,100.0,0.0,-0.0,1014515.2,0.0,0.0,0.0,0.0,0.0,0.0
1402598740083842444,0,10.616536588,-0.114322152727,-28.9846800097,0.043815185726,0.244672072223,0.0,-0.269394865014,0.0,-1.02252910604,0.0,0.0,0.0,0.0,100.0,0.0,-30.48,0.00537022749826,100.0,0.000767318410122,-0.0,0.0,100.0,0.0,-0.0,1014515.2,0.0,0.0,0.0,0.0,0.0,0.0
1402598740103149357,0,10.616536588,-0.114322152727,-28.9846800097,0.043815185726,0.244672072223,0.0,-0.269394865014,0.0,-1.02252910604,0.0,0.0,0.0,0.0,100.0,0.0,-30.48,0.00537022749826,100.0,0.00230154196664,-0.0,0.0,100.0,0.0,-0.0,1014515.2,0.0,0.0,0.0,0.0,0.0,0.0
1402598740123987706,0,10.6219075407,-0.114322152727,-28.990559092,0.043815185726,0.252392764363,0.0,-0.286958558754,0.0,-1.02302207547,0.0,0.0,0.0,0.0,100.0,0.0,-30.48,0.00537022749826,100.0,0.00230154196664,-0.0,0.0,100.0,0.0,-0.0,1014515.2,0.0,0.0,0.0,0.0,0.0,0.0
1402598740143074215,0,10.6219075407,-0.114322152727,-28.990559092,0.043815185726,0.252392764363,0.0,-0.286958558754,0.0,-1.02302207547,0.0,0.0,0.0,0.0,100.0,0.0,-30.48,0.00537022749826,100.0,0.00230154196664,-0.0,0.0,100.0,0.0,-0.0,1014515.2,0.0,0.0,0.0,0.0,0.0,0.0
1402598740164243716,0,10.644185294,-0.114322152727,-28.9942145411,0.043815185726,0.28631703988,0.0,-0.292033499294,0.0,-1.01824325827,0.0,0.0,0.0,0.0,100.0,0.0,-30.48,0.00537022749826,100.0,0.00230154196664,-0.0,0.0,100.0,0.0,-0.0,1014515.2,0.0,0.0,0.0,0.0,0.0,0.0
1402598740183537427,0,10.644185294,-0.114322152727,-28.9942145411,0.043815185726,0.28631703988,0.0,-0.292033499294,0.0,-1.01824325827,0.0,0.0,0.0,0.0,100.0,0.0,-30.48,0.00537022749826,100.0,0.00230154196664,-0.0,0.0,100.0,0.0,-0.0,1014515.2,0.0,0.0,0.0,0.0,0.0,0.0
1402598740203835841,0,10.6609653115,-0.114322152727,-29.0184241658,0.043815185726,0.308628998912,0.0,-0.354581672129,0.0,-1.02424111422,0.0,0.0,0.0,0.0,100.0,0.0,-30.48,0.00537022749826,100.0,0.00230154196664,-0.0,0.0,100.0,0.0,-0.0,1014515.2,0.0,0.0,0.0,0.0,0.0,0.0
1402598740223184281,0,10.6609653115,-0.114322152727,-29.0184241658,0.043815185726,0.308628998912,0.0,-0.354581672129,0.0,-1.02424111422,0.0,0.0,0.0,0.0,100.0,0.0,-30.48,0.00537022749826,100.0,0.00230154196664,-0.0,0.0,100.0,0.0,-0.0,1014515.2,0.0,0.0,0.0,0.0,0.0,0.0
1402598740243817130,0,10.6704631354,-0.114322152727,-29.0414932019,0.043815185726,0.305679859832,0.0,-0.400436253171,0.0,-1.03225432421,0.0,0.0,0.0,0.0,100.0,0.0,-30.48,0.00537022749826,100.0,0.00230154196664,-0.0,0.0,100.0,0.0,-0.0,1014515.2,0.0,0.0,0.0,0.0,0.0,0.0
1402598740263141886,0,10.6704631354,-0.114322152727,-29.0414932019,0.043815185726,0.305679859832,0.0,-0.400436253171,0.0,-1.03225432421,0.0,0.0,0.0,0.0,100.0,0.0,-30.48,0.00537022749826,100.0,0.00383600394174,-0.0,0.0,100.0,0.0,-0.0,1014515.2,0.0,0.0,0.0,0.0,0.0,0.0
1402598740283666995,0,10.6913209663,-0.114322152727,-29.0557220194,0.043815185726,0.322756054689,0.0,-0.420751057138,0.0,-1.03281193165,0.0,0.0,0.0,0.0,100.0,0.0,-30.48,0.00537022749826,100.0,0.00383600394174,-0.0,0.0,100.0,0.0,-0.0,1014515.2,0.0,0.0,0.0,0.0,0.0,0.0
1402598740302976185,0,10.6913209663,-0.114322152727,-29.0557220194,0.043815185726,0.322756054689,0.0,-0.420751057138,0.0,-1.03281193165,0.0,0.0,0.0,0.0,100.0,0.0,-30.48,0.00537022749826,100.0,0.00383600394174,-0.0,0.0,100.0,0.0,-0.0,1014515.2,0.0,0.0,0.0,0.0,0.0,0.0
1402598740324117268,0,10.698684766,-0.114322152727,-29.0615930851,0.043815185726,0.328118249295,0.0,-0.423738627923,0.0,-1.0332935783,0.0,0.0,0.0,0.0,100.0,0.0,-30.48,0.00537022749826,100.0,0.00383600394174,-0.0,0.0,100.0,0.0,-0.0,1014515.2,0.0,0.0,0.0,0.0,0.0,0.0
1402598740343510603,0,10.698684766,-0.114322152727,-29.0615930851,0.043815185726,0.328118249295,0.0,-0.423738627923,0.0,-1.0332935783,0.0,0.0,0.0,0.0,100.0,0.0,-30.48,0.00537022749826,100.0,0.00383600394174,-0.0,0.0,100.0,0.0,-0.0,1014515.2,0.0,0.0,0.0,0.0,0.0,0.0
1402598740363680363,0,10.7125101166,-0.114322152727,-29.0802146961,0.043815185726,0.332640869661,0.0,-0.454885378493,0.0,-1.0404650572,0.0,0.0,0.0,0.0,100.0,0.0,-30.48,0.00537022749826,100.0,0.00383600394174,-0.0,0.0,100.0,0.0,-0.0,1014515.2,0.0,0.0,0.0,0.0,0.0,0.0
1402598740383148510,0,10.7125101166,-0.114322152727,-29.0802146961,0.043815185726,0.332640869661,0.0,-0.454885378493,0.0,-1.0404650572,0.0,0.0,0.0,0.0,100.0,0.0,-30.48,0.00537022749826,100.0,0.00383600394174,-0.0,0.0,100.0,0.0,-0.0,1014515.2,0.0,0.0,0.0,0.0,0.0,0.0
1402598740403903810,0,10.7404597694,-0.114322152727,-29.1000324122,0.043815185726,0.36045263038,0.0,-0.478381039524,0.0,-1.04496547378,0.0,0.0,0.0,0.0,100.0,0.0,-30.48,0.00537022749826,100.0,0.00383600394174,-0.0,0.0,100.0,0.0,-0.0,1014515.2,0.0,0.0,0.0,0.0,0.0,0.0
1402598740423411546,0,10.7404597694,-0.114322152727,-29.1000324122,0.043815185726,0.36045263038,0.0,-0.478381039524,0.0,-1.04496547378,0.0,0.0,0.0,0.0,100.0,0.0,-30.48,0.00537022749826,100.0,0.00383600394174,-0.0,0.0,100.0,0.0,-0.0,1014515.2,0.0,0.0,0.0,0.0,0.0,0.0
1402598740444365550,0,10.7516235503,-0.114322152727,-29.1155113168,0.043815185726,0.363419761993,0.0,-0.496932724349,0.0,-1.05203126261,0.0,0.0,0.0,0.0,100.0,0.0,-30.48,0.00537022749826,100.0,0.00383600394174,-0.0,0.0,100.0,0.0,-0.0,1014515.2,0.0,0.0,0.0,0.0,0.0,0.0
1402598740463421982,0,10.7593595061,-0.114322152727,-29.1258421626,0.043815185726,0.369964723579,0.0,-0.509342735197,0.0,-1.0571833489,0.0,0.0,0.0,0.0,100.0,0.0,-30.48,0.00537022749826,100.0,0.00383600394174,-0.0,0.0,100.0,0.0,-0.0,1014515.2,0.0,0.0,0.0,0.0,0.0,0.0
1402598740483825199,0,10.7593595061,-0.114322152727,-29.1258421626,0.043815185726,0.369964723579,0.0,-0.509342735197,0.0,-1.0571833489,0.0,0.0,0.0,0.0,100.0,0.0,-30.48,0.00537022749826,100.0,0.00383600394174,-0.0,0.0,100.0,0.0,-0.0,1014515.2,0.0,0.0,0.0,0.0,0.0,0.0
1402598740503552271,0,10.7773915845,-0.114322152727,-29.1329926516,0.043815185726,0.394796777627,0.0,-0.507084185419,0.0,-1.0566375918,0.0,0.0,0.0,0.0,100.0,0.0,-30.48,0.00537022749826,100.0,0.00383600394174,-0.0,0.0,100.0,0.0,-0.0,1014515.2,0.0,0.0,0.0,0.0,0.0,0.0
1402598740524109645,0,10.7773915845,-0.114322152727,-29.1329926516,0.043815185726,0.394796777627,0.0,-0.507084185419,0.0,-1.0566375918,0.0,0.0,0.0,0.0,100.0,0.0,-30.48,0.00537022749826,100.0,0.00383600394174,-0.0,0.0,100.0,0.0,-0.0,1014515.2,0.0,0.0,0.0,0.0,0.0,0.0
1402598740543573325,0,10.7944636865,-0.114322152727,-29.1548234823,0.043815185726,0.400084145386,0.0,-0.531495314705,0.0,-1.06787643105,0.0,0.0,0.0,0.0,100.0,0.0,-30.48,0.00537022749826,100.0,0.00383600394174,-0.0,0.0,100.0,0.0,-0.0,1014515.2,0.0,0.0,0.0,0.0,0.0,0.0
1402598740563919993,0,10.7944636865,-0.114322152727,-29.1548234823,0.043815185726,0.400084145386,0.0,-0.531495314705,0.0,-1.06787643105,0.0,0.0,0.0,0.0,100.0,0.0,-30.48,0.00537022749826,100.0,0.00383600394174,-0.0,0.0,100.0,0.0,-0.0,1014515.2,0.0,0.0,0.0,0.0,0.0,0.0
1402598740583319348,0,10.8030545081,-0.114322152727,-29.1813783515,0.043815185726,0.384826606892,0.0,-0.56106424848,0.0,-1.08297706014,0.0,0.0,0.0,0.0,100.0,0.0,-30.48,0.00537022749826,100.0,0.00383600394174,-0.0,0.0,100.0,0.0,-0.0,1014515.2,0.0,0.0,0.0,0.0,0.0,0.0
1402598740603972462,0,10.8030545081,-0.114322152727,-29.1813783515,0.043815185726,0.384826606892,0.0,-0.56106424848,0.0,-1.08297706014,0.0,0.0,0.0,0.0,100.0,0.0,-30.48,0.00537022749826,100.0,0.00383600394174,-0.0,0.0,100.0,0.0,-0.0,1014515.2,0.0,0.0,0.0,0.0,0.0,0.0
1402598740623358610,0,10.8236764658,-0.114322152727,-29.2157977125,0.043815185726,0.385866306153,0.0,-0.594626413545,0.0,-1.09900555236,0.0,0.0,0.0,0.0,100.0,0.0,-30.48,0.00537022749826,100.0,0.00383600394174,-0.0,0.0,100.0,0.0,-0.0,1014515.2,0.0,0.0,0.0,0.0,0.0,0.0
1402598740643654229,0,10.8236764658,-0.114322152727,-29.2157977125,0.043815185726,0.385866306153,0.0,-0.594626413545,0.0,-1.09900555236,0.0,0.0,0.0,0.0,100.0,0.0,-30.48,0.00537022749826,100.0,0.00383600394174,-0.0,0.0,100.0,0.0,-0.0,1014515.2,0.0,0.0,0.0,0.0,0.0,0.0
1402598740663369891,0,10.8431503645,-0.114322152727,-29.2514854257,0.043815185726,0.38089339212,0.0,-0.626069789293,0.0,-1.11504378983,0.0,0.0,0.0,0.0,100.0,0.0,-30.48,0.00537022749826,100.0,0.00383600394174,-0.0,0.0,100.0,0.0,-0.0,1014515.2,0.0,0.0,0.0,0.0,0.0,0.0
1402598740683844872,0,10.8431503645,-0.114322152727,-29.2514854257,0.043815185726,0.38089339212,0.0,-0.626069789293,0.0,-1.11504378983,0.0,0.0,0.0,0.0,100.0,0.0,-30.48,0.00537022749826,100.0,0.00383600394174,-0.0,0.0,100.0,0.0,-0.0,1014515.2,0.0,0.0,0.0,0.0,0.0,0.0
1402598740703245045,0,10.8511322369,-0.114322152727,-29.2646783796,0.043815185726,0.380370976562,0.0,-0.635763839597,0.0,-1.12115297092,0.0,0.0,0.0,0.0,100.0,0.0,-30.48,0.00537022749826,100.0,0.00383600394174,-0.0,0.0,100.0,0.0,-0.0,1014515.2,0.0,0.0,0.0,0.0,0.0,0.0
1402598740723971625,0,10.8511322369,-0.114322152727,-29.2646783796,0.043815185726,0.380370976562,0.0,-0.635763839597,0.0,-1.12115297092,0.0,0.0,0.0,0.0,100.0,0.0,-30.48,0.00537022749826,100.0,0.00383600394174,-0.0,0.0,100.0,0.0,-0.0,1014515.2,0.0,0.0,0.0,0.0,0.0,0.0
1402598740743967030,0,10.861413328,-0.114322152727,-29.2928708095,0.043815185726,0.366322216165,0.0,-0.657331841427,0.0,-1.13490831223,0.0,0.0,0.0,0.0,100.0,0.0,-30.48,0.00690445105478,100.0,0.00383600394174,-0.0,0.0,100.0,0.0,-0.0,1014515.2,0.0,0.0,0.0,0.0,0.0,0.0
1402598740764012030,0,10.861413328,-0.114322152727,-29.2928708095,0.043815185726,0.366322216165,0.0,-0.657331841427,0.0,-1.13490831223,0.0,0.0,0.0,0.0,100.0,0.0,-30.48,0.00537022749826,100.0,0.00383600394174,-0.0,0.0,100.0,0.0,-0.0,1014515.2,0.0,0.0,0.0,0.0,0.0,0.0
1402598740783236689,0,10.8782343869,-0.114322152727,-29.3234722644,0.043815185726,0.367968488327,0.0,-0.679642078828,0.0,-1.14729692085,0.0,0.0,0.0,0.0,100.0,0.0,-30.48,0.00537022749826,100.0,0.00383600394174,-0.0,0.0,100.0,0.0,-0.0,1014515.2,0.0,0.0,0.0,0.0,0.0,0.0
1402598740803161489,0,10.8782343869,-0.114322152727,-29.3234722644,0.043815185726,0.367968488327,0.0,-0.679642078828,0.0,-1.14729692085,0.0,0.0,0.0,0.0,100.0,0.0,-30.48,0.00537022749826,100.0,0.00383600394174,-0.0,0.0,100.0,0.0,-0.0,1014515.2,0.0,0.0,0.0,0.0,0.0,0.0
1402598740823652537,0,10.8892682711,-0.114322152727,-29.3567691178,0.043815185726,0.357135220875,0.0,-0.708276657133,0.0,-1.16138402809,0.0,0.0,0.0,0.0,100.0,0.0,-30.48,0.00537022749826,100.0,0.00383600394174,-0.0,0.0,100.0,0.0,-0.0,1014515.2,0.0,0.0,0.0,0.0,0.0,0.0
1402598740843091628,0,10.8892682711,-0.114322152727,-29.3567691178,0.043815185726,0.357135220875,0.0,-0.708276657133,0.0,-1.16138402809,0.0,0.0,0.0,0.0,100.0,0.0,-30.48,0.00537022749826,100.0,0.00537022749826,-0.0,0.0,100.0,0.0,-0.0,1014515.2,0.0,0.0,0.0,0.0,0.0,0.0
1402598740863687482,0,10.9123088779,-0.114322152727,-29.3936899061,0.043815185726,0.370952707274,0.0,-0.739146067924,0.0,-1.17321945431,0.0,0.0,0.0,0.0,100.0,0.0,-30.48,0.00537022749826,100.0,0.00383600394174,-0.0,0.0,100.0,0.0,-0.0,1014515.2,0.0,0.0,0.0,0.0,0.0,0.0
1402598740883131786,0,10.9123088779,-0.114322152727,-29.3936899061,0.043815185726,0.370952707274,0.0,-0.739146067924,0.0,-1.17321945431,0.0,0.0,0.0,0.0,100.0,0.0,-30.48,0.00537022749826,100.0,0.00383600394174,-0.0,0.0,100.0,0.0,-0.0,1014515.2,0.0,0.0,0.0,0.0,0.0,0.0
1402598740903666119,0,10.9225659726,-0.114322152727,-29.4313782745,0.043815185726,0.357711624229,0.0,-0.774868098233,0.0,-1.187111597,0.0,0.0,0.0,0.0,100.0,0.0,-30.48,0.00537022749826,100.0,0.00383600394174,-0.0,0.0,100.0,0.0,-0.0,1014515.2,0.0,0.0,0.0,0.0,0.0,0.0
1402598740923458659,0,10.9225659726,-0.114322152727,-29.4313782745,0.043815185726,0.357711624229,0.0,-0.774868098233,0.0,-1.187111597,0.0,0.0,0.0,0.0,100.0,0.0,-30.48,0.00537022749826,100.0,0.00383600394174,-0.0,0.0,100.0,0.0,-0.0,1014515.2,0.0,0.0,0.0,0.0,0.0,0.0
1402598740943962352,0,10.940958662,-0.114322152727,-29.4724475036,0.043815185726,0.351161974561,0.0,-0.798301525291,0.0,-1.20356390941,0.0,0.0,0.0,0.0,100.0,0.0,-30.48,0.00537022749826,100.0,0.00383600394174,-0.0,0.0,100.0,0.0,-0.0,1014515.2,0.0,0.0,0.0,0.0,0.0,0.0
1402598740963285454,0,10.940958662,-0.114322152727,-29.4724475036,0.043815185726,0.351161974561,0.0,-0.798301525291,0.0,-1.20356390941,0.0,0.0,0.0,0.0,100.0,0.0,-30.48,0.00537022749826,100.0,0.00383600394174,-0.0,0.0,100.0,0.0,-0.0,1014515.2,0.0,0.0,0.0,0.0,0.0,0.0
1402598740983751307,0,10.9581077802,-0.114322152727,-29.4974548497,0.043815185726,0.361899696548,0.0,-0.808457081158,0.0,-1.21240815087,0.0,0.0,0.0,0.0,100.0,0.0,-30.48,0.00537022749826,100.0,0.00383600394174,-0.0,0.0,100.0,0.0,-0.0,1014515.2,0.0,0.0,0.0,0.0,0.0,0.0
1402598741003137152,0,10.965623405,-0.114322152727,-29.5145217738,0.043815185726,0.360225784018,0.0,-0.815569303874,0.0,-1.21909129422,0.0,0.0,0.0,0.0,100.0,0.0,-30.48,0.00537022749826,100.0,0.00383600394174,-0.0,0.0,100.0,0.0,-0.0,1014515.2,0.0,0.0,0.0,0.0,0.0,0.0
1402598741023693208,0,10.965623405,-0.114322152727,-29.5145217738,0.043815185726,0.360225784018,0.0,-0.815569303874,0.0,-1.21909129422,0.0,0.0,0.0,0.0,100.0,0.0,-30.48,0.00537022749826,100.0,0.00383600394174,-0.0,0.0,100.0,0.0,-0.0,1014515.2,0.0,0.0,0.0,0.0,0.0,0.0
1402598741043118510,0,10.9655268629,-0.114322152727,-29.5331939685,0.043815185726,0.343900848595,0.0,-0.826108208889,0.0,-1.22678530828,0.0,0.0,0.0,0.0,100.0,0.0,-30.48,0.00537022749826,100.0,0.00383600394174,-0.0,0.0,100.0,0.0,-0.0,1014515.2,0.0,0.0,0.0,0.0,0.0,0.0
1402598741063708455,0,10.9655268629,-0.114322152727,-29.5331939685,0.043815185726,0.343900848595,0.0,-0.826108208889,0.0,-1.22678530828,0.0,0.0,0.0,0.0,100.0,0.0,-30.48,0.00537022749826,100.0,0.00383600394174,-0.0,0.0,100.0,0.0,-0.0,1014515.2,0.0,0.0,0.0,0.0,0.0,0.0
1402598741083168784,0,10.9793720489,-0.114322152727,-29.5672794416,0.043815185726,0.337213518095,0.0,-0.842175084128,0.0,-1.23947813152,0.0,0.0,0.0,0.0,100.0,0.0,-30.48,0.00537022749826,100.0,0.00383600394174,-0.0,0.0,100.0,0.0,-0.0,1014515.2,0.0,0.0,0.0,0.0,0.0,0.0
1402598741103742487,0,10.9793720489,-0.114322152727,-29.5672794416,0.043815185726,0.337213518095,0.0,-0.842175084128,0.0,-1.23947813152,0.0,0.0,0.0,0.0,100.0,0.0,-30.48,0.00537022749826,100.0,0.00383600394174,-0.0,0.0,100.0,0.0,-0.0,1014515.2,0.0,0.0,0.0,0.0,0.0,0.0
1402598741123855854,0,10.9920046763,-0.114322152727,-29.6074526658,0.043815185726,0.326981609223,0.0,-0.871724164312,0.0,-1.25185432519,0.0,0.0,0.0,0.0,100.0,0.0,-30.48,0.00537022749826,100.0,0.00383600394174,-0.0,0.0,100.0,0.0,-0.0,1014515.2,0.0,0.0,0.0,0.0,0.0,0.0
1402598741143864228,0,10.9920046763,-0.114322152727,-29.6074526658,0.043815185726,0.326981609223,0.0,-0.871724164312,0.0,-1.25185432519,0.0,0.0,0.0,0.0,100.0,0.0,-30.48,0.00537022749826,100.0,0.00383600394174,-0.0,0.0,100.0,0.0,-0.0,1014515.2,0.0,0.0,0.0,0.0,0.0,0.0
1402598741163152953,0,11.007245112,-0.114322152727,-29.6505109041,0.043815185726,0.311524443636,0.0,-0.886263317141,0.0,-1.26910690182,0.0,0.0,0.0,0.0,100.0,0.0,-30.48,0.00537022749826,100.0,0.00383600394174,-0.0,0.0,100.0,0.0,-0.0,1014515.2,0.0,0.0,0.0,0.0,0.0,0.0
1402598741183923470,0,11.007245112,-0.114322152727,-29.6505109041,0.043815185726,0.311524443636,0.0,-0.886263317141,0.0,-1.26910690182,0.0,0.0,0.0,0.0,100.0,0.0,-30.48,0.00537022749826,100.0,0.00383600394174,-0.0,0.0,100.0,0.0,-0.0,1014515.2,0.0,0.0,0.0,0.0,0.0,0.0
1402598741203444325,0,11.0303005567,-0.114322152727,-29.7203458221,0.043815185726,0.288948198981,0.0,-0.925306758626,0.0,-1.29197118176,0.0,0.0,0.0,0.0,100.0,0.0,-30.48,0.00537022749826,100.0,0.00383600394174,-0.0,0.0,100.0,0.0,-0.0,1014515.2,0.0,0.0,0.0,0.0,0.0,0.0
1402598741223966879,0,11.0303005567,-0.114322152727,-29.7203458221,0.043815185726,0.288948198981,0.0,-0.925306758626,0.0,-1.29197118176,0.0,0.0,0.0,0.0,100.0,0.0,-30.48,0.00537022749826,100.0,0.00383600394174,-0.0,0.0,100.0,0.0,-0.0,1014515.2,0.0,0.0,0.0,0.0,0.0,0.0
1402598741243222753,0,11.0359529148,-0.114322152727,-29.7388208876,0.043815185726,0.285127159,0.0,-0.935106360212,0.0,-1.29827348362,0.0,0.0,0.0,0.0,100.0,0.0,-30.48,0.00537022749826,100.0,0.00383600394174,-0.0,0.0,100.0,0.0,-0.0,1014515.2,0.0,0.0,0.0,0.0,0.0,0.0
1402598741264976996,0,11.0359529148,-0.114322152727,-29.7388208876,0.043815185726,0.285127159,0.0,-0.935106360212,0.0,-1.29827348362,0.0,0.0,0.0,0.0,100.0,0.0,-30.48,0.00537022749826,100.0,0.00383600394174,-0.0,0.0,100.0,0.0,-0.0,1014515.2,0.0,0.0,0.0,0.0,0.0,0.0
1402598741283680623,0,11.0470573835,-0.114322152727,-29.763359883,0.043815185726,0.288984104347,0.0,-0.955585169668,0.0,-1.30328717137,0.0,0.0,0.0,0.0,100.0,0.0,-30.48,0.00537022749826,100.0,0.00383600394174,-0.0,0.0,100.0,0.0,-0.0,1014515.2,0.0,0.0,0.0,0.0,0.0,0.0
1402598741303916476,0,11.0470573835,-0.114322152727,-29.763359883,0.043815185726,0.288984104347,0.0,-0.955585169668,0.0,-1.30328717137,0.0,0.0,0.0,0.0,100.0,0.0,-30.48,0.00537022749826,100.0,0.00383600394174,-0.0,0.0,100.0,0.0,-0.0,1014515.2,0.0,0.0,0.0,0.0,0.0,0.0
1402598741323440551,0,11.0585021458,-0.114322152727,-29.8029358982,0.043815185726,0.280458829757,0.0,-0.973014454016,0.0,-1.31622398514,0.0,0.0,0.0,0.0,100.0,0.0,-30.48,0.00537022749826,100.0,0.00383600394174,-0.0,0.0,100.0,0.0,-0.0,1014515.2,0.0,0.0,0.0,0.0,0.0,0.0
1402598741344075054,0,11.0585021458,-0.114322152727,-29.8029358982,0.043815185726,0.280458829757,0.0,-0.973014454016,0.0,-1.31622398514,0.0,0.0,0.0,0.0,100.0,0.0,-30.48,0.00537022749826,100.0,0.00383600394174,-0.0,0.0,100.0,0.0,-0.0,1014515.2,0.0,0.0,0.0,0.0,0.0,0.0
1402598741363091433,0,11.0607276897,-0.114322152727,-29.8445884183,0.043815185726,0.250199237376,0.0,-0.992185283844,0.0,-1.33024555624,0.0,0.0,0.0,0.0,100.0,0.0,-30.48,0.00537022749826,100.0,0.00383600394174,-0.0,0.0,100.0,0.0,-0.0,1014515.2,0.0,0.0,0.0,0.0,0.0,0.0
1402598741383686889,0,11.0607276897,-0.114322152727,-29.8445884183,0.043815185726,0.250199237376,0.0,-0.992185283844,0.0,-1.33024555624,0.0,0.0,0.0,0.0,100.0,0.0,-30.48,0.00537022749826,100.0,0.00383600394174,-0.0,0.0,100.0,0.0,-0.0,1014515.2,0.0,0.0,0.0,0.0,0.0,0.0
1402598741403166117,0,11.0768918778,-0.114322152727,-29.8970535569,0.043815185726,0.243253370577,0.0,-1.01074499592,0.0,-1.34602295976,0.0,0.0,0.0,0.0,100.0,0.0,-30.48,0.00537022749826,100.0,0.00383600394174,-0.0,0.0,100.0,0.0,-0.0,1014515.2,0.0,0.0,0.0,0.0,0.0,0.0
1402598741423900957,0,11.0768918778,-0.114322152727,-29.8970535569,0.043815185726,0.243253370577,0.0,-1.01074499592,0.0,-1.34602295976,0.0,0.0,0.0,0.0,100.0,0.0,-30.48,0.00537022749826,100.0,0.00383600394174,-0.0,0.0,100.0,0.0,-0.0,1014515.2,0.0,0.0,0.0,0.0,0.0,0.0
1402598741443132924,0,11.0890620643,-0.114322152727,-29.9499889226,0.043815185726,0.230251696334,0.0,-1.03059148176,0.0,-1.36244483044,0.0,0.0,0.0,0.0,100.0,0.0,-30.48,0.00537022749826,100.0,0.00383600394174,-0.0,0.0,100.0,0.0,-0.0,1014515.2,0.0,0.0,0.0,0.0,0.0,0.0
1402598741463841433,0,11.0890620643,-0.114322152727,-29.9499889226,0.043815185726,0.230251696334,0.0,-1.03059148176,0.0,-1.36244483044,0.0,0.0,0.0,0.0,100.0,0.0,-30.48,0.00537022749826,100.0,0.00383600394174,-0.0,0.0,100.0,0.0,-0.0,1014515.2,0.0,0.0,0.0,0.0,0.0,0.0
1402598741483355125,0,11.094280721,-0.114322152727,-29.9718989634,0.043815185726,0.22636001518,0.0,-1.03910658523,0.0,-1.36888808846,0.0,0.0,0.0,0.0,100.0,0.0,-30.48,0.00537022749826,100.0,0.00383600394174,-0.0,0.0,100.0,0.0,-0.0,1014515.2,0.0,0.0,0.0,0.0,0.0,0.0
1402598741503808479,0,11.094280721,-0.114322152727,-29.9718989634,0.043815185726,0.22636001518,0.0,-1.03910658523,0.0,-1.36888808846,0.0,0.0,0.0,0.0,100.0,0.0,-30.48,0.00537022749826,100.0,0.00383600394174,-0.0,0.0,100.0,0.0,-0.0,1014515.2,0.0,0.0,0.0,0.0,0.0,0.0
1402598741523676122,0,11.1032687904,-0.114322152727,-30.0148662099,0.043815185726,0.214710180841,0.0,-1.05328020842,0.0,-1.38158566567,0.0,0.0,0.0,0.0,100.0,0.0,-30.48,0.00537022749826,100.0,0.00383600394174,-0.0,0.0,100.0,0.0,-0.0,1014515.2,0.0,0.0,0.0,0.0,0.0,0.0
1402598741543651100,0,11.1032687904,-0.114322152727,-30.0148662099,0.043815185726,0.214710180841,0.0,-1.05328020842,0.0,-1.38158566567,0.0,0.0,0.0,0.0,100.0,0.0,-30.48,0.00537022749826,100.0,0.00383600394174,-0.0,0.0,100.0,0.0,-0.0,1014515.2,0.0,0.0,0.0,0.0,0.0,0.0
1402598741563119764,0,11.1119095483,-0.114322152727,-30.0583267101,0.043815185726,0.20349482208,0.0,-1.06896306724,0.0,-1.39399857612,0.0,0.0,0.0,0.0,100.0,0.0,-30.48,0.00537022749826,100.0,0.00383600394174,-0.0,0.0,100.0,0.0,-0.0,1014515.2,0.0,0.0,0.0,0.0,0.0,0.0
1402598741583793439,0,11.1119095483,-0.114322152727,-30.0583267101,0.043815185726,0.20349482208,0.0,-1.06896306724,0.0,-1.39399857612,0.0,0.0,0.0,0.0,100.0,0.0,-30.48,0.00537022749826,100.0,0.00383600394174,-0.0,0.0,100.0,0.0,-0.0,1014515.2,0.0,0.0,0.0,0.0,0.0,0.0
1402598741603395351,0,11.1219255851,-0.114322152727,-30.1163543774,0.043815185726,0.185002205845,0.0,-1.09736454236,0.0,-1.40838967778,0.0,0.0,0.0,0.0,100.0,0.0,-30.48,0.00537022749826,100.0,0.00383600394174,-0.0,0.0,100.0,0.0,-0.0,1014515.2,0.0,0.0,0.0,0.0,0.0,0.0
1402598741623726985,0,11.1219255851,-0.114322152727,-30.1163543774,0.043815185726,0.185002205845,0.0,-1.09736454236,0.0,-1.40838967778,0.0,0.0,0.0,0.0,100.0,0.0,-30.48,0.00537022749826,100.0,0.00383600394174,-0.0,0.0,100.0,0.0,-0.0,1014515.2,0.0,0.0,0.0,0.0,0.0,0.0
1402598741643108215,0,11.121220722,-0.114322152727,-30.1478366957,0.043815185726,0.166314375939,0.0,-1.10225848816,0.0,-1.41882163379,0.0,0.0,0.0,0.0,100.0,0.0,-30.48,0.00537022749826,100.0,0.00383600394174,-0.0,0.0,100.0,0.0,-0.0,1014515.2,0.0,0.0,0.0,0.0,0.0,0.0
1402598741663624901,0,11.1205239794,-0.114322152727,-30.1709902842,0.043815185726,0.15038794971,0.0,-1.11091497522,0.0,-1.42463066408,0.0,0.0,0.0,0.0,100.0,0.0,-30.48,0.00537022749826,100.0,0.00383600394174,-0.0,0.0,100.0,0.0,-0.0,1014515.2,0.0,0.0,0.0,0.0,0.0,0.0
1402598741683204918,0,11.1205239794,-0.114322152727,-30.1709902842,0.043815185726,0.15038794971,0.0,-1.11091497522,0.0,-1.42463066408,0.0,0.0,0.0,0.0,100.0,0.0,-30.48,0.00537022749826,100.0,0.00383600394174,-0.0,0.0,100.0,0.0,-0.0,1014515.2,0.0,0.0,0.0,0.0,0.0,0.0
1402598741703714814,0,11.1239402369,-0.114322152727,-30.1943541156,0.043815185726,0.146000046407,0.0,-1.11906551558,0.0,-1.43058512529,0.0,0.0,0.0,0.0,100.0,0.0,-30.48,0.00537022749826,100.0,0.00383600394174,-0.0,0.0,100.0,0.0,-0.0,1014515.2,0.0,0.0,0.0,0.0,0.0,0.0
1402598741723382722,0,11.1239402369,-0.114322152727,-30.1943541156,0.043815185726,0.146000046407,0.0,-1.11906551558,0.0,-1.43058512529,0.0,0.0,0.0,0.0,100.0,0.0,-30.48,0.00537022749826,100.0,0.00383600394174,-0.0,0.0,100.0,0.0,-0.0,1014515.2,0.0,0.0,0.0,0.0,0.0,0.0
1402598741743772333,0,11.1337064765,-0.114322152727,-30.2367896637,0.043815185726,0.141842263295,0.0,-1.11960949815,0.0,-1.44480975605,0.0,0.0,0.0,0.0,100.0,0.0,-30.48,0.00537022749826,100.0,0.00383600394174,-0.0,0.0,100.0,0.0,-0.0,1014515.2,0.0,0.0,0.0,0.0,0.0,0.0
1402598741763374580,0,11.1337064765,-0.114322152727,-30.2367896637,0.043815185726,0.141842263295,0.0,-1.11960949815,0.0,-1.44480975605,0.0,0.0,0.0,0.0,100.0,0.0,-30.48,0.00537022749826,100.0,0.00383600394174,-0.0,0.0,100.0,0.0,-0.0,1014515.2,0.0,0.0,0.0,0.0,0.0,0.0
1402598741783861630,0,11.1381387301,-0.114322152727,-30.2825742113,0.043815185726,0.128642570465,0.0,-1.1321294908,0.0,-1.45699297244,0.0,0.0,0.0,0.0,100.0,0.0,-30.48,0.00537022749826,100.0,0.00383600394174,-0.0,0.0,100.0,0.0,-0.0,1014515.2,0.0,0.0,0.0,0.0,0.0,0.0
1402598741803169726,0,11.1381387301,-0.114322152727,-30.2825742113,0.043815185726,0.128642570465,0.0,-1.1321294908,0.0,-1.45699297244,0.0,0.0,0.0,0.0,100.0,0.0,-30.48,0.00537022749826,100.0,0.00383600394174,-0.0,0.0,100.0,0.0,-0.0,1014515.2,0.0,0.0,0.0,0.0,0.0,0.0
1402598741823758848,0,11.1412454694,-0.114322152727,-30.3296303953,0.043815185726,0.115655540509,0.0,-1.1470058089,0.0,-1.46844218038,0.0,0.0,0.0,0.0,100.0,0.0,-30.48,0.00537022749826,100.0,0.00383600394174,-0.0,0.0,100.0,0.0,-0.0,1014515.2,0.0,0.0,0.0,0.0,0.0,0.0
1402598741842984478,0,11.1412454694,-0.114322152727,-30.3296303953,0.043815185726,0.115655540509,0.0,-1.1470058089,0.0,-1.46844218038,0.0,0.0,0.0,0.0,100.0,0.0,-30.48,0.00537022749826,100.0,0.00383600394174,-0.0,0.0,100.0,0.0,-0.0,1014515.2,0.0,0.0,0.0,0.0,0.0,0.0
1402598741863812500,0,11.1462278804,-0.114322152727,-30.3806412945,0.043815185726,0.104871414249,0.0,-1.17132744184,0.0,-1.47888247868,0.0,0.0,0.0,0.0,100.0,0.0,-30.48,0.00537022749826,100.0,0.00383600394174,-0.0,0.0,100.0,0.0,-0.0,1014515.2,0.0,0.0,0.0,0.0,0.0,0.0
1402598741883200498,0,11.1462278804,-0.114322152727,-30.3806412945,0.043815185726,0.104871414249,0.0,-1.17132744184,0.0,-1.47888247868,0.0,0.0,0.0,0.0,100.0,0.0,-30.48,0.00537022749826,100.0,0.00383600394174,-0.0,0.0,100.0,0.0,-0.0,1014515.2,0.0,0.0,0.0,0.0,0.0,0.0
1402598741903739851,0,11.1442821443,-0.114322152727,-30.4273773065,0.043815185726,0.0800640991133,0.0,-1.18487010317,0.0,-1.49065213825,0.0,0.0,0.0,0.0,100.0,0.0,-30.48,0.00537022749826,100.0,0.00383600394174,-0.0,0.0,100.0,0.0,-0.0,1014515.2,0.0,0.0,0.0,0.0,0.0,0.0
1402598741923131564,0,11.1442821443,-0.114322152727,-30.4273773065,0.043815185726,0.0800640991133,0.0,-1.18487010317,0.0,-1.49065213825,0.0,0.0,0.0,0.0,100.0,0.0,-30.48,0.00537022749826,100.0,0.00383600394174,-0.0,0.0,100.0,0.0,-0.0,1014515.2,0.0,0.0,0.0,0.0,0.0,0.0
1402598741943654052,0,11.1535553627,-0.114322152727,-30.4793067583,0.043815185726,0.0779360807,0.0,-1.20347589731,0.0,-1.50177157822,0.0,0.0,0.0,0.0,100.0,0.0,-30.48,0.00537022749826,100.0,0.00383600394174,-0.0,0.0,100.0,0.0,-0.0,1014515.2,0.0,0.0,0.0,0.0,0.0,0.0
1402598741963142388,0,11.1535553627,-0.114322152727,-30.4793067583,0.043815185726,0.0779360807,0.0,-1.20347589731,0.0,-1.50177157822,0.0,0.0,0.0,0.0,100.0,0.0,-30.48,0.00537022749826,100.0,0.00383600394174,-0.0,0.0,100.0,0.0,-0.0,1014515.2,0.0,0.0,0.0,0.0,0.0,0.0
1402598741983764524,0,11.1471201038,-0.114322152727,-30.5430763829,0.043815185726,0.0362364713577,0.0,-1.22494002434,0.0,-1.51601836315,0.0,0.0,0.0,0.0,100.0,0.0,-30.48,0.00537022749826,100.0,0.00383600394174,-0.0,0.0,100.0,0.0,-0.0,1014515.2,0.0,0.0,0.0,0.0,0.0,0.0
1402598742003331715,0,11.1471201038,-0.114322152727,-30.5430763829,0.043815185726,0.0362364713577,0.0,-1.22494002434,0.0,-1.51601836315,0.0,0.0,0.0,0.0,100.0,0.0,-30.48,0.00537022749826,100.0,0.00383600394174,-0.0,0.0,100.0,0.0,-0.0,1014515.2,0.0,0.0,0.0,0.0,0.0,0.0
1402598742023868104,0,11.1489071787,-0.114322152727,-30.6385779783,0.043815185726,0.0129703625788,0.0,-1.33330451073,0.0,-1.51661651961,0.0,0.0,0.0,0.0,100.0,0.0,-30.48,0.00537022749826,100.0,0.00383600394174,-0.0,0.0,100.0,0.0,-0.0,1014515.2,0.0,0.0,0.0,0.0,0.0,0.0
1402598742043111728,0,11.1489071787,-0.114322152727,-30.6385779783,0.043815185726,0.0129703625788,0.0,-1.33330451073,0.0,-1.51661651961,0.0,0.0,0.0,0.0,100.0,0.0,-30.48,0.00537022749826,100.0,0.00383600394174,-0.0,0.0,100.0,0.0,-0.0,1014515.2,0.0,0.0,0.0,0.0,0.0,0.0
1402598742063666514,0,11.1489831508,-0.114322152727,-30.6652914824,0.043815185726,0.00612461048126,0.0,-1.34262028866,0.0,-1.52231464065,0.0,0.0,0.0,0.0,100.0,0.0,-30.48,0.00537022749826,100.0,0.00383600394174,-0.0,0.0,100.0,0.0,-0.0,1014515.2,0.0,0.0,0.0,0.0,0.0,0.0
1402598742083085001,0,11.1489831508,-0.114322152727,-30.6652914824,0.043815185726,0.00612461048126,0.0,-1.34262028866,0.0,-1.52231464065,0.0,0.0,0.0,0.0,100.0,0.0,-30.48,0.00537022749826,100.0,0.00383600394174,-0.0,0.0,100.0,0.0,-0.0,1014515.2,0.0,0.0,0.0,0.0,0.0,0.0
1402598742103851875,0,11.1336069938,-0.114322152727,-30.7404622974,0.043815185726,-0.0486079495452,0.0,-1.41363610504,0.0,-1.52640434462,0.0,0.0,0.0,0.0,100.0,0.0,-30.48,0.00537022749826,100.0,0.00383600394174,-0.0,0.0,100.0,0.0,-0.0,1014515.2,0.0,0.0,0.0,0.0,0.0,0.0
1402598742123160921,0,11.1336069938,-0.114322152727,-30.7404622974,0.043815185726,-0.0486079495452,0.0,-1.41363610504,0.0,-1.52640434462,0.0,0.0,0.0,0.0,100.0,0.0,-30.48,0.00537022749826,100.0,0.00383600394174,-0.0,0.0,100.0,0.0,-0.0,1014515.2,0.0,0.0,0.0,0.0,0.0,0.0
1402598742143760030,0,11.1272184981,-0.114322152727,-30.7889230521,0.043815185726,-0.0707033464743,0.0,-1.40099978755,0.0,-1.54215892809,0.0,0.0,0.0,0.0,100.0,0.0,-30.48,0.00537022749826,100.0,0.00383600394174,-0.0,0.0,100.0,0.0,-0.0,1014515.2,0.0,0.0,0.0,0.0,0.0,0.0
1402598742163183148,0,11.1272184981,-0.114322152727,-30.7889230521,0.043815185726,-0.0707033464743,0.0,-1.40099978755,0.0,-1.54215892809,0.0,0.0,0.0,0.0,100.0,0.0,-30.48,0.00537022749826,100.0,0.00383600394174,-0.0,0.0,100.0,0.0,-0.0,1014515.2,0.0,0.0,0.0,0.0,0.0,0.0
1402598742183773873,0,11.1362594547,-0.114322152727,-30.8279521219,0.043815185726,-0.0596652159039,0.0,-1.3615418892,0.0,-1.56083799757,0.0,0.0,0.0,0.0,100.0,0.0,-30.48,0.00537022749826,100.0,0.00383600394174,-0.0,0.0,100.0,0.0,-0.0,1014515.2,0.0,0.0,0.0,0.0,0.0,0.0
1402598742203204141,0,11.1362594547,-0.114322152727,-30.8279521219,0.043815185726,-0.0596652159039,0.0,-1.3615418892,0.0,-1.56083799757,0.0,0.0,0.0,0.0,100.0,0.0,-30.48,0.00537022749826,100.0,0.00383600394174,-0.0,0.0,100.0,0.0,-0.0,1014515.2,0.0,0.0,0.0,0.0,0.0,0.0
1402598742223841263,0,11.1334165716,-0.114322152727,-30.884365773,0.043815185726,-0.0753836708381,0.0,-1.37646670448,0.0,-1.57265689636,0.0,0.0,0.0,0.0,100.0,0.0,-30.48,0.00537022749826,100.0,0.00383600394174,-0.0,0.0,100.0,0.0,-0.0,1014515.2,0.0,0.0,0.0,0.0,0.0,0.0
1402598742243330389,0,11.1334165716,-0.114322152727,-30.884365773,0.043815185726,-0.0753836708381,0.0,-1.37646670448,0.0,-1.57265689636,0.0,0.0,0.0,0.0,100.0,0.0,-30.48,0.00383600394174,100.0,0.00383600394174,-0.0,0.0,100.0,0.0,-0.0,1014515.2,0.0,0.0,0.0,0.0,0.0,0.0
1402598742263687487,0,11.1301062624,-0.114322152727,-30.9408307178,0.043815185726,-0.0923050584586,0.0,-1.38918962391,0.0,-1.58450076748,0.0,0.0,0.0,0.0,100.0,0.0,-30.48,0.00537022749826,100.0,0.00383600394174,-0.0,0.0,100.0,0.0,-0.0,1014515.2,0.0,0.0,0.0,0.0,0.0,0.0
1402598742283106395,0,11.1301062624,-0.114322152727,-30.9408307178,0.043815185726,-0.0923050584586,0.0,-1.38918962391,0.0,-1.58450076748,0.0,0.0,0.0,0.0,100.0,0.0,-30.48,0.00537022749826,100.0,0.00383600394174,-0.0,0.0,100.0,0.0,-0.0,1014515.2,0.0,0.0,0.0,0.0,0.0,0.0
1402598742303767083,0,11.1269574298,-0.114322152727,-30.9963872531,0.043815185726,-0.107719056984,0.0,-1.40015764849,0.0,-1.59593446995,0.0,0.0,0.0,0.0,100.0,0.0,-30.48,0.00537022749826,100.0,0.00383600394174,-0.0,0.0,100.0,0.0,-0.0,1014515.2,0.0,0.0,0.0,0.0,0.0,0.0
1402598742323174953,0,11.1269574298,-0.114322152727,-30.9963872531,0.043815185726,-0.107719056984,0.0,-1.40015764849,0.0,-1.59593446995,0.0,0.0,0.0,0.0,100.0,0.0,-30.48,0.00537022749826,100.0,0.00383600394174,-0.0,0.0,100.0,0.0,-0.0,1014515.2,0.0,0.0,0.0,0.0,0.0,0.0
1402598742343805569,0,11.1267032084,-0.114322152727,-31.036847332,0.043815185726,-0.111556729069,0.0,-1.36478596851,0.0,-1.61289043299,0.0,0.0,0.0,0.0,100.0,0.0,-30.48,0.00537022749826,100.0,0.00383600394174,-0.0,0.0,100.0,0.0,-0.0,1014515.2,0.0,0.0,0.0,0.0,0.0,0.0
1402598742363109792,0,11.1267032084,-0.114322152727,-31.036847332,0.043815185726,-0.111556729069,0.0,-1.36478596851,0.0,-1.61289043299,0.0,0.0,0.0,0.0,100.0,0.0,-30.48,0.00537022749826,100.0,0.00383600394174,-0.0,0.0,100.0,0.0,-0.0,1014515.2,0.0,0.0,0.0,0.0,0.0,0.0
1402598742383480903,0,11.1220323325,-0.114322152727,-31.0929268356,0.043815185726,-0.12333391178,0.0,-1.3731178281,0.0,-1.62424710016,0.0,0.0,0.0,0.0,100.0,0.0,-30.48,0.00537022749826,100.0,0.00383600394174,-0.0,0.0,100.0,0.0,-0.0,1014515.2,0.0,0.0,0.0,0.0,0.0,0.0
1402598742403247892,0,11.1220323325,-0.114322152727,-31.0929268356,0.043815185726,-0.12333391178,0.0,-1.3731178281,0.0,-1.62424710016,0.0,0.0,0.0,0.0,100.0,0.0,-30.48,0.00537022749826,100.0,0.00383600394174,-0.0,0.0,100.0,0.0,-0.0,1014515.2,0.0,0.0,0.0,0.0,0.0,0.0
1402598742423635734,0,11.1189739071,-0.114322152727,-31.1432886075,0.043815185726,-0.133392448484,0.0,-1.3665594063,0.0,-1.63711556436,0.0,0.0,0.0,0.0,100.0,0.0,-30.48,0.00537022749826,100.0,0.00383600394174,-0.0,0.0,100.0,0.0,-0.0,1014515.2,0.0,0.0,0.0,0.0,0.0,0.0
1402598742443245753,0,11.1189739071,-0.114322152727,-31.1432886075,0.043815185726,-0.133392448484,0.0,-1.3665594063,0.0,-1.63711556436,0.0,0.0,0.0,0.0,100.0,0.0,-30.48,0.00537022749826,100.0,0.00383600394174,-0.0,0.0,100.0,0.0,-0.0,1014515.2,0.0,0.0,0.0,0.0,0.0,0.0
1402598742463535862,0,11.1117040022,-0.114322152727,-31.2129848715,0.043815185726,-0.150475549048,0.0,-1.37671106631,0.0,-1.65126632034,0.0,0.0,0.0,0.0,100.0,0.0,-30.48,0.00537022749826,100.0,0.00383600394174,-0.0,0.0,100.0,0.0,-0.0,1014515.2,0.0,0.0,0.0,0.0,0.0,0.0
1402598742483297288,0,11.1117040022,-0.114322152727,-31.2129848715,0.043815185726,-0.150475549048,0.0,-1.37671106631,0.0,-1.65126632034,0.0,0.0,0.0,0.0,100.0,0.0,-30.48,0.00537022749826,100.0,0.00383600394174,-0.0,0.0,100.0,0.0,-0.0,1014515.2,0.0,0.0,0.0,0.0,0.0,0.0
1402598742503872477,0,11.1069871329,-0.114322152727,-31.25575405,0.043815185726,-0.160227793613,0.0,-1.38220351704,0.0,-1.65986392398,0.0,0.0,0.0,0.0,100.0,0.0,-30.48,0.00537022749826,100.0,0.00383600394174,-0.0,0.0,100.0,0.0,-0.0,1014515.2,0.0,0.0,0.0,0.0,0.0,0.0
1402598742523336079,0,11.1037537524,-0.114322152727,-31.2834592591,0.043815185726,-0.166996461002,0.0,-1.38458146625,0.0,-1.66549880327,0.0,0.0,0.0,0.0,100.0,0.0,-30.48,0.00537022749826,100.0,0.00383600394174,-0.0,0.0,100.0,0.0,-0.0,1014515.2,0.0,0.0,0.0,0.0,0.0,0.0
1402598742544066566,0,11.1037537524,-0.114322152727,-31.2834592591,0.043815185726,-0.166996461002,0.0,-1.38458146625,0.0,-1.66549880327,0.0,0.0,0.0,0.0,100.0,0.0,-30.48,0.00537022749826,100.0,0.00383600394174,-0.0,0.0,100.0,0.0,-0.0,1014515.2,0.0,0.0,0.0,0.0,0.0,0.0
1402598742563486154,0,11.1004343503,-0.114322152727,-31.3112160954,0.043815185726,-0.17332367061,0.0,-1.38802309108,0.0,-1.67106805144,0.0,0.0,0.0,0.0,100.0,0.0,-30.48,0.00537022749826,100.0,0.00383600394174,-0.0,0.0,100.0,0.0,-0.0,1014515.2,0.0,0.0,0.0,0.0,0.0,0.0
1402598742583221932,0,11.1004343503,-0.114322152727,-31.3112160954,0.043815185726,-0.17332367061,0.0,-1.38802309108,0.0,-1.67106805144,0.0,0.0,0.0,0.0,100.0,0.0,-30.48,0.00537022749826,100.0,0.00383600394174,-0.0,0.0,100.0,0.0,-0.0,1014515.2,0.0,0.0,0.0,0.0,0.0,0.0
1402598742603690040,0,11.0929736035,-0.114322152727,-31.3683587948,0.043815185726,-0.18850372817,0.0,-1.39343360048,0.0,-1.68285433696,0.0,0.0,0.0,0.0,100.0,0.0,-30.48,0.00537022749826,100.0,0.00383600394174,-0.0,0.0,100.0,0.0,-0.0,1014515.2,0.0,0.0,0.0,0.0,0.0,0.0
1402598742623170417,0,11.0929736035,-0.114322152727,-31.3683587948,0.043815185726,-0.18850372817,0.0,-1.39343360048,0.0,-1.68285433696,0.0,0.0,0.0,0.0,100.0,0.0,-30.48,0.00537022749826,100.0,0.00383600394174,-0.0,0.0,100.0,0.0,-0.0,1014515.2,0.0,0.0,0.0,0.0,0.0,0.0
1402598742643715676,0,11.0854218536,-0.114322152727,-31.4143333508,0.043815185726,-0.202963031998,0.0,-1.36789901099,0.0,-1.6968192594,0.0,0.0,0.0,0.0,100.0,0.0,-30.48,0.00537022749826,100.0,0.00383600394174,-0.0,0.0,100.0,0.0,-0.0,1014515.2,0.0,0.0,0.0,0.0,0.0,0.0
1402598742663607599,0,11.0854218536,-0.114322152727,-31.4143333508,0.043815185726,-0.202963031998,0.0,-1.36789901099,0.0,-1.6968192594,0.0,0.0,0.0,0.0,100.0,0.0,-30.48,0.00537022749826,100.0,0.00383600394174,-0.0,0.0,100.0,0.0,-0.0,1014515.2,0.0,0.0,0.0,0.0,0.0,0.0
1402598742683900998,0,11.0747921632,-0.114322152727,-31.4547300167,0.043815185726,-0.224578550106,0.0,-1.33223753432,0.0,-1.71074647801,0.0,0.0,0.0,0.0,100.0,0.0,-30.48,0.00537022749826,100.0,0.00383600394174,-0.0,0.0,100.0,0.0,-0.0,1014515.2,0.0,0.0,0.0,0.0,0.0,0.0
1402598742703668933,0,11.0747921632,-0.114322152727,-31.4547300167,0.043815185726,-0.224578550106,0.0,-1.33223753432,0.0,-1.71074647801,0.0,0.0,0.0,0.0,100.0,0.0,-30.48,0.00537022749826,100.0,0.00383600394174,-0.0,0.0,100.0,0.0,-0.0,1014515.2,0.0,0.0,0.0,0.0,0.0,0.0
1402598742723967325,0,11.064375849,-0.114322152727,-31.5013199646,0.043815185726,-0.246644504407,0.0,-1.3121963852,0.0,-1.72384248005,0.0,0.0,0.0,0.0,100.0,0.0,-30.48,0.00537022749826,100.0,0.00383600394174,-0.0,0.0,100.0,0.0,-0.0,1014515.2,0.0,0.0,0.0,0.0,0.0,0.0
1402598742743795674,0,11.064375849,-0.114322152727,-31.5013199646,0.043815185726,-0.246644504407,0.0,-1.3121963852,0.0,-1.72384248005,0.0,0.0,0.0,0.0,100.0,0.0,-30.48,0.00537022749826,100.0,0.00383600394174,-0.0,0.0,100.0,0.0,-0.0,1014515.2,0.0,0.0,0.0,0.0,0.0,0.0
1402598742764293785,0,11.0602136117,-0.114322152727,-31.5443129761,0.043815185726,-0.249512788127,0.0,-1.28521191732,0.0,-1.73816975418,0.0,0.0,0.0,0.0,100.0,0.0,-30.48,0.00537022749826,100.0,0.00383600394174,-0.0,0.0,100.0,0.0,-0.0,1014515.2,0.0,0.0,0.0,0.0,0.0,0.0
1402598742783537441,0,11.0602136117,-0.114322152727,-31.5443129761,0.043815185726,-0.249512788127,0.0,-1.28521191732,0.0,-1.73816975418,0.0,0.0,0.0,0.0,100.0,0.0,-30.48,0.00537022749826,100.0,0.00383600394174,-0.0,0.0,100.0,0.0,-0.0,1014515.2,0.0,0.0,0.0,0.0,0.0,0.0
1402598742803965098,0,11.0554235625,-0.114322152727,-31.577662388,0.043815185726,-0.255547054629,0.0,-1.23233242139,0.0,-1.75308509082,0.0,0.0,0.0,0.0,100.0,0.0,-30.48,0.00537022749826,100.0,0.00383600394174,-0.0,0.0,100.0,0.0,-0.0,1014515.2,0.0,0.0,0.0,0.0,0.0,0.0
1402598742823248942,0,11.0554235625,-0.114322152727,-31.577662388,0.043815185726,-0.255547054629,0.0,-1.23233242139,0.0,-1.75308509082,0.0,0.0,0.0,0.0,100.0,0.0,-30.48,0.00537022749826,100.0,0.00537022749826,-0.0,0.0,100.0,0.0,-0.0,1014515.2,0.0,0.0,0.0,0.0,0.0,0.0
1402598742844047873,0,11.047384919,-0.114322152727,-31.6302787256,0.043815185726,-0.267347073183,0.0,-1.22956529806,0.0,-1.76454051439,0.0,0.0,0.0,0.0,100.0,0.0,-30.48,0.00537022749826,100.0,0.00383600394174,-0.0,0.0,100.0,0.0,-0.0,1014515.2,0.0,0.0,0.0,0.0,0.0,0.0
1402598742863367902,0,11.047384919,-0.114322152727,-31.6302787256,0.043815185726,-0.267347073183,0.0,-1.22956529806,0.0,-1.76454051439,0.0,0.0,0.0,0.0,100.0,0.0,-30.48,0.00537022749826,100.0,0.00383600394174,-0.0,0.0,100.0,0.0,-0.0,1014515.2,0.0,0.0,0.0,0.0,0.0,0.0
1402598742883647111,0,11.0359191572,-0.114322152727,-31.6807611654,0.043815185726,-0.283288506481,0.0,-1.22370273355,0.0,-1.77587445532,0.0,0.0,0.0,0.0,100.0,0.0,-30.48,0.00537022749826,100.0,0.00383600394174,-0.0,0.0,100.0,0.0,-0.0,1014515.2,0.0,0.0,0.0,0.0,0.0,0.0
1402598742903226647,0,11.0359191572,-0.114322152727,-31.6807611654,0.043815185726,-0.283288506481,0.0,-1.22370273355,0.0,-1.77587445532,0.0,0.0,0.0,0.0,100.0,0.0,-30.48,0.00537022749826,100.0,0.00383600394174,-0.0,0.0,100.0,0.0,-0.0,1014515.2,0.0,0.0,0.0,0.0,0.0,0.0
1402598742923838497,0,11.0226509461,-0.114322152727,-31.7374979312,0.043815185726,-0.30274836694,0.0,-1.2310888832,0.0,-1.78547947534,0.0,0.0,0.0,0.0,100.0,0.0,-30.48,0.00383600394174,100.0,0.00383600394174,-0.0,0.0,100.0,0.0,-0.0,1014515.2,0.0,0.0,0.0,0.0,0.0,0.0
1402598742943388482,0,11.0226509461,-0.114322152727,-31.7374979312,0.043815185726,-0.30274836694,0.0,-1.2310888832,0.0,-1.78547947534,0.0,0.0,0.0,0.0,100.0,0.0,-30.48,0.00537022749826,100.0,0.00383600394174,-0.0,0.0,100.0,0.0,-0.0,1014515.2,0.0,0.0,0.0,0.0,0.0,0.0
1402598742963944488,0,11.0116745399,-0.114322152727,-31.8007117365,0.043815185726,-0.316731557532,0.0,-1.25362594921,0.0,-1.7954760482,0.0,0.0,0.0,0.0,100.0,0.0,-30.48,0.00537022749826,100.0,0.00383600394174,-0.0,0.0,100.0,0.0,-0.0,1014515.2,0.0,0.0,0.0,0.0,0.0,0.0
1402598742983464731,0,11.0116745399,-0.114322152727,-31.8007117365,0.043815185726,-0.316731557532,0.0,-1.25362594921,0.0,-1.7954760482,0.0,0.0,0.0,0.0,100.0,0.0,-30.48,0.00537022749826,100.0,0.00383600394174,-0.0,0.0,100.0,0.0,-0.0,1014515.2,0.0,0.0,0.0,0.0,0.0,0.0
1402598743003871570,0,10.9956204049,-0.114322152727,-31.8713319139,0.043815185726,-0.335394134239,0.0,-1.26150051574,0.0,-1.8087181279,0.0,0.0,0.0,0.0,100.0,0.0,-30.48,0.00537022749826,100.0,0.00383600394174,-0.0,0.0,100.0,0.0,-0.0,1014515.2,0.0,0.0,0.0,0.0,0.0,0.0
1402598743023208808,0,10.9956204049,-0.114322152727,-31.8713319139,0.043815185726,-0.335394134239,0.0,-1.26150051574,0.0,-1.8087181279,0.0,0.0,0.0,0.0,100.0,0.0,-30.48,0.00537022749826,100.0,0.00383600394174,-0.0,0.0,100.0,0.0,-0.0,1014515.2,0.0,0.0,0.0,0.0,0.0,0.0
1402598743043692385,0,10.9779193938,-0.114322152727,-31.9354766516,0.043815185726,-0.351223680289,0.0,-1.2556701764,0.0,-1.82257263181,0.0,0.0,0.0,0.0,100.0,0.0,-30.48,0.00383600394174,100.0,0.00383600394174,-0.0,0.0,100.0,0.0,-0.0,1014515.2,0.0,0.0,0.0,0.0,0.0,0.0
1402598743063139526,0,10.9779193938,-0.114322152727,-31.9354766516,0.043815185726,-0.351223680289,0.0,-1.2556701764,0.0,-1.82257263181,0.0,0.0,0.0,0.0,100.0,0.0,-30.48,0.00537022749826,100.0,0.00383600394174,-0.0,0.0,100.0,0.0,-0.0,1014515.2,0.0,0.0,0.0,0.0,0.0,0.0
1402598743083731474,0,10.9760072788,-0.114322152727,-31.9625476802,0.043815185726,-0.346101757309,0.0,-1.25564121733,0.0,-1.82907461122,0.0,0.0,0.0,0.0,100.0,0.0,-30.48,0.00537022749826,100.0,0.00383600394174,-0.0,0.0,100.0,0.0,-0.0,1014515.2,0.0,0.0,0.0,0.0,0.0,0.0
1402598743103212169,0,10.9760072788,-0.114322152727,-31.9625476802,0.043815185726,-0.346101757309,0.0,-1.25564121733,0.0,-1.82907461122,0.0,0.0,0.0,0.0,100.0,0.0,-30.48,0.00537022749826,100.0,0.00383600394174,-0.0,0.0,100.0,0.0,-0.0,1014515.2,0.0,0.0,0.0,0.0,0.0,0.0
1402598743124177781,0,10.9616978448,-0.114322152727,-32.0138872406,0.043815185726,-0.359972975217,0.0,-1.25155520574,0.0,-1.84009573538,0.0,0.0,0.0,0.0,100.0,0.0,-30.48,0.00537022749826,100.0,0.00383600394174,-0.0,0.0,100.0,0.0,-0.0,1014515.2,0.0,0.0,0.0,0.0,0.0,0.0
1402598743143275004,0,10.9616978448,-0.114322152727,-32.0138872406,0.043815185726,-0.359972975217,0.0,-1.25155520574,0.0,-1.84009573538,0.0,0.0,0.0,0.0,100.0,0.0,-30.48,0.00537022749826,100.0,0.00383600394174,-0.0,0.0,100.0,0.0,-0.0,1014515.2,0.0,0.0,0.0,0.0,0.0,0.0
1402598743163723040,0,10.9684997401,-0.114322152727,-32.0818193027,0.043815185726,-0.327805060498,0.0,-1.28478268273,0.0,-1.85465989078,0.0,0.0,0.0,0.0,100.0,0.0,-30.48,0.00537022749826,100.0,0.00383600394174,-0.0,0.0,100.0,0.0,-0.0,1014515.2,0.0,0.0,0.0,0.0,0.0,0.0
1402598743183366640,0,10.9684997401,-0.114322152727,-32.0818193027,0.043815185726,-0.327805060498,0.0,-1.28478268273,0.0,-1.85465989078,0.0,0.0,0.0,0.0,100.0,0.0,-30.48,0.00537022749826,100.0,0.00383600394174,-0.0,0.0,100.0,0.0,-0.0,1014515.2,0.0,0.0,0.0,0.0,0.0,0.0
1402598743203825852,0,10.9671528718,-0.114322152727,-32.1413837739,0.043815185726,-0.311454482897,0.0,-1.29772574301,0.0,-1.86774145034,0.0,0.0,0.0,0.0,100.0,0.0,-30.48,0.00537022749826,100.0,0.00383600394174,-0.0,0.0,100.0,0.0,-0.0,1014515.2,0.0,0.0,0.0,0.0,0.0,0.0
1402598743223385207,0,10.9671528718,-0.114322152727,-32.1413837739,0.043815185726,-0.311454482897,0.0,-1.29772574301,0.0,-1.86774145034,0.0,0.0,0.0,0.0,100.0,0.0,-30.48,0.00537022749826,100.0,0.00537022749826,-0.0,0.0,100.0,0.0,-0.0,1014515.2,0.0,0.0,0.0,0.0,0.0,0.0
1402598743244071187,0,10.9650202341,-0.114322152727,-32.207990083,0.043815185726,-0.29700677317,0.0,-1.32362660329,0.0,-1.88106490241,0.0,0.0,0.0,0.0,100.0,0.0,-30.48,0.00537022749826,100.0,0.00383600394174,-0.0,0.0,100.0,0.0,-0.0,1014515.2,0.0,0.0,0.0,0.0,0.0,0.0
1402598743267656728,0,10.9650202341,-0.114322152727,-32.207990083,0.043815185726,-0.29700677317,0.0,-1.32362660329,0.0,-1.88106490241,0.0,0.0,0.0,0.0,100.0,0.0,-30.48,0.00537022749826,100.0,0.00537022749826,-0.0,0.0,100.0,0.0,-0.0,1014515.2,0.0,0.0,0.0,0.0,0.0,0.0
1402598743284188395,0,10.9601769398,-0.114322152727,-32.2682069863,0.043815185726,-0.286307250546,0.0,-1.33233455435,0.0,-1.89405638043,0.0,0.0,0.0,0.0,100.0,0.0,-30.48,0.00383600394174,100.0,0.00383600394174,-0.0,0.0,100.0,0.0,-0.0,1014515.2,0.0,0.0,0.0,0.0,0.0,0.0
1402598743304616539,0,10.9601769398,-0.114322152727,-32.2682069863,0.043815185726,-0.286307250546,0.0,-1.33233455435,0.0,-1.89405638043,0.0,0.0,0.0,0.0,100.0,0.0,-30.48,0.00537022749826,100.0,0.00383600394174,-0.0,0.0,100.0,0.0,-0.0,1014515.2,0.0,0.0,0.0,0.0,0.0,0.0
1402598743323959204,0,10.9485241299,-0.114322152727,-32.3226610634,0.043815185726,-0.294792976643,0.0,-1.32846288146,0.0,-1.90498886492,0.0,0.0,0.0,0.0,100.0,0.0,-30.48,0.00383600394174,100.0,0.00383600394174,-0.0,0.0,100.0,0.0,-0.0,1014515.2,0.0,0.0,0.0,0.0,0.0,0.0
1402598743343780642,0,10.9485241299,-0.114322152727,-32.3226610634,0.043815185726,-0.294792976643,0.0,-1.32846288146,0.0,-1.90498886492,0.0,0.0,0.0,0.0,100.0,0.0,-30.48,0.00537022749826,100.0,0.00383600394174,-0.0,0.0,100.0,0.0,-0.0,1014515.2,0.0,0.0,0.0,0.0,0.0,0.0
1402598743363857882,0,10.9469858485,-0.114322152727,-32.3837880894,0.043815185726,-0.278038447973,0.0,-1.34597870063,0.0,-1.9184956905,0.0,0.0,0.0,0.0,100.0,0.0,-30.48,0.00383600394174,100.0,0.00537022749826,-0.0,0.0,100.0,0.0,-0.0,1014515.2,0.0,0.0,0.0,0.0,0.0,0.0
1402598743383551272,0,10.9469858485,-0.114322152727,-32.3837880894,0.043815185726,-0.278038447973,0.0,-1.34597870063,0.0,-1.9184956905,0.0,0.0,0.0,0.0,100.0,0.0,-30.48,0.00537022749826,100.0,0.00383600394174,-0.0,0.0,100.0,0.0,-0.0,1014515.2,0.0,0.0,0.0,0.0,0.0,0.0
1402598743403683957,0,10.9341836807,-0.114322152727,-32.4372690748,0.043815185726,-0.287583047955,0.0,-1.33999213265,0.0,-1.92913893447,0.0,0.0,0.0,0.0,100.0,0.0,-30.48,0.00537022749826,100.0,0.00383600394174,-0.0,0.0,100.0,0.0,-0.0,1014515.2,0.0,0.0,0.0,0.0,0.0,0.0
1402598743424143524,0,10.9341836807,-0.114322152727,-32.4372690748,0.043815185726,-0.287583047955,0.0,-1.33999213265,0.0,-1.92913893447,0.0,0.0,0.0,0.0,100.0,0.0,-30.48,0.00537022749826,100.0,0.00383600394174,-0.0,0.0,100.0,0.0,-0.0,1014515.2,0.0,0.0,0.0,0.0,0.0,0.0
1402598743443722832,0,10.9276602144,-0.114322152727,-32.5035688217,0.043815185726,-0.277821948996,0.0,-1.33229667056,0.0,-1.94469677496,0.0,0.0,0.0,0.0,100.0,0.0,-30.48,0.00537022749826,100.0,0.00537022749826,-0.0,0.0,100.0,0.0,-0.0,1014515.2,0.0,0.0,0.0,0.0,0.0,0.0
1402598743463129597,0,10.9276602144,-0.114322152727,-32.5035688217,0.043815185726,-0.277821948996,0.0,-1.33229667056,0.0,-1.94469677496,0.0,0.0,0.0,0.0,100.0,0.0,-30.48,0.00383600394174,100.0,0.00383600394174,-0.0,0.0,100.0,0.0,-0.0,1014515.2,0.0,0.0,0.0,0.0,0.0,0.0
1402598743483787385,0,10.9129907556,-0.114322152727,-32.574650719,0.043815185726,-0.286322649225,0.0,-1.33192114217,0.0,-1.95842855273,0.0,0.0,0.0,0.0,100.0,0.0,-30.48,0.00383600394174,100.0,0.00383600394174,-0.0,0.0,100.0,0.0,-0.0,1014515.2,0.0,0.0,0.0,0.0,0.0,0.0
1402598743502995656,0,10.9129907556,-0.114322152727,-32.574650719,0.043815185726,-0.286322649225,0.0,-1.33192114217,0.0,-1.95842855273,0.0,0.0,0.0,0.0,100.0,0.0,-30.48,0.00383600394174,100.0,0.00383600394174,-0.0,0.0,100.0,0.0,-0.0,1014515.2,0.0,0.0,0.0,0.0,0.0,0.0
1402598743523396794,0,10.9072846051,-0.114322152727,-32.602459145,0.043815185726,-0.288745983743,0.0,-1.33158124648,0.0,-1.96396327347,0.0,0.0,0.0,0.0,100.0,0.0,-30.48,0.00537022749826,100.0,0.00383600394174,-0.0,0.0,100.0,0.0,-0.0,1014515.2,0.0,0.0,0.0,0.0,0.0,0.0
1402598743543282556,0,10.9072846051,-0.114322152727,-32.602459145,0.043815185726,-0.288745983743,0.0,-1.33158124648,0.0,-1.96396327347,0.0,0.0,0.0,0.0,100.0,0.0,-30.48,0.00383600394174,100.0,0.00383600394174,-0.0,0.0,100.0,0.0,-0.0,1014515.2,0.0,0.0,0.0,0.0,0.0,0.0
1402598743563732713,0,10.8947140577,-0.114322152727,-32.6583518619,0.043815185726,-0.296037254608,0.0,-1.3255093008,0.0,-1.97507079322,0.0,0.0,0.0,0.0,100.0,0.0,-30.48,0.00537022749826,100.0,0.00383600394174,-0.0,0.0,100.0,0.0,-0.0,1014515.2,0.0,0.0,0.0,0.0,0.0,0.0
1402598743583146638,0,10.8947140577,-0.114322152727,-32.6583518619,0.043815185726,-0.296037254608,0.0,-1.3255093008,0.0,-1.97507079322,0.0,0.0,0.0,0.0,100.0,0.0,-30.48,0.00537022749826,100.0,0.00383600394174,-0.0,0.0,100.0,0.0,-0.0,1014515.2,0.0,0.0,0.0,0.0,0.0,0.0
1402598743603640712,0,10.8722104877,-0.114322152727,-32.714604806,0.043815185726,-0.325546120986,0.0,-1.32225511982,0.0,-1.98394676728,0.0,0.0,0.0,0.0,100.0,0.0,-30.48,0.00537022749826,100.0,0.00383600394174,-0.0,0.0,100.0,0.0,-0.0,1014515.2,0.0,0.0,0.0,0.0,0.0,0.0
1402598743622917374,0,10.8722104877,-0.114322152727,-32.714604806,0.043815185726,-0.325546120986,0.0,-1.32225511982,0.0,-1.98394676728,0.0,0.0,0.0,0.0,100.0,0.0,-30.48,0.00383600394174,100.0,0.00383600394174,-0.0,0.0,100.0,0.0,-0.0,1014515.2,0.0,0.0,0.0,0.0,0.0,0.0
1402598743643588624,0,10.8400253841,-0.114322152727,-32.7759844575,0.043815185726,-0.376305085961,0.0,-1.33535929931,0.0,-1.99173238619,0.0,0.0,0.0,0.0,100.0,0.0,-30.48,0.00383600394174,100.0,0.00383600394174,-0.0,0.0,100.0,0.0,-0.0,1014515.2,0.0,0.0,0.0,0.0,0.0,0.0
1402598743663278950,0,10.8400253841,-0.114322152727,-32.7759844575,0.043815185726,-0.376305085961,0.0,-1.33535929931,0.0,-1.99173238619,0.0,0.0,0.0,0.0,100.0,0.0,-30.48,0.00537022749826,100.0,0.00383600394174,-0.0,0.0,100.0,0.0,-0.0,1014515.2,0.0,0.0,0.0,0.0,0.0,0.0
1402598743683734921,0,10.8245010085,-0.114322152727,-32.8306613089,0.043815185726,-0.389175655746,0.0,-1.33098727355,0.0,-2.00252545956,0.0,0.0,0.0,0.0,100.0,0.0,-30.48,0.00383600394174,100.0,0.00383600394174,-0.0,0.0,100.0,0.0,-0.0,1014515.2,0.0,0.0,0.0,0.0,0.0,0.0
1402598743703132949,0,10.8245010085,-0.114322152727,-32.8306613089,0.043815185726,-0.389175655746,0.0,-1.33098727355,0.0,-2.00252545956,0.0,0.0,0.0,0.0,100.0,0.0,-30.48,0.00537022749826,100.0,0.00383600394174,-0.0,0.0,100.0,0.0,-0.0,1014515.2,0.0,0.0,0.0,0.0,0.0,0.0
1402598743723752623,0,10.8071265643,-0.114322152727,-32.8825959524,0.043815185726,-0.402509893088,0.0,-1.31874108956,0.0,-2.01247147496,0.0,0.0,0.0,0.0,100.0,0.0,-30.48,0.00537022749826,100.0,0.00383600394174,-0.0,0.0,100.0,0.0,-0.0,1014515.2,0.0,0.0,0.0,0.0,0.0,0.0
1402598743743706175,0,10.8071265643,-0.114322152727,-32.8825959524,0.043815185726,-0.402509893088,0.0,-1.31874108956,0.0,-2.01247147496,0.0,0.0,0.0,0.0,100.0,0.0,-30.48,0.00537022749826,100.0,0.00383600394174,-0.0,0.0,100.0,0.0,-0.0,1014515.2,0.0,0.0,0.0,0.0,0.0,0.0
1402598743763874055,0,10.7858943748,-0.114322152727,-32.9511451717,0.043815185726,-0.41467695227,0.0,-1.31352093396,0.0,-2.02596080497,0.0,0.0,0.0,0.0,100.0,0.0,-30.48,0.00383600394174,100.0,0.00383600394174,-0.0,0.0,100.0,0.0,-0.0,1014515.2,0.0,0.0,0.0,0.0,0.0,0.0
1402598743783417701,0,10.7858943748,-0.114322152727,-32.9511451717,0.043815185726,-0.41467695227,0.0,-1.31352093396,0.0,-2.02596080497,0.0,0.0,0.0,0.0,100.0,0.0,-30.48,0.00537022749826,100.0,0.00383600394174,-0.0,0.0,100.0,0.0,-0.0,1014515.2,0.0,0.0,0.0,0.0,0.0,0.0
1402598743804291720,0,10.7516980702,-0.114322152727,-33.005707574,0.043815185726,-0.47405099621,0.0,-1.34539043715,0.0,-2.03017958552,0.0,0.0,0.0,0.0,100.0,0.0,-30.48,0.00383600394174,100.0,0.00383600394174,-0.0,0.0,100.0,0.0,-0.0,1014515.2,0.0,0.0,0.0,0.0,0.0,0.0
1402598743823162037,0,10.7309985805,-0.114322152727,-33.067701838,0.043815185726,-0.509680709891,0.0,-1.43562986385,0.0,-2.03521382029,0.0,0.0,0.0,0.0,100.0,0.0,-30.48,0.00537022749826,100.0,0.00383600394174,-0.0,0.0,100.0,0.0,-0.0,1014515.2,0.0,0.0,0.0,0.0,0.0,0.0
1402598743843727681,0,10.7309985805,-0.114322152727,-33.067701838,0.043815185726,-0.509680709891,0.0,-1.43562986385,0.0,-2.03521382029,0.0,0.0,0.0,0.0,100.0,0.0,-30.48,0.00383600394174,100.0,0.00383600394174,-0.0,0.0,100.0,0.0,-0.0,1014515.2,0.0,0.0,0.0,0.0,0.0,0.0
1402598743863255232,0,10.7201290005,-0.114322152727,-33.0978532068,0.043815185726,-0.515295883542,0.0,-1.43756769581,0.0,-2.04067731936,0.0,0.0,0.0,0.0,100.0,0.0,-30.48,0.00537022749826,100.0,0.00383600394174,-0.0,0.0,100.0,0.0,-0.0,1014515.2,0.0,0.0,0.0,0.0,0.0,0.0
1402598743884137099,0,10.7201290005,-0.114322152727,-33.0978532068,0.043815185726,-0.515295883542,0.0,-1.43756769581,0.0,-2.04067731936,0.0,0.0,0.0,0.0,100.0,0.0,-30.48,0.00537022749826,100.0,0.00383600394174,-0.0,0.0,100.0,0.0,-0.0,1014515.2,0.0,0.0,0.0,0.0,0.0,0.0
1402598743903560568,0,10.6906805591,-0.114322152727,-33.1557187574,0.043815185726,-0.550396789244,0.0,-1.43369117458,0.0,-2.04921659496,0.0,0.0,0.0,0.0,100.0,0.0,-30.48,0.00537022749826,100.0,0.00383600394174,-0.0,0.0,100.0,0.0,-0.0,1014515.2,0.0,0.0,0.0,0.0,0.0,0.0
1402598743924160352,0,10.6906805591,-0.114322152727,-33.1557187574,0.043815185726,-0.550396789244,0.0,-1.43369117458,0.0,-2.04921659496,0.0,0.0,0.0,0.0,100.0,0.0,-30.48,0.00537022749826,100.0,0.00383600394174,-0.0,0.0,100.0,0.0,-0.0,1014515.2,0.0,0.0,0.0,0.0,0.0,0.0
1402598743943396300,0,10.6719608824,-0.114322152727,-33.2043404606,0.043815185726,-0.552554320225,0.0,-1.4032180934,0.0,-2.05955303512,0.0,0.0,0.0,0.0,100.0,0.0,-30.48,0.00383600394174,100.0,0.00383600394174,-0.0,0.0,100.0,0.0,-0.0,1014515.2,0.0,0.0,0.0,0.0,0.0,0.0
1402598743963769144,0,10.6719608824,-0.114322152727,-33.2043404606,0.043815185726,-0.552554320225,0.0,-1.4032180934,0.0,-2.05955303512,0.0,0.0,0.0,0.0,100.0,0.0,-30.48,0.00537022749826,100.0,0.00383600394174,-0.0,0.0,100.0,0.0,-0.0,1014515.2,0.0,0.0,0.0,0.0,0.0,0.0
1402598743984575116,0,10.6426883317,-0.114322152727,-33.2344923525,0.043815185726,-0.58179344108,0.0,-1.31569572197,0.0,-2.06647419489,0.0,0.0,0.0,0.0,100.0,0.0,-30.48,0.00383600394174,100.0,0.00383600394174,-0.0,0.0,100.0,0.0,-0.0,1014515.2,0.0,0.0,0.0,0.0,0.0,0.0
1402598744003593194,0,10.6426883317,-0.114322152727,-33.2344923525,0.043815185726,-0.58179344108,0.0,-1.31569572197,0.0,-2.06647419489,0.0,0.0,0.0,0.0,100.0,0.0,-30.48,0.00383600394174,100.0,0.00383600394174,-0.0,0.0,100.0,0.0,-0.0,1014515.2,0.0,0.0,0.0,0.0,0.0,0.0
1402598744023891755,0,10.6180643209,-0.114322152727,-33.2897227489,0.043815185726,-0.594455861896,0.0,-1.31238028018,0.0,-2.07759370525,0.0,0.0,0.0,0.0,100.0,0.0,-30.48,0.00537022749826,100.0,0.00383600394174,-0.0,0.0,100.0,0.0,-0.0,1014515.2,0.0,0.0,0.0,0.0,0.0,0.0
1402598744043886859,0,10.6180643209,-0.114322152727,-33.2897227489,0.043815185726,-0.594455861896,0.0,-1.31238028018,0.0,-2.07759370525,0.0,0.0,0.0,0.0,100.0,0.0,-30.48,0.00383600394174,100.0,0.00383600394174,-0.0,0.0,100.0,0.0,-0.0,1014515.2,0.0,0.0,0.0,0.0,0.0,0.0
1402598744063113251,0,10.5885019617,-0.114322152727,-33.3271123616,0.043815185726,-0.614129065045,0.0,-1.25680599046,0.0,-2.08658095248,0.0,0.0,0.0,0.0,100.0,0.0,-30.48,0.00383600394174,100.0,0.00383600394174,-0.0,0.0,100.0,0.0,-0.0,1014515.2,0.0,0.0,0.0,0.0,0.0,0.0
1402598744083999842,0,10.5885019617,-0.114322152727,-33.3271123616,0.043815185726,-0.614129065045,0.0,-1.25680599046,0.0,-2.08658095248,0.0,0.0,0.0,0.0,100.0,0.0,-30.48,0.00537022749826,100.0,0.00383600394174,-0.0,0.0,100.0,0.0,-0.0,1014515.2,0.0,0.0,0.0,0.0,0.0,0.0
1402598744103347040,0,10.5582420056,-0.114322152727,-33.3852923655,0.043815185726,-0.640532604947,0.0,-1.26344782218,0.0,-2.09627929065,0.0,0.0,0.0,0.0,100.0,0.0,-30.48,0.00383600394174,100.0,0.00383600394174,-0.0,0.0,100.0,0.0,-0.0,1014515.2,0.0,0.0,0.0,0.0,0.0,0.0
1402598744123851207,0,10.5582420056,-0.114322152727,-33.3852923655,0.043815185726,-0.640532604947,0.0,-1.26344782218,0.0,-2.09627929065,0.0,0.0,0.0,0.0,100.0,0.0,-30.48,0.00383600394174,100.0,0.00383600394174,-0.0,0.0,100.0,0.0,-0.0,1014515.2,0.0,0.0,0.0,0.0,0.0,0.0
1402598744143191347,0,10.5272592828,-0.114322152727,-33.4444947332,0.043815185726,-0.65192555855,0.0,-1.23318978127,0.0,-2.10958268431,0.0,0.0,0.0,0.0,100.0,0.0,-30.48,0.00383600394174,100.0,0.00383600394174,-0.0,0.0,100.0,0.0,-0.0,1014515.2,0.0,0.0,0.0,0.0,0.0,0.0
1402598744163759358,0,10.5272592828,-0.114322152727,-33.4444947332,0.043815185726,-0.65192555855,0.0,-1.23318978127,0.0,-2.10958268431,0.0,0.0,0.0,0.0,100.0,0.0,-30.48,0.00383600394174,100.0,0.00383600394174,-0.0,0.0,100.0,0.0,-0.0,1014515.2,0.0,0.0,0.0,0.0,0.0,0.0
1402598744183281518,0,10.4774908382,-0.114322152727,-33.5153426604,0.043815185726,-0.7042521102,0.0,-1.23853492806,0.0,-2.12035000141,0.0,0.0,0.0,0.0,100.0,0.0,-30.48,0.00383600394174,100.0,0.00383600394174,-0.0,0.0,100.0,0.0,-0.0,1014515.2,0.0,0.0,0.0,0.0,0.0,0.0
1402598744203797025,0,10.4774908382,-0.114322152727,-33.5153426604,0.043815185726,-0.7042521102,0.0,-1.23853492806,0.0,-2.12035000141,0.0,0.0,0.0,0.0,100.0,0.0,-30.48,0.00383600394174,100.0,0.00383600394174,-0.0,0.0,100.0,0.0,-0.0,1014515.2,0.0,0.0,0.0,0.0,0.0,0.0
1402598744223183060,0,10.4635475123,-0.114322152727,-33.5401025171,0.043815185726,-0.712657353895,0.0,-1.23435628543,0.0,-2.1253977775,0.0,0.0,0.0,0.0,100.0,0.0,-30.48,0.00537022749826,100.0,0.00383600394174,-0.0,0.0,100.0,0.0,-0.0,1014515.2,0.0,0.0,0.0,0.0,0.0,0.0
1402598744243801740,0,10.4635475123,-0.114322152727,-33.5401025171,0.043815185726,-0.712657353895,0.0,-1.23435628543,0.0,-2.1253977775,0.0,0.0,0.0,0.0,100.0,0.0,-30.48,0.00383600394174,100.0,0.00383600394174,-0.0,0.0,100.0,0.0,-0.0,1014515.2,0.0,0.0,0.0,0.0,0.0,0.0
1402598744263136166,0,10.4332857086,-0.114322152727,-33.591716044,0.043815185726,-0.727060987528,0.0,-1.22720389368,0.0,-2.13622324091,0.0,0.0,0.0,0.0,100.0,0.0,-30.48,0.00537022749826,100.0,0.00383600394174,-0.0,0.0,100.0,0.0,-0.0,1014515.2,0.0,0.0,0.0,0.0,0.0,0.0
1402598744283662641,0,10.4332857086,-0.114322152727,-33.591716044,0.043815185726,-0.727060987528,0.0,-1.22720389368,0.0,-2.13622324091,0.0,0.0,0.0,0.0,100.0,0.0,-30.48,0.00383600394174,100.0,0.00383600394174,-0.0,0.0,100.0,0.0,-0.0,1014515.2,0.0,0.0,0.0,0.0,0.0,0.0
1402598744303114368,0,10.4030010788,-0.114322152727,-33.6417484515,0.043815185726,-0.742254668362,0.0,-1.21826000944,0.0,-2.14681278329,0.0,0.0,0.0,0.0,100.0,0.0,-30.48,0.00537022749826,100.0,0.00383600394174,-0.0,0.0,100.0,0.0,-0.0,1014515.2,0.0,0.0,0.0,0.0,0.0,0.0
1402598744323690836,0,10.4030010788,-0.114322152727,-33.6417484515,0.043815185726,-0.742254668362,0.0,-1.21826000944,0.0,-2.14681278329,0.0,0.0,0.0,0.0,100.0,0.0,-30.48,0.00537022749826,100.0,0.00383600394174,-0.0,0.0,100.0,0.0,-0.0,1014515.2,0.0,0.0,0.0,0.0,0.0,0.0
1402598744343154457,0,10.3761176055,-0.114322152727,-33.6802383566,0.043815185726,-0.747428884919,0.0,-1.17336871198,0.0,-2.15847211585,0.0,0.0,0.0,0.0,100.0,0.0,-30.48,0.00383600394174,100.0,0.00383600394174,-0.0,0.0,100.0,0.0,-0.0,1014515.2,0.0,0.0,0.0,0.0,0.0,0.0
1402598744363768878,0,10.3761176055,-0.114322152727,-33.6802383566,0.043815185726,-0.747428884919,0.0,-1.17336871198,0.0,-2.15847211585,0.0,0.0,0.0,0.0,100.0,0.0,-30.48,0.00537022749826,100.0,0.00383600394174,-0.0,0.0,100.0,0.0,-0.0,1014515.2,0.0,0.0,0.0,0.0,0.0,0.0
1402598744383268223,0,10.3389660759,-0.114322152727,-33.7327905668,0.043815185726,-0.760054307989,0.0,-1.13145794224,0.0,-2.17255389796,0.0,0.0,0.0,0.0,100.0,0.0,-30.48,0.00383600394174,100.0,0.00383600394174,-0.0,0.0,100.0,0.0,-0.0,1014515.2,0.0,0.0,0.0,0.0,0.0,0.0
1402598744403783410,0,10.3389660759,-0.114322152727,-33.7327905668,0.043815185726,-0.760054307989,0.0,-1.13145794224,0.0,-2.17255389796,0.0,0.0,0.0,0.0,100.0,0.0,-30.48,0.00537022749826,100.0,0.00537022749826,-0.0,0.0,100.0,0.0,-0.0,1014515.2,0.0,0.0,0.0,0.0,0.0,0.0
1402598744423302773,0,10.3145167269,-0.114322152727,-33.7569855631,0.043815185726,-0.770860988479,0.0,-1.08865603366,0.0,-2.18130015053,0.0,0.0,0.0,0.0,100.0,0.0,-30.48,0.00383600394174,100.0,0.00383600394174,-0.0,0.0,100.0,0.0,-0.0,1014515.2,0.0,0.0,0.0,0.0,0.0,0.0
1402598744444388690,0,10.299072664,-0.114322152727,-33.7785009278,0.043815185726,-0.77858295407,0.0,-1.08102545129,0.0,-2.1866073078,0.0,0.0,0.0,0.0,100.0,0.0,-30.48,0.00383600394174,100.0,0.00383600394174,-0.0,0.0,100.0,0.0,-0.0,1014515.2,0.0,0.0,0.0,0.0,0.0,0.0
1402598744463852632,0,10.299072664,-0.114322152727,-33.7785009278,0.043815185726,-0.77858295407,0.0,-1.08102545129,0.0,-2.1866073078,0.0,0.0,0.0,0.0,100.0,0.0,-30.48,0.00537022749826,100.0,0.00383600394174,-0.0,0.0,100.0,0.0,-0.0,1014515.2,0.0,0.0,0.0,0.0,0.0,0.0
1402598744484808464,0,10.2825058476,-0.114322152727,-33.801343736,0.043815185726,-0.785218079716,0.0,-1.07491878747,0.0,-2.1922830701,0.0,0.0,0.0,0.0,100.0,0.0,-30.48,0.00537022749826,100.0,0.00383600394174,-0.0,0.0,100.0,0.0,-0.0,1014515.2,0.0,0.0,0.0,0.0,0.0,0.0
