rosbagTimestamp,control_method,x_current,x_desired,y_current,y_desired,x_velocity_current,x_velocity_desired,y_velocity_current,y_velocity_desired,yaw_current,yaw_desired,required_force_x,required_force_y,required_moment_z,resultant_force_x,resultant_force_y,resultant_moment_z,current_port_servo_angle,current_port_thruster_force,current_starboard_servo_angle,current_starboard_thruster_force,estimated_port_servo_angle,estimated_port_thruster_force,estimated_starboard_servo_angle,estimated_starboard_thruster_force,cost_value,step,user_defined_1,user_defined_2,user_defined_3,user_defined_4,user_defined_5
1402602833789481634,0,-9.85708185155,-0.114322152727,-46.111621077,0.043815185726,0.249883714009,0.0,-0.0481485629477,0.0,-0.149871360748,0.0,0.0,0.0,0.0,-0.0,-0.0,0.0,0.00537022749826,-0.0,-0.00383606751517,-0.0,0.0,-0.0,0.0,-0.0,2.1777378682e-07,0.0,0.0,0.0,0.0,0.0,0.0
1402602833809049910,0,-9.85708185155,-0.114322152727,-46.111621077,0.043815185726,0.249883714009,0.0,-0.0481485629477,0.0,-0.149871360748,0.0,0.0,0.0,0.0,-0.0,-0.0,0.0,0.00537022749826,-0.0,-0.00383606751517,-0.0,0.0,-0.0,0.0,-0.0,2.1777378682e-07,0.0,0.0,0.0,0.0,0.0,0.0
1402602833829077240,0,-9.8430100235,-0.114322152727,-46.1102924074,0.043815185726,0.257825094114,0.0,-0.0403009590312,0.0,-0.14962779078,0.0,0.0,0.0,0.0,-0.0,-0.0,0.0,0.00537022749826,-0.0,-0.00383606751517,-0.0,0.0,-0.0,0.0,-0.0,2.1777378682e-07,0.0,0.0,0.0,0.0,0.0,0.0
1402602833849342070,0,-9.8430100235,-0.114322152727,-46.1102924074,0.043815185726,0.257825094114,0.0,-0.0403009590312,0.0,-0.14962779078,0.0,0.0,0.0,0.0,-0.0,-0.0,0.0,0.00537022749826,-0.0,-0.00383606751517,-0.0,0.0,-0.0,0.0,-0.0,2.1777378682e-07,0.0,0.0,0.0,0.0,0.0,0.0
1402602833869156154,0,-9.83452619399,-0.114322152727,-46.1078548664,0.043815185726,0.250047182033,0.0,-0.0319381021855,0.0,-0.149566339203,0.0,0.0,0.0,0.0,-0.0,-0.0,0.0,0.00537022749826,-0.0,-0.00383606751517,-0.0,0.0,-0.0,0.0,-0.0,2.1777378682e-07,0.0,0.0,0.0,0.0,0.0,0.0
1402602833888979933,0,-9.83452619399,-0.114322152727,-46.1078548664,0.043815185726,0.250047182033,0.0,-0.0319381021855,0.0,-0.149566339203,0.0,0.0,0.0,0.0,-0.0,-0.0,0.0,0.00537022749826,-0.0,-0.00383606751517,-0.0,0.0,-0.0,0.0,-0.0,2.1777378682e-07,0.0,0.0,0.0,0.0,0.0,0.0
1402602833909387316,0,-9.82230960795,-0.114322152727,-46.1109085588,0.043815185726,0.254596670188,0.0,-0.0342889639956,0.0,-0.149465548401,0.0,0.0,0.0,0.0,-0.0,-0.0,0.0,0.00537022749826,-0.0,-0.00383606751517,-0.0,0.0,-0.0,0.0,-0.0,2.1777378682e-07,0.0,0.0,0.0,0.0,0.0,0.0
1402602833929918693,0,-9.82230960795,-0.114322152727,-46.1109085588,0.043815185726,0.254596670188,0.0,-0.0342889639956,0.0,-0.149465548401,0.0,0.0,0.0,0.0,-0.0,-0.0,0.0,0.00537022749826,-0.0,-0.00383606751517,-0.0,0.0,-0.0,0.0,-0.0,2.1777378682e-07,0.0,0.0,0.0,0.0,0.0,0.0
1402602833949280440,0,-9.81466128507,-0.114322152727,-46.1124362746,0.043815185726,0.245772992978,0.0,-0.0361684959159,0.0,-0.149339576692,0.0,0.0,0.0,0.0,-0.0,-0.0,0.0,0.00537022749826,-0.0,-0.00383606751517,-0.0,0.0,-0.0,0.0,-0.0,2.1777378682e-07,0.0,0.0,0.0,0.0,0.0,0.0
1402602833969509282,0,-9.81466128507,-0.114322152727,-46.1124362746,0.043815185726,0.245772992978,0.0,-0.0361684959159,0.0,-0.149339576692,0.0,0.0,0.0,0.0,-0.0,-0.0,0.0,0.00537022749826,-0.0,-0.00383606751517,-0.0,0.0,-0.0,0.0,-0.0,2.1777378682e-07,0.0,0.0,0.0,0.0,0.0,0.0
1402602833989289337,0,-9.8003782029,-0.114322152727,-46.1093448105,0.043815185726,0.252527333671,0.0,-0.0317289961611,0.0,-0.149385177989,0.0,0.0,0.0,0.0,-0.0,-0.0,0.0,0.00383600394174,-0.0,-0.00383606751517,-0.0,0.0,-0.0,0.0,-0.0,1.4715170111e-07,0.0,0.0,0.0,0.0,0.0,0.0
1402602834009150340,0,-9.8003782029,-0.114322152727,-46.1093448105,0.043815185726,0.252527333671,0.0,-0.0317289961611,0.0,-0.149385177989,0.0,0.0,0.0,0.0,-0.0,-0.0,0.0,0.00537022749826,-0.0,-0.00383606751517,-0.0,0.0,-0.0,0.0,-0.0,2.1777378682e-07,0.0,0.0,0.0,0.0,0.0,0.0
1402602834029072712,0,-9.78986755754,-0.114322152727,-46.1104800756,0.043815185726,0.25134213383,0.0,-0.0327267255894,0.0,-0.149337552219,0.0,0.0,0.0,0.0,-0.0,-0.0,0.0,0.00537022749826,-0.0,-0.00383606751517,-0.0,0.0,-0.0,0.0,-0.0,2.1777378682e-07,0.0,0.0,0.0,0.0,0.0,0.0
1402602834049426502,0,-9.78986755754,-0.114322152727,-46.1104800756,0.043815185726,0.25134213383,0.0,-0.0327267255894,0.0,-0.149337552219,0.0,0.0,0.0,0.0,-0.0,-0.0,0.0,0.00537022749826,-0.0,-0.00383606751517,-0.0,0.0,-0.0,0.0,-0.0,2.1777378682e-07,0.0,0.0,0.0,0.0,0.0,0.0
1402602834069097713,0,-9.77988224278,-0.114322152727,-46.1128618968,0.043815185726,0.245712987402,0.0,-0.0258168019225,0.0,-0.149638891679,0.0,0.0,0.0,0.0,-0.0,-0.0,0.0,0.00537022749826,-0.0,-0.00383606751517,-0.0,0.0,-0.0,0.0,-0.0,2.1777378682e-07,0.0,0.0,0.0,0.0,0.0,0.0
1402602834089050597,0,-9.77988224278,-0.114322152727,-46.1128618968,0.043815185726,0.245712987402,0.0,-0.0258168019225,0.0,-0.149638891679,0.0,0.0,0.0,0.0,-0.0,-0.0,0.0,0.00537022749826,-0.0,-0.00383606751517,-0.0,0.0,-0.0,0.0,-0.0,2.1777378682e-07,0.0,0.0,0.0,0.0,0.0,0.0
1402602834110009386,0,-9.76755128565,-0.114322152727,-46.1142749175,0.043815185726,0.256410297288,0.0,-0.032704137559,0.0,-0.149730943665,0.0,0.0,0.0,0.0,-0.0,-0.0,0.0,0.00383600394174,-0.0,-0.00383606751517,-0.0,0.0,-0.0,0.0,-0.0,1.4715170111e-07,0.0,0.0,0.0,0.0,0.0,0.0
1402602834129001072,0,-9.76225930298,-0.114322152727,-46.115048471,0.043815185726,0.256502107569,0.0,-0.0320264908921,0.0,-0.149766765163,0.0,0.0,0.0,0.0,-0.0,-0.0,0.0,0.00537022749826,-0.0,-0.00383606751517,-0.0,0.0,-0.0,0.0,-0.0,2.1777378682e-07,0.0,0.0,0.0,0.0,0.0,0.0
1402602834149542708,0,-9.76225930298,-0.114322152727,-46.115048471,0.043815185726,0.256502107569,0.0,-0.0320264908921,0.0,-0.149766765163,0.0,0.0,0.0,0.0,-0.0,-0.0,0.0,0.00537022749826,-0.0,-0.00383606751517,-0.0,0.0,-0.0,0.0,-0.0,2.1777378682e-07,0.0,0.0,0.0,0.0,0.0,0.0
1402602834169615503,0,-9.75936046671,-0.114322152727,-46.1150775274,0.043815185726,0.249807852045,0.0,-0.0296318608693,0.0,-0.149793998111,0.0,0.0,0.0,0.0,-0.0,-0.0,0.0,0.00537022749826,-0.0,-0.00383606751517,-0.0,0.0,-0.0,0.0,-0.0,2.1777378682e-07,0.0,0.0,0.0,0.0,0.0,0.0
1402602834189001517,0,-9.75936046671,-0.114322152727,-46.1150775274,0.043815185726,0.249807852045,0.0,-0.0296318608693,0.0,-0.149793998111,0.0,0.0,0.0,0.0,-0.0,-0.0,0.0,0.00537022749826,-0.0,-0.00383606751517,-0.0,0.0,-0.0,0.0,-0.0,2.1777378682e-07,0.0,0.0,0.0,0.0,0.0,0.0
1402602834209174229,0,-9.74960329446,-0.114322152727,-46.117318058,0.043815185726,0.250528312928,0.0,-0.032444027053,0.0,-0.149833434276,0.0,0.0,0.0,0.0,-0.0,-0.0,0.0,0.00537022749826,-0.0,-0.00383606751517,-0.0,0.0,-0.0,0.0,-0.0,2.1777378682e-07,0.0,0.0,0.0,0.0,0.0,0.0
1402602834229590640,0,-9.74960329446,-0.114322152727,-46.117318058,0.043815185726,0.250528312928,0.0,-0.032444027053,0.0,-0.149833434276,0.0,0.0,0.0,0.0,-0.0,-0.0,0.0,0.00537022749826,-0.0,-0.00383606751517,-0.0,0.0,-0.0,0.0,-0.0,2.1777378682e-07,0.0,0.0,0.0,0.0,0.0,0.0
1402602834249124503,0,-9.73909382591,-0.114322152727,-46.1185846123,0.043815185726,0.250053295464,0.0,-0.0318313024933,0.0,-0.150027448506,0.0,0.0,0.0,0.0,-0.0,-0.0,0.0,0.00537022749826,-0.0,-0.00383606751517,-0.0,0.0,-0.0,0.0,-0.0,2.1777378682e-07,0.0,0.0,0.0,0.0,0.0,0.0
1402602834269781863,0,-9.73909382591,-0.114322152727,-46.1185846123,0.043815185726,0.250053295464,0.0,-0.0318313024933,0.0,-0.150027448506,0.0,0.0,0.0,0.0,-0.0,-0.0,0.0,0.00537022749826,-0.0,-0.00383606751517,-0.0,0.0,-0.0,0.0,-0.0,2.1777378682e-07,0.0,0.0,0.0,0.0,0.0,0.0
1402602834289469148,0,-9.73174841596,-0.114322152727,-46.1192065478,0.043815185726,0.241442199153,0.0,-0.0305969377422,0.0,-0.149961798149,0.0,0.0,0.0,0.0,-0.0,-0.0,0.0,0.00383600394174,-0.0,-0.00383606751517,-0.0,0.0,-0.0,0.0,-0.0,1.4715170111e-07,0.0,0.0,0.0,0.0,0.0,0.0
1402602834309066794,0,-9.73174841596,-0.114322152727,-46.1192065478,0.043815185726,0.241442199153,0.0,-0.0305969377422,0.0,-0.149961798149,0.0,0.0,0.0,0.0,-0.0,-0.0,0.0,0.00537022749826,-0.0,-0.00383606751517,-0.0,0.0,-0.0,0.0,-0.0,2.1777378682e-07,0.0,0.0,0.0,0.0,0.0,0.0
1402602834329021895,0,-9.72124281652,-0.114322152727,-46.1242374462,0.043815185726,0.244122628256,0.0,-0.0374649621902,0.0,-0.149868071423,0.0,0.0,0.0,0.0,-0.0,-0.0,0.0,0.00537022749826,-0.0,-0.00383606751517,-0.0,0.0,-0.0,0.0,-0.0,2.1777378682e-07,0.0,0.0,0.0,0.0,0.0,0.0
1402602834349134157,0,-9.72124281652,-0.114322152727,-46.1242374462,0.043815185726,0.244122628256,0.0,-0.0374649621902,0.0,-0.149868071423,0.0,0.0,0.0,0.0,-0.0,-0.0,0.0,0.00537022749826,-0.0,-0.00383606751517,-0.0,0.0,-0.0,0.0,-0.0,2.1777378682e-07,0.0,0.0,0.0,0.0,0.0,0.0
1402602834369859080,0,-9.71565040193,-0.114322152727,-46.1228049029,0.043815185726,0.231629761683,0.0,-0.0296997591796,0.0,-0.150030445985,0.0,0.0,0.0,0.0,-0.0,-0.0,0.0,0.00383600394174,-0.0,-0.00383606751517,-0.0,0.0,-0.0,0.0,-0.0,1.4715170111e-07,0.0,0.0,0.0,0.0,0.0,0.0
1402602834388960908,0,-9.71565040193,-0.114322152727,-46.1228049029,0.043815185726,0.231629761683,0.0,-0.0296997591796,0.0,-0.150030445985,0.0,0.0,0.0,0.0,-0.0,-0.0,0.0,0.00537022749826,-0.0,-0.00383606751517,-0.0,0.0,-0.0,0.0,-0.0,2.1777378682e-07,0.0,0.0,0.0,0.0,0.0,0.0
1402602834409146201,0,-9.7000908589,-0.114322152727,-46.1255406402,0.043815185726,0.239736285016,0.0,-0.0349870366408,0.0,-0.149862018559,0.0,0.0,0.0,0.0,-0.0,-0.0,0.0,0.00537022749826,-0.0,-0.00383606751517,-0.0,0.0,-0.0,0.0,-0.0,2.1777378682e-07,0.0,0.0,0.0,0.0,0.0,0.0
1402602834429706125,0,-9.7000908589,-0.114322152727,-46.1255406402,0.043815185726,0.239736285016,0.0,-0.0349870366408,0.0,-0.149862018559,0.0,0.0,0.0,0.0,-0.0,-0.0,0.0,0.00383600394174,-0.0,-0.00383606751517,-0.0,0.0,-0.0,0.0,-0.0,1.4715170111e-07,0.0,0.0,0.0,0.0,0.0,0.0
1402602834449416403,0,-9.68274428338,-0.114322152727,-46.1238472902,0.043815185726,0.248188197199,0.0,-0.0308731374205,0.0,-0.149763522564,0.0,0.0,0.0,0.0,-0.0,-0.0,0.0,0.00537022749826,-0.0,-0.00383606751517,-0.0,0.0,-0.0,0.0,-0.0,2.1777378682e-07,0.0,0.0,0.0,0.0,0.0,0.0
1402602834469641066,0,-9.68274428338,-0.114322152727,-46.1238472902,0.043815185726,0.248188197199,0.0,-0.0308731374205,0.0,-0.149763522564,0.0,0.0,0.0,0.0,-0.0,-0.0,0.0,0.00537022749826,-0.0,-0.00383606751517,-0.0,0.0,-0.0,0.0,-0.0,2.1777378682e-07,0.0,0.0,0.0,0.0,0.0,0.0
1402602834489062501,0,-9.67788101635,-0.114322152727,-46.1244942216,0.043815185726,0.247919377497,0.0,-0.0307405614718,0.0,-0.149733852532,0.0,0.0,0.0,0.0,-0.0,-0.0,0.0,0.00383600394174,-0.0,-0.00383606751517,-0.0,0.0,-0.0,0.0,-0.0,1.4715170111e-07,0.0,0.0,0.0,0.0,0.0,0.0
1402602834509798748,0,-9.67788101635,-0.114322152727,-46.1244942216,0.043815185726,0.247919377497,0.0,-0.0307405614718,0.0,-0.149733852532,0.0,0.0,0.0,0.0,-0.0,-0.0,0.0,0.00537022749826,-0.0,-0.00383606751517,-0.0,0.0,-0.0,0.0,-0.0,2.1777378682e-07,0.0,0.0,0.0,0.0,0.0,0.0
1402602834529125341,0,-9.6757339425,-0.114322152727,-46.1260536683,0.043815185726,0.22724419833,0.0,-0.0306850536458,0.0,-0.14975436422,0.0,0.0,0.0,0.0,-0.0,-0.0,0.0,0.00537022749826,-0.0,-0.00383606751517,-0.0,0.0,-0.0,0.0,-0.0,2.1777378682e-07,0.0,0.0,0.0,0.0,0.0,0.0
1402602834549763216,0,-9.6757339425,-0.114322152727,-46.1260536683,0.043815185726,0.22724419833,0.0,-0.0306850536458,0.0,-0.14975436422,0.0,0.0,0.0,0.0,-0.0,-0.0,0.0,0.00537022749826,-0.0,-0.00383606751517,-0.0,0.0,-0.0,0.0,-0.0,2.1777378682e-07,0.0,0.0,0.0,0.0,0.0,0.0
1402602834569307911,0,-9.66605728295,-0.114322152727,-46.1273258251,0.043815185726,0.226211257969,0.0,-0.0298278385558,0.0,-0.149724308691,0.0,0.0,0.0,0.0,-0.0,-0.0,0.0,0.00537022749826,-0.0,-0.00383606751517,-0.0,0.0,-0.0,0.0,-0.0,2.1777378682e-07,0.0,0.0,0.0,0.0,0.0,0.0
1402602834589844938,0,-9.66605728295,-0.114322152727,-46.1273258251,0.043815185726,0.226211257969,0.0,-0.0298278385558,0.0,-0.149724308691,0.0,0.0,0.0,0.0,-0.0,-0.0,0.0,0.00537022749826,-0.0,-0.00383606751517,-0.0,0.0,-0.0,0.0,-0.0,2.1777378682e-07,0.0,0.0,0.0,0.0,0.0,0.0
1402602834609226075,0,-9.64853973067,-0.114322152727,-46.1259221165,0.043815185726,0.242240039862,0.0,-0.0307458062786,0.0,-0.149790720917,0.0,0.0,0.0,0.0,-0.0,-0.0,0.0,0.00383600394174,-0.0,-0.00383606751517,-0.0,0.0,-0.0,0.0,-0.0,1.4715170111e-07,0.0,0.0,0.0,0.0,0.0,0.0
1402602834629684293,0,-9.64853973067,-0.114322152727,-46.1259221165,0.043815185726,0.242240039862,0.0,-0.0307458062786,0.0,-0.149790720917,0.0,0.0,0.0,0.0,-0.0,-0.0,0.0,0.00537022749826,-0.0,-0.00383606751517,-0.0,0.0,-0.0,0.0,-0.0,2.1777378682e-07,0.0,0.0,0.0,0.0,0.0,0.0
1402602834649209947,0,-9.63537539325,-0.114322152727,-46.1326018546,0.043815185726,0.244454050891,0.0,-0.0450440591158,0.0,-0.149351593382,0.0,0.0,0.0,0.0,-0.0,-0.0,0.0,0.00537022749826,-0.0,-0.00383606751517,-0.0,0.0,-0.0,0.0,-0.0,2.1777378682e-07,0.0,0.0,0.0,0.0,0.0,0.0
1402602834669133101,0,-9.63537539325,-0.114322152727,-46.1326018546,0.043815185726,0.244454050891,0.0,-0.0450440591158,0.0,-0.149351593382,0.0,0.0,0.0,0.0,-0.0,-0.0,0.0,0.00537022749826,-0.0,-0.00383606751517,-0.0,0.0,-0.0,0.0,-0.0,2.1777378682e-07,0.0,0.0,0.0,0.0,0.0,0.0
1402602834689688675,0,-9.62182629831,-0.114322152727,-46.1335043417,0.043815185726,0.24476171456,0.0,-0.0451410754965,0.0,-0.149296536852,0.0,0.0,0.0,0.0,-0.0,-0.0,0.0,0.00537022749826,-0.0,-0.00383606751517,-0.0,0.0,-0.0,0.0,-0.0,2.1777378682e-07,0.0,0.0,0.0,0.0,0.0,0.0
1402602834709118706,0,-9.62182629831,-0.114322152727,-46.1335043417,0.043815185726,0.24476171456,0.0,-0.0451410754965,0.0,-0.149296536852,0.0,0.0,0.0,0.0,-0.0,-0.0,0.0,0.00383600394174,-0.0,-0.00383606751517,-0.0,0.0,-0.0,0.0,-0.0,1.4715170111e-07,0.0,0.0,0.0,0.0,0.0,0.0
1402602834729133918,0,-9.61595180209,-0.114322152727,-46.1336024426,0.043815185726,0.245359596868,0.0,-0.0454925443582,0.0,-0.149251850376,0.0,0.0,0.0,0.0,-0.0,-0.0,0.0,0.00537022749826,-0.0,-0.00383606751517,-0.0,0.0,-0.0,0.0,-0.0,2.1777378682e-07,0.0,0.0,0.0,0.0,0.0,0.0
1402602834750297578,0,-9.61595180209,-0.114322152727,-46.1336024426,0.043815185726,0.245359596868,0.0,-0.0454925443582,0.0,-0.149251850376,0.0,0.0,0.0,0.0,-0.0,-0.0,0.0,0.00383600394174,-0.0,-0.00383606751517,-0.0,0.0,-0.0,0.0,-0.0,1.4715170111e-07,0.0,0.0,0.0,0.0,0.0,0.0
1402602834770899067,0,-9.60773166652,-0.114322152727,-46.1320943637,0.043815185726,0.240356846844,0.0,-0.0328779836399,0.0,-0.149388761118,0.0,0.0,0.0,0.0,-0.0,-0.0,0.0,0.00383600394174,-0.0,-0.00383606751517,-0.0,0.0,-0.0,0.0,-0.0,1.4715170111e-07,0.0,0.0,0.0,0.0,0.0,0.0
1402602834790662015,0,-9.60773166652,-0.114322152727,-46.1320943637,0.043815185726,0.240356846844,0.0,-0.0328779836399,0.0,-0.149388761118,0.0,0.0,0.0,0.0,-0.0,-0.0,0.0,0.00537022749826,-0.0,-0.00383606751517,-0.0,0.0,-0.0,0.0,-0.0,2.1777378682e-07,0.0,0.0,0.0,0.0,0.0,0.0
1402602834810186666,0,-9.5983367588,-0.114322152727,-46.1322567675,0.043815185726,0.236969114502,0.0,-0.0321466277728,0.0,-0.149350378456,0.0,0.0,0.0,0.0,-0.0,-0.0,0.0,0.00383600394174,-0.0,-0.00383606751517,-0.0,0.0,-0.0,0.0,-0.0,1.4715170111e-07,0.0,0.0,0.0,0.0,0.0,0.0
1402602834829931439,0,-9.5983367588,-0.114322152727,-46.1322567675,0.043815185726,0.236969114502,0.0,-0.0321466277728,0.0,-0.149350378456,0.0,0.0,0.0,0.0,-0.0,-0.0,0.0,0.00537022749826,-0.0,-0.00383606751517,-0.0,0.0,-0.0,0.0,-0.0,2.1777378682e-07,0.0,0.0,0.0,0.0,0.0,0.0
1402602834849124014,0,-9.58930168097,-0.114322152727,-46.1349211229,0.043815185726,0.23651507071,0.0,-0.0311169269138,0.0,-0.149292323028,0.0,0.0,0.0,0.0,-0.0,-0.0,0.0,0.00537022749826,-0.0,-0.00383606751517,-0.0,0.0,-0.0,0.0,-0.0,2.1777378682e-07,0.0,0.0,0.0,0.0,0.0,0.0
1402602834869069060,0,-9.58930168097,-0.114322152727,-46.1349211229,0.043815185726,0.23651507071,0.0,-0.0311169269138,0.0,-0.149292323028,0.0,0.0,0.0,0.0,-0.0,-0.0,0.0,0.00537022749826,-0.0,-0.00383606751517,-0.0,0.0,-0.0,0.0,-0.0,2.1777378682e-07,0.0,0.0,0.0,0.0,0.0,0.0
1402602834889838646,0,-9.57429690471,-0.114322152727,-46.134506072,0.043815185726,0.246816267142,0.0,-0.0313908198441,0.0,-0.149432787805,0.0,0.0,0.0,0.0,-0.0,-0.0,0.0,0.00383600394174,-0.0,-0.00383606751517,-0.0,0.0,-0.0,0.0,-0.0,1.4715170111e-07,0.0,0.0,0.0,0.0,0.0,0.0
1402602834909349682,0,-9.57429690471,-0.114322152727,-46.134506072,0.043815185726,0.246816267142,0.0,-0.0313908198441,0.0,-0.149432787805,0.0,0.0,0.0,0.0,-0.0,-0.0,0.0,0.00537022749826,-0.0,-0.00383606751517,-0.0,0.0,-0.0,0.0,-0.0,2.1777378682e-07,0.0,0.0,0.0,0.0,0.0,0.0
1402602834929772759,0,-9.56416332816,-0.114322152727,-46.1358361551,0.043815185726,0.246048360662,0.0,-0.0322021371221,0.0,-0.149432927074,0.0,0.0,0.0,0.0,-0.0,-0.0,0.0,0.00537022749826,-0.0,-0.00383606751517,-0.0,0.0,-0.0,0.0,-0.0,2.1777378682e-07,0.0,0.0,0.0,0.0,0.0,0.0
1402602834949504084,0,-9.56416332816,-0.114322152727,-46.1358361551,0.043815185726,0.246048360662,0.0,-0.0322021371221,0.0,-0.149432927074,0.0,0.0,0.0,0.0,-0.0,-0.0,0.0,0.00383600394174,-0.0,-0.00383606751517,-0.0,0.0,-0.0,0.0,-0.0,1.4715170111e-07,0.0,0.0,0.0,0.0,0.0,0.0
1402602834969717983,0,-9.56086800804,-0.114322152727,-46.1394759502,0.043815185726,0.230120111515,0.0,-0.0358481314326,0.0,-0.149454269645,0.0,0.0,0.0,0.0,-0.0,-0.0,0.0,0.00537022749826,-0.0,-0.00383606751517,-0.0,0.0,-0.0,0.0,-0.0,2.1777378682e-07,0.0,0.0,0.0,0.0,0.0,0.0
1402602834989286813,0,-9.56086800804,-0.114322152727,-46.1394759502,0.043815185726,0.230120111515,0.0,-0.0358481314326,0.0,-0.149454269645,0.0,0.0,0.0,0.0,-0.0,-0.0,0.0,0.00383600394174,-0.0,-0.00383606751517,-0.0,0.0,-0.0,0.0,-0.0,1.4715170111e-07,0.0,0.0,0.0,0.0,0.0,0.0
1402602835009123557,0,-9.5490684631,-0.114322152727,-46.1416241641,0.043815185726,0.23521187843,0.0,-0.0381148632893,0.0,-0.149538076954,0.0,0.0,0.0,0.0,-0.0,-0.0,0.0,0.00383600394174,-0.0,-0.00383606751517,-0.0,0.0,-0.0,0.0,-0.0,1.4715170111e-07,0.0,0.0,0.0,0.0,0.0,0.0
1402602835029125259,0,-9.5490684631,-0.114322152727,-46.1416241641,0.043815185726,0.23521187843,0.0,-0.0381148632893,0.0,-0.149538076954,0.0,0.0,0.0,0.0,-0.0,-0.0,0.0,0.00537022749826,-0.0,-0.00383606751517,-0.0,0.0,-0.0,0.0,-0.0,2.1777378682e-07,0.0,0.0,0.0,0.0,0.0,0.0
1402602835049078269,0,-9.53801218872,-0.114322152727,-46.1405733872,0.043815185726,0.230839030287,0.0,-0.0327358261825,0.0,-0.149526307142,0.0,0.0,0.0,0.0,-0.0,-0.0,0.0,0.00383600394174,-0.0,-0.00383606751517,-0.0,0.0,-0.0,0.0,-0.0,1.4715170111e-07,0.0,0.0,0.0,0.0,0.0,0.0
1402602835069364290,0,-9.53801218872,-0.114322152727,-46.1405733872,0.043815185726,0.230839030287,0.0,-0.0327358261825,0.0,-0.149526307142,0.0,0.0,0.0,0.0,-0.0,-0.0,0.0,0.00537022749826,-0.0,-0.00383606751517,-0.0,0.0,-0.0,0.0,-0.0,2.1777378682e-07,0.0,0.0,0.0,0.0,0.0,0.0
1402602835088991537,0,-9.52788355554,-0.114322152727,-46.1432731207,0.043815185726,0.23855758924,0.0,-0.0363748160037,0.0,-0.149429063116,0.0,0.0,0.0,0.0,-0.0,-0.0,0.0,0.00537022749826,-0.0,-0.00383606751517,-0.0,0.0,-0.0,0.0,-0.0,2.1777378682e-07,0.0,0.0,0.0,0.0,0.0,0.0
1402602835109921649,0,-9.52288653757,-0.114322152727,-46.143875235,0.043815185726,0.238022543791,0.0,-0.0371532391855,0.0,-0.149396034999,0.0,0.0,0.0,0.0,-0.0,-0.0,0.0,0.00537022749826,-0.0,-0.00383606751517,-0.0,0.0,-0.0,0.0,-0.0,2.1777378682e-07,0.0,0.0,0.0,0.0,0.0,0.0
1402602835129181791,0,-9.52288653757,-0.114322152727,-46.143875235,0.043815185726,0.238022543791,0.0,-0.0371532391855,0.0,-0.149396034999,0.0,0.0,0.0,0.0,-0.0,-0.0,0.0,0.00537022749826,-0.0,-0.00383606751517,-0.0,0.0,-0.0,0.0,-0.0,2.1777378682e-07,0.0,0.0,0.0,0.0,0.0,0.0
1402602835149504063,0,-9.51918726045,-0.114322152727,-46.1449559681,0.043815185726,0.234812685595,0.0,-0.0361411960513,0.0,-0.149456069784,0.0,0.0,0.0,0.0,-0.0,-0.0,0.0,0.00537022749826,-0.0,-0.00383606751517,-0.0,0.0,-0.0,0.0,-0.0,2.1777378682e-07,0.0,0.0,0.0,0.0,0.0,0.0
1402602835169171750,0,-9.51918726045,-0.114322152727,-46.1449559681,0.043815185726,0.234812685595,0.0,-0.0361411960513,0.0,-0.149456069784,0.0,0.0,0.0,0.0,-0.0,-0.0,0.0,0.00383600394174,-0.0,-0.00383606751517,-0.0,0.0,-0.0,0.0,-0.0,1.4715170111e-07,0.0,0.0,0.0,0.0,0.0,0.0
1402602835189105685,0,-9.5093176575,-0.114322152727,-46.1465179274,0.043815185726,0.232748029367,0.0,-0.0377426133131,0.0,-0.149440828165,0.0,0.0,0.0,0.0,-0.0,-0.0,0.0,0.00537022749826,-0.0,-0.00383606751517,-0.0,0.0,-0.0,0.0,-0.0,2.1777378682e-07,0.0,0.0,0.0,0.0,0.0,0.0
1402602835209736496,0,-9.5093176575,-0.114322152727,-46.1465179274,0.043815185726,0.232748029367,0.0,-0.0377426133131,0.0,-0.149440828165,0.0,0.0,0.0,0.0,-0.0,-0.0,0.0,0.00537022749826,-0.0,-0.00383606751517,-0.0,0.0,-0.0,0.0,-0.0,2.1777378682e-07,0.0,0.0,0.0,0.0,0.0,0.0
1402602835229294980,0,-9.49708903925,-0.114322152727,-46.1448390639,0.043815185726,0.237320159748,0.0,-0.0348432651652,0.0,-0.149449941926,0.0,0.0,0.0,0.0,-0.0,-0.0,0.0,0.00537022749826,-0.0,-0.00383606751517,-0.0,0.0,-0.0,0.0,-0.0,2.1777378682e-07,0.0,0.0,0.0,0.0,0.0,0.0
1402602835249107689,0,-9.49708903925,-0.114322152727,-46.1448390639,0.043815185726,0.237320159748,0.0,-0.0348432651652,0.0,-0.149449941926,0.0,0.0,0.0,0.0,-0.0,-0.0,0.0,0.00537022749826,-0.0,-0.00383606751517,-0.0,0.0,-0.0,0.0,-0.0,2.1777378682e-07,0.0,0.0,0.0,0.0,0.0,0.0
1402602835270017222,0,-9.49308945693,-0.114322152727,-46.1474377463,0.043815185726,0.221676202315,0.0,-0.035268969149,0.0,-0.149357914543,0.0,0.0,0.0,0.0,-0.0,-0.0,0.0,0.00537022749826,-0.0,-0.00383606751517,-0.0,0.0,-0.0,0.0,-0.0,2.1777378682e-07,0.0,0.0,0.0,0.0,0.0,0.0
1402602835289347830,0,-9.49308945693,-0.114322152727,-46.1474377463,0.043815185726,0.221676202315,0.0,-0.035268969149,0.0,-0.149357914543,0.0,0.0,0.0,0.0,-0.0,-0.0,0.0,0.00383600394174,-0.0,-0.00383606751517,-0.0,0.0,-0.0,0.0,-0.0,1.4715170111e-07,0.0,0.0,0.0,0.0,0.0,0.0
1402602835309768308,0,-9.48031705628,-0.114322152727,-46.1480507767,0.043815185726,0.229438792504,0.0,-0.0384696728084,0.0,-0.149405088978,0.0,0.0,0.0,0.0,-0.0,-0.0,0.0,0.00383600394174,-0.0,-0.00383606751517,-0.0,0.0,-0.0,0.0,-0.0,1.4715170111e-07,0.0,0.0,0.0,0.0,0.0,0.0
1402602835329337337,0,-9.48031705628,-0.114322152727,-46.1480507767,0.043815185726,0.229438792504,0.0,-0.0384696728084,0.0,-0.149405088978,0.0,0.0,0.0,0.0,-0.0,-0.0,0.0,0.00383600394174,-0.0,-0.00383606751517,-0.0,0.0,-0.0,0.0,-0.0,1.4715170111e-07,0.0,0.0,0.0,0.0,0.0,0.0
1402602835349700214,0,-9.46897416285,-0.114322152727,-46.1488614534,0.043815185726,0.227344447323,0.0,-0.0372793458554,0.0,-0.149412118918,0.0,0.0,0.0,0.0,-0.0,-0.0,0.0,0.00383600394174,-0.0,-0.00383606751517,-0.0,0.0,-0.0,0.0,-0.0,1.4715170111e-07,0.0,0.0,0.0,0.0,0.0,0.0
1402602835369025466,0,-9.46897416285,-0.114322152727,-46.1488614534,0.043815185726,0.227344447323,0.0,-0.0372793458554,0.0,-0.149412118918,0.0,0.0,0.0,0.0,-0.0,-0.0,0.0,0.00537022749826,-0.0,-0.00383606751517,-0.0,0.0,-0.0,0.0,-0.0,2.1777378682e-07,0.0,0.0,0.0,0.0,0.0,0.0
1402602835389779304,0,-9.46009482566,-0.114322152727,-46.1510373049,0.043815185726,0.21846540222,0.0,-0.0377936875348,0.0,-0.149339060704,0.0,0.0,0.0,0.0,-0.0,-0.0,0.0,0.00537022749826,-0.0,-0.00383606751517,-0.0,0.0,-0.0,0.0,-0.0,2.1777378682e-07,0.0,0.0,0.0,0.0,0.0,0.0
1402602835409107001,0,-9.46009482566,-0.114322152727,-46.1510373049,0.043815185726,0.21846540222,0.0,-0.0377936875348,0.0,-0.149339060704,0.0,0.0,0.0,0.0,-0.0,-0.0,0.0,0.00537022749826,-0.0,-0.00383606751517,-0.0,0.0,-0.0,0.0,-0.0,2.1777378682e-07,0.0,0.0,0.0,0.0,0.0,0.0
1402602835429766789,0,-9.4557347911,-0.114322152727,-46.1515884726,0.043815185726,0.219005882523,0.0,-0.0367190625683,0.0,-0.149364600791,0.0,0.0,0.0,0.0,-0.0,-0.0,0.0,0.00537022749826,-0.0,-0.00383606751517,-0.0,0.0,-0.0,0.0,-0.0,2.1777378682e-07,0.0,0.0,0.0,0.0,0.0,0.0
1402602835449117423,0,-9.4557347911,-0.114322152727,-46.1515884726,0.043815185726,0.219005882523,0.0,-0.0367190625683,0.0,-0.149364600791,0.0,0.0,0.0,0.0,-0.0,-0.0,0.0,0.00537022749826,-0.0,-0.00383606751517,-0.0,0.0,-0.0,0.0,-0.0,2.1777378682e-07,0.0,0.0,0.0,0.0,0.0,0.0
1402602835469736192,0,-9.44602734109,-0.114322152727,-46.1496417983,0.043815185726,0.218183710823,0.0,-0.0270094482119,0.0,-0.149426119898,0.0,0.0,0.0,0.0,-0.0,-0.0,0.0,0.00537022749826,-0.0,-0.00383606751517,-0.0,0.0,-0.0,0.0,-0.0,2.1777378682e-07,0.0,0.0,0.0,0.0,0.0,0.0
1402602835489257702,0,-9.44602734109,-0.114322152727,-46.1496417983,0.043815185726,0.218183710823,0.0,-0.0270094482119,0.0,-0.149426119898,0.0,0.0,0.0,0.0,-0.0,-0.0,0.0,0.00383600394174,-0.0,-0.00383606751517,-0.0,0.0,-0.0,0.0,-0.0,1.4715170111e-07,0.0,0.0,0.0,0.0,0.0,0.0
1402602835509771284,0,-9.43537273839,-0.114322152727,-46.1504956365,0.043815185726,0.221536006332,0.0,-0.0245462396602,0.0,-0.149371663377,0.0,0.0,0.0,0.0,-0.0,-0.0,0.0,0.00537022749826,-0.0,-0.00383606751517,-0.0,0.0,-0.0,0.0,-0.0,2.1777378682e-07,0.0,0.0,0.0,0.0,0.0,0.0
1402602835529040173,0,-9.43537273839,-0.114322152727,-46.1504956365,0.043815185726,0.221536006332,0.0,-0.0245462396602,0.0,-0.149371663377,0.0,0.0,0.0,0.0,-0.0,-0.0,0.0,0.00537022749826,-0.0,-0.00383606751517,-0.0,0.0,-0.0,0.0,-0.0,2.1777378682e-07,0.0,0.0,0.0,0.0,0.0,0.0
1402602835549600431,0,-9.4262124144,-0.114322152727,-46.1514512242,0.043815185726,0.221007448176,0.0,-0.0246084269219,0.0,-0.149298033329,0.0,0.0,0.0,0.0,-0.0,-0.0,0.0,0.00537022749826,-0.0,-0.00383606751517,-0.0,0.0,-0.0,0.0,-0.0,2.1777378682e-07,0.0,0.0,0.0,0.0,0.0,0.0
1402602835569216415,0,-9.4262124144,-0.114322152727,-46.1514512242,0.043815185726,0.221007448176,0.0,-0.0246084269219,0.0,-0.149298033329,0.0,0.0,0.0,0.0,-0.0,-0.0,0.0,0.00383600394174,-0.0,-0.00383606751517,-0.0,0.0,-0.0,0.0,-0.0,1.4715170111e-07,0.0,0.0,0.0,0.0,0.0,0.0
1402602835589273305,0,-9.41793118599,-0.114322152727,-46.1519549162,0.043815185726,0.216875513984,0.0,-0.0235323079942,0.0,-0.14939049484,0.0,0.0,0.0,0.0,-0.0,-0.0,0.0,0.00537022749826,-0.0,-0.00383606751517,-0.0,0.0,-0.0,0.0,-0.0,2.1777378682e-07,0.0,0.0,0.0,0.0,0.0,0.0
1402602835609345933,0,-9.41793118599,-0.114322152727,-46.1519549162,0.043815185726,0.216875513984,0.0,-0.0235323079942,0.0,-0.14939049484,0.0,0.0,0.0,0.0,-0.0,-0.0,0.0,0.00383600394174,-0.0,-0.00383606751517,-0.0,0.0,-0.0,0.0,-0.0,1.4715170111e-07,0.0,0.0,0.0,0.0,0.0,0.0
1402602835629042558,0,-9.40935812811,-0.114322152727,-46.1529546409,0.043815185726,0.215089006356,0.0,-0.0213951001112,0.0,-0.149508703642,0.0,0.0,0.0,0.0,-0.0,-0.0,0.0,0.00537022749826,-0.0,-0.00383606751517,-0.0,0.0,-0.0,0.0,-0.0,2.1777378682e-07,0.0,0.0,0.0,0.0,0.0,0.0
1402602835649892674,0,-9.40935812811,-0.114322152727,-46.1529546409,0.043815185726,0.215089006356,0.0,-0.0213951001112,0.0,-0.149508703642,0.0,0.0,0.0,0.0,-0.0,-0.0,0.0,0.00537022749826,-0.0,-0.00383606751517,-0.0,0.0,-0.0,0.0,-0.0,2.1777378682e-07,0.0,0.0,0.0,0.0,0.0,0.0
1402602835669132871,0,-9.39554920612,-0.114322152727,-46.1537819917,0.043815185726,0.226022038951,0.0,-0.0254811952225,0.0,-0.149574069303,0.0,0.0,0.0,0.0,-0.0,-0.0,0.0,0.00537022749826,-0.0,-0.00383606751517,-0.0,0.0,-0.0,0.0,-0.0,2.1777378682e-07,0.0,0.0,0.0,0.0,0.0,0.0
1402602835689733371,0,-9.39554920612,-0.114322152727,-46.1537819917,0.043815185726,0.226022038951,0.0,-0.0254811952225,0.0,-0.149574069303,0.0,0.0,0.0,0.0,-0.0,-0.0,0.0,0.00383600394174,-0.0,-0.00383606751517,-0.0,0.0,-0.0,0.0,-0.0,1.4715170111e-07,0.0,0.0,0.0,0.0,0.0,0.0
1402602835708977407,0,-9.38607672736,-0.114322152727,-46.1568562672,0.043815185726,0.22620942284,0.0,-0.0296352427986,0.0,-0.149505881208,0.0,0.0,0.0,0.0,-0.0,-0.0,0.0,0.00537022749826,-0.0,-0.00383606751517,-0.0,0.0,-0.0,0.0,-0.0,2.1777378682e-07,0.0,0.0,0.0,0.0,0.0,0.0
1402602835729668579,0,-9.38607672736,-0.114322152727,-46.1568562672,0.043815185726,0.22620942284,0.0,-0.0296352427986,0.0,-0.149505881208,0.0,0.0,0.0,0.0,-0.0,-0.0,0.0,0.00537022749826,-0.0,-0.00383606751517,-0.0,0.0,-0.0,0.0,-0.0,2.1777378682e-07,0.0,0.0,0.0,0.0,0.0,0.0
1402602835749212075,0,-9.37635245586,-0.114322152727,-46.1590376761,0.043815185726,0.227915246018,0.0,-0.0326802302517,0.0,-0.149398931053,0.0,0.0,0.0,0.0,-0.0,-0.0,0.0,0.00537022749826,-0.0,-0.00383606751517,-0.0,0.0,-0.0,0.0,-0.0,2.1777378682e-07,0.0,0.0,0.0,0.0,0.0,0.0
1402602835769711127,0,-9.37635245586,-0.114322152727,-46.1590376761,0.043815185726,0.227915246018,0.0,-0.0326802302517,0.0,-0.149398931053,0.0,0.0,0.0,0.0,-0.0,-0.0,0.0,0.00383600394174,-0.0,-0.00383606751517,-0.0,0.0,-0.0,0.0,-0.0,1.4715170111e-07,0.0,0.0,0.0,0.0,0.0,0.0
1402602835788963971,0,-9.36284676552,-0.114322152727,-46.1613913446,0.043815185726,0.23325909572,0.0,-0.035582967279,0.0,-0.149296003725,0.0,0.0,0.0,0.0,-0.0,-0.0,0.0,0.00383600394174,-0.0,-0.00383606751517,-0.0,0.0,-0.0,0.0,-0.0,1.4715170111e-07,0.0,0.0,0.0,0.0,0.0,0.0
1402602835809654852,0,-9.36284676552,-0.114322152727,-46.1613913446,0.043815185726,0.23325909572,0.0,-0.035582967279,0.0,-0.149296003725,0.0,0.0,0.0,0.0,-0.0,-0.0,0.0,0.00537022749826,-0.0,-0.00383606751517,-0.0,0.0,-0.0,0.0,-0.0,2.1777378682e-07,0.0,0.0,0.0,0.0,0.0,0.0
1402602835829072269,0,-9.35577844101,-0.114322152727,-46.162549613,0.043815185726,0.23293939889,0.0,-0.0351153886538,0.0,-0.149137135977,0.0,0.0,0.0,0.0,-0.0,-0.0,0.0,0.00537022749826,-0.0,-0.00383606751517,-0.0,0.0,-0.0,0.0,-0.0,2.1777378682e-07,0.0,0.0,0.0,0.0,0.0,0.0
1402602835849645273,0,-9.34761365737,-0.114322152727,-46.1604750819,0.043815185726,0.238182859576,0.0,-0.0349709552139,0.0,-0.149114261833,0.0,0.0,0.0,0.0,-0.0,-0.0,0.0,0.00537022749826,-0.0,-0.00383606751517,-0.0,0.0,-0.0,0.0,-0.0,2.1777378682e-07,0.0,0.0,0.0,0.0,0.0,0.0
1402602835869115708,0,-9.34761365737,-0.114322152727,-46.1604750819,0.043815185726,0.238182859576,0.0,-0.0349709552139,0.0,-0.149114261833,0.0,0.0,0.0,0.0,-0.0,-0.0,0.0,0.00537022749826,-0.0,-0.00383606751517,-0.0,0.0,-0.0,0.0,-0.0,2.1777378682e-07,0.0,0.0,0.0,0.0,0.0,0.0
1402602835889631567,0,-9.34282509008,-0.114322152727,-46.1611037324,0.043815185726,0.237661686431,0.0,-0.0361449185877,0.0,-0.149040581649,0.0,0.0,0.0,0.0,-0.0,-0.0,0.0,0.00537022749826,-0.0,-0.00383606751517,-0.0,0.0,-0.0,0.0,-0.0,2.1777378682e-07,0.0,0.0,0.0,0.0,0.0,0.0
1402602835909137326,0,-9.34282509008,-0.114322152727,-46.1611037324,0.043815185726,0.237661686431,0.0,-0.0361449185877,0.0,-0.149040581649,0.0,0.0,0.0,0.0,-0.0,-0.0,0.0,0.00537022749826,-0.0,-0.00383606751517,-0.0,0.0,-0.0,0.0,-0.0,2.1777378682e-07,0.0,0.0,0.0,0.0,0.0,0.0
1402602835929672326,0,-9.33619365534,-0.114322152727,-46.1616615842,0.043815185726,0.22823118775,0.0,-0.0305386124238,0.0,-0.148929664038,0.0,0.0,0.0,0.0,-0.0,-0.0,0.0,0.00383600394174,-0.0,-0.00383606751517,-0.0,0.0,-0.0,0.0,-0.0,1.4715170111e-07,0.0,0.0,0.0,0.0,0.0,0.0
1402602835949161694,0,-9.33619365534,-0.114322152727,-46.1616615842,0.043815185726,0.22823118775,0.0,-0.0305386124238,0.0,-0.148929664038,0.0,0.0,0.0,0.0,-0.0,-0.0,0.0,0.00537022749826,-0.0,-0.00383606751517,-0.0,0.0,-0.0,0.0,-0.0,2.1777378682e-07,0.0,0.0,0.0,0.0,0.0,0.0
1402602835969624478,0,-9.32728837005,-0.114322152727,-46.1666454578,0.043815185726,0.226426558025,0.0,-0.0449134416664,0.0,-0.148679388799,0.0,0.0,0.0,0.0,-0.0,-0.0,0.0,0.00537022749826,-0.0,-0.00383606751517,-0.0,0.0,-0.0,0.0,-0.0,2.1777378682e-07,0.0,0.0,0.0,0.0,0.0,0.0
1402602835989172217,0,-9.32728837005,-0.114322152727,-46.1666454578,0.043815185726,0.226426558025,0.0,-0.0449134416664,0.0,-0.148679388799,0.0,0.0,0.0,0.0,-0.0,-0.0,0.0,0.00537022749826,-0.0,-0.00383606751517,-0.0,0.0,-0.0,0.0,-0.0,2.1777378682e-07,0.0,0.0,0.0,0.0,0.0,0.0
1402602836009773564,0,-9.31858500757,-0.114322152727,-46.1643642426,0.043815185726,0.221004657258,0.0,-0.0400797729896,0.0,-0.148539126789,0.0,0.0,0.0,0.0,-0.0,-0.0,0.0,0.00537022749826,-0.0,-0.00383606751517,-0.0,0.0,-0.0,0.0,-0.0,2.1777378682e-07,0.0,0.0,0.0,0.0,0.0,0.0
1402602836029149652,0,-9.31858500757,-0.114322152727,-46.1643642426,0.043815185726,0.221004657258,0.0,-0.0400797729896,0.0,-0.148539126789,0.0,0.0,0.0,0.0,-0.0,-0.0,0.0,0.00383600394174,-0.0,-0.00383606751517,-0.0,0.0,-0.0,0.0,-0.0,1.4715170111e-07,0.0,0.0,0.0,0.0,0.0,0.0
1402602836049773467,0,-9.30428537636,-0.114322152727,-46.1644284503,0.043815185726,0.225562604977,0.0,-0.0385051964046,0.0,-0.148361492807,0.0,0.0,0.0,0.0,-0.0,-0.0,0.0,0.00537022749826,-0.0,-0.00383606751517,-0.0,0.0,-0.0,0.0,-0.0,2.1777378682e-07,0.0,0.0,0.0,0.0,0.0,0.0
1402602836069049101,0,-9.30428537636,-0.114322152727,-46.1644284503,0.043815185726,0.225562604977,0.0,-0.0385051964046,0.0,-0.148361492807,0.0,0.0,0.0,0.0,-0.0,-0.0,0.0,0.00537022749826,-0.0,-0.00383606751517,-0.0,0.0,-0.0,0.0,-0.0,2.1777378682e-07,0.0,0.0,0.0,0.0,0.0,0.0
1402602836090120721,0,-9.29865331269,-0.114322152727,-46.1716505418,0.043815185726,0.21150109039,0.0,-0.0502338186325,0.0,-0.148030550159,0.0,0.0,0.0,0.0,-0.0,-0.0,0.0,0.00537022749826,-0.0,-0.00383606751517,-0.0,0.0,-0.0,0.0,-0.0,2.1777378682e-07,0.0,0.0,0.0,0.0,0.0,0.0
1402602836108736512,0,-9.29865331269,-0.114322152727,-46.1716505418,0.043815185726,0.21150109039,0.0,-0.0502338186325,0.0,-0.148030550159,0.0,0.0,0.0,0.0,-0.0,-0.0,0.0,0.00383600394174,-0.0,-0.00383606751517,-0.0,0.0,-0.0,0.0,-0.0,1.4715170111e-07,0.0,0.0,0.0,0.0,0.0,0.0
1402602836129651580,0,-9.2944301845,-0.114322152727,-46.1727087876,0.043815185726,0.211691507353,0.0,-0.050765996215,0.0,-0.147967071702,0.0,0.0,0.0,0.0,-0.0,-0.0,0.0,0.00537022749826,-0.0,-0.00383606751517,-0.0,0.0,-0.0,0.0,-0.0,2.1777378682e-07,0.0,0.0,0.0,0.0,0.0,0.0
1402602836149134856,0,-9.2944301845,-0.114322152727,-46.1727087876,0.043815185726,0.211691507353,0.0,-0.050765996215,0.0,-0.147967071702,0.0,0.0,0.0,0.0,-0.0,-0.0,0.0,0.00383600394174,-0.0,-0.00383606751517,-0.0,0.0,-0.0,0.0,-0.0,1.4715170111e-07,0.0,0.0,0.0,0.0,0.0,0.0
1402602836169646153,0,-9.28615370281,-0.114322152727,-46.1702235024,0.043815185726,0.20738497574,0.0,-0.040590942938,0.0,-0.148025080628,0.0,0.0,0.0,0.0,-0.0,-0.0,0.0,0.00537022749826,-0.0,-0.00383606751517,-0.0,0.0,-0.0,0.0,-0.0,2.1777378682e-07,0.0,0.0,0.0,0.0,0.0,0.0
1402602836189455057,0,-9.28615370281,-0.114322152727,-46.1702235024,0.043815185726,0.20738497574,0.0,-0.040590942938,0.0,-0.148025080628,0.0,0.0,0.0,0.0,-0.0,-0.0,0.0,0.00537022749826,-0.0,-0.00383606751517,-0.0,0.0,-0.0,0.0,-0.0,2.1777378682e-07,0.0,0.0,0.0,0.0,0.0,0.0
1402602836209801581,0,-9.27407843883,-0.114322152727,-46.1679227883,0.043815185726,0.211935945837,0.0,-0.0352975505653,0.0,-0.148169232567,0.0,0.0,0.0,0.0,-0.0,-0.0,0.0,0.00383600394174,-0.0,-0.00383606751517,-0.0,0.0,-0.0,0.0,-0.0,1.4715170111e-07,0.0,0.0,0.0,0.0,0.0,0.0
1402602836229051182,0,-9.27407843883,-0.114322152727,-46.1679227883,0.043815185726,0.211935945837,0.0,-0.0352975505653,0.0,-0.148169232567,0.0,0.0,0.0,0.0,-0.0,-0.0,0.0,0.00537022749826,-0.0,-0.00383606751517,-0.0,0.0,-0.0,0.0,-0.0,2.1777378682e-07,0.0,0.0,0.0,0.0,0.0,0.0
1402602836249050913,0,-9.26326948728,-0.114322152727,-46.1679811852,0.043815185726,0.215004690937,0.0,-0.0374836646041,0.0,-0.148130205919,0.0,0.0,0.0,0.0,-0.0,-0.0,0.0,0.00383600394174,-0.0,-0.00383606751517,-0.0,0.0,-0.0,0.0,-0.0,1.4715170111e-07,0.0,0.0,0.0,0.0,0.0,0.0
1402602836269680333,0,-9.26326948728,-0.114322152727,-46.1679811852,0.043815185726,0.215004690937,0.0,-0.0374836646041,0.0,-0.148130205919,0.0,0.0,0.0,0.0,-0.0,-0.0,0.0,0.00537022749826,-0.0,-0.00383606751517,-0.0,0.0,-0.0,0.0,-0.0,2.1777378682e-07,0.0,0.0,0.0,0.0,0.0,0.0
1402602836289695137,0,-9.25443791943,-0.114322152727,-46.1694363763,0.043815185726,0.214402960319,0.0,-0.0376045415755,0.0,-0.148204607278,0.0,0.0,0.0,0.0,-0.0,-0.0,0.0,0.00537022749826,-0.0,-0.00383606751517,-0.0,0.0,-0.0,0.0,-0.0,2.1777378682e-07,0.0,0.0,0.0,0.0,0.0,0.0
1402602836309110253,0,-9.25443791943,-0.114322152727,-46.1694363763,0.043815185726,0.214402960319,0.0,-0.0376045415755,0.0,-0.148204607278,0.0,0.0,0.0,0.0,-0.0,-0.0,0.0,0.00537022749826,-0.0,-0.00383606751517,-0.0,0.0,-0.0,0.0,-0.0,2.1777378682e-07,0.0,0.0,0.0,0.0,0.0,0.0
1402602836329161220,0,-9.25347412421,-0.114322152727,-46.173667559,0.043815185726,0.198837549187,0.0,-0.0386688026837,0.0,-0.148198513566,0.0,0.0,0.0,0.0,-0.0,-0.0,0.0,0.00537022749826,-0.0,-0.00383606751517,-0.0,0.0,-0.0,0.0,-0.0,2.1777378682e-07,0.0,0.0,0.0,0.0,0.0,0.0
1402602836349213542,0,-9.25347412421,-0.114322152727,-46.173667559,0.043815185726,0.198837549187,0.0,-0.0386688026837,0.0,-0.148198513566,0.0,0.0,0.0,0.0,-0.0,-0.0,0.0,0.00537022749826,-0.0,-0.00383606751517,-0.0,0.0,-0.0,0.0,-0.0,2.1777378682e-07,0.0,0.0,0.0,0.0,0.0,0.0
1402602836369140221,0,-9.24213298982,-0.114322152727,-46.170494638,0.043815185726,0.202684460114,0.0,-0.0287858979412,0.0,-0.148210530003,0.0,0.0,0.0,0.0,-0.0,-0.0,0.0,0.00537022749826,-0.0,-0.00383606751517,-0.0,0.0,-0.0,0.0,-0.0,2.1777378682e-07,0.0,0.0,0.0,0.0,0.0,0.0
1402602836389736092,0,-9.24213298982,-0.114322152727,-46.170494638,0.043815185726,0.202684460114,0.0,-0.0287858979412,0.0,-0.148210530003,0.0,0.0,0.0,0.0,-0.0,-0.0,0.0,0.00537022749826,-0.0,-0.00383606751517,-0.0,0.0,-0.0,0.0,-0.0,2.1777378682e-07,0.0,0.0,0.0,0.0,0.0,0.0
1402602836409772887,0,-9.22754547307,-0.114322152727,-46.1738587191,0.043815185726,0.211986843996,0.0,-0.0354141549567,0.0,-0.14801539241,0.0,0.0,0.0,0.0,-0.0,-0.0,0.0,0.00383600394174,-0.0,-0.00383606751517,-0.0,0.0,-0.0,0.0,-0.0,1.4715170111e-07,0.0,0.0,0.0,0.0,0.0,0.0
1402602836429128735,0,-9.22754547307,-0.114322152727,-46.1738587191,0.043815185726,0.211986843996,0.0,-0.0354141549567,0.0,-0.14801539241,0.0,0.0,0.0,0.0,-0.0,-0.0,0.0,0.00537022749826,-0.0,-0.00383606751517,-0.0,0.0,-0.0,0.0,-0.0,2.1777378682e-07,0.0,0.0,0.0,0.0,0.0,0.0
1402602836449165945,0,-9.2144401732,-0.114322152727,-46.1731436843,0.043815185726,0.215453437149,0.0,-0.0307303399946,0.0,-0.147915463569,0.0,0.0,0.0,0.0,-0.0,-0.0,0.0,0.00537022749826,-0.0,-0.00383606751517,-0.0,0.0,-0.0,0.0,-0.0,2.1777378682e-07,0.0,0.0,0.0,0.0,0.0,0.0
1402602836470127259,0,-9.2144401732,-0.114322152727,-46.1731436843,0.043815185726,0.215453437149,0.0,-0.0307303399946,0.0,-0.147915463569,0.0,0.0,0.0,0.0,-0.0,-0.0,0.0,0.00537022749826,-0.0,-0.00383606751517,-0.0,0.0,-0.0,0.0,-0.0,2.1777378682e-07,0.0,0.0,0.0,0.0,0.0,0.0
1402602836489688377,0,-9.21432264184,-0.114322152727,-46.1751025034,0.043815185726,0.204014313253,0.0,-0.0375359736778,0.0,-0.147800176946,0.0,0.0,0.0,0.0,-0.0,-0.0,0.0,0.00537022749826,-0.0,-0.00383606751517,-0.0,0.0,-0.0,0.0,-0.0,2.1777378682e-07,0.0,0.0,0.0,0.0,0.0,0.0
1402602836509081358,0,-9.21432264184,-0.114322152727,-46.1751025034,0.043815185726,0.204014313253,0.0,-0.0375359736778,0.0,-0.147800176946,0.0,0.0,0.0,0.0,-0.0,-0.0,0.0,0.00537022749826,-0.0,-0.00383606751517,-0.0,0.0,-0.0,0.0,-0.0,2.1777378682e-07,0.0,0.0,0.0,0.0,0.0,0.0
1402602836529088821,0,-9.20567013664,-0.114322152727,-46.1768118398,0.043815185726,0.20297558666,0.0,-0.0370113104783,0.0,-0.147756442212,0.0,0.0,0.0,0.0,-0.0,-0.0,0.0,0.00537022749826,-0.0,-0.00383606751517,-0.0,0.0,-0.0,0.0,-0.0,2.1777378682e-07,0.0,0.0,0.0,0.0,0.0,0.0
1402602836549696471,0,-9.20567013664,-0.114322152727,-46.1768118398,0.043815185726,0.20297558666,0.0,-0.0370113104783,0.0,-0.147756442212,0.0,0.0,0.0,0.0,-0.0,-0.0,0.0,0.00537022749826,-0.0,-0.00383606751517,-0.0,0.0,-0.0,0.0,-0.0,2.1777378682e-07,0.0,0.0,0.0,0.0,0.0,0.0
1402602836569142688,0,-9.19747475553,-0.114322152727,-46.1783162201,0.043815185726,0.203126532075,0.0,-0.0378209018416,0.0,-0.147745340685,0.0,0.0,0.0,0.0,-0.0,-0.0,0.0,0.00537022749826,-0.0,-0.00383606751517,-0.0,0.0,-0.0,0.0,-0.0,2.1777378682e-07,0.0,0.0,0.0,0.0,0.0,0.0
1402602836589436237,0,-9.19747475553,-0.114322152727,-46.1783162201,0.043815185726,0.203126532075,0.0,-0.0378209018416,0.0,-0.147745340685,0.0,0.0,0.0,0.0,-0.0,-0.0,0.0,0.00383600394174,-0.0,-0.00383606751517,-0.0,0.0,-0.0,0.0,-0.0,1.4715170111e-07,0.0,0.0,0.0,0.0,0.0,0.0
1402602836608795797,0,-9.18300334102,-0.114322152727,-46.1760788014,0.043815185726,0.214599779853,0.0,-0.0339930002761,0.0,-0.147900308958,0.0,0.0,0.0,0.0,-0.0,-0.0,0.0,0.00537022749826,-0.0,-0.00383606751517,-0.0,0.0,-0.0,0.0,-0.0,2.1777378682e-07,0.0,0.0,0.0,0.0,0.0,0.0
1402602836629092352,0,-9.18300334102,-0.114322152727,-46.1760788014,0.043815185726,0.214599779853,0.0,-0.0339930002761,0.0,-0.147900308958,0.0,0.0,0.0,0.0,-0.0,-0.0,0.0,0.00537022749826,-0.0,-0.00383606751517,-0.0,0.0,-0.0,0.0,-0.0,2.1777378682e-07,0.0,0.0,0.0,0.0,0.0,0.0
1402602836649089816,0,-9.17286115552,-0.114322152727,-46.1770160545,0.043815185726,0.216307150808,0.0,-0.0380980644481,0.0,-0.14808500674,0.0,0.0,0.0,0.0,-0.0,-0.0,0.0,0.00537022749826,-0.0,-0.00383606751517,-0.0,0.0,-0.0,0.0,-0.0,2.1777378682e-07,0.0,0.0,0.0,0.0,0.0,0.0
1402602836669699832,0,-9.17286115552,-0.114322152727,-46.1770160545,0.043815185726,0.216307150808,0.0,-0.0380980644481,0.0,-0.14808500674,0.0,0.0,0.0,0.0,-0.0,-0.0,0.0,0.00383600394174,-0.0,-0.00383606751517,-0.0,0.0,-0.0,0.0,-0.0,1.4715170111e-07,0.0,0.0,0.0,0.0,0.0,0.0
1402602836689054292,0,-9.16005500488,-0.114322152727,-46.1753976372,0.043815185726,0.224947863743,0.0,-0.0307088146783,0.0,-0.148289387704,0.0,0.0,0.0,0.0,-0.0,-0.0,0.0,0.00537022749826,-0.0,-0.00383606751517,-0.0,0.0,-0.0,0.0,-0.0,2.1777378682e-07,0.0,0.0,0.0,0.0,0.0,0.0
1402602836710432968,0,-9.16005500488,-0.114322152727,-46.1753976372,0.043815185726,0.224947863743,0.0,-0.0307088146783,0.0,-0.148289387704,0.0,0.0,0.0,0.0,-0.0,-0.0,0.0,0.00537022749826,-0.0,-0.00383606751517,-0.0,0.0,-0.0,0.0,-0.0,2.1777378682e-07,0.0,0.0,0.0,0.0,0.0,0.0
1402602836729198147,0,-9.15754405158,-0.114322152727,-46.1747432661,0.043815185726,0.206240028457,0.0,-0.0254744993831,0.0,-0.148350559994,0.0,0.0,0.0,0.0,-0.0,-0.0,0.0,0.00537022749826,-0.0,-0.00383606751517,-0.0,0.0,-0.0,0.0,-0.0,2.1777378682e-07,0.0,0.0,0.0,0.0,0.0,0.0
1402602836749712013,0,-9.15754405158,-0.114322152727,-46.1747432661,0.043815185726,0.206240028457,0.0,-0.0254744993831,0.0,-0.148350559994,0.0,0.0,0.0,0.0,-0.0,-0.0,0.0,0.00537022749826,-0.0,-0.00383606751517,-0.0,0.0,-0.0,0.0,-0.0,2.1777378682e-07,0.0,0.0,0.0,0.0,0.0,0.0
1402602836769289271,0,-9.14447361925,-0.114322152727,-46.1782551515,0.043815185726,0.211792531153,0.0,-0.0329847572648,0.0,-0.148458998972,0.0,0.0,0.0,0.0,-0.0,-0.0,0.0,0.00383600394174,-0.0,-0.00383606751517,-0.0,0.0,-0.0,0.0,-0.0,1.4715170111e-07,0.0,0.0,0.0,0.0,0.0,0.0
1402602836789123918,0,-9.14447361925,-0.114322152727,-46.1782551515,0.043815185726,0.211792531153,0.0,-0.0329847572648,0.0,-0.148458998972,0.0,0.0,0.0,0.0,-0.0,-0.0,0.0,0.00383600394174,-0.0,-0.00383606751517,-0.0,0.0,-0.0,0.0,-0.0,1.4715170111e-07,0.0,0.0,0.0,0.0,0.0,0.0
1402602836809610730,0,-9.13451188436,-0.114322152727,-46.1763803363,0.043815185726,0.216011119144,0.0,-0.0296399063311,0.0,-0.148488085885,0.0,0.0,0.0,0.0,-0.0,-0.0,0.0,0.00537022749826,-0.0,-0.00383606751517,-0.0,0.0,-0.0,0.0,-0.0,2.1777378682e-07,0.0,0.0,0.0,0.0,0.0,0.0
1402602836829395493,0,-9.13044575262,-0.114322152727,-46.1769875175,0.043815185726,0.215374416933,0.0,-0.0294317113325,0.0,-0.14845106545,0.0,0.0,0.0,0.0,-0.0,-0.0,0.0,0.00537022749826,-0.0,-0.00383606751517,-0.0,0.0,-0.0,0.0,-0.0,2.1777378682e-07,0.0,0.0,0.0,0.0,0.0,0.0
1402602836849025259,0,-9.13044575262,-0.114322152727,-46.1769875175,0.043815185726,0.215374416933,0.0,-0.0294317113325,0.0,-0.14845106545,0.0,0.0,0.0,0.0,-0.0,-0.0,0.0,0.00537022749826,-0.0,-0.00383606751517,-0.0,0.0,-0.0,0.0,-0.0,2.1777378682e-07,0.0,0.0,0.0,0.0,0.0,0.0
1402602836869609551,0,-9.12799748708,-0.114322152727,-46.1773439494,0.043815185726,0.215591978743,0.0,-0.0311388615186,0.0,-0.148360469282,0.0,0.0,0.0,0.0,-0.0,-0.0,0.0,0.00383600394174,-0.0,-0.00383606751517,-0.0,0.0,-0.0,0.0,-0.0,1.4715170111e-07,0.0,0.0,0.0,0.0,0.0,0.0
1402602836889081771,0,-9.12799748708,-0.114322152727,-46.1773439494,0.043815185726,0.215591978743,0.0,-0.0311388615186,0.0,-0.148360469282,0.0,0.0,0.0,0.0,-0.0,-0.0,0.0,0.00537022749826,-0.0,-0.00383606751517,-0.0,0.0,-0.0,0.0,-0.0,2.1777378682e-07,0.0,0.0,0.0,0.0,0.0,0.0
1402602836909078446,0,-9.12148351918,-0.114322152727,-46.1793796043,0.043815185726,0.201942105023,0.0,-0.0341680143949,0.0,-0.148208098034,0.0,0.0,0.0,0.0,-0.0,-0.0,0.0,0.00537022749826,-0.0,-0.00383606751517,-0.0,0.0,-0.0,0.0,-0.0,2.1777378682e-07,0.0,0.0,0.0,0.0,0.0,0.0
1402602836929665496,0,-9.12148351918,-0.114322152727,-46.1793796043,0.043815185726,0.201942105023,0.0,-0.0341680143949,0.0,-0.148208098034,0.0,0.0,0.0,0.0,-0.0,-0.0,0.0,0.00537022749826,-0.0,-0.00383606751517,-0.0,0.0,-0.0,0.0,-0.0,2.1777378682e-07,0.0,0.0,0.0,0.0,0.0,0.0
1402602836949153605,0,-9.10364060547,-0.114322152727,-46.1752391411,0.043815185726,0.208229733279,0.0,-0.0256268484427,0.0,-0.148034939428,0.0,0.0,0.0,0.0,-0.0,-0.0,0.0,0.00537022749826,-0.0,-0.00383606751517,-0.0,0.0,-0.0,0.0,-0.0,2.1777378682e-07,0.0,0.0,0.0,0.0,0.0,0.0
1402602836969677834,0,-9.10364060547,-0.114322152727,-46.1752391411,0.043815185726,0.208229733279,0.0,-0.0256268484427,0.0,-0.148034939428,0.0,0.0,0.0,0.0,-0.0,-0.0,0.0,0.00383600394174,-0.0,-0.00383606751517,-0.0,0.0,-0.0,0.0,-0.0,1.4715170111e-07,0.0,0.0,0.0,0.0,0.0,0.0
1402602836989153806,0,-9.10011164315,-0.114322152727,-46.1799756806,0.043815185726,0.202794960244,0.0,-0.0335941010477,0.0,-0.147824118393,0.0,0.0,0.0,0.0,-0.0,-0.0,0.0,0.00537022749826,-0.0,-0.00383606751517,-0.0,0.0,-0.0,0.0,-0.0,2.1777378682e-07,0.0,0.0,0.0,0.0,0.0,0.0
1402602837009582313,0,-9.0959771148,-0.114322152727,-46.1806137684,0.043815185726,0.202436837062,0.0,-0.0343023610154,0.0,-0.147697633342,0.0,0.0,0.0,0.0,-0.0,-0.0,0.0,0.00537022749826,-0.0,-0.00383606751517,-0.0,0.0,-0.0,0.0,-0.0,2.1777378682e-07,0.0,0.0,0.0,0.0,0.0,0.0
1402602837029081713,0,-9.0959771148,-0.114322152727,-46.1806137684,0.043815185726,0.202436837062,0.0,-0.0343023610154,0.0,-0.147697633342,0.0,0.0,0.0,0.0,-0.0,-0.0,0.0,0.00537022749826,-0.0,-0.00383606751517,-0.0,0.0,-0.0,0.0,-0.0,2.1777378682e-07,0.0,0.0,0.0,0.0,0.0,0.0
1402602837049777613,0,-9.09193318429,-0.114322152727,-46.1814711884,0.043815185726,0.201759907799,0.0,-0.0356240170053,0.0,-0.147457054556,0.0,0.0,0.0,0.0,-0.0,-0.0,0.0,0.00537022749826,-0.0,-0.00383606751517,-0.0,0.0,-0.0,0.0,-0.0,2.1777378682e-07,0.0,0.0,0.0,0.0,0.0,0.0
1402602837069096488,0,-9.09193318429,-0.114322152727,-46.1814711884,0.043815185726,0.201759907799,0.0,-0.0356240170053,0.0,-0.147457054556,0.0,0.0,0.0,0.0,-0.0,-0.0,0.0,0.00537022749826,-0.0,-0.00383606751517,-0.0,0.0,-0.0,0.0,-0.0,2.1777378682e-07,0.0,0.0,0.0,0.0,0.0,0.0
1402602837089770061,0,-9.08373849089,-0.114322152727,-46.1843022069,0.043815185726,0.20109941858,0.0,-0.0387227869492,0.0,-0.147207688806,0.0,0.0,0.0,0.0,-0.0,-0.0,0.0,0.00383600394174,-0.0,-0.00383606751517,-0.0,0.0,-0.0,0.0,-0.0,1.4715170111e-07,0.0,0.0,0.0,0.0,0.0,0.0
1402602837109203985,0,-9.08373849089,-0.114322152727,-46.1843022069,0.043815185726,0.20109941858,0.0,-0.0387227869492,0.0,-0.147207688806,0.0,0.0,0.0,0.0,-0.0,-0.0,0.0,0.00537022749826,-0.0,-0.00383606751517,-0.0,0.0,-0.0,0.0,-0.0,2.1777378682e-07,0.0,0.0,0.0,0.0,0.0,0.0
1402602837129556475,0,-9.07718594132,-0.114322152727,-46.1829988315,0.043815185726,0.192631069508,0.0,-0.0334081445205,0.0,-0.146929080159,0.0,0.0,0.0,0.0,-0.0,-0.0,0.0,0.00537022749826,-0.0,-0.00383606751517,-0.0,0.0,-0.0,0.0,-0.0,2.1777378682e-07,0.0,0.0,0.0,0.0,0.0,0.0
1402602837149077868,0,-9.07718594132,-0.114322152727,-46.1829988315,0.043815185726,0.192631069508,0.0,-0.0334081445205,0.0,-0.146929080159,0.0,0.0,0.0,0.0,-0.0,-0.0,0.0,0.00537022749826,-0.0,-0.00383606751517,-0.0,0.0,-0.0,0.0,-0.0,2.1777378682e-07,0.0,0.0,0.0,0.0,0.0,0.0
1402602837169718036,0,-9.06596371263,-0.114322152727,-46.1821235676,0.043815185726,0.197473940121,0.0,-0.0322459352623,0.0,-0.146733789449,0.0,0.0,0.0,0.0,-0.0,-0.0,0.0,0.00537022749826,-0.0,-0.00383606751517,-0.0,0.0,-0.0,0.0,-0.0,2.1777378682e-07,0.0,0.0,0.0,0.0,0.0,0.0
1402602837189186298,0,-9.06596371263,-0.114322152727,-46.1821235676,0.043815185726,0.197473940121,0.0,-0.0322459352623,0.0,-0.146733789449,0.0,0.0,0.0,0.0,-0.0,-0.0,0.0,0.00383600394174,-0.0,-0.00383606751517,-0.0,0.0,-0.0,0.0,-0.0,1.4715170111e-07,0.0,0.0,0.0,0.0,0.0,0.0
1402602837209762572,0,-9.05633416712,-0.114322152727,-46.1827434617,0.043815185726,0.19998702448,0.0,-0.0325330091145,0.0,-0.14659948057,0.0,0.0,0.0,0.0,-0.0,-0.0,0.0,0.00537022749826,-0.0,-0.00383606751517,-0.0,0.0,-0.0,0.0,-0.0,2.1777378682e-07,0.0,0.0,0.0,0.0,0.0,0.0
1402602837229110644,0,-9.05633416712,-0.114322152727,-46.1827434617,0.043815185726,0.19998702448,0.0,-0.0325330091145,0.0,-0.14659948057,0.0,0.0,0.0,0.0,-0.0,-0.0,0.0,0.00537022749826,-0.0,-0.00383606751517,-0.0,0.0,-0.0,0.0,-0.0,2.1777378682e-07,0.0,0.0,0.0,0.0,0.0,0.0
1402602837249704095,0,-9.04819846016,-0.114322152727,-46.1839658927,0.043815185726,0.199800952031,0.0,-0.0322470851109,0.0,-0.146332689695,0.0,0.0,0.0,0.0,-0.0,-0.0,0.0,0.00383600394174,-0.0,-0.00383606751517,-0.0,0.0,-0.0,0.0,-0.0,1.4715170111e-07,0.0,0.0,0.0,0.0,0.0,0.0
1402602837269106198,0,-9.04819846016,-0.114322152727,-46.1839658927,0.043815185726,0.199800952031,0.0,-0.0322470851109,0.0,-0.146332689695,0.0,0.0,0.0,0.0,-0.0,-0.0,0.0,0.00383600394174,-0.0,-0.00383606751517,-0.0,0.0,-0.0,0.0,-0.0,1.4715170111e-07,0.0,0.0,0.0,0.0,0.0,0.0
1402602837289737865,0,-9.03240005869,-0.114322152727,-46.1812369733,0.043815185726,0.214509356482,0.0,-0.0297267216058,0.0,-0.14634791138,0.0,0.0,0.0,0.0,-0.0,-0.0,0.0,0.00537022749826,-0.0,-0.00383606751517,-0.0,0.0,-0.0,0.0,-0.0,2.1777378682e-07,0.0,0.0,0.0,0.0,0.0,0.0
1402602837309128102,0,-9.03240005869,-0.114322152727,-46.1812369733,0.043815185726,0.214509356482,0.0,-0.0297267216058,0.0,-0.14634791138,0.0,0.0,0.0,0.0,-0.0,-0.0,0.0,0.00383600394174,-0.0,-0.00383606751517,-0.0,0.0,-0.0,0.0,-0.0,1.4715170111e-07,0.0,0.0,0.0,0.0,0.0,0.0
1402602837329611830,0,-9.03173889323,-0.114322152727,-46.1882997921,0.043815185726,0.197626145625,0.0,-0.0374194702241,0.0,-0.14608136118,0.0,0.0,0.0,0.0,-0.0,-0.0,0.0,0.00537022749826,-0.0,-0.00383606751517,-0.0,0.0,-0.0,0.0,-0.0,2.1777378682e-07,0.0,0.0,0.0,0.0,0.0,0.0
1402602837349144881,0,-9.03173889323,-0.114322152727,-46.1882997921,0.043815185726,0.197626145625,0.0,-0.0374194702241,0.0,-0.14608136118,0.0,0.0,0.0,0.0,-0.0,-0.0,0.0,0.00537022749826,-0.0,-0.00383606751517,-0.0,0.0,-0.0,0.0,-0.0,2.1777378682e-07,0.0,0.0,0.0,0.0,0.0,0.0
1402602837369668287,0,-9.01863696912,-0.114322152727,-46.1867126639,0.043815185726,0.206228744988,0.0,-0.032733412428,0.0,-0.146071713956,0.0,0.0,0.0,0.0,-0.0,-0.0,0.0,0.00383600394174,-0.0,-0.00383606751517,-0.0,0.0,-0.0,0.0,-0.0,1.4715170111e-07,0.0,0.0,0.0,0.0,0.0,0.0
1402602837389093891,0,-9.01863696912,-0.114322152727,-46.1867126639,0.043815185726,0.206228744988,0.0,-0.032733412428,0.0,-0.146071713956,0.0,0.0,0.0,0.0,-0.0,-0.0,0.0,0.00537022749826,-0.0,-0.00383606751517,-0.0,0.0,-0.0,0.0,-0.0,2.1777378682e-07,0.0,0.0,0.0,0.0,0.0,0.0
1402602837409701232,0,-9.00633119573,-0.114322152727,-46.1898830393,0.043815185726,0.21000135651,0.0,-0.0366060142269,0.0,-0.145942172028,0.0,0.0,0.0,0.0,-0.0,-0.0,0.0,0.00537022749826,-0.0,-0.00383606751517,-0.0,0.0,-0.0,0.0,-0.0,2.1777378682e-07,0.0,0.0,0.0,0.0,0.0,0.0
1402602837429084917,0,-9.00633119573,-0.114322152727,-46.1898830393,0.043815185726,0.21000135651,0.0,-0.0366060142269,0.0,-0.145942172028,0.0,0.0,0.0,0.0,-0.0,-0.0,0.0,0.00537022749826,-0.0,-0.00383606751517,-0.0,0.0,-0.0,0.0,-0.0,2.1777378682e-07,0.0,0.0,0.0,0.0,0.0,0.0
1402602837449711584,0,-8.99415431003,-0.114322152727,-46.1897229968,0.043815185726,0.19919984594,0.0,-0.0326688054957,0.0,-0.145800201433,0.0,0.0,0.0,0.0,-0.0,-0.0,0.0,0.00383600394174,-0.0,-0.00383606751517,-0.0,0.0,-0.0,0.0,-0.0,1.4715170111e-07,0.0,0.0,0.0,0.0,0.0,0.0
1402602837469073632,0,-8.99415431003,-0.114322152727,-46.1897229968,0.043815185726,0.19919984594,0.0,-0.0326688054957,0.0,-0.145800201433,0.0,0.0,0.0,0.0,-0.0,-0.0,0.0,0.00537022749826,-0.0,-0.00383606751517,-0.0,0.0,-0.0,0.0,-0.0,2.1777378682e-07,0.0,0.0,0.0,0.0,0.0,0.0
1402602837489867597,0,-8.98976816324,-0.114322152727,-46.1917627219,0.043815185726,0.199649575412,0.0,-0.0366027464822,0.0,-0.145774068064,0.0,0.0,0.0,0.0,-0.0,-0.0,0.0,0.00537022749826,-0.0,-0.00383606751517,-0.0,0.0,-0.0,0.0,-0.0,2.1777378682e-07,0.0,0.0,0.0,0.0,0.0,0.0
1402602837509171066,0,-8.98976816324,-0.114322152727,-46.1917627219,0.043815185726,0.199649575412,0.0,-0.0366027464822,0.0,-0.145774068064,0.0,0.0,0.0,0.0,-0.0,-0.0,0.0,0.00383600394174,-0.0,-0.00383606751517,-0.0,0.0,-0.0,0.0,-0.0,1.4715170111e-07,0.0,0.0,0.0,0.0,0.0,0.0
1402602837546810785,2,-8.98559772148,-0.114322152727,-46.1925358527,0.043815185726,0.19931273035,0.0,-0.0374226715921,0.0,-0.145722586798,0.0,360.119720386,2626.62536772,0.14086803903,0.0,200.0,-144.78,0.00537022749826,-0.0,-0.00383606751517,-0.0,1.57079632679,100.0,-1.57079632679,-100.0,2961340677.3,0.0,0.0,0.0,0.0,0.0,0.0
1402602837548055619,2,-8.98559772148,-0.114322152727,-46.1925358527,0.043815185726,0.19931273035,0.0,-0.0374226715921,0.0,-0.145722586798,0.0,360.119720386,2626.62536772,0.14086803903,0.0,200.0,-144.78,0.00537022749826,-0.0,-0.00383606751517,-0.0,1.57079632679,100.0,-1.57079632679,-100.0,2961340677.3,0.0,0.0,0.0,0.0,0.0,0.0
1402602837548969837,2,-8.98559772148,-0.114322152727,-46.1925358527,0.043815185726,0.19931273035,0.0,-0.0374226715921,0.0,-0.145722586798,0.0,360.119720386,2626.62536772,0.14086803903,0.0,200.0,-144.78,0.00537022749826,-0.0,-0.00383606751517,-0.0,1.57079632679,100.0,-1.57079632679,-100.0,2961340677.3,0.0,0.0,0.0,0.0,0.0,0.0
1402602837549698666,2,-8.98559772148,-0.114322152727,-46.1925358527,0.043815185726,0.19931273035,0.0,-0.0374226715921,0.0,-0.145722586798,0.0,360.119720386,2626.62536772,0.14086803903,0.0,200.0,-144.78,0.00537022749826,-0.0,-0.00383606751517,-0.0,1.57079632679,100.0,-1.57079632679,-100.0,2961340677.3,0.0,0.0,0.0,0.0,0.0,0.0
1402602837569095250,2,-8.97747904574,-0.114322152727,-46.1939498359,0.043815185726,0.198356949274,0.0,-0.0389478462249,0.0,-0.145655576494,0.0,359.878178965,2626.72202794,0.11974501015,0.0,200.0,-144.78,0.00383600394174,100.0,-0.00383606751517,-100.0,1.57079632679,100.0,-1.57079632679,-100.0,2961563483.71,0.0,0.0,0.0,0.0,0.0,0.0
1402602837569885525,2,-8.97747904574,-0.114322152727,-46.1939498359,0.043815185726,0.198356949274,0.0,-0.0389478462249,0.0,-0.145655576494,0.0,359.878178965,2626.72202794,0.11974501015,0.0,200.0,-144.78,0.00383600394174,100.0,-0.00383606751517,-100.0,1.57079632679,100.0,-1.57079632679,-100.0,2961563483.71,0.0,0.0,0.0,0.0,0.0,0.0
1402602837589597596,2,-8.97747904574,-0.114322152727,-46.1939498359,0.043815185726,0.198356949274,0.0,-0.0389478462249,0.0,-0.145655576494,0.0,359.878178965,2626.72202794,0.11974501015,0.0,200.0,-144.78,0.00690445105478,100.0,-0.00383606751517,-100.0,1.57079632679,100.0,-1.57079632679,-100.0,2961563483.71,0.0,0.0,0.0,0.0,0.0,0.0
1402602837590621949,2,-8.97747904574,-0.114322152727,-46.1939498359,0.043815185726,0.198356949274,0.0,-0.0389478462249,0.0,-0.145655576494,0.0,359.878178965,2626.72202794,0.11974501015,0.0,200.0,-144.78,0.00690445105478,100.0,-0.00383606751517,-100.0,1.57079632679,100.0,-1.57079632679,-100.0,2961563483.71,0.0,0.0,0.0,0.0,0.0,0.0
1402602837609099332,2,-8.9722924169,-0.114322152727,-46.1915224382,0.043815185726,0.188180502789,0.0,-0.029031851426,0.0,-0.145696024979,0.0,360.371575001,2625.70494025,0.147298022789,0.0,200.0,-144.78,0.0145762840931,100.0,-0.0145763476665,-100.0,1.57079632679,100.0,-1.57079632679,-100.0,2959117573.07,0.0,0.0,0.0,0.0,0.0,0.0
1402602837609819569,2,-8.9722924169,-0.114322152727,-46.1915224382,0.043815185726,0.188180502789,0.0,-0.029031851426,0.0,-0.145696024979,0.0,360.371575001,2625.70494025,0.147298022789,0.0,200.0,-144.78,0.0145762840931,100.0,-0.0145763476665,-100.0,1.57079632679,100.0,-1.57079632679,-100.0,2959117573.07,0.0,0.0,0.0,0.0,0.0,0.0
1402602837629718475,2,-8.9722924169,-0.114322152727,-46.1915224382,0.043815185726,0.188180502789,0.0,-0.029031851426,0.0,-0.145696024979,0.0,360.371575001,2625.70494025,0.147298022789,0.0,200.0,-144.78,0.0483320633595,100.0,-0.0467979033764,-100.0,1.57079632679,100.0,-1.57079632679,-100.0,2959117573.06,0.0,0.0,0.0,0.0,0.0,0.0
1402602837631613179,2,-8.9722924169,-0.114322152727,-46.1915224382,0.043815185726,0.188180502789,0.0,-0.029031851426,0.0,-0.145696024979,0.0,360.371575001,2625.70494025,0.147298022789,0.0,200.0,-144.78,0.0483320633595,100.0,-0.0467979033764,-100.0,1.57079632679,100.0,-1.57079632679,-100.0,2959117573.06,0.0,0.0,0.0,0.0,0.0,0.0
1402602837648968996,2,-8.9604780626,-0.114322152727,-46.18811256,0.043815185726,0.195157473956,0.0,-0.0224136977874,0.0,-0.145833053637,0.0,359.304907569,2625.13942196,0.16402702682,0.0,200.0,-144.78,0.0820878426258,100.0,-0.0820879061993,-100.0,1.57079632679,100.0,-1.57079632679,-100.0,2957709994.3,0.0,0.0,0.0,0.0,0.0,0.0
1402602837649706230,2,-8.9604780626,-0.114322152727,-46.18811256,0.043815185726,0.195157473956,0.0,-0.0224136977874,0.0,-0.145833053637,0.0,359.304907569,2625.13942196,0.16402702682,0.0,200.0,-144.78,0.0820878426258,100.0,-0.0820879061993,-100.0,1.57079632679,100.0,-1.57079632679,-100.0,2957709994.3,0.0,0.0,0.0,0.0,0.0,0.0
1402602837669605289,2,-8.9604780626,-0.114322152727,-46.18811256,0.043815185726,0.195157473956,0.0,-0.0224136977874,0.0,-0.145833053637,0.0,359.304907569,2625.13942196,0.16402702682,0.0,200.0,-144.78,0.111240712804,100.0,-0.111240776377,-100.0,1.57079632679,100.0,-1.57079632679,-100.0,2957709994.3,0.0,0.0,0.0,0.0,0.0,0.0
1402602837670785736,2,-8.9604780626,-0.114322152727,-46.18811256,0.043815185726,0.195157473956,0.0,-0.0224136977874,0.0,-0.145833053637,0.0,359.304907569,2625.13942196,0.16402702682,0.0,200.0,-144.78,0.111240712804,100.0,-0.111240776377,-100.0,1.57079632679,100.0,-1.57079632679,-100.0,2957709994.3,0.0,0.0,0.0,0.0,0.0,0.0
1402602837689198641,2,-8.95435110062,-0.114322152727,-46.1895001545,0.043815185726,0.188496326504,0.0,-0.0245257979365,0.0,-0.145723537631,0.0,359.57824028,2625.208419,0.104429235688,0.0,200.0,-144.78,0.137324897451,100.0,-0.140393646556,-100.0,1.57079632679,100.0,-1.57079632679,-100.0,2957878512.27,0.0,0.0,0.0,0.0,0.0,0.0
1402602837690173948,2,-8.95435110062,-0.114322152727,-46.1895001545,0.043815185726,0.188496326504,0.0,-0.0245257979365,0.0,-0.145723537631,0.0,359.57824028,2625.208419,0.104429235688,0.0,200.0,-144.78,0.137324897451,100.0,-0.140393646556,-100.0,1.57079632679,100.0,-1.57079632679,-100.0,2957878512.27,0.0,0.0,0.0,0.0,0.0,0.0
1402602837709684824,2,-8.95435110062,-0.114322152727,-46.1895001545,0.043815185726,0.188496326504,0.0,-0.0245257979365,0.0,-0.145723537631,0.0,359.57824028,2625.208419,0.104429235688,0.0,200.0,-144.78,0.169546214742,100.0,-0.169546278315,-100.0,1.57079632679,100.0,-1.57079632679,-100.0,2957878512.27,0.0,0.0,0.0,0.0,0.0,0.0
1402602837710983705,2,-8.95435110062,-0.114322152727,-46.1895001545,0.043815185726,0.188496326504,0.0,-0.0245257979365,0.0,-0.145723537631,0.0,359.57824028,2625.208419,0.104429235688,0.0,200.0,-144.78,0.169546214742,100.0,-0.169546278315,-100.0,1.57079632679,100.0,-1.57079632679,-100.0,2957878512.27,0.0,0.0,0.0,0.0,0.0,0.0
1402602837729055500,2,-8.93917755762,-0.114322152727,-46.1908545062,0.043815185726,0.19477645229,0.0,-0.0401429388148,0.0,-0.145633327768,0.0,358.529582293,2626.61845881,0.199617291495,0.0,200.0,-144.78,0.20943960349,100.0,-0.21097389062,-100.0,1.57079632679,100.0,-1.57079632679,-100.0,2961275290.11,0.0,0.0,0.0,0.0,0.0,0.0
1402602837729841574,2,-8.93917755762,-0.114322152727,-46.1908545062,0.043815185726,0.19477645229,0.0,-0.0401429388148,0.0,-0.145633327768,0.0,358.529582293,2626.61845881,0.199617291495,0.0,200.0,-144.78,0.20943960349,100.0,-0.21097389062,-100.0,1.57079632679,100.0,-1.57079632679,-100.0,2961275290.11,0.0,0.0,0.0,0.0,0.0,0.0
1402602837749687461,2,-8.93917755762,-0.114322152727,-46.1908545062,0.043815185726,0.19477645229,0.0,-0.0401429388148,0.0,-0.145633327768,0.0,358.529582293,2626.61845881,0.199617291495,0.0,200.0,-144.78,0.244729606313,100.0,-0.249332817393,-100.0,1.57079632679,100.0,-1.57079632679,-100.0,2961275290.11,0.0,0.0,0.0,0.0,0.0,0.0
1402602837750826605,2,-8.93917755762,-0.114322152727,-46.1908545062,0.043815185726,0.19477645229,0.0,-0.0401429388148,0.0,-0.145633327768,0.0,358.529582293,2626.61845881,0.199617291495,0.0,200.0,-144.78,0.244729606313,100.0,-0.249332817393,-100.0,1.57079632679,100.0,-1.57079632679,-100.0,2961275290.11,0.0,0.0,0.0,0.0,0.0,0.0
1402602837769081637,2,-8.92722965814,-0.114322152727,-46.191323273,0.043815185726,0.206972691884,0.0,-0.0538940452387,0.0,-0.14738634943,0.0,356.306112331,2631.39843246,0.437691338859,0.0,200.0,-144.78,0.283088771505,100.0,-0.295363577205,-100.0,1.57079632679,100.0,-1.57079632679,-100.0,2972840959.93,0.0,0.0,0.0,0.0,0.0,0.0
