rosbagTimestamp,transforms,-,header,seq,stamp,secs,nsecs,frame_id,child_frame_id,transform,translation,x,y,z,rotation,x,y,z,w
1402415921517684178,,errorv,,0,,1402415921,517460393,base_link,/z_drive,,,0.0,0.0,0.0,,0.0,0.0,0.0,1.0
1402415921517707987,,errorv,,0,,1402415921,517496908,/z_drive,port,,,-0.3,0.3048,0.0,,0.0,0.0,0.0,1.0
1402415921517741561,,errorv,,0,,1402415921,517506406,/z_drive,starboard,,,-0.3,-0.3048,0.0,,0.0,0.0,0.0,1.0
1402415921537757474,,errorv,,0,,1402415921,537489265,base_link,/z_drive,,,0.0,0.0,0.0,,0.0,0.0,0.0,1.0
1402415921537791222,,errorv,,0,,1402415921,537506586,/z_drive,port,,,-0.3,0.3048,0.0,,0.0,0.0,0.0,1.0
1402415921537841545,,errorv,,0,,1402415921,537513312,/z_drive,starboard,,,-0.3,-0.3048,0.0,,0.0,0.0,0.0,1.0
1402415921543067164,,errorv,,0,,1402415921,483474016,/enu,/base_link,,,6.29674286576,17.967414649,-27.3742565843,,-0.0106102164985,-0.000849077430217,0.944083136067,-0.329535634745
1402415921543091293,,errorv,,0,,1402415921,493478059,/enu,/base_link,,,6.30090621951,17.9637078231,-27.3742083928,,-0.0107266979087,-0.00134094608578,0.944479172271,-0.328393411874
1402415921543111125,,errorv,,0,,1402415921,504475116,/enu,/base_link,,,6.30556219299,17.9595580422,-27.374013658,,-0.0110284353014,-0.00175913288442,0.944905806664,-0.327151792901
1402415921551338585,,errorv,,0,,1402415921,514486074,/enu,/base_link,,,6.3098567985,17.9558550096,-27.3739086583,,-0.0111604934497,-0.00229121163615,0.945292542774,-0.326024849223
1402415921551418724,,errorv,,0,,1402415921,525437116,/enu,/base_link,,,6.31441347442,17.9517833576,-27.3736994955,,-0.0114756664258,-0.00269917886609,0.945712346555,-0.324790980613
1402415921557781172,,errorv,,0,,1402415921,557496556,base_link,/z_drive,,,0.0,0.0,0.0,,0.0,0.0,0.0,1.0
1402415921557806701,,errorv,,0,,1402415921,557514496,/z_drive,port,,,-0.3,0.3048,0.0,,0.0,0.0,0.0,1.0
1402415921557834001,,errorv,,0,,1402415921,557524354,/z_drive,starboard,,,-0.3,-0.3048,0.0,,0.0,0.0,0.0,1.0
1402415921577660977,,errorv,,0,,1402415921,577485746,base_link,/z_drive,,,0.0,0.0,0.0,,0.0,0.0,0.0,1.0
1402415921577688655,,errorv,,0,,1402415921,577498235,/z_drive,port,,,-0.3,0.3048,0.0,,0.0,0.0,0.0,1.0
1402415921577765322,,errorv,,0,,1402415921,577502325,/z_drive,starboard,,,-0.3,-0.3048,0.0,,0.0,0.0,0.0,1.0
1402415921591071907,,errorv,,0,,1402415921,535478115,/enu,/base_link,,,6.32736623065,17.9672554503,-27.3529417751,,-0.010874167891,-0.00191470865237,0.946222390669,-0.323328430175
1402415921591104878,,errorv,,0,,1402415921,545478105,/enu,/base_link,,,6.33145452695,17.9638284071,-27.352672351,,-0.0110389504042,-0.00236526672758,0.946613324661,-0.322173494661
1402415921597742463,,errorv,,0,,1402415921,597455319,base_link,/z_drive,,,0.0,0.0,0.0,,0.0,0.0,0.0,1.0
1402415921597770806,,errorv,,0,,1402415921,597492720,/z_drive,port,,,-0.3,0.3048,0.0,,0.0,0.0,0.0,1.0
1402415921597839603,,errorv,,0,,1402415921,597498749,/z_drive,starboard,,,-0.3,-0.3048,0.0,,0.0,0.0,0.0,1.0
1402415921602334377,,errorv,,0,,1402415921,702129552,base_link,imu,,,0.13,0.0,-0.1,,1.0,0.0,0.0,0.0
1402415921602364174,,errorv,,0,,1402415921,702129602,/base_link,/gps,,,-0.84,0.0,-0.14,,0.0,0.0,0.0,1.0
1402415921617712798,,errorv,,0,,1402415921,617451956,base_link,/z_drive,,,0.0,0.0,0.0,,0.0,0.0,0.0,1.0
1402415921617740977,,errorv,,0,,1402415921,617466949,/z_drive,port,,,-0.3,0.3048,0.0,,0.0,0.0,0.0,1.0
1402415921617765040,,errorv,,0,,1402415921,617471333,/z_drive,starboard,,,-0.3,-0.3048,0.0,,0.0,0.0,0.0,1.0
1402415921631419767,,errorv,,0,,1402415921,556478977,/enu,/base_link,,,6.33609934727,17.9599767071,-27.3520031988,,-0.0114148442074,-0.0026438366825,0.947048810375,-0.320875773823
1402415921631448638,,errorv,,0,,1402415921,566478013,/enu,/base_link,,,6.34011380479,17.9567339683,-27.3518742894,,-0.0116772845821,-0.00297552346352,0.947437165451,-0.31971488049
1402415921631470709,,errorv,,0,,1402415921,577481985,/enu,/base_link,,,6.34472379393,17.9531678446,-27.3516661145,,-0.0118507963239,-0.00351889917446,0.947859888521,-0.318447495998
1402415921631492304,,errorv,,0,,1402415921,587438106,/enu,/base_link,,,6.36675846537,17.9565676009,-27.3032091016,,-0.0108032940212,-0.00398233314691,0.94831739042,-0.317114422392
1402415921637696482,,errorv,,0,,1402415921,637467122,base_link,/z_drive,,,0.0,0.0,0.0,,0.0,0.0,0.0,1.0
1402415921637726504,,errorv,,0,,1402415921,637484400,/z_drive,port,,,-0.3,0.3048,0.0,,0.0,0.0,0.0,1.0
1402415921637753129,,errorv,,0,,1402415921,637491615,/z_drive,starboard,,,-0.3,-0.3048,0.0,,0.0,0.0,0.0,1.0
1402415921657721413,,errorv,,0,,1402415921,657461832,base_link,/z_drive,,,0.0,0.0,0.0,,0.0,0.0,0.0,1.0
1402415921657761516,,errorv,,0,,1402415921,657485225,/z_drive,port,,,-0.3,0.3048,0.0,,0.0,0.0,0.0,1.0
1402415921657782714,,errorv,,0,,1402415921,657492461,/z_drive,starboard,,,-0.3,-0.3048,0.0,,0.0,0.0,0.0,1.0
1402415921671126696,,errorv,,0,,1402415921,597434997,/enu,/base_link,,,6.37105018154,17.9533663366,-27.3027238761,,-0.0109760098065,-0.00436154550949,0.94871732406,-0.315904959059
1402415921671317290,,errorv,,0,,1402415921,608427047,/enu,/base_link,,,6.37575010372,17.9498563088,-27.3021242986,,-0.0113617501673,-0.00459189241978,0.949147980864,-0.314591696614
1402415921671401156,,errorv,,0,,1402415921,618474960,/enu,/base_link,,,6.37997219621,17.946783239,-27.3017818589,,-0.0115418746742,-0.00492575819961,0.949534322889,-0.31341201587
1402415921671431191,,errorv,,0,,1402415921,629426002,/enu,/base_link,,,6.38471846862,17.9433335406,-27.3010945188,,-0.0117481446897,-0.00530012648133,0.949945213481,-0.312150574466
1402415921677758083,,errorv,,0,,1402415921,677527101,base_link,/z_drive,,,0.0,0.0,0.0,,0.0,0.0,0.0,1.0
1402415921677789963,,errorv,,0,,1402415921,677547143,/z_drive,port,,,-0.3,0.3048,0.0,,0.0,0.0,0.0,1.0
1402415921677813213,,errorv,,0,,1402415921,677553749,/z_drive,starboard,,,-0.3,-0.3048,0.0,,0.0,0.0,0.0,1.0
1402415921697723260,,errorv,,0,,1402415921,697521195,base_link,/z_drive,,,0.0,0.0,0.0,,0.0,0.0,0.0,1.0
1402415921697939064,,errorv,,0,,1402415921,697558008,/z_drive,port,,,-0.3,0.3048,0.0,,0.0,0.0,0.0,1.0
1402415921697962951,,errorv,,0,,1402415921,697593908,/z_drive,starboard,,,-0.3,-0.3048,0.0,,0.0,0.0,0.0,1.0
1402415921702433089,,errorv,,0,,1402415921,802243684,base_link,imu,,,0.13,0.0,-0.1,,1.0,0.0,0.0,0.0
1402415921702462522,,errorv,,0,,1402415921,802243682,/base_link,/gps,,,-0.84,0.0,-0.14,,0.0,0.0,0.0,1.0
1402415921711061523,,errorv,,0,,1402415921,639419078,/enu,/base_link,,,6.38891032659,17.9403819499,-27.3007405972,,-0.0120688748745,-0.00544647178568,0.950340475121,-0.310930313013
1402415921711330850,,errorv,,0,,1402415921,650409936,/enu,/base_link,,,6.39359694088,17.9369249052,-27.3000096414,,-0.0122861387401,-0.00574651370567,0.950765697747,-0.309613656616
1402415921711355722,,errorv,,0,,1402415921,660397052,/enu,/base_link,,,6.39760493686,17.9338862791,-27.2994308043,,-0.0125791655594,-0.00593180714963,0.951154570719,-0.308401622657
1402415921711383778,,errorv,,0,,1402415921,671386003,/enu,/base_link,,,6.40239979307,17.9306222032,-27.2989129873,,-0.0127190146773,-0.00637621675197,0.951581294973,-0.307067760574
1402415921711402802,,errorv,,0,,1402415921,681374073,/enu,/base_link,,,6.40633518078,17.927483675,-27.298079116,,-0.0129172898152,-0.00662946686536,0.951958430288,-0.305882887387
1402415921717654873,,errorv,,0,,1402415921,717522542,base_link,/z_drive,,,0.0,0.0,0.0,,0.0,0.0,0.0,1.0
1402415921717803427,,errorv,,0,,1402415921,717541240,/z_drive,port,,,-0.3,0.3048,0.0,,0.0,0.0,0.0,1.0
1402415921717839327,,errorv,,0,,1402415921,717579046,/z_drive,starboard,,,-0.3,-0.3048,0.0,,0.0,0.0,0.0,1.0
1402415921737695257,,errorv,,0,,1402415921,737545317,base_link,/z_drive,,,0.0,0.0,0.0,,0.0,0.0,0.0,1.0
1402415921737897212,,errorv,,0,,1402415921,737566886,/z_drive,port,,,-0.3,0.3048,0.0,,0.0,0.0,0.0,1.0
1402415921737921518,,errorv,,0,,1402415921,737602083,/z_drive,starboard,,,-0.3,-0.3048,0.0,,0.0,0.0,0.0,1.0
1402415921751103486,,errorv,,0,,1402415921,691375970,/enu,/base_link,,,6.4130088787,17.9149969447,-27.3021446976,,-0.0130041435981,-0.00734189326478,0.952343518027,-0.304661800239
1402415921751179056,,errorv,,0,,1402415921,702353954,/enu,/base_link,,,6.41761073187,17.9118181457,-27.3017393028,,-0.0130880377276,-0.00766874882107,0.952766165749,-0.303325776954
1402415921751203367,,errorv,,0,,1402415921,712354898,/enu,/base_link,,,6.42153705988,17.9085381303,-27.3007154136,,-0.0132612887523,-0.00790183115528,0.953159226277,-0.302074806378
1402415921757729043,,errorv,,0,,1402415921,757512528,base_link,/z_drive,,,0.0,0.0,0.0,,0.0,0.0,0.0,1.0
1402415921757795706,,errorv,,0,,1402415921,757529444,/z_drive,port,,,-0.3,0.3048,0.0,,0.0,0.0,0.0,1.0
1402415921757880687,,errorv,,0,,1402415921,757538955,/z_drive,starboard,,,-0.3,-0.3048,0.0,,0.0,0.0,0.0,1.0
1402415921759188492,,errorv,,0,,1402415921,723346948,/enu,/base_link,,,6.42627562571,17.9053989214,-27.3005321928,,-0.0133338457405,-0.00826473025093,0.953593956925,-0.300686661009
1402415921759251820,,errorv,,0,,1402415921,733356952,/enu,/base_link,,,6.47458227032,17.8875992294,-27.3245255326,,-0.00897258142121,-0.011633632217,0.954187720292,-0.298847696707
1402415921777754070,,errorv,,0,,1402415921,777464614,base_link,/z_drive,,,0.0,0.0,0.0,,0.0,0.0,0.0,1.0
1402415921777781213,,errorv,,0,,1402415921,777483633,/z_drive,port,,,-0.3,0.3048,0.0,,0.0,0.0,0.0,1.0
1402415921777804900,,errorv,,0,,1402415921,777492257,/z_drive,starboard,,,-0.3,-0.3048,0.0,,0.0,0.0,0.0,1.0
1402415921797795125,,errorv,,0,,1402415921,797474778,base_link,/z_drive,,,0.0,0.0,0.0,,0.0,0.0,0.0,1.0
1402415921797863839,,errorv,,0,,1402415921,797494494,/z_drive,port,,,-0.3,0.3048,0.0,,0.0,0.0,0.0,1.0
1402415921797890045,,errorv,,0,,1402415921,797502753,/z_drive,starboard,,,-0.3,-0.3048,0.0,,0.0,0.0,0.0,1.0
1402415921799151307,,errorv,,0,,1402415921,744332075,/enu,/base_link,,,6.48007679737,17.8838737171,-27.3237778403,,-0.00918922544331,-0.0118114066527,0.954615311425,-0.297465386225
1402415921799180079,,errorv,,0,,1402415921,754336118,/enu,/base_link,,,6.4852892214,17.8804402898,-27.3230550197,,-0.00922230759925,-0.0121089977935,0.954999416842,-0.296216871643
1402415921802555246,,errorv,,0,,1402415921,902360307,base_link,imu,,,0.13,0.0,-0.1,,1.0,0.0,0.0,0.0
1402415921802583980,,errorv,,0,,1402415921,902360364,/base_link,/gps,,,-0.84,0.0,-0.14,,0.0,0.0,0.0,1.0
1402415921818040691,,errorv,,0,,1402415921,817581654,base_link,/z_drive,,,0.0,0.0,0.0,,0.0,0.0,0.0,1.0
1402415921818061002,,errorv,,0,,1402415921,817634342,/z_drive,port,,,-0.3,0.3048,0.0,,0.0,0.0,0.0,1.0
1402415921818097707,,errorv,,0,,1402415921,817643938,/z_drive,starboard,,,-0.3,-0.3048,0.0,,0.0,0.0,0.0,1.0
1402415921837899111,,errorv,,0,,1402415921,837534077,base_link,/z_drive,,,0.0,0.0,0.0,,0.0,0.0,0.0,1.0
1402415921837927811,,errorv,,0,,1402415921,837581595,/z_drive,port,,,-0.3,0.3048,0.0,,0.0,0.0,0.0,1.0
1402415921837944120,,errorv,,0,,1402415921,837592570,/z_drive,starboard,,,-0.3,-0.3048,0.0,,0.0,0.0,0.0,1.0
1402415921839131075,,errorv,,0,,1402415921,764307975,/enu,/base_link,,,6.49015274736,17.8770236912,-27.3222630493,,-0.00940485810718,-0.0122463966059,0.955384322077,-0.29496164419
1402415921839316683,,errorv,,0,,1402415921,775307893,/enu,/base_link,,,6.49586263745,17.8734639579,-27.321743052,,-0.00957858569674,-0.0124052429416,0.955808485454,-0.29357196695
1402415921839345789,,errorv,,0,,1402415921,786313056,/enu,/base_link,,,6.49824075422,17.896298189,-27.4061539619,,-0.00878431223831,-0.0106003682296,0.956473708318,-0.291493590578
1402415921839370495,,errorv,,0,,1402415921,796304941,/enu,/base_link,,,6.50307282696,17.8933221573,-27.4051939449,,-0.00890118622898,-0.010737310585,0.956850083849,-0.290247129329
1402415921857697493,,errorv,,0,,1402415921,857552719,base_link,/z_drive,,,0.0,0.0,0.0,,0.0,0.0,0.0,1.0
1402415921857854276,,errorv,,0,,1402415921,857580407,/z_drive,port,,,-0.3,0.3048,0.0,,0.0,0.0,0.0,1.0
1402415921857877466,,errorv,,0,,1402415921,857619205,/z_drive,starboard,,,-0.3,-0.3048,0.0,,0.0,0.0,0.0,1.0
1402415921877716269,,errorv,,0,,1402415921,877515945,base_link,/z_drive,,,0.0,0.0,0.0,,0.0,0.0,0.0,1.0
1402415921877802999,,errorv,,0,,1402415921,877546011,/z_drive,port,,,-0.3,0.3048,0.0,,0.0,0.0,0.0,1.0
1402415921877879499,,errorv,,0,,1402415921,877557256,/z_drive,starboard,,,-0.3,-0.3048,0.0,,0.0,0.0,0.0,1.0
1402415921879288536,,errorv,,0,,1402415921,806318044,/enu,/base_link,,,6.50799735805,17.8905439279,-27.4047378374,,-0.00890703524308,-0.0109548448029,0.957230575515,-0.28898145511
1402415921879324628,,errorv,,0,,1402415921,817308902,/enu,/base_link,,,6.51363177275,17.8876272177,-27.4042281746,,-0.00906018780598,-0.010999465997,0.957650204184,-0.287581312276
1402415921879348028,,errorv,,0,,1402415921,827322006,/enu,/base_link,,,6.51875481448,17.8848746793,-27.4037892855,,-0.00911611878775,-0.0111558235755,0.958037604683,-0.286280268255
1402415921879614299,,errorv,,0,,1402415921,837286949,/enu,/base_link,,,6.43294474685,17.944393884,-27.5754101576,,-0.0159918119188,-0.00237829390758,0.958248125692,-0.285480533974
1402415921897789487,,errorv,,0,,1402415921,897522856,base_link,/z_drive,,,0.0,0.0,0.0,,0.0,0.0,0.0,1.0
1402415921897814412,,errorv,,0,,1402415921,897547842,/z_drive,port,,,-0.3,0.3048,0.0,,0.0,0.0,0.0,1.0
1402415921897834255,,errorv,,0,,1402415921,897558355,/z_drive,starboard,,,-0.3,-0.3048,0.0,,0.0,0.0,0.0,1.0
1402415921902671638,,errorv,,0,,1402415922,2476664,base_link,imu,,,0.13,0.0,-0.1,,1.0,0.0,0.0,0.0
1402415921902717962,,errorv,,0,,1402415922,2476662,/base_link,/gps,,,-0.84,0.0,-0.14,,0.0,0.0,0.0,1.0
1402415921917757790,,errorv,,0,,1402415921,917583088,base_link,/z_drive,,,0.0,0.0,0.0,,0.0,0.0,0.0,1.0
1402415921917789629,,errorv,,0,,1402415921,917618231,/z_drive,port,,,-0.3,0.3048,0.0,,0.0,0.0,0.0,1.0
1402415921917813369,,errorv,,0,,1402415921,917629776,/z_drive,starboard,,,-0.3,-0.3048,0.0,,0.0,0.0,0.0,1.0
1402415921919063904,,errorv,,0,,1402415921,848257064,/enu,/base_link,,,6.43640586688,17.9429344176,-27.5750938931,,-0.0161602420292,-0.00242828611856,0.958663614205,-0.284072217583
1402415921919118377,,errorv,,0,,1402415921,858283996,/enu,/base_link,,,6.43951719841,17.9418224652,-27.5752456822,,-0.0161441962523,-0.00258928681229,0.959038964622,-0.282801918061
1402415921919191594,,errorv,,0,,1402415921,868275880,/enu,/base_link,,,6.44278875905,17.9406964601,-27.5752442161,,-0.0162761658706,-0.00260695270874,0.959420040647,-0.281498624913
1402415921919247825,,errorv,,0,,1402415921,879271030,/enu,/base_link,,,6.44620077172,17.9392105014,-27.5746980674,,-0.0162669160125,-0.00276449810976,0.959830205876,-0.280095913718
1402415921919270388,,errorv,,0,,1402415921,889247894,/enu,/base_link,,,6.4036485987,17.967348523,-27.6359979114,,-0.0200058243269,0.00153165141009,0.959942346346,-0.279478286686
1402415921937753242,,errorv,,0,,1402415921,937505271,base_link,/z_drive,,,0.0,0.0,0.0,,0.0,0.0,0.0,1.0
1402415921937776048,,errorv,,0,,1402415921,937527009,/z_drive,port,,,-0.3,0.3048,0.0,,0.0,0.0,0.0,1.0
1402415921937842008,,errorv,,0,,1402415921,937536647,/z_drive,starboard,,,-0.3,-0.3048,0.0,,0.0,0.0,0.0,1.0
1402415921957695381,,errorv,,0,,1402415921,957469669,base_link,/z_drive,,,0.0,0.0,0.0,,0.0,0.0,0.0,1.0
1402415921957719666,,errorv,,0,,1402415921,957486694,/z_drive,port,,,-0.3,0.3048,0.0,,0.0,0.0,0.0,1.0
1402415921957754774,,errorv,,0,,1402415921,957496683,/z_drive,starboard,,,-0.3,-0.3048,0.0,,0.0,0.0,0.0,1.0
1402415921959074339,,errorv,,0,,1402415921,900259017,/enu,/base_link,,,6.40585874981,17.9667100448,-27.6356919289,,-0.020140954397,0.0015433718128,0.960353684531,-0.278051722827
1402415921959104655,,errorv,,0,,1402415921,910257101,/enu,/base_link,,,6.40804079333,17.9666479393,-27.6361451492,,-0.0201137770115,0.00145570882717,0.960724846584,-0.27676901207
1402415921959131573,,errorv,,0,,1402415921,920244932,/enu,/base_link,,,6.41001806179,17.9662069813,-27.6360384081,,-0.020119951995,0.00136747590939,0.961103831487,-0.275450072868
1402415921967222869,,errorv,,0,,1402415921,931227922,/enu,/base_link,,,6.41219730672,17.9658103297,-27.6360358734,,-0.0200658666198,0.00120850327724,0.961510576242,-0.27403158995
1402415921967500590,,errorv,,0,,1402415921,941246032,/enu,/base_link,,,6.39703654226,17.9492184022,-27.5165798669,,-0.0232495981921,0.00103078955494,0.961362509502,-0.274300052826
1402415921977671946,,errorv,,0,,1402415921,977488962,base_link,/z_drive,,,0.0,0.0,0.0,,0.0,0.0,0.0,1.0
1402415921978799196,,errorv,,0,,1402415921,977511654,/z_drive,port,,,-0.3,0.3048,0.0,,0.0,0.0,0.0,1.0
1402415921978838206,,errorv,,0,,1402415921,977521433,/z_drive,starboard,,,-0.3,-0.3048,0.0,,0.0,0.0,0.0,1.0
1402415921997631590,,errorv,,0,,1402415921,997484680,base_link,/z_drive,,,0.0,0.0,0.0,,0.0,0.0,0.0,1.0
1402415921997787648,,errorv,,0,,1402415921,997504252,/z_drive,port,,,-0.3,0.3048,0.0,,0.0,0.0,0.0,1.0
1402415921997806983,,errorv,,0,,1402415921,997549317,/z_drive,starboard,,,-0.3,-0.3048,0.0,,0.0,0.0,0.0,1.0
1402415922002801090,,errorv,,0,,1402415922,102597599,/base_link,/gps,,,-0.84,0.0,-0.14,,0.0,0.0,0.0,1.0
1402415922002828050,,errorv,,0,,1402415922,102597534,base_link,imu,,,0.13,0.0,-0.1,,1.0,0.0,0.0,0.0
1402415922007067301,,errorv,,0,,1402415921,951247930,/enu,/base_link,,,6.39829984031,17.9488103004,-27.5165307112,,-0.0233554466472,0.0011540788543,0.961738385117,-0.27296972324
1402415922007084589,,errorv,,0,,1402415921,961230039,/enu,/base_link,,,6.39942723479,17.94815445,-27.5160208791,,-0.0233433574094,0.00114784148269,0.962105330481,-0.271674627424
1402415922017695873,,errorv,,0,,1402415922,17506082,base_link,/z_drive,,,0.0,0.0,0.0,,0.0,0.0,0.0,1.0
1402415922017733382,,errorv,,0,,1402415922,17543656,/z_drive,port,,,-0.3,0.3048,0.0,,0.0,0.0,0.0,1.0
1402415922017756614,,errorv,,0,,1402415922,17551051,/z_drive,starboard,,,-0.3,-0.3048,0.0,,0.0,0.0,0.0,1.0
1402415922037690838,,errorv,,0,,1402415922,37492628,base_link,/z_drive,,,0.0,0.0,0.0,,0.0,0.0,0.0,1.0
1402415922037864821,,errorv,,0,,1402415922,37512293,/z_drive,port,,,-0.3,0.3048,0.0,,0.0,0.0,0.0,1.0
1402415922037891455,,errorv,,0,,1402415922,37550143,/z_drive,starboard,,,-0.3,-0.3048,0.0,,0.0,0.0,0.0,1.0
1402415922047332464,,errorv,,0,,1402415921,972232103,/enu,/base_link,,,6.40085118519,17.9478155936,-27.5159527216,,-0.0234071728231,0.00127381204894,0.962524839179,-0.270178488459
1402415922047457173,,errorv,,0,,1402415921,982219934,/enu,/base_link,,,6.4197296354,17.9138149727,-27.4889121942,,-0.0224337946755,-0.00193331326676,0.962861323207,-0.269055866742
1402415922047484556,,errorv,,0,,1402415921,993221044,/enu,/base_link,,,6.42139535704,17.9126648267,-27.4885643166,,-0.022381292861,-0.0019090943902,0.963272681146,-0.267583958501
1402415922047507194,,errorv,,0,,1402415922,3225088,/enu,/base_link,,,6.42286352228,17.9116685082,-27.4883030508,,-0.0224592556634,-0.00173914179942,0.963638430636,-0.266258393711
1402415922057684301,,errorv,,0,,1402415922,57452348,base_link,/z_drive,,,0.0,0.0,0.0,,0.0,0.0,0.0,1.0
1402415922057768045,,errorv,,0,,1402415922,57491310,/z_drive,port,,,-0.3,0.3048,0.0,,0.0,0.0,0.0,1.0
1402415922057782620,,errorv,,0,,1402415922,57500952,/z_drive,starboard,,,-0.3,-0.3048,0.0,,0.0,0.0,0.0,1.0
1402415922077758302,,errorv,,0,,1402415922,77500399,base_link,/z_drive,,,0.0,0.0,0.0,,0.0,0.0,0.0,1.0
1402415922077799170,,errorv,,0,,1402415922,77602332,/z_drive,port,,,-0.3,0.3048,0.0,,0.0,0.0,0.0,1.0
1402415922077922687,,errorv,,0,,1402415922,77618640,/z_drive,starboard,,,-0.3,-0.3048,0.0,,0.0,0.0,0.0,1.0
1402415922087255217,,errorv,,0,,1402415922,13205051,/enu,/base_link,,,6.42429182717,17.9107965943,-27.4882341996,,-0.0224091140063,-0.00167082419014,0.964011355054,-0.26490969647
1402415922087275769,,errorv,,0,,1402415922,23202896,/enu,/base_link,,,6.42554759878,17.9097532209,-27.4876764975,,-0.022499524963,-0.00140923171854,0.964382053623,-0.263550830186
1402415922087359141,,errorv,,0,,1402415922,33205032,/enu,/base_link,,,6.43902315057,17.9033299361,-27.5026988153,,-0.0214837877495,-0.00196776489765,0.964885923657,-0.261781834921
1402415922087377275,,errorv,,0,,1402415922,44193029,/enu,/base_link,,,6.44068040235,17.9023763665,-27.5027617555,,-0.0214761818987,-0.00175963370481,0.965297366682,-0.260262696476
1402415922097718389,,errorv,,0,,1402415922,97549405,base_link,/z_drive,,,0.0,0.0,0.0,,0.0,0.0,0.0,1.0
1402415922097747378,,errorv,,0,,1402415922,97565490,/z_drive,port,,,-0.3,0.3048,0.0,,0.0,0.0,0.0,1.0
1402415922097875623,,errorv,,0,,1402415922,97571969,/z_drive,starboard,,,-0.3,-0.3048,0.0,,0.0,0.0,0.0,1.0
1402415922102900904,,errorv,,0,,1402415922,202713160,base_link,imu,,,0.13,0.0,-0.1,,1.0,0.0,0.0,0.0
1402415922102943375,,errorv,,0,,1402415922,202713180,/base_link,/gps,,,-0.84,0.0,-0.14,,0.0,0.0,0.0,1.0
1402415922117704280,,errorv,,0,,1402415922,117530877,base_link,/z_drive,,,0.0,0.0,0.0,,0.0,0.0,0.0,1.0
1402415922117733944,,errorv,,0,,1402415922,117550309,/z_drive,port,,,-0.3,0.3048,0.0,,0.0,0.0,0.0,1.0
1402415922117802712,,errorv,,0,,1402415922,117560485,/z_drive,starboard,,,-0.3,-0.3048,0.0,,0.0,0.0,0.0,1.0
1402415922127229313,,errorv,,0,,1402415922,54192066,/enu,/base_link,,,6.44214838425,17.9014212556,-27.5024440388,,-0.0215982839272,-0.00139884894869,0.965669739382,-0.258869681104
1402415922127260367,,errorv,,0,,1402415922,64183950,/enu,/base_link,,,6.44351730637,17.9005037008,-27.5021841739,,-0.0216365881164,-0.0011263201295,0.96603540465,-0.257499876543
1402415922127283909,,errorv,,0,,1402415922,75176954,/enu,/base_link,,,6.44491443853,17.8995578817,-27.501971958,,-0.021635468212,-0.00088584453125,0.966445016358,-0.255959278307
1402415922127326457,,errorv,,0,,1402415922,85174083,/enu,/base_link,,,6.45493376395,17.8852891665,-27.475131081,,-0.0217026177708,-0.00169143402371,0.966738525583,-0.254838691305
1402415922137741551,,errorv,,0,,1402415922,137558240,base_link,/z_drive,,,0.0,0.0,0.0,,0.0,0.0,0.0,1.0
1402415922137773428,,errorv,,0,,1402415922,137578500,/z_drive,port,,,-0.3,0.3048,0.0,,0.0,0.0,0.0,1.0
1402415922137844759,,errorv,,0,,1402415922,137590708,/z_drive,starboard,,,-0.3,-0.3048,0.0,,0.0,0.0,0.0,1.0
1402415922157819517,,errorv,,0,,1402415922,157503794,base_link,/z_drive,,,0.0,0.0,0.0,,0.0,0.0,0.0,1.0
1402415922157844673,,errorv,,0,,1402415922,157522373,/z_drive,port,,,-0.3,0.3048,0.0,,0.0,0.0,0.0,1.0
1402415922157911902,,errorv,,0,,1402415922,157531622,/z_drive,starboard,,,-0.3,-0.3048,0.0,,0.0,0.0,0.0,1.0
1402415922167070925,,errorv,,0,,1402415922,95166921,/enu,/base_link,,,6.45626615394,17.8841471937,-27.4747342626,,-0.0217138385563,-0.00137467994362,0.967102981511,-0.2534530383
1402415922167096543,,errorv,,0,,1402415922,105153083,/enu,/base_link,,,6.45746871853,17.8832053244,-27.4744973944,,-0.0218342418385,-0.00090501199388,0.967471283788,-0.252035239366
1402415922167159250,,errorv,,0,,1402415922,116170883,/enu,/base_link,,,6.45891874195,17.882195391,-27.4744623911,,-0.0218328396667,-0.000556389832658,0.967866534185,-0.25051425019
1402415922168118557,,errorv,,0,,1402415922,126133918,/enu,/base_link,,,6.46025101074,17.8812448088,-27.474207427,,-0.021842694838,-0.000167176328883,0.96822491181,-0.249125247386
1402415922168198413,,errorv,,0,,1402415922,136154890,/enu,/base_link,,,6.43198845974,17.8708653462,-27.4361018461,,-0.0259426620527,0.00136544701806,0.967969529923,-0.249720049218
1402415922177727100,,errorv,,0,,1402415922,177518865,base_link,/z_drive,,,0.0,0.0,0.0,,0.0,0.0,0.0,1.0
1402415922177770706,,errorv,,0,,1402415922,177552291,/z_drive,port,,,-0.3,0.3048,0.0,,0.0,0.0,0.0,1.0
1402415922177841000,,errorv,,0,,1402415922,177564166,/z_drive,starboard,,,-0.3,-0.3048,0.0,,0.0,0.0,0.0,1.0
1402415922197719606,,errorv,,0,,1402415922,197507203,base_link,/z_drive,,,0.0,0.0,0.0,,0.0,0.0,0.0,1.0
1402415922197746331,,errorv,,0,,1402415922,197541633,/z_drive,port,,,-0.3,0.3048,0.0,,0.0,0.0,0.0,1.0
1402415922197835590,,errorv,,0,,1402415922,197553943,/z_drive,starboard,,,-0.3,-0.3048,0.0,,0.0,0.0,0.0,1.0
1402415922203013270,,errorv,,0,,1402415922,302817660,/base_link,/gps,,,-0.84,0.0,-0.14,,0.0,0.0,0.0,1.0
1402415922203048977,,errorv,,0,,1402415922,302822828,base_link,imu,,,0.13,0.0,-0.1,,1.0,0.0,0.0,0.0
1402415922207105777,,errorv,,0,,1402415922,147142887,/enu,/base_link,,,6.43243659022,17.8698681594,-27.4358276083,,-0.0259033043689,0.00177435944326,0.968363363635,-0.248189980541
1402415922207130309,,errorv,,0,,1402415922,157146930,/enu,/base_link,,,6.43267587224,17.869174997,-27.4357927471,,-0.0259476848242,0.00225747640918,0.968719574513,-0.246787372868
1402415922207209234,,errorv,,0,,1402415922,167140007,/enu,/base_link,,,6.43288557968,17.8681406646,-27.4352270182,,-0.0259266467714,0.00262949393226,0.969070464674,-0.245404419777
1402415922215333881,,errorv,,0,,1402415922,178148031,/enu,/base_link,,,6.43333671902,17.8673661437,-27.4350073614,,-0.0260161838633,0.00321041556246,0.96946412297,-0.243828147848
1402415922215350030,,errorv,,0,,1402415922,188107967,/enu,/base_link,,,6.42556501929,17.8095577123,-27.3660748115,,-0.0280230377231,-0.000205559885335,0.969186782712,-0.244727700349
1402415922217735139,,errorv,,0,,1402415922,217523654,base_link,/z_drive,,,0.0,0.0,0.0,,0.0,0.0,0.0,1.0
1402415922217754783,,errorv,,0,,1402415922,217541425,/z_drive,port,,,-0.3,0.3048,0.0,,0.0,0.0,0.0,1.0
1402415922217803164,,errorv,,0,,1402415922,217552533,/z_drive,starboard,,,-0.3,-0.3048,0.0,,0.0,0.0,0.0,1.0
1402415922237642653,,errorv,,0,,1402415922,237461093,base_link,/z_drive,,,0.0,0.0,0.0,,0.0,0.0,0.0,1.0
1402415922237671191,,errorv,,0,,1402415922,237492396,/z_drive,port,,,-0.3,0.3048,0.0,,0.0,0.0,0.0,1.0
1402415922237696263,,errorv,,0,,1402415922,237506585,/z_drive,starboard,,,-0.3,-0.3048,0.0,,0.0,0.0,0.0,1.0
1402415922255100143,,errorv,,0,,1402415922,198106050,/enu,/base_link,,,6.42558091454,17.8078607558,-27.3657767085,,-0.0279814081641,0.000248510937214,0.969538193652,-0.243336536693
1402415922255222366,,errorv,,0,,1402415922,208106040,/enu,/base_link,,,6.42538383003,17.8059653809,-27.3649892297,,-0.0280920535776,0.000857705881689,0.969889777987,-0.241917174718
1402415922257679302,,errorv,,0,,1402415922,257482712,base_link,/z_drive,,,0.0,0.0,0.0,,0.0,0.0,0.0,1.0
1402415922257707871,,errorv,,0,,1402415922,257499102,/z_drive,port,,,-0.3,0.3048,0.0,,0.0,0.0,0.0,1.0
1402415922257729295,,errorv,,0,,1402415922,257507570,/z_drive,starboard,,,-0.3,-0.3048,0.0,,0.0,0.0,0.0,1.0
1402415922277761904,,errorv,,0,,1402415922,277549771,base_link,/z_drive,,,0.0,0.0,0.0,,0.0,0.0,0.0,1.0
1402415922277787888,,errorv,,0,,1402415922,277589780,/z_drive,port,,,-0.3,0.3048,0.0,,0.0,0.0,0.0,1.0
1402415922277814181,,errorv,,0,,1402415922,277601562,/z_drive,starboard,,,-0.3,-0.3048,0.0,,0.0,0.0,0.0,1.0
1402415922295190764,,errorv,,0,,1402415922,218096017,/enu,/base_link,,,6.42531112964,17.804301679,-27.3646395949,,-0.0281011286113,0.00130812762762,0.970240865967,-0.240502135915
1402415922295256670,,errorv,,0,,1402415922,228107929,/enu,/base_link,,,6.42494070935,17.8024715031,-27.3638742626,,-0.0280286749271,0.00182100386786,0.970594915598,-0.239074438494
1402415922295509669,,errorv,,0,,1402415922,239113092,/enu,/base_link,,,6.42477165836,17.8005851639,-27.3633494107,,-0.0279673953047,0.0023252841863,0.970976609706,-0.237522296338
1402415922295539160,,errorv,,0,,1402415922,249078989,/enu,/base_link,,,6.42440843332,17.7988432517,-27.3627563122,,-0.0279328054156,0.00289319267722,0.971320627223,-0.236109353793
1402415922297826813,,errorv,,0,,1402415922,297644233,base_link,/z_drive,,,0.0,0.0,0.0,,0.0,0.0,0.0,1.0
1402415922297853871,,errorv,,0,,1402415922,297660694,/z_drive,port,,,-0.3,0.3048,0.0,,0.0,0.0,0.0,1.0
1402415922297947636,,errorv,,0,,1402415922,297691424,/z_drive,starboard,,,-0.3,-0.3048,0.0,,0.0,0.0,0.0,1.0
1402415922303124504,,errorv,,0,,1402415922,402920437,/base_link,/gps,,,-0.84,0.0,-0.14,,0.0,0.0,0.0,1.0
1402415922303147772,,errorv,,0,,1402415922,402921339,base_link,imu,,,0.13,0.0,-0.1,,1.0,0.0,0.0,0.0
1402415922318793088,,errorv,,0,,1402415922,317515753,base_link,/z_drive,,,0.0,0.0,0.0,,0.0,0.0,0.0,1.0
1402415922318819669,,errorv,,0,,1402415922,317532445,/z_drive,port,,,-0.3,0.3048,0.0,,0.0,0.0,0.0,1.0
1402415922318838543,,errorv,,0,,1402415922,317536686,/z_drive,starboard,,,-0.3,-0.3048,0.0,,0.0,0.0,0.0,1.0
1402415922335200486,,errorv,,0,,1402415922,259077072,/enu,/base_link,,,6.42409171208,17.7973547726,-27.3625028667,,-0.0280015588172,0.00349220010783,0.971657009444,-0.234704864119
1402415922337827710,,errorv,,0,,1402415922,269098043,/enu,/base_link,,,6.44354896399,17.7820021814,-27.3707076526,,-0.0259698130003,0.00219358075779,0.972212317414,-0.23264558213
1402415922337854835,,errorv,,0,,1402415922,279076099,/enu,/base_link,,,6.44372019098,17.7802368563,-27.3703599523,,-0.025940194966,0.00281638248862,0.972548458565,-0.231232934542
1402415922337880011,,errorv,,0,,1402415922,290064096,/enu,/base_link,,,6.4435486726,17.7779566349,-27.3693777559,,-0.0259888721406,0.00346578350837,0.972918031964,-0.22965859433
1402415922337897626,,errorv,,0,,1402415922,337561666,base_link,/z_drive,,,0.0,0.0,0.0,,0.0,0.0,0.0,1.0
1402415922337923122,,errorv,,0,,1402415922,337581797,/z_drive,port,,,-0.3,0.3048,0.0,,0.0,0.0,0.0,1.0
1402415922338174529,,errorv,,0,,1402415922,337590365,/z_drive,starboard,,,-0.3,-0.3048,0.0,,0.0,0.0,0.0,1.0
1402415922357676977,,errorv,,0,,1402415922,357477649,base_link,/z_drive,,,0.0,0.0,0.0,,0.0,0.0,0.0,1.0
1402415922357706379,,errorv,,0,,1402415922,357492577,/z_drive,port,,,-0.3,0.3048,0.0,,0.0,0.0,0.0,1.0
1402415922357730292,,errorv,,0,,1402415922,357496913,/z_drive,starboard,,,-0.3,-0.3048,0.0,,0.0,0.0,0.0,1.0
1402415922375195026,,errorv,,0,,1402415922,300061941,/enu,/base_link,,,6.4435626121,17.7762209858,-27.3690006195,,-0.0258639909274,0.0039289759422,0.973256250044,-0.228227712759
1402415922375218288,,errorv,,0,,1402415922,310050010,/enu,/base_link,,,6.45516858551,17.753975511,-27.3688058216,,-0.0245927308187,0.00253259181035,0.97363962746,-0.226748008613
1402415922375238548,,errorv,,0,,1402415922,320060014,/enu,/base_link,,,6.4554679757,17.7517286482,-27.3681754242,,-0.0244718362084,0.00303161894183,0.973969064661,-0.225335748611
1402415922375261179,,errorv,,0,,1402415922,330053091,/enu,/base_link,,,6.45571465683,17.7497776966,-27.3680493781,,-0.0244728231384,0.00366598504325,0.97429761038,-0.223901335165
1402415922377894764,,errorv,,0,,1402415922,377609995,base_link,/z_drive,,,0.0,0.0,0.0,,0.0,0.0,0.0,1.0
1402415922377932337,,errorv,,0,,1402415922,377628651,/z_drive,port,,,-0.3,0.3048,0.0,,0.0,0.0,0.0,1.0
1402415922377956624,,errorv,,0,,1402415922,377636633,/z_drive,starboard,,,-0.3,-0.3048,0.0,,0.0,0.0,0.0,1.0
1402415922397658378,,errorv,,0,,1402415922,397473150,base_link,/z_drive,,,0.0,0.0,0.0,,0.0,0.0,0.0,1.0
1402415922397687224,,errorv,,0,,1402415922,397491351,/z_drive,port,,,-0.3,0.3048,0.0,,0.0,0.0,0.0,1.0
1402415922397707282,,errorv,,0,,1402415922,397499592,/z_drive,starboard,,,-0.3,-0.3048,0.0,,0.0,0.0,0.0,1.0
1402415922403245873,,errorv,,0,,1402415922,503028088,base_link,imu,,,0.13,0.0,-0.1,,1.0,0.0,0.0,0.0
1402415922403274666,,errorv,,0,,1402415922,503025214,/base_link,/gps,,,-0.84,0.0,-0.14,,0.0,0.0,0.0,1.0
1402415922415209554,,errorv,,0,,1402415922,341036081,/enu,/base_link,,,6.45579369381,17.7473053794,-27.3671961255,,-0.0243888097236,0.0042771869988,0.974657303167,-0.222328659904
1402415922415276833,,errorv,,0,,1402415922,351025104,/enu,/base_link,,,6.44199942069,17.7292828285,-27.4019122662,,-0.0251333597671,0.00428219187158,0.974808939823,-0.221579574648
1402415922415338426,,errorv,,0,,1402415922,361032962,/enu,/base_link,,,6.44178758758,17.7271179883,-27.4016578363,,-0.025082845352,0.00485873587311,0.975140098542,-0.220111407632
1402415922415363782,,errorv,,0,,1402415922,371037960,/enu,/base_link,,,6.44167348454,17.7248650676,-27.4011842446,,-0.0249279240455,0.00533012813103,0.975466370118,-0.218667668176
1402415922417781077,,errorv,,0,,1402415922,417487296,base_link,/z_drive,,,0.0,0.0,0.0,,0.0,0.0,0.0,1.0
1402415922417891521,,errorv,,0,,1402415922,417504287,/z_drive,port,,,-0.3,0.3048,0.0,,0.0,0.0,0.0,1.0
1402415922417913834,,errorv,,0,,1402415922,417513580,/z_drive,starboard,,,-0.3,-0.3048,0.0,,0.0,0.0,0.0,1.0
1402415922437755924,,errorv,,0,,1402415922,437492430,base_link,/z_drive,,,0.0,0.0,0.0,,0.0,0.0,0.0,1.0
1402415922437795592,,errorv,,0,,1402415922,437515236,/z_drive,port,,,-0.3,0.3048,0.0,,0.0,0.0,0.0,1.0
1402415922437828295,,errorv,,0,,1402415922,437525367,/z_drive,starboard,,,-0.3,-0.3048,0.0,,0.0,0.0,0.0,1.0
1402415922455209962,,errorv,,0,,1402415922,381032943,/enu,/base_link,,,6.44152112111,17.7225217644,-27.4006399213,,-0.0247438979181,0.00584091419366,0.975785122536,-0.217248746545
1402415922455276073,,errorv,,0,,1402415922,391005992,/enu,/base_link,,,6.44972207667,17.7230576528,-27.4073413706,,-0.0236745352065,0.00633868632652,0.976256495157,-0.215226841035
1402415922455304298,,errorv,,0,,1402415922,402005910,/enu,/base_link,,,6.44991190018,17.7206285708,-27.4068217902,,-0.0234599543938,0.00681287436347,0.976600930918,-0.213667585312
1402415922455453421,,errorv,,0,,1402415922,412034988,/enu,/base_link,,,6.44966905815,17.7183193162,-27.4060931595,,-0.0234036868081,0.00732701039991,0.97691431155,-0.212219250425
1402415922457672299,,errorv,,0,,1402415922,457502407,base_link,/z_drive,,,0.0,0.0,0.0,,0.0,0.0,0.0,1.0
1402415922457699433,,errorv,,0,,1402415922,457518693,/z_drive,port,,,-0.3,0.3048,0.0,,0.0,0.0,0.0,1.0
1402415922457773331,,errorv,,0,,1402415922,457528355,/z_drive,starboard,,,-0.3,-0.3048,0.0,,0.0,0.0,0.0,1.0
1402415922477759681,,errorv,,0,,1402415922,477507878,base_link,/z_drive,,,0.0,0.0,0.0,,0.0,0.0,0.0,1.0
1402415922477786171,,errorv,,0,,1402415922,477525899,/z_drive,port,,,-0.3,0.3048,0.0,,0.0,0.0,0.0,1.0
1402415922477807399,,errorv,,0,,1402415922,477535730,/z_drive,starboard,,,-0.3,-0.3048,0.0,,0.0,0.0,0.0,1.0
1402415922495217858,,errorv,,0,,1402415922,422041893,/enu,/base_link,,,6.44962108889,17.716221647,-27.4057781606,,-0.0231692270082,0.00773371365387,0.977224228762,-0.210798916773
1402415922495267652,,errorv,,0,,1402415922,432001113,/enu,/base_link,,,6.46022449768,17.717967668,-27.4295220197,,-0.0216263157356,0.008201146667,0.977745347037,-0.208516378275
1402415922495335099,,errorv,,0,,1402415922,442003965,/enu,/base_link,,,6.46028174789,17.7159359874,-27.4291430792,,-0.0215245083547,0.00861874852356,0.97805439955,-0.207055558328
1402415922495348625,,errorv,,0,,1402415922,452008962,/enu,/base_link,,,6.46041304442,17.7140583602,-27.4290339195,,-0.0212953569416,0.00903164007147,0.978358309946,-0.205620900226
1402415922497790049,,errorv,,0,,1402415922,497510291,base_link,/z_drive,,,0.0,0.0,0.0,,0.0,0.0,0.0,1.0
1402415922497820316,,errorv,,0,,1402415922,497528219,/z_drive,port,,,-0.3,0.3048,0.0,,0.0,0.0,0.0,1.0
1402415922497843825,,errorv,,0,,1402415922,497538088,/z_drive,starboard,,,-0.3,-0.3048,0.0,,0.0,0.0,0.0,1.0
1402415922503322825,,errorv,,0,,1402415922,603140342,/base_link,/gps,,,-0.84,0.0,-0.14,,0.0,0.0,0.0,1.0
1402415922503359533,,errorv,,0,,1402415922,603140340,base_link,imu,,,0.13,0.0,-0.1,,1.0,0.0,0.0,0.0
1402415922517691359,,errorv,,0,,1402415922,517503479,base_link,/z_drive,,,0.0,0.0,0.0,,0.0,0.0,0.0,1.0
1402415922517721107,,errorv,,0,,1402415922,517518189,/z_drive,port,,,-0.3,0.3048,0.0,,0.0,0.0,0.0,1.0
1402415922517772092,,errorv,,0,,1402415922,517522311,/z_drive,starboard,,,-0.3,-0.3048,0.0,,0.0,0.0,0.0,1.0
1402415922535318152,,errorv,,0,,1402415922,462001085,/enu,/base_link,,,6.46069852003,17.7121398746,-27.4288161601,,-0.0211685797401,0.00951294241274,0.978660859521,-0.204167375454
1402415922535411187,,errorv,,0,,1402415922,471972942,/enu,/base_link,,,6.46080777265,17.7101566708,-27.4285069031,,-0.0210136727509,0.00987663388044,0.978960830349,-0.202722890426
1402415922535484317,,errorv,,0,,1402415922,482970952,/enu,/base_link,,,6.47173583629,17.7026948879,-27.4710935852,,-0.0191028790973,0.009366385162,0.97946758768,-0.200475922553
1402415922535518807,,errorv,,0,,1402415922,492996931,/enu,/base_link,,,6.47222292452,17.700547545,-27.4707422456,,-0.018902732109,0.00962753700452,0.979758285581,-0.199057024709
1402415922537722152,,errorv,,0,,1402415922,537493360,base_link,/z_drive,,,0.0,0.0,0.0,,0.0,0.0,0.0,1.0
1402415922537742615,,errorv,,0,,1402415922,537513228,/z_drive,port,,,-0.3,0.3048,0.0,,0.0,0.0,0.0,1.0
1402415922537800484,,errorv,,0,,1402415922,537522903,/z_drive,starboard,,,-0.3,-0.3048,0.0,,0.0,0.0,0.0,1.0
1402415922557649475,,errorv,,0,,1402415922,557462045,base_link,/z_drive,,,0.0,0.0,0.0,,0.0,0.0,0.0,1.0
1402415922557712076,,errorv,,0,,1402415922,557477998,/z_drive,port,,,-0.3,0.3048,0.0,,0.0,0.0,0.0,1.0
1402415922557735594,,errorv,,0,,1402415922,557487324,/z_drive,starboard,,,-0.3,-0.3048,0.0,,0.0,0.0,0.0,1.0
1402415922575193013,,errorv,,0,,1402415922,503000974,/enu,/base_link,,,6.47254453913,17.6985339589,-27.4706249184,,-0.018665815081,0.00991126087033,0.980060824469,-0.197570581305
1402415922575221471,,errorv,,0,,1402415922,512973070,/enu,/base_link,,,6.47288549108,17.6964562001,-27.4704094963,,-0.0185994855662,0.0103133665639,0.980352993148,-0.196101255563
1402415922575283798,,errorv,,0,,1402415922,522972106,/enu,/base_link,,,6.473186073,17.694378962,-27.4701103734,,-0.0183802151001,0.0105101297814,0.980648819183,-0.19462681804
1402415922575312213,,errorv,,0,,1402415922,532973051,/enu,/base_link,,,6.48411144365,17.6828001653,-27.4620427312,,-0.0172746440137,0.00973557780277,0.980978653102,-0.193100200305
1402415922577878894,,errorv,,0,,1402415922,577664450,base_link,/z_drive,,,0.0,0.0,0.0,,0.0,0.0,0.0,1.0
1402415922577905665,,errorv,,0,,1402415922,577682221,/z_drive,port,,,-0.3,0.3048,0.0,,0.0,0.0,0.0,1.0
1402415922577929355,,errorv,,0,,1402415922,577689526,/z_drive,starboard,,,-0.3,-0.3048,0.0,,0.0,0.0,0.0,1.0
1402415922597723624,,errorv,,0,,1402415922,597492048,base_link,/z_drive,,,0.0,0.0,0.0,,0.0,0.0,0.0,1.0
1402415922597800578,,errorv,,0,,1402415922,597511776,/z_drive,port,,,-0.3,0.3048,0.0,,0.0,0.0,0.0,1.0
1402415922597823281,,errorv,,0,,1402415922,597522361,/z_drive,starboard,,,-0.3,-0.3048,0.0,,0.0,0.0,0.0,1.0
1402415922603455415,,errorv,,0,,1402415922,703253602,/base_link,/gps,,,-0.84,0.0,-0.14,,0.0,0.0,0.0,1.0
1402415922603486046,,errorv,,0,,1402415922,703253605,base_link,imu,,,0.13,0.0,-0.1,,1.0,0.0,0.0,0.0
1402415922615173742,,errorv,,0,,1402415922,542972087,/enu,/base_link,,,6.48453812349,17.6804739442,-27.461622281,,-0.0171948416911,0.0100619563418,0.981264322335,-0.19163356743
1402415922615234784,,errorv,,0,,1402415922,552968978,/enu,/base_link,,,6.48484993984,17.6784627855,-27.4618016416,,-0.0169468600561,0.0102018408222,0.981550123472,-0.190179077426
1402415922615287919,,errorv,,0,,1402415922,562935113,/enu,/base_link,,,6.48554659785,17.6761673039,-27.4614192542,,-0.0168275368984,0.0105403771791,0.981832363449,-0.188708623374
1402415922615311389,,errorv,,0,,1402415922,572937011,/enu,/base_link,,,6.48579150747,17.6739516603,-27.461218827,,-0.0167101816009,0.0107429826521,0.9821083094,-0.187266192256
1402415922617715469,,errorv,,0,,1402415922,617530304,base_link,/z_drive,,,0.0,0.0,0.0,,0.0,0.0,0.0,1.0
1402415922617738229,,errorv,,0,,1402415922,617544823,/z_drive,port,,,-0.3,0.3048,0.0,,0.0,0.0,0.0,1.0
1402415922617751019,,errorv,,0,,1402415922,617549020,/z_drive,starboard,,,-0.3,-0.3048,0.0,,0.0,0.0,0.0,1.0
1402415922637701615,,errorv,,0,,1402415922,637503615,base_link,/z_drive,,,0.0,0.0,0.0,,0.0,0.0,0.0,1.0
1402415922637747404,,errorv,,0,,1402415922,637525989,/z_drive,port,,,-0.3,0.3048,0.0,,0.0,0.0,0.0,1.0
1402415922637813358,,errorv,,0,,1402415922,637536329,/z_drive,starboard,,,-0.3,-0.3048,0.0,,0.0,0.0,0.0,1.0
1402415922655116651,,errorv,,0,,1402415922,582937955,/enu,/base_link,,,6.49703677489,17.6643546782,-27.4556541917,,-0.0157581509353,0.00995766696037,0.982421451055,-0.185743419952
1402415922655190345,,errorv,,0,,1402415922,593938112,/enu,/base_link,,,6.49769236956,17.6620244871,-27.4558942729,,-0.0156134604393,0.010163510129,0.982728674434,-0.184112127139
1402415922655217964,,errorv,,0,,1402415922,603936910,/enu,/base_link,,,6.4981178875,17.6595906473,-27.455712691,,-0.0154264277376,0.0102331911642,0.983003934335,-0.182648767331
1402415922657768298,,errorv,,0,,1402415922,613925933,/enu,/base_link,,,6.49879154046,17.6572968621,-27.4555417541,,-0.0153856309989,0.0103669246565,0.983274962326,-0.181179904225
1402415922657797703,,errorv,,0,,1402415922,623929023,/enu,/base_link,,,6.4991788914,17.6549584117,-27.4555324226,,-0.0152465340661,0.0103838698943,0.983543385872,-0.179727923684
1402415922657817596,,errorv,,0,,1402415922,657458631,base_link,/z_drive,,,0.0,0.0,0.0,,0.0,0.0,0.0,1.0
1402415922657851677,,errorv,,0,,1402415922,657506873,/z_drive,port,,,-0.3,0.3048,0.0,,0.0,0.0,0.0,1.0
1402415922657882097,,errorv,,0,,1402415922,657516180,/z_drive,starboard,,,-0.3,-0.3048,0.0,,0.0,0.0,0.0,1.0
1402415922677768368,,errorv,,0,,1402415922,677477633,base_link,/z_drive,,,0.0,0.0,0.0,,0.0,0.0,0.0,1.0
1402415922677791340,,errorv,,0,,1402415922,677498597,/z_drive,port,,,-0.3,0.3048,0.0,,0.0,0.0,0.0,1.0
1402415922677846780,,errorv,,0,,1402415922,677506323,/z_drive,starboard,,,-0.3,-0.3048,0.0,,0.0,0.0,0.0,1.0
1402415922695155745,,errorv,,0,,1402415922,633934974,/enu,/base_link,,,6.49785194002,17.6392340592,-27.4645787611,,-0.0154293053623,0.0094938610702,0.983717425231,-0.178806684538
1402415922695214397,,errorv,,0,,1402415922,643912076,/enu,/base_link,,,6.49814796533,17.6367339178,-27.4646096684,,-0.0154220373531,0.00960102766954,0.98398554766,-0.177320114559
1402415922695237617,,errorv,,0,,1402415922,653913021,/enu,/base_link,,,6.4986485317,17.634298247,-27.4647052885,,-0.0153119154755,0.00965107149431,0.984247905801,-0.17586489698
1402415922697706794,,errorv,,0,,1402415922,697526457,base_link,/z_drive,,,0.0,0.0,0.0,,0.0,0.0,0.0,1.0
1402415922698797861,,errorv,,0,,1402415922,697543770,/z_drive,port,,,-0.3,0.3048,0.0,,0.0,0.0,0.0,1.0
1402415922698825424,,errorv,,0,,1402415922,697548191,/z_drive,starboard,,,-0.3,-0.3048,0.0,,0.0,0.0,0.0,1.0
1402415922703279320,,errorv,,0,,1402415922,663916110,/enu,/base_link,,,6.49877990257,17.631857974,-27.4648976991,,-0.0152733341942,0.00978553457193,0.984512291855,-0.17437464197
1402415922703308762,,errorv,,0,,1402415922,674901008,/enu,/base_link,,,6.4993457489,17.6292844337,-27.465224322,,-0.0151946179276,0.00975468472143,0.984795604032,-0.172776121012
1402415922703534683,,errorv,,0,,1402415922,803354778,base_link,imu,,,0.13,0.0,-0.1,,1.0,0.0,0.0,0.0
1402415922703580220,,errorv,,0,,1402415922,803353947,/base_link,/gps,,,-0.84,0.0,-0.14,,0.0,0.0,0.0,1.0
1402415922717710133,,errorv,,0,,1402415922,717473868,base_link,/z_drive,,,0.0,0.0,0.0,,0.0,0.0,0.0,1.0
1402415922717723520,,errorv,,0,,1402415922,717493334,/z_drive,port,,,-0.3,0.3048,0.0,,0.0,0.0,0.0,1.0
1402415922717747565,,errorv,,0,,1402415922,717502703,/z_drive,starboard,,,-0.3,-0.3048,0.0,,0.0,0.0,0.0,1.0
1402415922737796716,,errorv,,0,,1402415922,737479288,base_link,/z_drive,,,0.0,0.0,0.0,,0.0,0.0,0.0,1.0
1402415922737822553,,errorv,,0,,1402415922,737499438,/z_drive,port,,,-0.3,0.3048,0.0,,0.0,0.0,0.0,1.0
1402415922737886230,,errorv,,0,,1402415922,737509081,/z_drive,starboard,,,-0.3,-0.3048,0.0,,0.0,0.0,0.0,1.0
1402415922743037584,,errorv,,0,,1402415922,684906959,/enu,/base_link,,,6.51301520993,17.620534407,-27.4667518714,,-0.0144355528806,0.00894741543917,0.985088154887,-0.171210062994
1402415922743198462,,errorv,,0,,1402415922,695126056,/enu,/base_link,,,6.513328159,17.6178166959,-27.4667615297,,-0.0144571073102,0.00894466332116,0.985347042294,-0.169712083508
1402415922757892800,,errorv,,0,,1402415922,757476512,base_link,/z_drive,,,0.0,0.0,0.0,,0.0,0.0,0.0,1.0
1402415922757921962,,errorv,,0,,1402415922,757497628,/z_drive,port,,,-0.3,0.3048,0.0,,0.0,0.0,0.0,1.0
1402415922757959492,,errorv,,0,,1402415922,757514392,/z_drive,starboard,,,-0.3,-0.3048,0.0,,0.0,0.0,0.0,1.0
1402415922777828021,,errorv,,0,,1402415922,777551132,base_link,/z_drive,,,0.0,0.0,0.0,,0.0,0.0,0.0,1.0
1402415922778087379,,errorv,,0,,1402415922,777567153,/z_drive,port,,,-0.3,0.3048,0.0,,0.0,0.0,0.0,1.0
1402415922778114448,,errorv,,0,,1402415922,777573928,/z_drive,starboard,,,-0.3,-0.3048,0.0,,0.0,0.0,0.0,1.0
1402415922783085948,,errorv,,0,,1402415922,704905986,/enu,/base_link,,,6.51380584913,17.6152933839,-27.4669013231,,-0.0143930365329,0.00884874720966,0.985594276091,-0.168280905358
1402415922783112075,,errorv,,0,,1402415922,714901924,/enu,/base_link,,,6.51419576643,17.6125283482,-27.4667912382,,-0.0145150351326,0.00883101179688,0.985845162533,-0.166795211252
1402415922783137809,,errorv,,0,,1402415922,725886106,/enu,/base_link,,,6.51465441482,17.6098740579,-27.4672500637,,-0.0145584090096,0.00872830991178,0.986113360668,-0.165203841495
1402415922783158618,,errorv,,0,,1402415922,735903024,/enu,/base_link,,,6.53321237458,17.5882655293,-27.4593042147,,-0.0132761729675,0.00656837649993,0.986386134729,-0.163777266052
1402415922797791044,,errorv,,0,,1402415922,797529896,base_link,/z_drive,,,0.0,0.0,0.0,,0.0,0.0,0.0,1.0
1402415922797818734,,errorv,,0,,1402415922,797569264,/z_drive,port,,,-0.3,0.3048,0.0,,0.0,0.0,0.0,1.0
1402415922797842718,,errorv,,0,,1402415922,797580812,/z_drive,starboard,,,-0.3,-0.3048,0.0,,0.0,0.0,0.0,1.0
1402415922803638443,,errorv,,0,,1402415922,903460848,/base_link,/gps,,,-0.84,0.0,-0.14,,0.0,0.0,0.0,1.0
1402415922803693130,,errorv,,0,,1402415922,903459542,base_link,imu,,,0.13,0.0,-0.1,,1.0,0.0,0.0,0.0
1402415922817704759,,errorv,,0,,1402415922,817512867,base_link,/z_drive,,,0.0,0.0,0.0,,0.0,0.0,0.0,1.0
1402415922817732890,,errorv,,0,,1402415922,817539811,/z_drive,port,,,-0.3,0.3048,0.0,,0.0,0.0,0.0,1.0
1402415922817752079,,errorv,,0,,1402415922,817550918,/z_drive,starboard,,,-0.3,-0.3048,0.0,,0.0,0.0,0.0,1.0
1402415922823181223,,errorv,,0,,1402415922,745893955,/enu,/base_link,,,6.53398939657,17.585195453,-27.4592767579,,-0.0134281932617,0.00655014175316,0.986628438142,-0.162299427967
1402415922823207361,,errorv,,0,,1402415922,755898952,/enu,/base_link,,,6.53442804279,17.5822082075,-27.4593330874,,-0.013507541917,0.00643375117738,0.986867210436,-0.160839243108
1402415922823233890,,errorv,,0,,1402415922,766885042,/enu,/base_link,,,6.53496178489,17.5789429868,-27.4594883133,,-0.0137248556973,0.00636817376655,0.987126896315,-0.159221748734
1402415922823301522,,errorv,,0,,1402415922,776885032,/enu,/base_link,,,6.53565487339,17.5760628578,-27.4597089131,,-0.0137795525018,0.0061650312399,0.987361577944,-0.157763210926
1402415922837729909,,errorv,,0,,1402415922,837519403,base_link,/z_drive,,,0.0,0.0,0.0,,0.0,0.0,0.0,1.0
1402415922837804332,,errorv,,0,,1402415922,837583210,/z_drive,port,,,-0.3,0.3048,0.0,,0.0,0.0,0.0,1.0
1402415922837829572,,errorv,,0,,1402415922,837591708,/z_drive,starboard,,,-0.3,-0.3048,0.0,,0.0,0.0,0.0,1.0
1402415922857711940,,errorv,,0,,1402415922,857493820,base_link,/z_drive,,,0.0,0.0,0.0,,0.0,0.0,0.0,1.0
1402415922857742819,,errorv,,0,,1402415922,857525581,/z_drive,port,,,-0.3,0.3048,0.0,,0.0,0.0,0.0,1.0
1402415922857882107,,errorv,,0,,1402415922,857536482,/z_drive,starboard,,,-0.3,-0.3048,0.0,,0.0,0.0,0.0,1.0
1402415922863098597,,errorv,,0,,1402415922,786880970,/enu,/base_link,,,6.53557665817,17.5766963604,-27.4664678143,,-0.0141969138566,0.00645726258672,0.987589055851,-0.156283742472
1402415922863163724,,errorv,,0,,1402415922,796883106,/enu,/base_link,,,6.53596126704,17.5737924188,-27.4665602593,,-0.0144094758611,0.00632603575952,0.987821721244,-0.154792103532
1402415922863267347,,errorv,,0,,1402415922,807883024,/enu,/base_link,,,6.53643605769,17.5706994013,-27.4668805407,,-0.0144824689767,0.00607072898302,0.98807454911,-0.153173397638
1402415922863292956,,errorv,,0,,1402415922,817877054,/enu,/base_link,,,6.5367624188,17.5679199524,-27.4670645533,,-0.0146692118432,0.00598505729,0.988302864796,-0.151678741917
1402415922877615625,,errorv,,0,,1402415922,877482087,base_link,/z_drive,,,0.0,0.0,0.0,,0.0,0.0,0.0,1.0
1402415922877940461,,errorv,,0,,1402415922,877498241,/z_drive,port,,,-0.3,0.3048,0.0,,0.0,0.0,0.0,1.0
1402415922877964882,,errorv,,0,,1402415922,877541758,/z_drive,starboard,,,-0.3,-0.3048,0.0,,0.0,0.0,0.0,1.0
1402415922897826181,,errorv,,0,,1402415922,897641524,base_link,/z_drive,,,0.0,0.0,0.0,,0.0,0.0,0.0,1.0
1402415922897848138,,errorv,,0,,1402415922,897657186,/z_drive,port,,,-0.3,0.3048,0.0,,0.0,0.0,0.0,1.0
1402415922897924110,,errorv,,0,,1402415922,897661469,/z_drive,starboard,,,-0.3,-0.3048,0.0,,0.0,0.0,0.0,1.0
1402415922903192124,,errorv,,0,,1402415922,827855110,/enu,/base_link,,,6.53719012028,17.565013908,-27.4671255538,,-0.0147430031686,0.00571629803085,0.9885349362,-0.150162071461
1402415922903222418,,errorv,,0,,1402415922,837887048,/enu,/base_link,,,6.54247752501,17.5488193908,-27.4442253588,,-0.0149715926876,0.00459983094064,0.988715120906,-0.1489869211
1402415922903246921,,errorv,,0,,1402415922,847855091,/enu,/base_link,,,6.54271450056,17.5458818527,-27.4444947784,,-0.0151275705981,0.00435752907704,0.988945023529,-0.147444596324
1402415922903268942,,errorv,,0,,1402415922,857903003,/enu,/base_link,,,6.54295784141,17.5427257259,-27.4444742271,,-0.0152677557247,0.00411351550344,0.989170120522,-0.145919317749
1402415922903757467,,errorv,,0,,1402415923,3557970,base_link,imu,,,0.13,0.0,-0.1,,1.0,0.0,0.0,0.0
1402415922903839116,,errorv,,0,,1402415923,3559605,/base_link,/gps,,,-0.84,0.0,-0.14,,0.0,0.0,0.0,1.0
1402415922917722744,,errorv,,0,,1402415922,917538445,base_link,/z_drive,,,0.0,0.0,0.0,,0.0,0.0,0.0,1.0
1402415922917750566,,errorv,,0,,1402415922,917574507,/z_drive,port,,,-0.3,0.3048,0.0,,0.0,0.0,0.0,1.0
1402415922917767365,,errorv,,0,,1402415922,917579785,/z_drive,starboard,,,-0.3,-0.3048,0.0,,0.0,0.0,0.0,1.0
1402415922937764000,,errorv,,0,,1402415922,937620551,base_link,/z_drive,,,0.0,0.0,0.0,,0.0,0.0,0.0,1.0
1402415922937794900,,errorv,,0,,1402415922,937637459,/z_drive,port,,,-0.3,0.3048,0.0,,0.0,0.0,0.0,1.0
1402415922937859908,,errorv,,0,,1402415922,937646313,/z_drive,starboard,,,-0.3,-0.3048,0.0,,0.0,0.0,0.0,1.0
1402415922943225255,,errorv,,0,,1402415922,868827104,/enu,/base_link,,,6.54332632988,17.5396007896,-27.4447311191,,-0.0155671416373,0.0040128581594,0.989411580769,-0.144243838384
1402415922943290509,,errorv,,0,,1402415922,878844022,/enu,/base_link,,,6.54371276687,17.5364637998,-27.44457949,,-0.0157194152312,0.00368830775854,0.989634534293,-0.14269823021
1402415922943361138,,errorv,,0,,1402415922,888828992,/enu,/base_link,,,6.55992918602,17.5332513862,-27.430040688,,-0.0149453751674,0.00305185796121,0.989913885647,-0.140846799492
1402415922943385359,,errorv,,0,,1402415922,898844957,/enu,/base_link,,,6.56030688645,17.530219929,-27.4299815565,,-0.0152001825432,0.00292908601723,0.990136079441,-0.139251280407
1402415922957693732,,errorv,,0,,1402415922,957490365,base_link,/z_drive,,,0.0,0.0,0.0,,0.0,0.0,0.0,1.0
1402415922957715173,,errorv,,0,,1402415922,957513747,/z_drive,port,,,-0.3,0.3048,0.0,,0.0,0.0,0.0,1.0
1402415922957785211,,errorv,,0,,1402415922,957518703,/z_drive,starboard,,,-0.3,-0.3048,0.0,,0.0,0.0,0.0,1.0
1402415922977874657,,errorv,,0,,1402415922,977608539,base_link,/z_drive,,,0.0,0.0,0.0,,0.0,0.0,0.0,1.0
1402415922977908245,,errorv,,0,,1402415922,977623469,/z_drive,port,,,-0.3,0.3048,0.0,,0.0,0.0,0.0,1.0
1402415922977928997,,errorv,,0,,1402415922,977628108,/z_drive,starboard,,,-0.3,-0.3048,0.0,,0.0,0.0,0.0,1.0
1402415922983191524,,errorv,,0,,1402415922,909832000,/enu,/base_link,,,6.56082206095,17.5269072131,-27.4300011881,,-0.0154154367606,0.00276361912151,0.99037950391,-0.137488781195
1402415922983225980,,errorv,,0,,1402415922,919809103,/enu,/base_link,,,6.56108655974,17.5239820265,-27.4300144088,,-0.0156554406571,0.00262722464442,0.990595412948,-0.135899715653
1402415922983249196,,errorv,,0,,1402415922,929830074,/enu,/base_link,,,6.56138532932,17.5209866735,-27.4300292234,,-0.0157444658907,0.00229831974543,0.990812023116,-0.134306978109
1402415922983288421,,errorv,,0,,1402415922,939804077,/enu,/base_link,,,6.62321450086,17.4633849247,-27.3706308656,,-0.0116344280785,-0.00350614109633,0.991071432425,-0.13277711734
1402415922997749215,,errorv,,0,,1402415922,997494390,base_link,/z_drive,,,0.0,0.0,0.0,,0.0,0.0,0.0,1.0
1402415922997824817,,errorv,,0,,1402415922,997513071,/z_drive,port,,,-0.3,0.3048,0.0,,0.0,0.0,0.0,1.0
1402415922997850312,,errorv,,0,,1402415922,997521028,/z_drive,starboard,,,-0.3,-0.3048,0.0,,0.0,0.0,0.0,1.0
1402415923003851306,,errorv,,0,,1402415923,103658459,base_link,imu,,,0.13,0.0,-0.1,,1.0,0.0,0.0,0.0
1402415923003878028,,errorv,,0,,1402415923,103668166,/base_link,/gps,,,-0.84,0.0,-0.14,,0.0,0.0,0.0,1.0
1402415923017726616,,errorv,,0,,1402415923,17454177,base_link,/z_drive,,,0.0,0.0,0.0,,0.0,0.0,0.0,1.0
1402415923017794636,,errorv,,0,,1402415923,17468707,/z_drive,port,,,-0.3,0.3048,0.0,,0.0,0.0,0.0,1.0
1402415923017861075,,errorv,,0,,1402415923,17472827,/z_drive,starboard,,,-0.3,-0.3048,0.0,,0.0,0.0,0.0,1.0
1402415923023048353,,errorv,,0,,1402415922,950800895,/enu,/base_link,,,6.62464100853,17.4590630655,-27.3706621149,,-0.0118627386101,-0.00373453039422,0.991303926351,-0.131003260709
1402415923023168743,,errorv,,0,,1402415922,960810899,/enu,/base_link,,,6.62607496165,17.4548951183,-27.3702646603,,-0.0119129976689,-0.00405719796263,0.991515476989,-0.12937804498
1402415923023192732,,errorv,,0,,1402415922,970804929,/enu,/base_link,,,6.62748155119,17.4510273176,-27.3703506392,,-0.0120973616755,-0.00419946800454,0.991724371665,-0.127745015383
1402415923023267815,,errorv,,0,,1402415922,980801105,/enu,/base_link,,,6.64390917487,17.3930063395,-27.3398607273,,-0.0115993105383,-0.00874876305203,0.991776718442,-0.127152883951
1402415923037761775,,errorv,,0,,1402415923,37490479,base_link,/z_drive,,,0.0,0.0,0.0,,0.0,0.0,0.0,1.0
1402415923037803643,,errorv,,0,,1402415923,37513180,/z_drive,port,,,-0.3,0.3048,0.0,,0.0,0.0,0.0,1.0
1402415923037827901,,errorv,,0,,1402415923,37521053,/z_drive,starboard,,,-0.3,-0.3048,0.0,,0.0,0.0,0.0,1.0
1402415923057714899,,errorv,,0,,1402415923,57570272,base_link,/z_drive,,,0.0,0.0,0.0,,0.0,0.0,0.0,1.0
1402415923057750100,,errorv,,0,,1402415923,57582449,/z_drive,port,,,-0.3,0.3048,0.0,,0.0,0.0,0.0,1.0
1402415923057788031,,errorv,,0,,1402415923,57586791,/z_drive,starboard,,,-0.3,-0.3048,0.0,,0.0,0.0,0.0,1.0
1402415923063167500,,errorv,,0,,1402415922,991806983,/enu,/base_link,,,6.64559462733,17.3874806886,-27.3394496804,,-0.011841471742,-0.0088471459155,0.992009918963,-0.125290974277
1402415923063192647,,errorv,,0,,1402415923,1776933,/enu,/base_link,,,6.64710284064,17.3825898236,-27.3393646078,,-0.0119152132401,-0.00914502188705,0.992212953708,-0.123644048633
1402415923063251047,,errorv,,0,,1402415923,11786937,/enu,/base_link,,,6.64873127459,17.3775410713,-27.3389046951,,-0.0119727119932,-0.00943322259323,0.992414809671,-0.121985712377
1402415923063293289,,errorv,,0,,1402415923,22825002,/enu,/base_link,,,6.65047566933,17.3720728219,-27.3386655017,,-0.0122137808606,-0.00954855778745,0.992638748799,-0.120116455923
1402415923063317564,,errorv,,0,,1402415923,32769918,/enu,/base_link,,,6.64491294999,17.4152678392,-27.4053573757,,-0.0128987447059,-0.00594579893265,0.992968746385,-0.117521651463
1402415923077898337,,errorv,,0,,1402415923,77617752,base_link,/z_drive,,,0.0,0.0,0.0,,0.0,0.0,0.0,1.0
1402415923078064354,,errorv,,0,,1402415923,77647559,/z_drive,port,,,-0.3,0.3048,0.0,,0.0,0.0,0.0,1.0
1402415923078105995,,errorv,,0,,1402415923,77655773,/z_drive,starboard,,,-0.3,-0.3048,0.0,,0.0,0.0,0.0,1.0
1402415923097682525,,errorv,,0,,1402415923,97452833,base_link,/z_drive,,,0.0,0.0,0.0,,0.0,0.0,0.0,1.0
1402415923097711080,,errorv,,0,,1402415923,97497089,/z_drive,port,,,-0.3,0.3048,0.0,,0.0,0.0,0.0,1.0
1402415923097818814,,errorv,,0,,1402415923,97506857,/z_drive,starboard,,,-0.3,-0.3048,0.0,,0.0,0.0,0.0,1.0
1402415923103210694,,errorv,,0,,1402415923,42779922,/enu,/base_link,,,6.6462002277,17.4111052903,-27.4049779363,,-0.0129356136541,-0.00622768396135,0.99316743518,-0.115811620959
1402415923103238081,,errorv,,0,,1402415923,53761959,/enu,/base_link,,,6.64781118495,17.4066992778,-27.4048848702,,-0.0131172738205,-0.0063569350603,0.993385594515,-0.113897265613
1402415923103262466,,errorv,,0,,1402415923,63751935,/enu,/base_link,,,6.64908821911,17.402565995,-27.4046372518,,-0.0131666879592,-0.00657749051374,0.993580646662,-0.112164493158
1402415923104003449,,errorv,,0,,1402415923,203763245,base_link,imu,,,0.13,0.0,-0.1,,1.0,0.0,0.0,0.0
1402415923104031952,,errorv,,0,,1402415923,203767876,/base_link,/gps,,,-0.84,0.0,-0.14,,0.0,0.0,0.0,1.0
1402415923111227099,,errorv,,0,,1402415923,73749065,/enu,/base_link,,,6.65025533112,17.3984305447,-27.4043566653,,-0.0132920989631,-0.00678449207558,0.9937710586,-0.110437194192
1402415923111366432,,errorv,,0,,1402415923,84750890,/enu,/base_link,,,6.65879018324,17.3841684911,-27.3794458795,,-0.0131613444251,-0.00788993263541,0.99395749987,-0.108687701367
1402415923117853448,,errorv,,0,,1402415923,117702631,base_link,/z_drive,,,0.0,0.0,0.0,,0.0,0.0,0.0,1.0
1402415923117988689,,errorv,,0,,1402415923,117722311,/z_drive,port,,,-0.3,0.3048,0.0,,0.0,0.0,0.0,1.0
1402415923118020539,,errorv,,0,,1402415923,117729839,/z_drive,starboard,,,-0.3,-0.3048,0.0,,0.0,0.0,0.0,1.0
1402415923137745740,,errorv,,0,,1402415923,137458349,base_link,/z_drive,,,0.0,0.0,0.0,,0.0,0.0,0.0,1.0
1402415923137762446,,errorv,,0,,1402415923,137480715,/z_drive,port,,,-0.3,0.3048,0.0,,0.0,0.0,0.0,1.0
1402415923137804925,,errorv,,0,,1402415923,137489301,/z_drive,starboard,,,-0.3,-0.3048,0.0,,0.0,0.0,0.0,1.0
1402415923151148800,,errorv,,0,,1402415923,94755887,/enu,/base_link,,,6.66018213058,17.3801303528,-27.3795244193,,-0.0131901213081,-0.00806579383283,0.994145336367,-0.106939299833
1402415923151176290,,errorv,,0,,1402415923,104748010,/enu,/base_link,,,6.66162247883,17.3756135105,-27.37858222,,-0.0132475233753,-0.00827026137615,0.994334755025,-0.105140386395
1402415923157822457,,errorv,,0,,1402415923,157596249,base_link,/z_drive,,,0.0,0.0,0.0,,0.0,0.0,0.0,1.0
1402415923157892387,,errorv,,0,,1402415923,157614423,/z_drive,port,,,-0.3,0.3048,0.0,,0.0,0.0,0.0,1.0
1402415923157932358,,errorv,,0,,1402415923,157622579,/z_drive,starboard,,,-0.3,-0.3048,0.0,,0.0,0.0,0.0,1.0
1402415923177767631,,errorv,,0,,1402415923,177522008,base_link,/z_drive,,,0.0,0.0,0.0,,0.0,0.0,0.0,1.0
1402415923177970205,,errorv,,0,,1402415923,177541731,/z_drive,port,,,-0.3,0.3048,0.0,,0.0,0.0,0.0,1.0
1402415923177995696,,errorv,,0,,1402415923,177682197,/z_drive,starboard,,,-0.3,-0.3048,0.0,,0.0,0.0,0.0,1.0
1402415923191144453,,errorv,,0,,1402415923,115748882,/enu,/base_link,,,6.66300248034,17.3709754136,-27.3783061078,,-0.0131545044667,-0.00863530199453,0.994537081628,-0.103191006576
1402415923191169746,,errorv,,0,,1402415923,125749111,/enu,/base_link,,,6.66429521509,17.3666376742,-27.3777714034,,-0.013184715119,-0.00879528667843,0.994718058347,-0.101413956726
1402415923191316335,,errorv,,0,,1402415923,135720968,/enu,/base_link,,,6.66152623407,17.363332588,-27.3639920385,,-0.0138736677706,-0.0087388903109,0.994882387713,-0.0997004902535
1402415923191342170,,errorv,,0,,1402415923,146723031,/enu,/base_link,,,6.6627150403,17.3587985357,-27.3636891804,,-0.0138626230507,-0.0088644661564,0.995081707583,-0.0976813398536
1402415923197717818,,errorv,,0,,1402415923,197581486,base_link,/z_drive,,,0.0,0.0,0.0,,0.0,0.0,0.0,1.0
1402415923197842185,,errorv,,0,,1402415923,197601895,/z_drive,port,,,-0.3,0.3048,0.0,,0.0,0.0,0.0,1.0
1402415923197869887,,errorv,,0,,1402415923,197730696,/z_drive,starboard,,,-0.3,-0.3048,0.0,,0.0,0.0,0.0,1.0
1402415923204067119,,errorv,,0,,1402415923,303868440,base_link,imu,,,0.13,0.0,-0.1,,1.0,0.0,0.0,0.0
1402415923204166829,,errorv,,0,,1402415923,303880440,/base_link,/gps,,,-0.84,0.0,-0.14,,0.0,0.0,0.0,1.0
1402415923217637503,,errorv,,0,,1402415923,217450622,base_link,/z_drive,,,0.0,0.0,0.0,,0.0,0.0,0.0,1.0
