rosbagTimestamp,control_method,x_current,x_desired,y_current,y_desired,z_current,z_desired,x_velocity_current,x_velocity_desired,y_velocity_current,y_velocity_desired,z_velocity_current,z_velocity_desired,yaw_current,yaw_desired,yaw_velocity_current,yaw_velocity_desired,roll_current,roll_desired,roll_velocity_current,roll_velocity_desired,pitch_current,pitch_desired,pitch_velocity_current,pitch_velocity_desired,required_force_x,required_force_y,required_moment_z,resultant_force_x,resultant_force_y,resultant_moment_z,current_port_servo_angle,current_port_thruster_force,current_starboard_servo_angle,current_starboard_thruster_force,estimated_port_servo_angle,estimated_port_thruster_force,estimated_starboard_servo_angle,estimated_starboard_thruster_force,cost_value,step,user_defined_1,user_defined_2,user_defined_3,user_defined_4,user_defined_5
1402759743091774417,3,-15.8705789323,-7.1377884924,1.77859426992,2.38304939926,37.5154654535,-3.84635974695,-0.0264412187452,0.0,-0.00690175281274,0.0,0.0367736266636,0.0,-3.02518366541,0.0,0.0046438981053,0.0,-0.000137151179852,0.0,-0.0199969119576,0.0,0.0714032725324,0.0,-0.000547596940238,0.0,-0.0,-0.0,0.592139422894,-1.5,-40.7031939779,36.6278421206,1.04412874381,0.0,-1.05026641687,0.0,1.0471975512,-25.0,-1.0471975512,22.0,1483318.43446,0.0,0.0,0.0,0.0,0.0,0.0
1402759743111399842,3,-15.8717684318,-7.1377884924,1.77839523817,2.38304939926,37.5168963483,-3.84635974695,-0.0269127930315,0.0,-0.00630123617319,0.0,0.0389578824142,0.0,-3.02490079179,0.0,0.0103117486138,0.0,0.00068301833225,0.0,-0.0212012908463,0.0,0.0712504507313,0.0,-0.00135273026027,0.0,-0.0,-0.0,0.592139422894,-1.5,-40.7031939779,36.6278421206,1.04412874381,0.0,-1.05026641687,0.0,1.0471975512,-25.0,-1.0471975512,22.0,1483318.43446,0.0,0.0,0.0,0.0,0.0,0.0
1402759743131285925,3,-15.8717684318,-7.1377884924,1.77839523817,2.38304939926,37.5168963483,-3.84635974695,-0.0269127930315,0.0,-0.00630123617319,0.0,0.0389578824142,0.0,-3.02490079179,0.0,0.0103117486138,0.0,0.00068301833225,0.0,-0.0212012908463,0.0,0.0712504507313,0.0,-0.00135273026027,0.0,-0.0,-0.0,0.592139422894,-1.5,-40.7031939779,36.6278421206,1.04412874381,0.0,-1.05026641687,0.0,1.0471975512,-25.0,-1.0471975512,22.0,1483318.43446,0.0,0.0,0.0,0.0,0.0,0.0
1402759743151677237,3,-15.8674336978,-7.1377884924,1.77460675917,2.38304939926,37.5005557204,-3.84635974695,-0.0299531069994,0.0,-0.0156465664509,0.0,0.0386421554279,0.0,-3.02464140627,0.0,0.00534497664452,0.0,0.000549319042959,0.0,-0.024252025478,0.0,0.0715874691782,0.0,0.00105918852457,0.0,-0.0,-0.0,0.592139422894,-1.5,-40.7031939779,36.6278421206,1.04412874381,0.0,-1.05026641687,0.0,1.0471975512,-25.0,-1.0471975512,22.0,1483318.43446,0.0,0.0,0.0,0.0,0.0,0.0
1402759743171246202,3,-15.8674336978,-7.1377884924,1.77460675917,2.38304939926,37.5005557204,-3.84635974695,-0.0299531069994,0.0,-0.0156465664509,0.0,0.0386421554279,0.0,-3.02464140627,0.0,0.00534497664452,0.0,0.000549319042959,0.0,-0.024252025478,0.0,0.0715874691782,0.0,0.00105918852457,0.0,-0.0,-0.0,0.592139422894,-1.5,-40.7031939779,36.6278421206,1.04412874381,0.0,-1.05026641687,0.0,1.0471975512,-25.0,-1.0471975512,22.0,1483318.43446,0.0,0.0,0.0,0.0,0.0,0.0
1402759743191248253,3,-15.8575425338,-7.1377884924,1.77366426533,2.38304939926,37.4814425073,-3.84635974695,-0.0229157803971,0.0,-0.0178295912352,0.0,0.0374333219969,0.0,-3.02451060816,0.0,-0.00014368793871,0.0,0.00118078368266,0.0,-0.0272032285286,0.0,0.070881935932,0.0,0.00393217774621,0.0,-0.0,-0.0,0.592139422894,-1.5,-40.7031939779,36.6278421206,1.04412874381,0.0,-1.05026641687,0.0,1.0471975512,-25.0,-1.0471975512,22.0,1483318.43446,0.0,0.0,0.0,0.0,0.0,0.0
1402759743211150943,3,-15.8575425338,-7.1377884924,1.77366426533,2.38304939926,37.4814425073,-3.84635974695,-0.0229157803971,0.0,-0.0178295912352,0.0,0.0374333219969,0.0,-3.02451060816,0.0,-0.00014368793871,0.0,0.00118078368266,0.0,-0.0272032285286,0.0,0.070881935932,0.0,0.00393217774621,0.0,-0.0,-0.0,0.592139422894,-1.5,-40.7031939779,36.6278421206,1.04412874381,0.0,-1.05026641687,0.0,1.0471975512,-25.0,-1.0471975512,22.0,1483318.43446,0.0,0.0,0.0,0.0,0.0,0.0
1402759743231265890,3,-15.8622563585,-7.1377884924,1.77452760475,2.38304939926,37.4769391728,-3.84635974695,-0.0385302880215,0.0,-0.0084225903262,0.0,0.0438259737069,0.0,-3.02403328027,0.0,0.00680064992722,0.0,0.00365073236748,0.0,-0.0189292262378,0.0,0.0720646065803,0.0,-0.00152619639551,0.0,-0.0,-0.0,0.592139422894,-1.5,-40.7031939779,36.6278421206,1.04412874381,0.0,-1.05026641687,0.0,1.0471975512,-25.0,-1.0471975512,22.0,1483318.43446,0.0,0.0,0.0,0.0,0.0,0.0
1402759743251039976,3,-15.8622563585,-7.1377884924,1.77452760475,2.38304939926,37.4769391728,-3.84635974695,-0.0385302880215,0.0,-0.0084225903262,0.0,0.0438259737069,0.0,-3.02403328027,0.0,0.00680064992722,0.0,0.00365073236748,0.0,-0.0189292262378,0.0,0.0720646065803,0.0,-0.00152619639551,0.0,-0.0,-0.0,0.592139422894,-1.5,-40.7031939779,36.6278421206,1.04412874381,-25.0,-1.05026641687,22.0,1.0471975512,-25.0,-1.0471975512,22.0,1483318.43446,0.0,0.0,0.0,0.0,0.0,0.0
1402759743271082796,3,-15.8483366846,-7.1377884924,1.77274895944,2.38304939926,37.4618572009,-3.84635974695,-0.0193291921954,0.0,-0.0159510852435,0.0,0.0447987441509,0.0,-3.02397625497,0.0,0.00129569099631,0.0,0.0028683269114,0.0,-0.00955552010154,0.0,0.070217971795,0.0,-0.000999860561408,0.0,-0.0,-0.0,0.592139422894,-1.5,-40.7031939779,36.6278421206,1.04412874381,-25.0,-1.05026641687,22.0,1.0471975512,-25.0,-1.0471975512,22.0,1483318.43446,0.0,0.0,0.0,0.0,0.0,0.0
1402759743290978656,3,-15.8483366846,-7.1377884924,1.77274895944,2.38304939926,37.4618572009,-3.84635974695,-0.0193291921954,0.0,-0.0159510852435,0.0,0.0447987441509,0.0,-3.02397625497,0.0,0.00129569099631,0.0,0.0028683269114,0.0,-0.00955552010154,0.0,0.070217971795,0.0,-0.000999860561408,0.0,-0.0,-0.0,0.592139422894,-1.5,-40.7031939779,36.6278421206,1.04412874381,-25.0,-1.05026641687,22.0,1.0471975512,-25.0,-1.0471975512,22.0,1483318.43446,0.0,0.0,0.0,0.0,0.0,0.0
1402759743311835460,3,-15.8492358174,-7.1377884924,1.77206531888,2.38304939926,37.463752033,-3.84635974695,-0.0194997138757,0.0,-0.0164292526037,0.0,0.0476577779918,0.0,-3.02366865465,0.0,0.00778808735777,0.0,0.00327036387267,0.0,-0.00390513743057,0.0,0.0701366273931,0.0,0.000132265171905,0.0,-0.0,-0.0,0.592139422894,-1.5,-40.7031939779,36.6278421206,1.04412874381,-25.0,-1.05026641687,22.0,1.0471975512,-25.0,-1.0471975512,22.0,1483318.43446,0.0,0.0,0.0,0.0,0.0,0.0
1402759743331146573,3,-15.8492358174,-7.1377884924,1.77206531888,2.38304939926,37.463752033,-3.84635974695,-0.0194997138757,0.0,-0.0164292526037,0.0,0.0476577779918,0.0,-3.02366865465,0.0,0.00778808735777,0.0,0.00327036387267,0.0,-0.00390513743057,0.0,0.0701366273931,0.0,0.000132265171905,0.0,-0.0,-0.0,0.592139422894,-1.5,-40.7031939779,36.6278421206,1.04412874381,-25.0,-1.05026641687,22.0,1.0471975512,-25.0,-1.0471975512,22.0,1483318.43446,0.0,0.0,0.0,0.0,0.0,0.0
1402759743351226323,3,-15.8503917012,-7.1377884924,1.76775178919,2.38304939926,37.454505144,-3.84635974695,-0.0280806537371,0.0,-0.0235772969544,0.0,0.0505647414745,0.0,-3.02354611035,0.0,0.00835893095722,0.0,0.00258760385993,0.0,0.00913058839166,0.0,0.0708928891004,0.0,-0.00300003072879,0.0,-0.0,-0.0,0.592139422894,-1.5,-40.7031939779,36.6278421206,1.04412874381,-25.0,-1.05026641687,22.0,1.0471975512,-25.0,-1.0471975512,22.0,1483318.43446,0.0,0.0,0.0,0.0,0.0,0.0
1402759743370937735,3,-15.8503917012,-7.1377884924,1.76775178919,2.38304939926,37.454505144,-3.84635974695,-0.0280806537371,0.0,-0.0235772969544,0.0,0.0505647414745,0.0,-3.02354611035,0.0,0.00835893095722,0.0,0.00258760385993,0.0,0.00913058839166,0.0,0.0708928891004,0.0,-0.00300003072879,0.0,-0.0,-0.0,0.592139422894,-1.5,-40.7031939779,36.6278421206,1.04412874381,-25.0,-1.04873195489,22.0,1.0471975512,-25.0,-1.0471975512,22.0,1483318.43446,0.0,0.0,0.0,0.0,0.0,0.0
1402759743391567143,3,-15.8436709384,-7.1377884924,1.76952124325,2.38304939926,37.4394082747,-3.84635974695,-0.0251357260581,0.0,-0.0164293278217,0.0,0.0495725277673,0.0,-3.02343140334,0.0,0.000981100730947,0.0,0.0033715169746,0.0,0.0141658729693,0.0,0.0706025421862,0.0,0.000359141037133,0.0,-0.0,-0.0,0.592139422894,-1.5,-40.7031939779,36.6278421206,1.04412874381,-25.0,-1.04719749291,22.0,1.0471975512,-25.0,-1.0471975512,22.0,1483318.43446,0.0,0.0,0.0,0.0,0.0,0.0
1402759743410965879,3,-15.8436709384,-7.1377884924,1.76952124325,2.38304939926,37.4394082747,-3.84635974695,-0.0251357260581,0.0,-0.0164293278217,0.0,0.0495725277673,0.0,-3.02343140334,0.0,0.000981100730947,0.0,0.0033715169746,0.0,0.0141658729693,0.0,0.0706025421862,0.0,0.000359141037133,0.0,-0.0,-0.0,0.592139422894,-1.5,-40.7031939779,36.6278421206,1.04412874381,-25.0,-1.04566326936,22.0,1.0471975512,-25.0,-1.0471975512,22.0,1483318.43446,0.0,0.0,0.0,0.0,0.0,0.0
1402759743431022812,3,-15.838983324,-7.1377884924,1.76420969156,2.38304939926,37.4334885354,-3.84635974695,-0.0174166608685,0.0,-0.0259746788636,0.0,0.0513959524245,0.0,-3.0234619315,0.0,0.00232073638013,0.0,0.00133082881894,0.0,0.0194555799472,0.0,0.0700086227019,0.0,-0.00179265653578,0.0,-0.0,-0.0,0.592139422894,-1.5,-40.7031939779,36.6278421206,1.04412874381,-25.0,-1.04259458383,22.0,1.0471975512,-25.0,-1.0471975512,22.0,1483318.43446,0.0,0.0,0.0,0.0,0.0,0.0
1402759743451430233,3,-15.838983324,-7.1377884924,1.76420969156,2.38304939926,37.4334885354,-3.84635974695,-0.0174166608685,0.0,-0.0259746788636,0.0,0.0513959524245,0.0,-3.0234619315,0.0,0.00232073638013,0.0,0.00133082881894,0.0,0.0194555799472,0.0,0.0700086227019,0.0,-0.00179265653578,0.0,-0.0,-0.0,0.592139422894,-1.5,-40.7031939779,36.6278421206,1.04412874381,-25.0,-1.04106012185,22.0,1.0471975512,-25.0,-1.0471975512,22.0,1483318.43446,0.0,0.0,0.0,0.0,0.0,0.0
1402759743471054025,3,-15.8351100313,-7.1377884924,1.76268509991,2.38304939926,37.4134910661,-3.84635974695,-0.0223639710917,0.0,-0.0244323848067,0.0,0.0449378444795,0.0,-3.02344878492,0.0,0.00576744936057,0.0,0.00103395126184,0.0,0.0130003736794,0.0,0.0708840151165,0.0,-0.000219336347062,0.0,-0.0,-0.0,0.592139422894,-1.5,-40.7031939779,36.6278421206,1.04259428183,-25.0,-1.04106012185,22.0,1.0471975512,-25.0,-1.0471975512,22.0,1483318.43446,0.0,0.0,0.0,0.0,0.0,0.0
1402759743491035476,3,-15.8351100313,-7.1377884924,1.76268509991,2.38304939926,37.4134910661,-3.84635974695,-0.0223639710917,0.0,-0.0244323848067,0.0,0.0449378444795,0.0,-3.02344878492,0.0,0.00576744936057,0.0,0.00103395126184,0.0,0.0130003736794,0.0,0.0708840151165,0.0,-0.000219336347062,0.0,-0.0,-0.0,0.592139422894,-1.5,-40.7031939779,36.6278421206,1.04412874381,-25.0,-1.04259458383,22.0,1.0471975512,-25.0,-1.0471975512,22.0,1483318.43446,0.0,0.0,0.0,0.0,0.0,0.0
1402759743511695456,3,-15.8359707333,-7.1377884924,1.76167152044,2.38304939926,37.4152162103,-3.84635974695,-0.0224066214604,0.0,-0.0253041715461,0.0,0.0451269487396,0.0,-3.02361426933,0.0,-0.00525612478778,0.0,0.000524073751906,0.0,0.00381168431433,0.0,0.0712079493085,0.0,-0.0101049635579,0.0,-0.0,-0.0,0.592139422894,-1.5,-40.7031939779,36.6278421206,1.04412874381,-25.0,-1.04412880738,22.0,1.0471975512,-25.0,-1.0471975512,22.0,1483318.43446,0.0,0.0,0.0,0.0,0.0,0.0
1402759743531030236,3,-15.8359707333,-7.1377884924,1.76167152044,2.38304939926,37.4152162103,-3.84635974695,-0.0224066214604,0.0,-0.0253041715461,0.0,0.0451269487396,0.0,-3.02361426933,0.0,-0.00525612478778,0.0,0.000524073751906,0.0,0.00381168431433,0.0,0.0712079493085,0.0,-0.0101049635579,0.0,-0.0,-0.0,0.592139422894,-1.5,-40.7031939779,36.6278421206,1.04412874381,-25.0,-1.04412880738,22.0,1.0471975512,-25.0,-1.0471975512,22.0,1483318.43446,0.0,0.0,0.0,0.0,0.0,0.0
1402759743551024545,3,-15.833252508,-7.1377884924,1.7635303258,2.38304939926,37.4114659413,-3.84635974695,-0.0219393376526,0.0,-0.0133032691319,0.0,0.046229948278,0.0,-3.02388616063,0.0,-0.00677448355022,0.0,0.00170537188604,0.0,0.00681656567054,0.0,0.0715409364897,0.0,-0.00631211530178,0.0,-0.0,-0.0,0.592139422894,-1.5,-40.7031939779,36.6278421206,1.04412874381,-25.0,-1.04259458383,22.0,1.0471975512,-25.0,-1.0471975512,22.0,1483318.43446,0.0,0.0,0.0,0.0,0.0,0.0
1402759743571571424,3,-15.833252508,-7.1377884924,1.7635303258,2.38304939926,37.4114659413,-3.84635974695,-0.0219393376526,0.0,-0.0133032691319,0.0,0.046229948278,0.0,-3.02388616063,0.0,-0.00677448355022,0.0,0.00170537188604,0.0,0.00681656567054,0.0,0.0715409364897,0.0,-0.00631211530178,0.0,-0.0,-0.0,0.592139422894,-1.5,-40.7031939779,36.6278421206,1.04412874381,-25.0,-1.04412880738,22.0,1.0471975512,-25.0,-1.0471975512,22.0,1483318.43446,0.0,0.0,0.0,0.0,0.0,0.0
1402759743591299478,3,-15.8254813732,-7.1377884924,1.7546050288,2.38304939926,37.3959170227,-3.84635974695,-0.0169871786056,0.0,-0.0342769515018,0.0,0.0393563546396,0.0,-3.02494212419,0.0,-0.0149617824637,0.0,-0.00130829342205,0.0,-0.00645946094447,0.0,0.0717312901976,0.0,-0.00884379298451,0.0,-0.0,-0.0,0.592139422894,-1.5,-40.7031939779,36.6278421206,1.04412874381,-25.0,-1.04412880738,22.0,1.0471975512,-25.0,-1.0471975512,22.0,1483318.43446,0.0,0.0,0.0,0.0,0.0,0.0
1402759743611061642,3,-15.8254813732,-7.1377884924,1.7546050288,2.38304939926,37.3959170227,-3.84635974695,-0.0169871786056,0.0,-0.0342769515018,0.0,0.0393563546396,0.0,-3.02494212419,0.0,-0.0149617824637,0.0,-0.00130829342205,0.0,-0.00645946094447,0.0,0.0717312901976,0.0,-0.00884379298451,0.0,-0.0,-0.0,0.592139422894,-1.5,-40.7031939779,36.6278421206,1.04412874381,-25.0,-1.04412880738,22.0,1.0471975512,-25.0,-1.0471975512,22.0,1483318.43446,0.0,0.0,0.0,0.0,0.0,0.0
1402759743631557855,3,-15.8255524444,-7.1377884924,1.75433735244,2.38304939926,37.3962351177,-3.84635974695,-0.0163201661636,0.0,-0.0346258731503,0.0,0.0394805640047,0.0,-3.02504830945,0.0,-0.0112246477428,0.0,-0.00132209347248,0.0,0.00198419300483,0.0,0.0717853969447,0.0,-0.00518952544774,0.0,-0.0,-0.0,0.592139422894,-1.5,-40.7031939779,36.6278421206,1.04412874381,-25.0,-1.04412880738,22.0,1.0471975512,-25.0,-1.0471975512,22.0,1483318.43446,0.0,0.0,0.0,0.0,0.0,0.0
1402759743651242127,3,-15.8255524444,-7.1377884924,1.75433735244,2.38304939926,37.3962351177,-3.84635974695,-0.0163201661636,0.0,-0.0346258731503,0.0,0.0394805640047,0.0,-3.02504830945,0.0,-0.0112246477428,0.0,-0.00132209347248,0.0,0.00198419300483,0.0,0.0717853969447,0.0,-0.00518952544774,0.0,-0.0,-0.0,0.592139422894,-1.5,-40.7031939779,36.6278421206,1.04412874381,-25.0,-1.04412880738,22.0,1.0471975512,-25.0,-1.0471975512,22.0,1483318.43446,0.0,0.0,0.0,0.0,0.0,0.0
1402759743671127596,3,-15.8128039207,-7.1377884924,1.75703749103,2.38304939926,37.379427122,-3.84635974695,-0.00734557993388,0.0,-0.0245530202196,0.0,0.036515573727,0.0,-3.02522251002,0.0,-0.0094344831464,0.0,-0.000313025993109,0.0,0.00242411121436,0.0,0.0711340069623,0.0,-0.00726310332352,0.0,-0.0,-0.0,0.592139422894,-1.5,-40.7031939779,36.6278421206,1.04412874381,-25.0,-1.04412880738,22.0,1.0471975512,-25.0,-1.0471975512,22.0,1483318.43446,0.0,0.0,0.0,0.0,0.0,0.0
1402759743691743887,3,-15.8128039207,-7.1377884924,1.75703749103,2.38304939926,37.379427122,-3.84635974695,-0.00734557993388,0.0,-0.0245530202196,0.0,0.036515573727,0.0,-3.02522251002,0.0,-0.0094344831464,0.0,-0.000313025993109,0.0,0.00242411121436,0.0,0.0711340069623,0.0,-0.00726310332352,0.0,-0.0,-0.0,0.592139422894,-1.5,-40.7031939779,36.6278421206,1.04412874381,-25.0,-1.04412880738,22.0,1.0471975512,-25.0,-1.0471975512,22.0,1483318.43446,0.0,0.0,0.0,0.0,0.0,0.0
1402759743711163224,3,-15.8145213863,-7.1377884924,1.75214293328,2.38304939926,37.375559072,-3.84635974695,-0.0168606697017,0.0,-0.028904403731,0.0,0.0383983587466,0.0,-3.02583711251,0.0,-0.0100184587285,0.0,-0.000513198720068,0.0,-0.0140237023458,0.0,0.0721311349103,0.0,-0.00250356250139,0.0,-0.0,-0.0,0.592139422894,-1.5,-40.7031939779,36.6278421206,1.04412874381,-25.0,-1.04412880738,22.0,1.0471975512,-25.0,-1.0471975512,22.0,1483318.43446,0.0,0.0,0.0,0.0,0.0,0.0
1402759743731126623,3,-15.8145213863,-7.1377884924,1.75214293328,2.38304939926,37.375559072,-3.84635974695,-0.0168606697017,0.0,-0.028904403731,0.0,0.0383983587466,0.0,-3.02583711251,0.0,-0.0100184587285,0.0,-0.000513198720068,0.0,-0.0140237023458,0.0,0.0721311349103,0.0,-0.00250356250139,0.0,-0.0,-0.0,0.592139422894,-1.5,-40.7031939779,36.6278421206,1.04412874381,-25.0,-1.04412880738,22.0,1.0471975512,-25.0,-1.0471975512,22.0,1483318.43446,0.0,0.0,0.0,0.0,0.0,0.0
1402759743751876799,3,-15.8056560674,-7.1377884924,1.7534875379,2.38304939926,37.3579147306,-3.84635974695,-0.0153036269837,0.0,-0.0236780643143,0.0,0.0350465338718,0.0,-3.02639076297,0.0,-0.015496413191,0.0,0.000740676556199,0.0,-0.0122464696359,0.0,0.0721587652363,0.0,0.00292012499372,0.0,-0.0,-0.0,0.592139422894,-1.5,-40.7031939779,36.6278421206,1.04412874381,-25.0,-1.04259458383,22.0,1.0471975512,-25.0,-1.0471975512,22.0,1483318.43446,0.0,0.0,0.0,0.0,0.0,0.0
1402759743771887782,3,-15.8056560674,-7.1377884924,1.7534875379,2.38304939926,37.3579147306,-3.84635974695,-0.0153036269837,0.0,-0.0236780643143,0.0,0.0350465338718,0.0,-3.02639076297,0.0,-0.015496413191,0.0,0.000740676556199,0.0,-0.0122464696359,0.0,0.0721587652363,0.0,0.00292012499372,0.0,-0.0,-0.0,0.592139422894,-1.5,-40.7031939779,36.6278421206,1.04412874381,-25.0,-1.04412880738,22.0,1.0471975512,-25.0,-1.0471975512,22.0,1483318.43446,0.0,0.0,0.0,0.0,0.0,0.0
1402759743791271159,3,-15.7912487075,-7.1377884924,1.7550676529,2.38304939926,37.3336081558,-3.84635974695,-0.00764505415997,0.0,-0.0214339559078,0.0,0.0309566659066,0.0,-3.02711355427,0.0,-0.0232802425127,0.0,0.00129654879366,0.0,-0.0111824502621,0.0,0.0714939632241,0.0,0.00236563807248,0.0,-0.0,-0.0,0.592139422894,-1.5,-40.7031939779,36.6278421206,1.04412874381,-25.0,-1.04412880738,22.0,1.0471975512,-25.0,-1.0471975512,22.0,1483318.43446,0.0,0.0,0.0,0.0,0.0,0.0
1402759743811792610,3,-15.7912487075,-7.1377884924,1.7550676529,2.38304939926,37.3336081558,-3.84635974695,-0.00764505415997,0.0,-0.0214339559078,0.0,0.0309566659066,0.0,-3.02711355427,0.0,-0.0232802425127,0.0,0.00129654879366,0.0,-0.0111824502621,0.0,0.0714939632241,0.0,0.00236563807248,0.0,-0.0,-0.0,0.592139422894,-1.5,-40.7031939779,36.6278421206,1.04412874381,-25.0,-1.04412880738,22.0,1.0471975512,-25.0,-1.0471975512,22.0,1483318.43446,0.0,0.0,0.0,0.0,0.0,0.0
1402759743831138827,3,-15.791819156,-7.1377884924,1.75297672408,2.38304939926,37.3309677902,-3.84635974695,-0.0146493502245,0.0,-0.0191303971207,0.0,0.0356032879022,0.0,-3.0278231356,0.0,-0.0189704266334,0.0,0.00209078177382,0.0,-0.00685471076806,0.0,0.0718742543843,0.0,0.00574850700995,0.0,-0.0,-0.0,0.592139422894,-1.5,-40.7031939779,36.6278421206,1.04412874381,-25.0,-1.04412880738,22.0,1.0471975512,-25.0,-1.0471975512,22.0,1483318.43446,0.0,0.0,0.0,0.0,0.0,0.0
1402759743851047859,3,-15.791819156,-7.1377884924,1.75297672408,2.38304939926,37.3309677902,-3.84635974695,-0.0146493502245,0.0,-0.0191303971207,0.0,0.0356032879022,0.0,-3.0278231356,0.0,-0.0189704266334,0.0,0.00209078177382,0.0,-0.00685471076806,0.0,0.0718742543843,0.0,0.00574850700995,0.0,-0.0,-0.0,0.592139422894,-1.5,-40.7031939779,36.6278421206,1.04412874381,-25.0,-1.04412880738,22.0,1.0471975512,-25.0,-1.0471975512,22.0,1483318.43446,0.0,0.0,0.0,0.0,0.0,0.0
1402759743871822771,3,-15.7829828937,-7.1377884924,1.75126866239,2.38304939926,37.3112413197,-3.84635974695,-0.0146611219109,0.0,-0.0224767477955,0.0,0.034228511593,0.0,-3.02871455223,0.0,-0.0195706764358,0.0,0.00196543875476,0.0,-0.0106488111343,0.0,0.0717919616692,0.0,0.00621479090586,0.0,-0.0,-0.0,0.592139422894,-1.5,-40.7031939779,36.6278421206,1.04412874381,-25.0,-1.04412880738,22.0,1.0471975512,-25.0,-1.0471975512,22.0,1483318.43446,0.0,0.0,0.0,0.0,0.0,0.0
1402759743891183525,3,-15.7829828937,-7.1377884924,1.75126866239,2.38304939926,37.3112413197,-3.84635974695,-0.0146611219109,0.0,-0.0224767477955,0.0,0.034228511593,0.0,-3.02871455223,0.0,-0.0195706764358,0.0,0.00196543875476,0.0,-0.0106488111343,0.0,0.0717919616692,0.0,0.00621479090586,0.0,-0.0,-0.0,0.592139422894,-1.5,-40.7031939779,36.6278421206,1.04412874381,-25.0,-1.04412880738,22.0,1.0471975512,-25.0,-1.0471975512,22.0,1483318.43446,0.0,0.0,0.0,0.0,0.0,0.0
1402759743911262770,3,-15.7752527582,-7.1377884924,1.75167137567,2.38304939926,37.3030404903,-3.84635974695,-0.0104820995378,0.0,-0.0191162413147,0.0,0.0392535489387,0.0,-3.02951240354,0.0,-0.0221135086434,0.0,0.00271105653447,0.0,-0.00870845464158,0.0,0.0710921887255,0.0,0.00141826974004,0.0,-0.0,-0.0,0.592139422894,-1.5,-40.7031939779,36.6278421206,1.04412874381,-25.0,-1.04412880738,22.0,1.0471975512,-25.0,-1.0471975512,22.0,1483318.43446,0.0,0.0,0.0,0.0,0.0,0.0
1402759743931788070,3,-15.7752527582,-7.1377884924,1.75167137567,2.38304939926,37.3030404903,-3.84635974695,-0.0104820995378,0.0,-0.0191162413147,0.0,0.0392535489387,0.0,-3.02951240354,0.0,-0.0221135086434,0.0,0.00271105653447,0.0,-0.00870845464158,0.0,0.0710921887255,0.0,0.00141826974004,0.0,-0.0,-0.0,0.592139422894,-1.5,-40.7031939779,36.6278421206,1.04412874381,-25.0,-1.04412880738,22.0,1.0471975512,-25.0,-1.0471975512,22.0,1483318.43446,0.0,0.0,0.0,0.0,0.0,0.0
1402759743951268825,3,-15.7726729913,-7.1377884924,1.74884798851,2.38304939926,37.2900815437,-3.84635974695,-0.0179758041672,0.0,-0.0244740928841,0.0,0.0407891044785,0.0,-3.03066038836,0.0,-0.0248660165161,0.0,0.00252872524086,0.0,-0.00263978931119,0.0,0.071692195901,0.0,0.00687831987473,0.0,-0.0,-0.0,0.592139422894,-1.5,-40.7031939779,36.6278421206,1.04412874381,-25.0,-1.04412880738,22.0,1.0471975512,-25.0,-1.0471975512,22.0,1483318.43446,0.0,0.0,0.0,0.0,0.0,0.0
1402759743971015452,3,-15.7726729913,-7.1377884924,1.74884798851,2.38304939926,37.2900815437,-3.84635974695,-0.0179758041672,0.0,-0.0244740928841,0.0,0.0407891044785,0.0,-3.03066038836,0.0,-0.0248660165161,0.0,0.00252872524086,0.0,-0.00263978931119,0.0,0.071692195901,0.0,0.00687831987473,0.0,-0.0,-0.0,0.592139422894,-1.5,-40.7031939779,36.6278421206,1.04412874381,-25.0,-1.04412880738,22.0,1.0471975512,-25.0,-1.0471975512,22.0,1483318.43446,0.0,0.0,0.0,0.0,0.0,0.0
1402759743991958492,3,-15.7734024031,-7.1377884924,1.74787802145,2.38304939926,37.291673156,-3.84635974695,-0.0181064743776,0.0,-0.025719569077,0.0,0.0436530854809,0.0,-3.0317242699,0.0,-0.0272446791011,0.0,0.00268681722557,0.0,-0.00340957101644,0.0,0.071434215075,0.0,0.00734079401655,0.0,-0.0,-0.0,0.592139422894,-1.5,-40.7031939779,36.6278421206,1.04412874381,-25.0,-1.04412880738,22.0,1.0471975512,-25.0,-1.0471975512,22.0,1483318.43446,0.0,0.0,0.0,0.0,0.0,0.0
1402759744011108543,3,-15.7734024031,-7.1377884924,1.74787802145,2.38304939926,37.291673156,-3.84635974695,-0.0181064743776,0.0,-0.025719569077,0.0,0.0436530854809,0.0,-3.0317242699,0.0,-0.0272446791011,0.0,0.00268681722557,0.0,-0.00340957101644,0.0,0.071434215075,0.0,0.00734079401655,0.0,-0.0,-0.0,0.592139422894,-1.5,-40.7031939779,36.6278421206,1.04412874381,-25.0,-1.04412880738,22.0,1.0471975512,-25.0,-1.0471975512,22.0,1483318.43446,0.0,0.0,0.0,0.0,0.0,0.0
1402759744031340272,3,-15.7711101002,-7.1377884924,1.74314376809,2.38304939926,37.2842326285,-3.84635974695,-0.0229880263375,0.0,-0.0360404913395,0.0,0.048014881255,0.0,-3.03304553259,0.0,-0.0271041771365,0.0,0.00167698113628,0.0,0.0063573135105,0.0,0.0715810996928,0.0,0.00565743524207,0.0,-0.0,-0.0,0.592139422894,-1.5,-40.7031939779,36.6278421206,1.04412874381,-25.0,-1.04412880738,22.0,1.0471975512,-25.0,-1.0471975512,22.0,1483318.43446,0.0,0.0,0.0,0.0,0.0,0.0
1402759744051742088,3,-15.7711101002,-7.1377884924,1.74314376809,2.38304939926,37.2842326285,-3.84635974695,-0.0229880263375,0.0,-0.0360404913395,0.0,0.048014881255,0.0,-3.03304553259,0.0,-0.0271041771365,0.0,0.00167698113628,0.0,0.0063573135105,0.0,0.0715810996928,0.0,0.00565743524207,0.0,-0.0,-0.0,0.592139422894,-1.5,-40.7031939779,36.6278421206,1.04412874381,-25.0,-1.04412880738,22.0,1.0471975512,-25.0,-1.0471975512,22.0,1483318.43446,0.0,0.0,0.0,0.0,0.0,0.0
1402759744071252183,3,-15.7531798506,-7.1377884924,1.74873964936,2.38304939926,37.2618386752,-3.84635974695,-0.0100404908479,0.0,-0.0233498406666,0.0,0.0455850327279,0.0,-3.03398142164,0.0,-0.0280650639901,0.0,0.00311615055575,0.0,0.0075252514405,0.0,0.0703391127652,0.0,-0.00170880810139,0.0,-0.0,-0.0,0.592139422894,-1.5,-40.7031939779,36.6278421206,1.04412874381,-25.0,-1.04412880738,22.0,1.0471975512,-25.0,-1.0471975512,22.0,1483318.43446,0.0,0.0,0.0,0.0,0.0,0.0
1402759744091014063,3,-15.7531798506,-7.1377884924,1.74873964936,2.38304939926,37.2618386752,-3.84635974695,-0.0100404908479,0.0,-0.0233498406666,0.0,0.0455850327279,0.0,-3.03398142164,0.0,-0.0280650639901,0.0,0.00311615055575,0.0,0.0075252514405,0.0,0.0703391127652,0.0,-0.00170880810139,0.0,-0.0,-0.0,0.592139422894,-1.5,-40.7031939779,36.6278421206,1.04412874381,-25.0,-1.04412880738,22.0,1.0471975512,-25.0,-1.0471975512,22.0,1483318.43446,0.0,0.0,0.0,0.0,0.0,0.0
1402759744111656226,3,-15.7478236538,-7.1377884924,1.74620580603,2.38304939926,37.2556706957,-3.84635974695,-0.0103114591263,0.0,-0.029177931928,0.0,0.0497083171545,0.0,-3.03537043645,0.0,-0.0368438279874,0.0,0.00254821326608,0.0,0.00559187342836,0.0,0.0703924194962,0.0,-0.00281957639043,0.0,-0.0,-0.0,0.592139422894,-1.5,-40.7031939779,36.6278421206,1.04412874381,-25.0,-1.04412880738,22.0,1.0471975512,-25.0,-1.0471975512,22.0,1483318.43446,0.0,0.0,0.0,0.0,0.0,0.0
1402759744131090326,3,-15.7478236538,-7.1377884924,1.74620580603,2.38304939926,37.2556706957,-3.84635974695,-0.0103114591263,0.0,-0.029177931928,0.0,0.0497083171545,0.0,-3.03537043645,0.0,-0.0368438279874,0.0,0.00254821326608,0.0,0.00559187342836,0.0,0.0703924194962,0.0,-0.00281957639043,0.0,-0.0,-0.0,0.592139422894,-1.5,-40.7031939779,36.6278421206,1.04412874381,-25.0,-1.04412880738,22.0,1.0471975512,-25.0,-1.0471975512,22.0,1483318.43446,0.0,0.0,0.0,0.0,0.0,0.0
1402759744151237470,3,-15.7337272429,-7.1377884924,1.7467306477,2.38304939926,37.2373885015,-3.84635974695,-0.00122889280622,0.0,-0.0295654736015,0.0,0.0466813703353,0.0,-3.03661338951,0.0,-0.0291516111455,0.0,0.00215488335232,0.0,0.0108926123071,0.0,0.0697679547805,0.0,0.000650421282156,0.0,-0.0,-0.0,0.592139422894,-1.5,-40.7031939779,36.6278421206,1.04412874381,-25.0,-1.04412880738,22.0,1.0471975512,-25.0,-1.0471975512,22.0,1483318.43446,0.0,0.0,0.0,0.0,0.0,0.0
1402759744171047275,3,-15.7337272429,-7.1377884924,1.7467306477,2.38304939926,37.2373885015,-3.84635974695,-0.00122889280622,0.0,-0.0295654736015,0.0,0.0466813703353,0.0,-3.03661338951,0.0,-0.0291516111455,0.0,0.00215488335232,0.0,0.0108926123071,0.0,0.0697679547805,0.0,0.000650421282156,0.0,-0.0,-0.0,0.592139422894,-1.5,-40.7031939779,36.6278421206,1.04412874381,-25.0,-1.04412880738,22.0,1.0471975512,-25.0,-1.0471975512,22.0,1483318.43446,0.0,0.0,0.0,0.0,0.0,0.0
1402759744191708020,3,-15.7337609466,-7.1377884924,1.74552233731,2.38304939926,37.2392875798,-3.84635974695,-0.000398284908093,0.0,-0.0319402107225,0.0,0.0480478291853,0.0,-3.03780429978,0.0,-0.0332419065838,0.0,0.00185482252122,0.0,0.00829899722356,0.0,0.0699049345381,0.0,-0.00584952227742,0.0,-0.0,-0.0,0.592139422894,-1.5,-40.7031939779,36.6278421206,1.04412874381,-25.0,-1.04412880738,22.0,1.0471975512,-25.0,-1.0471975512,22.0,1483318.43446,0.0,0.0,0.0,0.0,0.0,0.0
1402759744211132193,3,-15.7337609466,-7.1377884924,1.74552233731,2.38304939926,37.2392875798,-3.84635974695,-0.000398284908093,0.0,-0.0319402107225,0.0,0.0480478291853,0.0,-3.03780429978,0.0,-0.0332419065838,0.0,0.00185482252122,0.0,0.00829899722356,0.0,0.0699049345381,0.0,-0.00584952227742,0.0,-0.0,-0.0,0.592139422894,-1.5,-40.7031939779,36.6278421206,1.04412874381,-25.0,-1.04412880738,22.0,1.0471975512,-25.0,-1.0471975512,22.0,1483318.43446,0.0,0.0,0.0,0.0,0.0,0.0
1402759744231076925,3,-15.7271438983,-7.1377884924,1.74445964101,2.38304939926,37.2225470625,-3.84635974695,-0.00742321365201,0.0,-0.0341923754527,0.0,0.0449082409509,0.0,-3.03918405624,0.0,-0.0297886956879,0.0,0.00153380067287,0.0,0.016015025547,0.0,0.0709874186397,0.0,-0.00183216840558,0.0,-0.0,-0.0,0.592139422894,-1.5,-40.7031939779,36.6278421206,1.04412874381,-25.0,-1.04412880738,22.0,1.0471975512,-25.0,-1.0471975512,22.0,1483318.43446,0.0,0.0,0.0,0.0,0.0,0.0
1402759744251597091,3,-15.7271438983,-7.1377884924,1.74445964101,2.38304939926,37.2225470625,-3.84635974695,-0.00742321365201,0.0,-0.0341923754527,0.0,0.0449082409509,0.0,-3.03918405624,0.0,-0.0297886956879,0.0,0.00153380067287,0.0,0.016015025547,0.0,0.0709874186397,0.0,-0.00183216840558,0.0,-0.0,-0.0,0.592139422894,-1.5,-40.7031939779,36.6278421206,1.04412874381,-25.0,-1.04412880738,22.0,1.0471975512,-25.0,-1.0471975512,22.0,1483318.43446,0.0,0.0,0.0,0.0,0.0,0.0
1402759744271071737,3,-15.7188398235,-7.1377884924,1.74392941991,2.38304939926,37.2091335722,-3.84635974695,-0.0100228871755,0.0,-0.033851895,0.0,0.0421832032763,0.0,-3.04062975411,0.0,-0.0347812532391,0.0,0.00139054499916,0.0,0.00496822798341,0.0,0.0714483238771,0.0,-0.00230960046416,0.0,-0.0,-0.0,0.592139422894,-1.5,-40.7031939779,36.6278421206,1.04412874381,-25.0,-1.04412880738,22.0,1.0471975512,-25.0,-1.0471975512,22.0,1483318.43446,0.0,0.0,0.0,0.0,0.0,0.0
1402759744291180738,3,-15.7188398235,-7.1377884924,1.74392941991,2.38304939926,37.2091335722,-3.84635974695,-0.0100228871755,0.0,-0.033851895,0.0,0.0421832032763,0.0,-3.04062975411,0.0,-0.0347812532391,0.0,0.00139054499916,0.0,0.00496822798341,0.0,0.0714483238771,0.0,-0.00230960046416,0.0,-0.0,-0.0,0.592139422894,-1.5,-40.7031939779,36.6278421206,1.04412874381,-25.0,-1.04412880738,22.0,1.0471975512,-25.0,-1.0471975512,22.0,1483318.43446,0.0,0.0,0.0,0.0,0.0,0.0
1402759744311939471,3,-15.7029000746,-7.1377884924,1.74210225877,2.38304939926,37.1904376824,-3.84635974695,-0.000492468818682,0.0,-0.04217936747,0.0,0.038200403593,0.0,-3.0420273312,0.0,-0.0290663693771,0.0,-0.000372887245462,0.0,0.0168733688807,0.0,0.0708110973879,0.0,-0.0010666359492,0.0,-0.0,-0.0,0.592139422894,-1.5,-40.7031939779,36.6278421206,1.04412874381,-25.0,-1.04412880738,22.0,1.0471975512,-25.0,-1.0471975512,22.0,1483318.43446,0.0,0.0,0.0,0.0,0.0,0.0
1402759744331076935,3,-15.7029000746,-7.1377884924,1.74210225877,2.38304939926,37.1904376824,-3.84635974695,-0.000492468818682,0.0,-0.04217936747,0.0,0.038200403593,0.0,-3.0420273312,0.0,-0.0290663693771,0.0,-0.000372887245462,0.0,0.0168733688807,0.0,0.0708110973879,0.0,-0.0010666359492,0.0,-0.0,-0.0,0.592139422894,-1.5,-40.7031939779,36.6278421206,1.04412874381,-25.0,-1.04412880738,22.0,1.0471975512,-25.0,-1.0471975512,22.0,1483318.43446,0.0,0.0,0.0,0.0,0.0,0.0
1402759744351306721,3,-15.694761253,-7.1377884924,1.74355090029,2.38304939926,37.1843340899,-3.84635974695,0.000530216372746,0.0,-0.0359630043501,0.0,0.0398127414484,0.0,-3.04338495211,0.0,-0.0349890187329,0.0,-0.000245490496026,0.0,0.0145274978697,0.0,0.0708954459675,0.0,-0.0012120142125,0.0,-0.0,-0.0,0.592139422894,-1.5,-40.7031939779,36.6278421206,1.04412874381,-25.0,-1.04412880738,22.0,1.0471975512,-25.0,-1.0471975512,22.0,1483318.43446,0.0,0.0,0.0,0.0,0.0,0.0
1402759744371192679,3,-15.694761253,-7.1377884924,1.74355090029,2.38304939926,37.1843340899,-3.84635974695,0.000530216372746,0.0,-0.0359630043501,0.0,0.0398127414484,0.0,-3.04338495211,0.0,-0.0349890187329,0.0,-0.000245490496026,0.0,0.0145274978697,0.0,0.0708954459675,0.0,-0.0012120142125,0.0,-0.0,-0.0,0.592139422894,-1.5,-40.7031939779,36.6278421206,1.04412874381,-25.0,-1.04412880738,22.0,1.0471975512,-25.0,-1.0471975512,22.0,1483318.43446,0.0,0.0,0.0,0.0,0.0,0.0
1402759744391573821,3,-15.6945144808,-7.1377884924,1.7419698202,2.38304939926,37.1861106231,-3.84635974695,0.00131278745875,0.0,-0.0358695402821,0.0,0.038344833434,0.0,-3.04502410944,0.0,-0.0370586002333,0.0,-0.00088859622903,0.0,0.0150265599312,0.0,0.071034129144,0.0,-0.00138413584918,0.0,-0.0,-0.0,0.592139422894,-1.5,-40.7031939779,36.6278421206,1.04412874381,-25.0,-1.04412880738,22.0,1.0471975512,-25.0,-1.0471975512,22.0,1483318.43446,0.0,0.0,0.0,0.0,0.0,0.0
1402759744410910502,3,-15.6945144808,-7.1377884924,1.7419698202,2.38304939926,37.1861106231,-3.84635974695,0.00131278745875,0.0,-0.0358695402821,0.0,0.038344833434,0.0,-3.04502410944,0.0,-0.0370586002333,0.0,-0.00088859622903,0.0,0.0150265599312,0.0,0.071034129144,0.0,-0.00138413584918,0.0,-0.0,-0.0,0.592139422894,-1.5,-40.7031939779,36.6278421206,1.04412874381,-25.0,-1.04412880738,22.0,1.0471975512,-25.0,-1.0471975512,22.0,1483318.43446,0.0,0.0,0.0,0.0,0.0,0.0
1402759744430972288,3,-15.6879213528,-7.1377884924,1.73811953327,2.38304939926,37.1730011277,-3.84635974695,-0.00706770277924,0.0,-0.0452630692395,0.0,0.0372457901823,0.0,-3.04686234647,0.0,-0.037841252837,0.0,-0.00246652372312,0.0,0.00558764868531,0.0,0.0719635457108,0.0,-0.00180417882727,0.0,-0.0,-0.0,0.592139422894,-1.5,-40.7031939779,36.6278421206,1.04412874381,-25.0,-1.04412880738,22.0,1.0471975512,-25.0,-1.0471975512,22.0,1483318.43446,0.0,0.0,0.0,0.0,0.0,0.0
1402759744451702144,3,-15.6879213528,-7.1377884924,1.73811953327,2.38304939926,37.1730011277,-3.84635974695,-0.00706770277924,0.0,-0.0452630692395,0.0,0.0372457901823,0.0,-3.04686234647,0.0,-0.037841252837,0.0,-0.00246652372312,0.0,0.00558764868531,0.0,0.0719635457108,0.0,-0.00180417882727,0.0,-0.0,-0.0,0.592139422894,-1.5,-40.7031939779,36.6278421206,1.04412874381,-25.0,-1.04412880738,22.0,1.0471975512,-25.0,-1.0471975512,22.0,1483318.43446,0.0,0.0,0.0,0.0,0.0,0.0
1402759744470867214,3,-15.6702845685,-7.1377884924,1.74423198162,2.38304939926,37.1487782586,-3.84635974695,-0.00106740188186,0.0,-0.0321260806567,0.0,0.0306601918379,0.0,-3.04843958656,0.0,-0.0429781736599,0.0,-0.0013517432083,0.0,0.00641752052053,0.0,0.0715370272931,0.0,-0.000994320274457,0.0,-0.0,-0.0,0.592139422894,-1.5,-40.7031939779,36.6278421206,1.04412874381,-25.0,-1.04412880738,22.0,1.0471975512,-25.0,-1.0471975512,22.0,1483318.43446,0.0,0.0,0.0,0.0,0.0,0.0
1402759744491081011,3,-15.6702845685,-7.1377884924,1.74423198162,2.38304939926,37.1487782586,-3.84635974695,-0.00106740188186,0.0,-0.0321260806567,0.0,0.0306601918379,0.0,-3.04843958656,0.0,-0.0429781736599,0.0,-0.0013517432083,0.0,0.00641752052053,0.0,0.0715370272931,0.0,-0.000994320274457,0.0,-0.0,-0.0,0.592139422894,-1.5,-40.7031939779,36.6278421206,1.04412874381,-25.0,-1.04412880738,22.0,1.0471975512,-25.0,-1.0471975512,22.0,1483318.43446,0.0,0.0,0.0,0.0,0.0,0.0
1402759744512068187,3,-15.6636993704,-7.1377884924,1.73979540538,2.38304939926,37.1417468526,-3.84635974695,-0.000698056560572,0.0,-0.0424190053833,0.0,0.0318869195824,0.0,-3.05034036791,0.0,-0.0432965287714,0.0,-0.00293918835633,0.0,0.00250820900108,0.0,0.071501635352,0.0,0.00669069635154,0.0,-0.0,-0.0,0.592139422894,-1.5,-40.7031939779,36.6278421206,1.04412874381,-25.0,-1.04259458383,22.0,1.0471975512,-25.0,-1.0471975512,22.0,1483318.43446,0.0,0.0,0.0,0.0,0.0,0.0
1402759744531076760,3,-15.6636993704,-7.1377884924,1.73979540538,2.38304939926,37.1417468526,-3.84635974695,-0.000698056560572,0.0,-0.0424190053833,0.0,0.0318869195824,0.0,-3.05034036791,0.0,-0.0432965287714,0.0,-0.00293918835633,0.0,0.00250820900108,0.0,0.071501635352,0.0,0.00669069635154,0.0,-0.0,-0.0,0.592139422894,-1.5,-40.7031939779,36.6278421206,1.04412874381,-25.0,-1.04259458383,22.0,1.0471975512,-25.0,-1.0471975512,22.0,1483318.43446,0.0,0.0,0.0,0.0,0.0,0.0
1402759744551206806,3,-15.6635886283,-7.1377884924,1.73800185347,2.38304939926,37.1432537778,-3.84635974695,-0.000700060476851,0.0,-0.0422118167145,0.0,0.0338619723301,0.0,-3.05205858433,0.0,-0.0477435826729,0.0,-0.00283940432489,0.0,-0.00783452957054,0.0,0.0713748922896,0.0,0.000440085491153,0.0,-0.0,-0.0,0.592139422894,-1.5,-40.7031939779,36.6278421206,1.04412874381,-25.0,-1.04412880738,22.0,1.0471975512,-25.0,-1.0471975512,22.0,1483318.43446,0.0,0.0,0.0,0.0,0.0,0.0
1402759744571100554,3,-15.6635886283,-7.1377884924,1.73800185347,2.38304939926,37.1432537778,-3.84635974695,-0.000700060476851,0.0,-0.0422118167145,0.0,0.0338619723301,0.0,-3.05205858433,0.0,-0.0477435826729,0.0,-0.00283940432489,0.0,-0.00783452957054,0.0,0.0713748922896,0.0,0.000440085491153,0.0,-0.0,-0.0,0.592139422894,-1.5,-40.7031939779,36.6278421206,1.04412874381,-25.0,-1.04412880738,22.0,1.0471975512,-25.0,-1.0471975512,22.0,1483318.43446,0.0,0.0,0.0,0.0,0.0,0.0
1402759744591740036,3,-15.6598264816,-7.1377884924,1.74229386752,2.38304939926,37.1283062117,-3.84635974695,-0.0130859428275,0.0,-0.0258533770467,0.0,0.0342351390638,0.0,-3.05390722774,0.0,-0.0422726819269,0.0,-8.33569140572e-05,0.0,-0.0181872813386,0.0,0.0724292431574,0.0,0.00551149618852,0.0,-0.0,-0.0,0.592139422894,-1.5,-40.7031939779,36.6278421206,1.04412874381,-25.0,-1.04412880738,22.0,1.0471975512,-25.0,-1.0471975512,22.0,1483318.43446,0.0,0.0,0.0,0.0,0.0,0.0
1402759744611209833,3,-15.6598264816,-7.1377884924,1.74229386752,2.38304939926,37.1283062117,-3.84635974695,-0.0130859428275,0.0,-0.0258533770467,0.0,0.0342351390638,0.0,-3.05390722774,0.0,-0.0422726819269,0.0,-8.33569140572e-05,0.0,-0.0181872813386,0.0,0.0724292431574,0.0,0.00551149618852,0.0,-0.0,-0.0,0.592139422894,-1.5,-40.7031939779,36.6278421206,1.04412874381,-25.0,-1.04412880738,22.0,1.0471975512,-25.0,-1.0471975512,22.0,1483318.43446,0.0,0.0,0.0,0.0,0.0,0.0
1402759744631088712,3,-15.6601750289,-7.1377884924,1.74143499425,2.38304939926,37.1294658915,-3.84635974695,-0.0130936385468,0.0,-0.0257332159115,0.0,0.0356907451193,0.0,-3.05513433748,0.0,-0.0427422096558,0.0,0.000506606840584,0.0,-0.0216662996702,0.0,0.0722734586112,0.0,0.00631597410286,0.0,-0.0,-0.0,0.592139422894,-1.5,-40.7031939779,36.6278421206,1.04412874381,-25.0,-1.04412880738,22.0,1.0471975512,-25.0,-1.0471975512,22.0,1483318.43446,0.0,0.0,0.0,0.0,0.0,0.0
1402759744651724259,3,-15.6501608845,-7.1377884924,1.73610790535,2.38304939926,37.119901048,-3.84635974695,-0.00333105960537,0.0,-0.0421512769625,0.0,0.039064302021,0.0,-3.05615192038,0.0,-0.0354170672827,0.0,-0.00151587126046,0.0,-0.0198833164375,0.0,0.0712078218375,0.0,0.00102016941115,0.0,-0.0,-0.0,0.592139422894,-1.5,-40.7031939779,36.6278421206,1.04412874381,-25.0,-1.04412880738,22.0,1.0471975512,-25.0,-1.0471975512,22.0,1483318.43446,0.0,0.0,0.0,0.0,0.0,0.0
1402759744671213131,3,-15.6501608845,-7.1377884924,1.73610790535,2.38304939926,37.119901048,-3.84635974695,-0.00333105960537,0.0,-0.0421512769625,0.0,0.039064302021,0.0,-3.05615192038,0.0,-0.0354170672827,0.0,-0.00151587126046,0.0,-0.0198833164375,0.0,0.0712078218375,0.0,0.00102016941115,0.0,-0.0,-0.0,0.592139422894,-1.5,-40.7031939779,36.6278421206,1.04412874381,-25.0,-1.04412880738,22.0,1.0471975512,-25.0,-1.0471975512,22.0,1483318.43446,0.0,0.0,0.0,0.0,0.0,0.0
1402759744691258452,3,-15.6501154474,-7.1377884924,1.73536399109,2.38304939926,37.1204924266,-3.84635974695,-0.00289279488213,0.0,-0.0433276873161,0.0,0.0405812406557,0.0,-3.05691283996,0.0,-0.0384754941655,0.0,-0.00112258690985,0.0,-0.0179331512756,0.0,0.0710911445476,0.0,0.00285365955972,0.0,-0.0,-0.0,0.592139422894,-1.5,-40.7031939779,36.6278421206,1.04412874381,-25.0,-1.04412880738,22.0,1.0471975512,-25.0,-1.0471975512,22.0,1483318.43446,0.0,0.0,0.0,0.0,0.0,0.0
1402759744711889080,3,-15.6501154474,-7.1377884924,1.73536399109,2.38304939926,37.1204924266,-3.84635974695,-0.00289279488213,0.0,-0.0433276873161,0.0,0.0405812406557,0.0,-3.05691283996,0.0,-0.0384754941655,0.0,-0.00112258690985,0.0,-0.0179331512756,0.0,0.0710911445476,0.0,0.00285365955972,0.0,-0.0,-0.0,0.592139422894,-1.5,-40.7031939779,36.6278421206,1.04412874381,-25.0,-1.04412880738,22.0,1.0471975512,-25.0,-1.0471975512,22.0,1483318.43446,0.0,0.0,0.0,0.0,0.0,0.0
1402759744731119348,3,-15.6509827356,-7.1377884924,1.73571058131,2.38304939926,37.1151506624,-3.84635974695,-0.0166050470663,0.0,-0.0398033768765,0.0,0.0462744476861,0.0,-3.05822511905,0.0,-0.0363691639787,0.0,0.000661296179323,0.0,-0.0147912063813,0.0,0.0721273082036,0.0,0.00783981165184,0.0,-0.0,-0.0,0.592139422894,-1.5,-40.7031939779,36.6278421206,1.04412874381,-25.0,-1.04412880738,22.0,1.0471975512,-25.0,-1.0471975512,22.0,1483318.43446,0.0,0.0,0.0,0.0,0.0,0.0
1402759744751094285,3,-15.6509827356,-7.1377884924,1.73571058131,2.38304939926,37.1151506624,-3.84635974695,-0.0166050470663,0.0,-0.0398033768765,0.0,0.0462744476861,0.0,-3.05822511905,0.0,-0.0363691639787,0.0,0.000661296179323,0.0,-0.0147912063813,0.0,0.0721273082036,0.0,0.00783981165184,0.0,-0.0,-0.0,0.592139422894,-1.5,-40.7031939779,36.6278421206,1.04412874381,-25.0,-1.04412880738,22.0,1.0471975512,-25.0,-1.0471975512,22.0,1483318.43446,0.0,0.0,0.0,0.0,0.0,0.0
1402759744771077632,3,-15.6306842695,-7.1377884924,1.73924274839,2.38304939926,37.0944358078,-3.84635974695,0.00112005863819,0.0,-0.0355998036519,0.0,0.0452073402255,0.0,-3.05983498502,0.0,-0.0407702131989,0.0,0.00177731863439,0.0,-0.0271198621479,0.0,0.0703446888067,0.0,0.00558772981103,0.0,-0.0,-0.0,0.592139422894,-1.5,-40.7031939779,36.6278421206,1.04412874381,-25.0,-1.04412880738,22.0,1.0471975512,-25.0,-1.0471975512,22.0,1483318.43446,0.0,0.0,0.0,0.0,0.0,0.0
1402759744791628822,3,-15.6306842695,-7.1377884924,1.73924274839,2.38304939926,37.0944358078,-3.84635974695,0.00112005863819,0.0,-0.0355998036519,0.0,0.0452073402255,0.0,-3.05983498502,0.0,-0.0407702131989,0.0,0.00177731863439,0.0,-0.0271198621479,0.0,0.0703446888067,0.0,0.00558772981103,0.0,-0.0,-0.0,0.592139422894,-1.5,-40.7031939779,36.6278421206,1.04412874381,-25.0,-1.04412880738,22.0,1.0471975512,-25.0,-1.0471975512,22.0,1483318.43446,0.0,0.0,0.0,0.0,0.0,0.0
1402759744811074926,3,-15.6227867585,-7.1377884924,1.74079238599,2.38304939926,37.0840149348,-3.84635974695,-0.000801103994007,0.0,-0.0353004462104,0.0,0.0491363737527,0.0,-3.06140390306,0.0,-0.0453183253699,0.0,0.00291722351254,0.0,-0.0238392073024,0.0,0.0703040092429,0.0,0.00206755457095,0.0,-0.0,-0.0,0.592139422894,-1.5,-40.7031939779,36.6278421206,1.04412874381,-25.0,-1.04412880738,22.0,1.0471975512,-25.0,-1.0471975512,22.0,1483318.43446,0.0,0.0,0.0,0.0,0.0,0.0
1402759744831056614,3,-15.6227867585,-7.1377884924,1.74079238599,2.38304939926,37.0840149348,-3.84635974695,-0.000801103994007,0.0,-0.0353004462104,0.0,0.0491363737527,0.0,-3.06140390306,0.0,-0.0453183253699,0.0,0.00291722351254,0.0,-0.0238392073024,0.0,0.0703040092429,0.0,0.00206755457095,0.0,-0.0,-0.0,0.592139422894,-1.5,-40.7031939779,36.6278421206,1.04412874381,-25.0,-1.04412880738,22.0,1.0471975512,-25.0,-1.0471975512,22.0,1483318.43446,0.0,0.0,0.0,0.0,0.0,0.0
1402759744851555351,3,-15.6201919682,-7.1377884924,1.73862323751,2.38304939926,37.0754170808,-3.84635974695,-0.012762766146,0.0,-0.0453822699003,0.0,0.052357223198,0.0,-3.06297903187,0.0,-0.0413129553141,0.0,0.00283212597905,0.0,-0.0124056053125,0.0,0.0712515802734,0.0,0.00335054463309,0.0,-0.0,-0.0,0.592139422894,-1.5,-40.7031939779,36.6278421206,1.04412874381,-25.0,-1.04412880738,22.0,1.0471975512,-25.0,-1.0471975512,22.0,1483318.43446,0.0,0.0,0.0,0.0,0.0,0.0
1402759744871047213,3,-15.6201919682,-7.1377884924,1.73862323751,2.38304939926,37.0754170808,-3.84635974695,-0.012762766146,0.0,-0.0453822699003,0.0,0.052357223198,0.0,-3.06297903187,0.0,-0.0413129553141,0.0,0.00283212597905,0.0,-0.0124056053125,0.0,0.0712515802734,0.0,0.00335054463309,0.0,-0.0,-0.0,0.592139422894,-1.5,-40.7031939779,36.6278421206,1.04412874381,-25.0,-1.04412880738,22.0,1.0471975512,-25.0,-1.0471975512,22.0,1483318.43446,0.0,0.0,0.0,0.0,0.0,0.0
1402759744891113038,3,-15.6082153839,-7.1377884924,1.74049573993,2.38304939926,37.0608466143,-3.84635974695,-0.0120454861791,0.0,-0.0484814224864,0.0,0.0530705432172,0.0,-3.06463786761,0.0,-0.0479245315919,0.0,0.00308260417852,0.0,-0.00559733631747,0.0,0.0711352054873,0.0,-0.00101046301131,0.0,-0.0,-0.0,0.592139422894,-1.5,-40.7031939779,36.6278421206,1.04412874381,-25.0,-1.04412880738,22.0,1.0471975512,-25.0,-1.0471975512,22.0,1483318.43446,0.0,0.0,0.0,0.0,0.0,0.0
1402759744911136569,3,-15.6082153839,-7.1377884924,1.74049573993,2.38304939926,37.0608466143,-3.84635974695,-0.0120454861791,0.0,-0.0484814224864,0.0,0.0530705432172,0.0,-3.06463786761,0.0,-0.0479245315919,0.0,0.00308260417852,0.0,-0.00559733631747,0.0,0.0711352054873,0.0,-0.00101046301131,0.0,-0.0,-0.0,0.592139422894,-1.5,-40.7031939779,36.6278421206,1.04412874381,-25.0,-1.04412880738,22.0,1.0471975512,-25.0,-1.0471975512,22.0,1483318.43446,0.0,0.0,0.0,0.0,0.0,0.0
1402759744931621725,3,-15.5910747832,-7.1377884924,1.74101508342,2.38304939926,37.049830271,-3.84635974695,0.0015537163903,0.0,-0.0563718437396,0.0,0.0534042921752,0.0,-3.06641244177,0.0,-0.0457275402823,0.0,0.00206528917742,0.0,-0.00125017577664,0.0,0.0698242174888,0.0,-0.00117439077591,0.0,-0.0,-0.0,0.592139422894,-1.5,-40.7031939779,36.6278421206,1.04259428183,-25.0,-1.04412880738,22.0,1.0471975512,-25.0,-1.0471975512,22.0,1483318.43446,0.0,0.0,0.0,0.0,0.0,0.0
1402759744951146102,3,-15.5910747832,-7.1377884924,1.74101508342,2.38304939926,37.049830271,-3.84635974695,0.0015537163903,0.0,-0.0563718437396,0.0,0.0534042921752,0.0,-3.06641244177,0.0,-0.0457275402823,0.0,0.00206528917742,0.0,-0.00125017577664,0.0,0.0698242174888,0.0,-0.00117439077591,0.0,-0.0,-0.0,0.592139422894,-1.5,-40.7031939779,36.6278421206,1.04412874381,-25.0,-1.04412880738,22.0,1.0471975512,-25.0,-1.0471975512,22.0,1483318.43446,0.0,0.0,0.0,0.0,0.0,0.0
1402759744971070619,3,-15.5761961066,-7.1377884924,1.74626132134,2.38304939926,37.0391099607,-3.84635974695,0.00867175593593,0.0,-0.0492914051249,0.0,0.0529815282921,0.0,-3.06807529293,0.0,-0.0447376711697,0.0,0.00292913932195,0.0,0.00498513966657,0.0,0.0693208707246,0.0,-0.00119368770707,0.0,-0.0,-0.0,0.592139422894,-1.5,-40.7031939779,36.6278421206,1.04412874381,-25.0,-1.04412880738,22.0,1.0471975512,-25.0,-1.0471975512,22.0,1483318.43446,0.0,0.0,0.0,0.0,0.0,0.0
1402759744992703452,3,-15.5761961066,-7.1377884924,1.74626132134,2.38304939926,37.0391099607,-3.84635974695,0.00867175593593,0.0,-0.0492914051249,0.0,0.0529815282921,0.0,-3.06807529293,0.0,-0.0447376711697,0.0,0.00292913932195,0.0,0.00498513966657,0.0,0.0693208707246,0.0,-0.00119368770707,0.0,-0.0,-0.0,0.592139422894,-1.5,-40.7031939779,36.6278421206,1.04412874381,-25.0,-1.04412880738,22.0,1.0471975512,-25.0,-1.0471975512,22.0,1483318.43446,0.0,0.0,0.0,0.0,0.0,0.0
1402759745011089917,3,-15.575901623,-7.1377884924,1.74419738311,2.38304939926,37.0411509306,-3.84635974695,0.00865187008999,0.0,-0.0523414428656,0.0,0.0512494732147,0.0,-3.07006780728,0.0,-0.0511982732689,0.0,0.00253287335402,0.0,0.0157466295682,0.0,0.0695995022171,0.0,-0.00707661439989,0.0,-0.0,-0.0,0.592139422894,-1.5,-40.7031939779,36.6278421206,1.04412874381,-25.0,-1.04412880738,22.0,1.0471975512,-25.0,-1.0471975512,22.0,1483318.43446,0.0,0.0,0.0,0.0,0.0,0.0
1402759745031012946,3,-15.575901623,-7.1377884924,1.74419738311,2.38304939926,37.0411509306,-3.84635974695,0.00865187008999,0.0,-0.0523414428656,0.0,0.0512494732147,0.0,-3.07006780728,0.0,-0.0511982732689,0.0,0.00253287335402,0.0,0.0157466295682,0.0,0.0695995022171,0.0,-0.00707661439989,0.0,-0.0,-0.0,0.592139422894,-1.5,-40.7031939779,36.6278421206,1.04412874381,-25.0,-1.04412880738,22.0,1.0471975512,-25.0,-1.0471975512,22.0,1483318.43446,0.0,0.0,0.0,0.0,0.0,0.0
1402759745051783764,3,-15.5635719072,-7.1377884924,1.74764844809,2.38304939926,37.0305362066,-3.84635974695,0.0103491025012,0.0,-0.0485723917907,0.0,0.0490743777852,0.0,-3.07195032365,0.0,-0.0505632031822,0.0,0.00244834284021,0.0,0.0122942900963,0.0,0.0698932718146,0.0,-0.0123217671911,0.0,-0.0,-0.0,0.592139422894,-1.5,-40.7031939779,36.6278421206,1.04412874381,-25.0,-1.04412880738,22.0,1.0471975512,-25.0,-1.0471975512,22.0,1483318.43446,0.0,0.0,0.0,0.0,0.0,0.0
1402759745071128587,3,-15.5635719072,-7.1377884924,1.74764844809,2.38304939926,37.0305362066,-3.84635974695,0.0103491025012,0.0,-0.0485723917907,0.0,0.0490743777852,0.0,-3.07195032365,0.0,-0.0505632031822,0.0,0.00244834284021,0.0,0.0122942900963,0.0,0.0698932718146,0.0,-0.0123217671911,0.0,-0.0,-0.0,0.592139422894,-1.5,-40.7031939779,36.6278421206,1.04412874381,-25.0,-1.04412880738,22.0,1.0471975512,-25.0,-1.0471975512,22.0,1483318.43446,0.0,0.0,0.0,0.0,0.0,0.0
1402759745091203510,3,-15.5563858815,-7.1377884924,1.74606881235,2.38304939926,37.0122651375,-3.84635974695,-0.000874823339729,0.0,-0.0599059528487,0.0,0.0420887634966,0.0,-3.07409566279,0.0,-0.0491848808862,0.0,0.00054414847769,0.0,0.0145651706533,0.0,0.0715231632744,0.0,-0.0104340216611,0.0,-0.0,-0.0,0.592139422894,-1.5,-40.7031939779,36.6278421206,1.04412874381,-25.0,-1.04412880738,22.0,1.0471975512,-25.0,-1.0471975512,22.0,1483318.43446,0.0,0.0,0.0,0.0,0.0,0.0
1402759745111807903,3,-15.5563858815,-7.1377884924,1.74606881235,2.38304939926,37.0122651375,-3.84635974695,-0.000874823339729,0.0,-0.0599059528487,0.0,0.0420887634966,0.0,-3.07409566279,0.0,-0.0491848808862,0.0,0.00054414847769,0.0,0.0145651706533,0.0,0.0715231632744,0.0,-0.0104340216611,0.0,-0.0,-0.0,0.592139422894,-1.5,-40.7031939779,36.6278421206,1.04412874381,-25.0,-1.04412880738,22.0,1.0471975512,-25.0,-1.0471975512,22.0,1483318.43446,0.0,0.0,0.0,0.0,0.0,0.0
1402759745131147221,3,-15.5445588645,-7.1377884924,1.75048906049,2.38304939926,36.9985954815,-3.84635974695,-0.00180999944738,0.0,-0.0547551234477,0.0,0.0378433958914,0.0,-3.07597084396,0.0,-0.054535318318,0.0,0.000769918774673,0.0,0.0152118606074,0.0,0.0721467488068,0.0,-0.00578426804909,0.0,-0.0,-0.0,0.592139422894,-1.5,-40.7031939779,36.6278421206,1.04412874381,-25.0,-1.04412880738,22.0,1.0471975512,-25.0,-1.0471975512,22.0,1483318.43446,0.0,0.0,0.0,0.0,0.0,0.0
1402759745151076065,3,-15.5445588645,-7.1377884924,1.75048906049,2.38304939926,36.9985954815,-3.84635974695,-0.00180999944738,0.0,-0.0547551234477,0.0,0.0378433958914,0.0,-3.07597084396,0.0,-0.054535318318,0.0,0.000769918774673,0.0,0.0152118606074,0.0,0.0721467488068,0.0,-0.00578426804909,0.0,-0.0,-0.0,0.592139422894,-1.5,-40.7031939779,36.6278421206,1.04412874381,-25.0,-1.04412880738,22.0,1.0471975512,-25.0,-1.0471975512,22.0,1483318.43446,0.0,0.0,0.0,0.0,0.0,0.0
1402759745171268890,3,-15.533486216,-7.1377884924,1.75056756412,2.38304939926,36.9895583822,-3.84635974695,0.00094397336282,0.0,-0.0603361928295,0.0,0.0373617589069,0.0,-3.07805384931,0.0,-0.0546857406468,0.0,-0.000750279997157,0.0,0.0138436330163,0.0,0.0722371992541,0.0,-0.0138967061023,0.0,-0.0,-0.0,0.592139422894,-1.5,-40.7031939779,36.6278421206,1.04259428183,-25.0,-1.04412880738,22.0,1.0471975512,-25.0,-1.0471975512,22.0,1483318.43446,0.0,0.0,0.0,0.0,0.0,0.0
1402759745191559466,3,-15.533486216,-7.1377884924,1.75056756412,2.38304939926,36.9895583822,-3.84635974695,0.00094397336282,0.0,-0.0603361928295,0.0,0.0373617589069,0.0,-3.07805384931,0.0,-0.0546857406468,0.0,-0.000750279997157,0.0,0.0138436330163,0.0,0.0722371992541,0.0,-0.0138967061023,0.0,-0.0,-0.0,0.592139422894,-1.5,-40.7031939779,36.6278421206,1.04412874381,-25.0,-1.04412880738,22.0,1.0471975512,-25.0,-1.0471975512,22.0,1483318.43446,0.0,0.0,0.0,0.0,0.0,0.0
1402759745211116302,3,-15.5334449906,-7.1377884924,1.74796973814,2.38304939926,36.9911899833,-3.84635974695,0.000848365878347,0.0,-0.0609734958177,0.0,0.0362167104919,0.0,-3.08010852336,0.0,-0.0514694653703,0.0,-0.00134503239741,0.0,0.0183515342281,0.0,0.0726691769672,0.0,-0.0117354920495,0.0,-0.0,-0.0,0.592139422894,-1.5,-40.7031939779,36.6278421206,1.04412874381,-25.0,-1.04412880738,22.0,1.0471975512,-25.0,-1.0471975512,22.0,1483318.43446,0.0,0.0,0.0,0.0,0.0,0.0
1402759745231010113,3,-15.5334449906,-7.1377884924,1.74796973814,2.38304939926,36.9911899833,-3.84635974695,0.000848365878347,0.0,-0.0609734958177,0.0,0.0362167104919,0.0,-3.08010852336,0.0,-0.0514694653703,0.0,-0.00134503239741,0.0,0.0183515342281,0.0,0.0726691769672,0.0,-0.0117354920495,0.0,-0.0,-0.0,0.592139422894,-1.5,-40.7031939779,36.6278421206,1.04412874381,-25.0,-1.04412880738,22.0,1.0471975512,-25.0,-1.0471975512,22.0,1483318.43446,0.0,0.0,0.0,0.0,0.0,0.0
1402759745251715717,3,-15.5260785689,-7.1377884924,1.75109864995,2.38304939926,36.9737188472,-3.84635974695,-0.00932720788195,0.0,-0.0554756030055,0.0,0.0328435795324,0.0,-3.08214799194,0.0,-0.0498666601733,0.0,-0.00103311672119,0.0,0.0019340213592,0.0,0.0741193519643,0.0,-0.00734649757012,0.0,-0.0,-0.0,0.592139422894,-1.5,-40.7031939779,36.6278421206,1.04412874381,-25.0,-1.04412880738,22.0,1.0471975512,-25.0,-1.0471975512,22.0,1483318.43446,0.0,0.0,0.0,0.0,0.0,0.0
1402759745271293874,3,-15.5260785689,-7.1377884924,1.75109864995,2.38304939926,36.9737188472,-3.84635974695,-0.00932720788195,0.0,-0.0554756030055,0.0,0.0328435795324,0.0,-3.08214799194,0.0,-0.0498666601733,0.0,-0.00103311672119,0.0,0.0019340213592,0.0,0.0741193519643,0.0,-0.00734649757012,0.0,-0.0,-0.0,0.592139422894,-1.5,-40.7031939779,36.6278421206,1.04412874381,-25.0,-1.04412880738,22.0,1.0471975512,-25.0,-1.0471975512,22.0,1483318.43446,0.0,0.0,0.0,0.0,0.0,0.0
1402759745291543642,3,-15.5062795762,-7.1377884924,1.74996623797,2.38304939926,36.9683007864,-3.84635974695,0.0145636368174,0.0,-0.0653034072757,0.0,0.0360826187289,0.0,-3.08436537386,0.0,-0.0537996224781,0.0,-0.00297575653136,0.0,-0.00200192928719,0.0,0.0720460062508,0.0,-0.00547590088521,0.0,-0.0,-0.0,0.592139422894,-1.5,-40.7031939779,36.6278421206,1.04412874381,-25.0,-1.04412880738,22.0,1.0471975512,-25.0,-1.0471975512,22.0,1483318.43446,0.0,0.0,0.0,0.0,0.0,0.0
1402759745311217152,3,-15.5062795762,-7.1377884924,1.74996623797,2.38304939926,36.9683007864,-3.84635974695,0.0145636368174,0.0,-0.0653034072757,0.0,0.0360826187289,0.0,-3.08436537386,0.0,-0.0537996224781,0.0,-0.00297575653136,0.0,-0.00200192928719,0.0,0.0720460062508,0.0,-0.00547590088521,0.0,-0.0,-0.0,0.592139422894,-1.5,-40.7031939779,36.6278421206,1.04412874381,-25.0,-1.04259458383,22.0,1.0471975512,-25.0,-1.0471975512,22.0,1483318.43446,0.0,0.0,0.0,0.0,0.0,0.0
1402759745331502142,3,-15.493029311,-7.1377884924,1.75319859947,2.38304939926,36.9537124243,-3.84635974695,0.0174112455723,0.0,-0.0593723133056,0.0,0.0363275623101,0.0,-3.086417556,0.0,-0.0494600679479,0.0,-0.00232187335039,0.0,-0.00807663001737,0.0,0.0720748226415,0.0,-0.00375105565743,0.0,-0.0,-0.0,0.592139422894,-1.5,-40.7031939779,36.6278421206,1.04412874381,-25.0,-1.04412880738,22.0,1.0471975512,-25.0,-1.0471975512,22.0,1483318.43446,0.0,0.0,0.0,0.0,0.0,0.0
1402759745351009578,3,-15.493029311,-7.1377884924,1.75319859947,2.38304939926,36.9537124243,-3.84635974695,0.0174112455723,0.0,-0.0593723133056,0.0,0.0363275623101,0.0,-3.086417556,0.0,-0.0494600679479,0.0,-0.00232187335039,0.0,-0.00807663001737,0.0,0.0720748226415,0.0,-0.00375105565743,0.0,-0.0,-0.0,0.592139422894,-1.5,-40.7031939779,36.6278421206,1.04412874381,-25.0,-1.04412880738,22.0,1.0471975512,-25.0,-1.0471975512,22.0,1483318.43446,0.0,0.0,0.0,0.0,0.0,0.0
1402759745371261069,3,-15.4824315209,-7.1377884924,1.75713544675,2.38304939926,36.9375578707,-3.84635974695,0.012808401126,0.0,-0.0519934704068,0.0,0.03793597056,0.0,-3.08828226957,0.0,-0.0449680643165,0.0,-0.00109965932521,0.0,-0.00148427326652,0.0,0.0728006525538,0.0,0.00219286862895,0.0,-0.0,-0.0,0.592139422894,-1.5,-40.7031939779,36.6278421206,1.04412874381,-25.0,-1.04412880738,22.0,1.0471975512,-25.0,-1.0471975512,22.0,1483318.43446,0.0,0.0,0.0,0.0,0.0,0.0
1402759745391033132,3,-15.4824315209,-7.1377884924,1.75713544675,2.38304939926,36.9375578707,-3.84635974695,0.012808401126,0.0,-0.0519934704068,0.0,0.03793597056,0.0,-3.08828226957,0.0,-0.0449680643165,0.0,-0.00109965932521,0.0,-0.00148427326652,0.0,0.0728006525538,0.0,0.00219286862895,0.0,-0.0,-0.0,0.592139422894,-1.5,-40.7031939779,36.6278421206,1.04412874381,-25.0,-1.04412880738,22.0,1.0471975512,-25.0,-1.0471975512,22.0,1483318.43446,0.0,0.0,0.0,0.0,0.0,0.0
1402759745411738404,3,-15.4751980019,-7.1377884924,1.75271380257,2.38304939926,36.9233857048,-3.84635974695,0.00554394829564,0.0,-0.0689250024744,0.0,0.0401363841203,0.0,-3.09033748797,0.0,-0.0567060891457,0.0,-0.00283777457193,0.0,-0.00282143883294,0.0,0.0734233534461,0.0,0.000357727131271,0.0,-0.0,-0.0,0.592139422894,-1.5,-40.7031939779,36.6278421206,1.04412874381,-25.0,-1.04412880738,22.0,1.0471975512,-25.0,-1.0471975512,22.0,1483318.43446,0.0,0.0,0.0,0.0,0.0,0.0
1402759745430909499,3,-15.4751980019,-7.1377884924,1.75271380257,2.38304939926,36.9233857048,-3.84635974695,0.00554394829564,0.0,-0.0689250024744,0.0,0.0401363841203,0.0,-3.09033748797,0.0,-0.0567060891457,0.0,-0.00283777457193,0.0,-0.00282143883294,0.0,0.0734233534461,0.0,0.000357727131271,0.0,-0.0,-0.0,0.592139422894,-1.5,-40.7031939779,36.6278421206,1.04412874381,-25.0,-1.04412880738,22.0,1.0471975512,-25.0,-1.0471975512,22.0,1483318.43446,0.0,0.0,0.0,0.0,0.0,0.0
1402759745451146971,3,-15.4750448522,-7.1377884924,1.75003283911,2.38304939926,36.9249250946,-3.84635974695,0.00560080246979,0.0,-0.0688443863757,0.0,0.0460657253944,0.0,-3.09239510337,0.0,-0.0548441448368,0.0,-0.00252344553375,0.0,-0.012393554903,0.0,0.0732369178438,0.0,0.00263256930474,0.0,-0.0,-0.0,0.592139422894,-1.5,-40.7031939779,36.6278421206,1.04412874381,-25.0,-1.04412880738,22.0,1.0471975512,-25.0,-1.0471975512,22.0,1483318.43446,0.0,0.0,0.0,0.0,0.0,0.0
1402759745471198909,3,-15.4750448522,-7.1377884924,1.75003283911,2.38304939926,36.9249250946,-3.84635974695,0.00560080246979,0.0,-0.0688443863757,0.0,0.0460657253944,0.0,-3.09239510337,0.0,-0.0548441448368,0.0,-0.00252344553375,0.0,-0.012393554903,0.0,0.0732369178438,0.0,0.00263256930474,0.0,-0.0,-0.0,0.592139422894,-1.5,-40.7031939779,36.6278421206,1.04412874381,-25.0,-1.04412880738,22.0,1.0471975512,-25.0,-1.0471975512,22.0,1483318.43446,0.0,0.0,0.0,0.0,0.0,0.0
1402759745491586724,3,-15.4584052478,-7.1377884924,1.75097559678,2.38304939926,36.9124242328,-3.84635974695,0.0166406191317,0.0,-0.0686743541016,0.0,0.0496892387392,0.0,-3.09446734731,0.0,-0.047190029831,0.0,-0.00228061074211,0.0,-0.00983213457604,0.0,0.0719696596885,0.0,0.00816683600999,0.0,-0.0,-0.0,0.592139422894,-1.5,-40.7031939779,36.6278421206,1.04412874381,-25.0,-1.04412880738,22.0,1.0471975512,-25.0,-1.0471975512,22.0,1483318.43446,0.0,0.0,0.0,0.0,0.0,0.0
1402759745511143372,3,-15.4584052478,-7.1377884924,1.75097559678,2.38304939926,36.9124242328,-3.84635974695,0.0166406191317,0.0,-0.0686743541016,0.0,0.0496892387392,0.0,-3.09446734731,0.0,-0.047190029831,0.0,-0.00228061074211,0.0,-0.00983213457604,0.0,0.0719696596885,0.0,0.00816683600999,0.0,-0.0,-0.0,0.592139422894,-1.5,-40.7031939779,36.6278421206,1.04412874381,-25.0,-1.04412880738,22.0,1.0471975512,-25.0,-1.0471975512,22.0,1483318.43446,0.0,0.0,0.0,0.0,0.0,0.0
1402759745531064358,3,-15.4494100177,-7.1377884924,1.7516692617,2.38304939926,36.8971952471,-3.84635974695,0.0106074709982,0.0,-0.0671374126857,0.0,0.0512901203005,0.0,-3.09658537775,0.0,-0.0568971501544,0.0,-0.00127928539914,0.0,-0.0110428560282,0.0,0.0723071309341,0.0,0.0145104696107,0.0,-0.0,-0.0,0.592139422894,-1.5,-40.7031939779,36.6278421206,1.04412874381,-25.0,-1.04412880738,22.0,1.0471975512,-25.0,-1.0471975512,22.0,1483318.43446,0.0,0.0,0.0,0.0,0.0,0.0
1402759745551882957,3,-15.4494100177,-7.1377884924,1.7516692617,2.38304939926,36.8971952471,-3.84635974695,0.0106074709982,0.0,-0.0671374126857,0.0,0.0512901203005,0.0,-3.09658537775,0.0,-0.0568971501544,0.0,-0.00127928539914,0.0,-0.0110428560282,0.0,0.0723071309341,0.0,0.0145104696107,0.0,-0.0,-0.0,0.592139422894,-1.5,-40.7031939779,36.6278421206,1.04412874381,-25.0,-1.04412880738,22.0,1.0471975512,-25.0,-1.0471975512,22.0,1483318.43446,0.0,0.0,0.0,0.0,0.0,0.0
1402759745571055050,3,-15.4490899091,-7.1377884924,1.74875755777,2.38304939926,36.8997271446,-3.84635974695,0.010731401908,0.0,-0.0683691901917,0.0,0.0558607529817,0.0,-3.09873325892,0.0,-0.0516883325638,0.0,-0.00091630188877,0.0,-0.00779124824116,0.0,0.0718281140367,0.0,0.0127680230204,0.0,-0.0,-0.0,0.592139422894,-1.5,-40.7031939779,36.6278421206,1.04412874381,-25.0,-1.04412880738,22.0,1.0471975512,-25.0,-1.0471975512,22.0,1483318.43446,0.0,0.0,0.0,0.0,0.0,0.0
1402759745591089002,3,-15.4490899091,-7.1377884924,1.74875755777,2.38304939926,36.8997271446,-3.84635974695,0.010731401908,0.0,-0.0683691901917,0.0,0.0558607529817,0.0,-3.09873325892,0.0,-0.0516883325638,0.0,-0.00091630188877,0.0,-0.00779124824116,0.0,0.0718281140367,0.0,0.0127680230204,0.0,-0.0,-0.0,0.592139422894,-1.5,-40.7031939779,36.6278421206,1.04412874381,-25.0,-1.04412880738,22.0,1.0471975512,-25.0,-1.0471975512,22.0,1483318.43446,0.0,0.0,0.0,0.0,0.0,0.0
