rosbagTimestamp,transforms,-,header,seq,stamp,secs,nsecs,frame_id,child_frame_id,transform,translation,x,y,z,rotation,x,y,z,w
1402416671277720791,,errorv,,0,,1402416671,277493111,base_link,/z_drive,,,0.0,0.0,0.0,,0.0,0.0,0.0,1.0
1402416671277807323,,errorv,,0,,1402416671,277592844,/z_drive,port,,,-0.3,0.3048,0.0,,0.0,0.0,0.0,1.0
1402416671277886132,,errorv,,0,,1402416671,277686648,/z_drive,starboard,,,-0.3,-0.3048,0.0,,0.0,0.0,0.0,1.0
1402416671282959937,,errorv,,0,,1402416671,223639965,/enu,/base_link,,,2.90159892434,12.8213736548,-29.383569348,,0.0138299836957,0.012473835205,-0.790856718333,0.611717897445
1402416671283071853,,errorv,,0,,1402416671,233642101,/enu,/base_link,,,2.89780973023,12.7976515043,-29.3799563123,,0.014016590298,0.0123609422898,-0.791605475615,0.610746685033
1402416671283095363,,errorv,,0,,1402416671,244609117,/enu,/base_link,,,2.89296994792,12.77188361,-29.3764601573,,0.014233148632,0.0122435207327,-0.792420308543,0.6096864508
1402416671288742914,,errorv,,0,,1402416671,388535844,/base_link,/gps,,,-0.84,0.0,-0.14,,0.0,0.0,0.0,1.0
1402416671288858619,,errorv,,0,,1402416671,388691206,base_link,imu,,,0.13,0.0,-0.1,,1.0,0.0,0.0,0.0
1402416671291423084,,errorv,,0,,1402416671,254607915,/enu,/base_link,,,2.88925516746,12.7483973863,-29.3733065326,,0.0143884757807,0.0122172862155,-0.793164937446,0.608714293974
1402416671291504597,,errorv,,0,,1402416671,264609098,/enu,/base_link,,,2.88440495881,12.7251144294,-29.3701771031,,0.0145264595112,0.0121065634362,-0.793935857528,0.607707386187
1402416671297790510,,errorv,,0,,1402416671,297621852,base_link,/z_drive,,,0.0,0.0,0.0,,0.0,0.0,0.0,1.0
1402416671297813398,,errorv,,0,,1402416671,297640770,/z_drive,port,,,-0.3,0.3048,0.0,,0.0,0.0,0.0,1.0
1402416671297828831,,errorv,,0,,1402416671,297650298,/z_drive,starboard,,,-0.3,-0.3048,0.0,,0.0,0.0,0.0,1.0
1402416671317835425,,errorv,,0,,1402416671,317440201,base_link,/z_drive,,,0.0,0.0,0.0,,0.0,0.0,0.0,1.0
1402416671317860323,,errorv,,0,,1402416671,317485347,/z_drive,port,,,-0.3,0.3048,0.0,,0.0,0.0,0.0,1.0
1402416671317880746,,errorv,,0,,1402416671,317495062,/z_drive,starboard,,,-0.3,-0.3048,0.0,,0.0,0.0,0.0,1.0
1402416671331007557,,errorv,,0,,1402416671,274605989,/enu,/base_link,,,2.88023980071,12.7016013803,-29.3668114528,,0.0147105288281,0.0120753839478,-0.794678587874,0.606732006259
1402416671331039661,,errorv,,0,,1402416671,285609006,/enu,/base_link,,,2.8753841691,12.6757931737,-29.3634067178,,0.0149494387066,0.011964522164,-0.795507599563,0.605641002187
1402416671337657386,,errorv,,0,,1402416671,337436935,base_link,/z_drive,,,0.0,0.0,0.0,,0.0,0.0,0.0,1.0
1402416671337688096,,errorv,,0,,1402416671,337473463,/z_drive,port,,,-0.3,0.3048,0.0,,0.0,0.0,0.0,1.0
1402416671337715812,,errorv,,0,,1402416671,337482989,/z_drive,starboard,,,-0.3,-0.3048,0.0,,0.0,0.0,0.0,1.0
1402416671357665881,,errorv,,0,,1402416671,357489343,base_link,/z_drive,,,0.0,0.0,0.0,,0.0,0.0,0.0,1.0
1402416671357726990,,errorv,,0,,1402416671,357506396,/z_drive,port,,,-0.3,0.3048,0.0,,0.0,0.0,0.0,1.0
1402416671357756240,,errorv,,0,,1402416671,357516210,/z_drive,starboard,,,-0.3,-0.3048,0.0,,0.0,0.0,0.0,1.0
1402416671370996748,,errorv,,0,,1402416671,295608043,/enu,/base_link,,,2.87137504632,12.652357758,-29.3602146536,,0.0151723240491,0.0119955963705,-0.796258950538,0.604646665366
1402416671371130327,,errorv,,0,,1402416671,305596113,/enu,/base_link,,,2.86731511922,12.6289173736,-29.3569142676,,0.0154076810793,0.0120067619248,-0.797017884043,0.603639738211
1402416671371157343,,errorv,,0,,1402416671,316596984,/enu,/base_link,,,2.86239390666,12.6031854544,-29.353464081,,0.0155972259363,0.0120076637889,-0.797866221015,0.602513100203
1402416671371178184,,errorv,,0,,1402416671,326570987,/enu,/base_link,,,2.85820485142,12.5798775484,-29.3502936287,,0.0158083324876,0.0121278774344,-0.798619131475,0.601506852875
1402416671377733490,,errorv,,0,,1402416671,377512274,base_link,/z_drive,,,0.0,0.0,0.0,,0.0,0.0,0.0,1.0
1402416671377761967,,errorv,,0,,1402416671,377526523,/z_drive,port,,,-0.3,0.3048,0.0,,0.0,0.0,0.0,1.0
1402416671377784401,,errorv,,0,,1402416671,377530833,/z_drive,starboard,,,-0.3,-0.3048,0.0,,0.0,0.0,0.0,1.0
1402416671388843867,,errorv,,0,,1402416671,488638477,/base_link,/gps,,,-0.84,0.0,-0.14,,0.0,0.0,0.0,1.0
1402416671389016194,,errorv,,0,,1402416671,488799698,base_link,imu,,,0.13,0.0,-0.1,,1.0,0.0,0.0,0.0
1402416671397730148,,errorv,,0,,1402416671,397488837,base_link,/z_drive,,,0.0,0.0,0.0,,0.0,0.0,0.0,1.0
1402416671397762745,,errorv,,0,,1402416671,397509848,/z_drive,port,,,-0.3,0.3048,0.0,,0.0,0.0,0.0,1.0
1402416671397873807,,errorv,,0,,1402416671,397520127,/z_drive,starboard,,,-0.3,-0.3048,0.0,,0.0,0.0,0.0,1.0
1402416671411368494,,errorv,,0,,1402416671,337619066,/enu,/base_link,,,2.85312401281,12.5539503454,-29.3467138364,,0.0160122232017,0.0121256827677,-0.799486873849,0.600347661833
1402416671411391955,,errorv,,0,,1402416671,347578048,/enu,/base_link,,,2.84922750079,12.530732173,-29.3436083731,,0.0162184397225,0.0122745982457,-0.800250928287,0.599320238459
1402416671411408953,,errorv,,0,,1402416671,357656002,/enu,/base_link,,,2.84500891154,12.5073520565,-29.3406722998,,0.0163858112359,0.0123425269485,-0.801040368931,0.598258718751
1402416671411436103,,errorv,,0,,1402416671,368567943,/enu,/base_link,,,2.83886729743,12.4819232019,-29.3370037089,,0.0166373303503,0.012558321142,-0.801889848038,0.597108163922
1402416671417659756,,errorv,,0,,1402416671,417501259,base_link,/z_drive,,,0.0,0.0,0.0,,0.0,0.0,0.0,1.0
1402416671417685919,,errorv,,0,,1402416671,417525120,/z_drive,port,,,-0.3,0.3048,0.0,,0.0,0.0,0.0,1.0
1402416671417778809,,errorv,,0,,1402416671,417537899,/z_drive,starboard,,,-0.3,-0.3048,0.0,,0.0,0.0,0.0,1.0
1402416671437751125,,errorv,,0,,1402416671,437485739,base_link,/z_drive,,,0.0,0.0,0.0,,0.0,0.0,0.0,1.0
1402416671437778149,,errorv,,0,,1402416671,437517966,/z_drive,port,,,-0.3,0.3048,0.0,,0.0,0.0,0.0,1.0
1402416671437807374,,errorv,,0,,1402416671,437528118,/z_drive,starboard,,,-0.3,-0.3048,0.0,,0.0,0.0,0.0,1.0
1402416671451046009,,errorv,,0,,1402416671,378555059,/enu,/base_link,,,2.83485441516,12.4586980126,-29.3338496543,,0.0168646782615,0.0127453423846,-0.8026765394,0.596039857704
1402416671451135882,,errorv,,0,,1402416671,388569116,/enu,/base_link,,,2.83054411646,12.4354656682,-29.3306400048,,0.0170421799808,0.0128971655436,-0.803488973667,0.594935875888
1402416671451157784,,errorv,,0,,1402416671,399544000,/enu,/base_link,,,2.82545707605,12.4100939598,-29.3273649949,,0.0172824601147,0.0132715762354,-0.804384144947,0.593709802172
1402416671451185073,,errorv,,0,,1402416671,409564971,/enu,/base_link,,,2.82145402704,12.3873143063,-29.3247665111,,0.017376522865,0.0135412402834,-0.805219591575,0.592567380648
1402416671457654856,,errorv,,0,,1402416671,457502441,base_link,/z_drive,,,0.0,0.0,0.0,,0.0,0.0,0.0,1.0
1402416671457822606,,errorv,,0,,1402416671,457521661,/z_drive,port,,,-0.3,0.3048,0.0,,0.0,0.0,0.0,1.0
1402416671457851432,,errorv,,0,,1402416671,457562506,/z_drive,starboard,,,-0.3,-0.3048,0.0,,0.0,0.0,0.0,1.0
1402416671477702190,,errorv,,0,,1402416671,477489866,base_link,/z_drive,,,0.0,0.0,0.0,,0.0,0.0,0.0,1.0
1402416671477730477,,errorv,,0,,1402416671,477524752,/z_drive,port,,,-0.3,0.3048,0.0,,0.0,0.0,0.0,1.0
1402416671477757515,,errorv,,0,,1402416671,477533728,/z_drive,starboard,,,-0.3,-0.3048,0.0,,0.0,0.0,0.0,1.0
1402416671488945284,,errorv,,0,,1402416671,588742554,/base_link,/gps,,,-0.84,0.0,-0.14,,0.0,0.0,0.0,1.0
1402416671489107100,,errorv,,0,,1402416671,588898182,base_link,imu,,,0.13,0.0,-0.1,,1.0,0.0,0.0,0.0
1402416671491135686,,errorv,,0,,1402416671,419553041,/enu,/base_link,,,2.81724737211,12.3640618113,-29.3212453705,,0.0175181010847,0.0139718986935,-0.806060516231,0.591408781093
1402416671491162842,,errorv,,0,,1402416671,430551052,/enu,/base_link,,,2.81251395128,12.3389754621,-29.3183022696,,0.0175764786688,0.0143880103787,-0.806970800343,0.590154369592
1402416671491187552,,errorv,,0,,1402416671,440551996,/enu,/base_link,,,2.80811307176,12.3159250106,-29.3149586788,,0.0176661501696,0.0149107346697,-0.807787013506,0.589020982598
1402416671491212484,,errorv,,0,,1402416671,451558113,/enu,/base_link,,,2.80312668858,12.2907358945,-29.3118400869,,0.0178741683324,0.0152682285593,-0.808737113405,0.587700328998
1402416671491246040,,errorv,,0,,1402416671,461524963,/enu,/base_link,,,2.79830089038,12.2680769763,-29.3089012381,,0.018002115201,0.0156115233461,-0.809586465626,0.586516801858
1402416671497821596,,errorv,,0,,1402416671,497521059,base_link,/z_drive,,,0.0,0.0,0.0,,0.0,0.0,0.0,1.0
1402416671497839549,,errorv,,0,,1402416671,497541490,/z_drive,port,,,-0.3,0.3048,0.0,,0.0,0.0,0.0,1.0
1402416671497860167,,errorv,,0,,1402416671,497566010,/z_drive,starboard,,,-0.3,-0.3048,0.0,,0.0,0.0,0.0,1.0
1402416671517930741,,errorv,,0,,1402416671,517475110,base_link,/z_drive,,,0.0,0.0,0.0,,0.0,0.0,0.0,1.0
1402416671517956784,,errorv,,0,,1402416671,517494942,/z_drive,port,,,-0.3,0.3048,0.0,,0.0,0.0,0.0,1.0
1402416671517985795,,errorv,,0,,1402416671,517538334,/z_drive,starboard,,,-0.3,-0.3048,0.0,,0.0,0.0,0.0,1.0
1402416671531038507,,errorv,,0,,1402416671,472496032,/enu,/base_link,,,2.79330547285,12.2430074085,-29.3056230087,,0.0181480387691,0.0161190207805,-0.810531774949,0.58519147948
1402416671531065497,,errorv,,0,,1402416671,482496023,/enu,/base_link,,,2.7891517811,12.2203510471,-29.3027651301,,0.0181460189298,0.016587709436,-0.811384108849,0.583996059747
1402416671531088429,,errorv,,0,,1402416671,492472887,/enu,/base_link,,,2.78503931018,12.1976433909,-29.2995925093,,0.0181218920162,0.0171263161284,-0.812255517912,0.582768616131
1402416671537603528,,errorv,,0,,1402416671,537464887,base_link,/z_drive,,,0.0,0.0,0.0,,0.0,0.0,0.0,1.0
1402416671537675740,,errorv,,0,,1402416671,537481180,/z_drive,port,,,-0.3,0.3048,0.0,,0.0,0.0,0.0,1.0
1402416671537694775,,errorv,,0,,1402416671,537488322,/z_drive,starboard,,,-0.3,-0.3048,0.0,,0.0,0.0,0.0,1.0
1402416671539166773,,errorv,,0,,1402416671,503474950,/enu,/base_link,,,2.77983251357,12.172557044,-29.2960745796,,0.0181495753834,0.0176681774966,-0.813244130488,0.581371148788
1402416671539450342,,errorv,,0,,1402416671,513472080,/enu,/base_link,,,2.77572050131,12.1501978305,-29.293538098,,0.0182639561437,0.0179843197359,-0.814138580762,0.580104614242
1402416671557772545,,errorv,,0,,1402416671,557532528,base_link,/z_drive,,,0.0,0.0,0.0,,0.0,0.0,0.0,1.0
1402416671558005372,,errorv,,0,,1402416671,557630919,/z_drive,port,,,-0.3,0.3048,0.0,,0.0,0.0,0.0,1.0
1402416671558032486,,errorv,,0,,1402416671,557668094,/z_drive,starboard,,,-0.3,-0.3048,0.0,,0.0,0.0,0.0,1.0
1402416671577737209,,errorv,,0,,1402416671,577481750,base_link,/z_drive,,,0.0,0.0,0.0,,0.0,0.0,0.0,1.0
1402416671577764041,,errorv,,0,,1402416671,577509764,/z_drive,port,,,-0.3,0.3048,0.0,,0.0,0.0,0.0,1.0
1402416671577780043,,errorv,,0,,1402416671,577520622,/z_drive,starboard,,,-0.3,-0.3048,0.0,,0.0,0.0,0.0,1.0
1402416671579148805,,errorv,,0,,1402416671,524472951,/enu,/base_link,,,2.77051622269,12.1254429546,-29.2905345302,,0.018393632459,0.0183596153517,-0.815118006315,0.578711702483
1402416671579175167,,errorv,,0,,1402416671,534472942,/enu,/base_link,,,2.76606131003,12.1027701625,-29.2871562422,,0.0183700970514,0.0188143589249,-0.816012260298,0.577436187362
1402416671589066611,,errorv,,0,,1402416671,688841294,/base_link,/gps,,,-0.84,0.0,-0.14,,0.0,0.0,0.0,1.0
1402416671589241714,,errorv,,0,,1402416671,689040671,base_link,imu,,,0.13,0.0,-0.1,,1.0,0.0,0.0,0.0
1402416671597652443,,errorv,,0,,1402416671,597497091,base_link,/z_drive,,,0.0,0.0,0.0,,0.0,0.0,0.0,1.0
1402416671597723212,,errorv,,0,,1402416671,597515699,/z_drive,port,,,-0.3,0.3048,0.0,,0.0,0.0,0.0,1.0
1402416671597752374,,errorv,,0,,1402416671,597519832,/z_drive,starboard,,,-0.3,-0.3048,0.0,,0.0,0.0,0.0,1.0
1402416671617757710,,errorv,,0,,1402416671,617501639,base_link,/z_drive,,,0.0,0.0,0.0,,0.0,0.0,0.0,1.0
1402416671617783236,,errorv,,0,,1402416671,617520479,/z_drive,port,,,-0.3,0.3048,0.0,,0.0,0.0,0.0,1.0
1402416671617854256,,errorv,,0,,1402416671,617529297,/z_drive,starboard,,,-0.3,-0.3048,0.0,,0.0,0.0,0.0,1.0
1402416671619247938,,errorv,,0,,1402416671,545471906,/enu,/base_link,,,2.76095105354,12.077888219,-29.2837516087,,0.0183730229473,0.0193199208064,-0.817013123442,0.576002368755
1402416671619477777,,errorv,,0,,1402416671,555444955,/enu,/base_link,,,2.75671474522,12.0555294443,-29.2808074499,,0.0182470564535,0.0199096464065,-0.817915601152,0.574704028438
1402416671619540714,,errorv,,0,,1402416671,566446065,/enu,/base_link,,,2.75150021281,12.0306018625,-29.277208857,,0.0181999620725,0.0204481683732,-0.818911943997,0.573265960763
1402416671619563103,,errorv,,0,,1402416671,576446056,/enu,/base_link,,,2.7479087469,12.0080229542,-29.274373198,,0.0182839938878,0.0208819706705,-0.819821179706,0.57194656409
1402416671637719729,,errorv,,0,,1402416671,637504340,base_link,/z_drive,,,0.0,0.0,0.0,,0.0,0.0,0.0,1.0
1402416671637749501,,errorv,,0,,1402416671,637523433,/z_drive,port,,,-0.3,0.3048,0.0,,0.0,0.0,0.0,1.0
1402416671637773001,,errorv,,0,,1402416671,637533010,/z_drive,starboard,,,-0.3,-0.3048,0.0,,0.0,0.0,0.0,1.0
1402416671657722278,,errorv,,0,,1402416671,657478092,base_link,/z_drive,,,0.0,0.0,0.0,,0.0,0.0,0.0,1.0
1402416671657746830,,errorv,,0,,1402416671,657494792,/z_drive,port,,,-0.3,0.3048,0.0,,0.0,0.0,0.0,1.0
1402416671657835693,,errorv,,0,,1402416671,657503490,/z_drive,starboard,,,-0.3,-0.3048,0.0,,0.0,0.0,0.0,1.0
1402416671659135472,,errorv,,0,,1402416671,586445093,/enu,/base_link,,,2.74328114462,11.985713422,-29.2713427345,,0.0183149559584,0.0211682791045,-0.820754932798,0.570594257451
1402416671659158293,,errorv,,0,,1402416671,597457885,/enu,/base_link,,,2.73816812727,11.9610895482,-29.2682706263,,0.0182912840431,0.0215594669291,-0.821787380292,0.569092365005
1402416671659187227,,errorv,,0,,1402416671,607445955,/enu,/base_link,,,2.73467943845,11.9386716694,-29.2656476446,,0.018193198544,0.0220870598488,-0.822713852542,0.567735049252
1402416671659204675,,errorv,,0,,1402416671,618468999,/enu,/base_link,,,2.72932034815,11.9143764883,-29.2620610584,,0.0180615879167,0.0225901375867,-0.823717094974,0.566262847247
1402416671659248795,,errorv,,0,,1402416671,628444910,/enu,/base_link,,,2.72491139176,11.892034866,-29.2587036343,,0.017894948411,0.023100077284,-0.824635550251,0.564909166604
1402416671677657460,,errorv,,0,,1402416671,677518877,base_link,/z_drive,,,0.0,0.0,0.0,,0.0,0.0,0.0,1.0
1402416671677826739,,errorv,,0,,1402416671,677535339,/z_drive,port,,,-0.3,0.3048,0.0,,0.0,0.0,0.0,1.0
1402416671677856652,,errorv,,0,,1402416671,677577233,/z_drive,starboard,,,-0.3,-0.3048,0.0,,0.0,0.0,0.0,1.0
1402416671689117656,,errorv,,0,,1402416671,788954368,/base_link,/gps,,,-0.84,0.0,-0.14,,0.0,0.0,0.0,1.0
1402416671689329136,,errorv,,0,,1402416671,789146682,base_link,imu,,,0.13,0.0,-0.1,,1.0,0.0,0.0,0.0
1402416671697698489,,errorv,,0,,1402416671,697491151,base_link,/z_drive,,,0.0,0.0,0.0,,0.0,0.0,0.0,1.0
1402416671697722288,,errorv,,0,,1402416671,697525108,/z_drive,port,,,-0.3,0.3048,0.0,,0.0,0.0,0.0,1.0
1402416671697749186,,errorv,,0,,1402416671,697541680,/z_drive,starboard,,,-0.3,-0.3048,0.0,,0.0,0.0,0.0,1.0
1402416671699136009,,errorv,,0,,1402416671,639467954,/enu,/base_link,,,2.71966077994,11.8675357093,-29.2554981069,,0.017742057574,0.0234618953221,-0.825663889953,0.563394976627
1402416671699159391,,errorv,,0,,1402416671,649444103,/enu,/base_link,,,2.71629463591,11.8449381022,-29.2525683587,,0.0177710123789,0.0235800858608,-0.82660314411,0.56201015366
1402416671699175299,,errorv,,0,,1402416671,660439014,/enu,/base_link,,,2.71070016132,11.8205511209,-29.2492322234,,0.0177370415428,0.0239066070913,-0.827613762999,0.560508100556
1402416671707492317,,errorv,,0,,1402416671,670454025,/enu,/base_link,,,2.70806003533,11.7977463721,-29.2464432226,,0.0175638474076,0.0241761012962,-0.828547902873,0.559120201777
1402416671707658514,,errorv,,0,,1402416671,680438041,/enu,/base_link,,,2.70367144713,11.7756065857,-29.2432406503,,0.0173999169043,0.0245894468592,-0.829484680007,0.557716565676
1402416671707688793,,errorv,,0,,1402416671,691440105,/enu,/base_link,,,2.69813443972,11.7514185704,-29.240091807,,0.0172865044004,0.0248524587213,-0.830510225548,0.556180094323
1402416671707711255,,errorv,,0,,1402416671,701419115,/enu,/base_link,,,2.6934505359,11.729412075,-29.2369311966,,0.0172432038369,0.0251520658312,-0.831420536349,0.554806215938
1402416671717667677,,errorv,,0,,1402416671,717484988,base_link,/z_drive,,,0.0,0.0,0.0,,0.0,0.0,0.0,1.0
1402416671717883643,,errorv,,0,,1402416671,717502416,/z_drive,port,,,-0.3,0.3048,0.0,,0.0,0.0,0.0,1.0
1402416671717913707,,errorv,,0,,1402416671,717507926,/z_drive,starboard,,,-0.3,-0.3048,0.0,,0.0,0.0,0.0,1.0
1402416671737734257,,errorv,,0,,1402416671,737423063,base_link,/z_drive,,,0.0,0.0,0.0,,0.0,0.0,0.0,1.0
1402416671737763962,,errorv,,0,,1402416671,737459733,/z_drive,port,,,-0.3,0.3048,0.0,,0.0,0.0,0.0,1.0
1402416671737785126,,errorv,,0,,1402416671,737469409,/z_drive,starboard,,,-0.3,-0.3048,0.0,,0.0,0.0,0.0,1.0
1402416671747338725,,errorv,,0,,1402416671,712452888,/enu,/base_link,,,2.68788972554,11.7049233857,-29.2333234807,,0.0170631500088,0.0253450622146,-0.832434931105,0.553279822702
1402416671747782644,,errorv,,0,,1402416671,722470998,/enu,/base_link,,,2.6833336675,11.6830886623,-29.2304770463,,0.0170365156448,0.0254133063789,-0.833386557237,0.551843063933
1402416671757866634,,errorv,,0,,1402416671,757483166,base_link,/z_drive,,,0.0,0.0,0.0,,0.0,0.0,0.0,1.0
1402416671757896624,,errorv,,0,,1402416671,757715908,/z_drive,port,,,-0.3,0.3048,0.0,,0.0,0.0,0.0,1.0
1402416671757920738,,errorv,,0,,1402416671,757724531,/z_drive,starboard,,,-0.3,-0.3048,0.0,,0.0,0.0,0.0,1.0
1402416671777662238,,errorv,,0,,1402416671,777453768,base_link,/z_drive,,,0.0,0.0,0.0,,0.0,0.0,0.0,1.0
1402416671777689606,,errorv,,0,,1402416671,777466277,/z_drive,port,,,-0.3,0.3048,0.0,,0.0,0.0,0.0,1.0
1402416671777756997,,errorv,,0,,1402416671,777470413,/z_drive,starboard,,,-0.3,-0.3048,0.0,,0.0,0.0,0.0,1.0
1402416671787072860,,errorv,,0,,1402416671,732430934,/enu,/base_link,,,2.67863989292,11.6610219647,-29.2271954307,,0.0170269993289,0.0255621427862,-0.834319611132,0.550424785626
1402416671787136839,,errorv,,0,,1402416671,743421077,/enu,/base_link,,,2.67324946749,11.6367809938,-29.223778428,,0.0169269080322,0.0257464822901,-0.835330315223,0.548884198082
1402416671789249649,,errorv,,0,,1402416671,889046337,/base_link,/gps,,,-0.84,0.0,-0.14,,0.0,0.0,0.0,1.0
1402416671789406582,,errorv,,0,,1402416671,889239664,base_link,imu,,,0.13,0.0,-0.1,,1.0,0.0,0.0,0.0
1402416671797778804,,errorv,,0,,1402416671,797524239,base_link,/z_drive,,,0.0,0.0,0.0,,0.0,0.0,0.0,1.0
1402416671798019968,,errorv,,0,,1402416671,797542148,/z_drive,port,,,-0.3,0.3048,0.0,,0.0,0.0,0.0,1.0
1402416671798060979,,errorv,,0,,1402416671,797824593,/z_drive,starboard,,,-0.3,-0.3048,0.0,,0.0,0.0,0.0,1.0
1402416671818105401,,errorv,,0,,1402416671,817785144,base_link,/z_drive,,,0.0,0.0,0.0,,0.0,0.0,0.0,1.0
1402416671818143905,,errorv,,0,,1402416671,817822354,/z_drive,port,,,-0.3,0.3048,0.0,,0.0,0.0,0.0,1.0
1402416671818168428,,errorv,,0,,1402416671,817833686,/z_drive,starboard,,,-0.3,-0.3048,0.0,,0.0,0.0,0.0,1.0
1402416671827317856,,errorv,,0,,1402416671,753427028,/enu,/base_link,,,2.66848951366,11.6148806131,-29.2206636611,,0.0168506916134,0.0258784838331,-0.836261012993,0.547461301295
1402416671827337748,,errorv,,0,,1402416671,764393091,/enu,/base_link,,,2.66282804921,11.5908431616,-29.2171902674,,0.0167174322278,0.0260436271784,-0.837282789509,0.545893567772
1402416671827401557,,errorv,,0,,1402416671,774391889,/enu,/base_link,,,2.66005921769,11.5682040861,-29.2141302081,,0.0166302399538,0.0262482166198,-0.838212964466,0.544457062076
1402416671827417142,,errorv,,0,,1402416671,785389900,/enu,/base_link,,,2.65441378282,11.5440748778,-29.2107811115,,0.0165525582677,0.026349762807,-0.83923011597,0.54288536107
1402416671837909705,,errorv,,0,,1402416671,837600790,base_link,/z_drive,,,0.0,0.0,0.0,,0.0,0.0,0.0,1.0
1402416671837932529,,errorv,,0,,1402416671,837778956,/z_drive,port,,,-0.3,0.3048,0.0,,0.0,0.0,0.0,1.0
1402416671837958461,,errorv,,0,,1402416671,837790167,/z_drive,starboard,,,-0.3,-0.3048,0.0,,0.0,0.0,0.0,1.0
1402416671857850672,,errorv,,0,,1402416671,857533333,base_link,/z_drive,,,0.0,0.0,0.0,,0.0,0.0,0.0,1.0
1402416671857874766,,errorv,,0,,1402416671,857631455,/z_drive,port,,,-0.3,0.3048,0.0,,0.0,0.0,0.0,1.0
1402416671857944349,,errorv,,0,,1402416671,857645087,/z_drive,starboard,,,-0.3,-0.3048,0.0,,0.0,0.0,0.0,1.0
1402416671867240226,,errorv,,0,,1402416671,795391082,/enu,/base_link,,,2.64948999869,11.5221986182,-29.2074719571,,0.0165590279756,0.0263226557094,-0.840145401041,0.541468947861
1402416671867266220,,errorv,,0,,1402416671,805388927,/enu,/base_link,,,2.64480649442,11.5004138649,-29.2042878164,,0.016509057425,0.0263541066036,-0.841077526269,0.540019913423
1402416671867327987,,errorv,,0,,1402416671,815388917,/enu,/base_link,,,2.6400040762,11.4786262349,-29.2011353266,,0.0164738967958,0.0263815524214,-0.842009724414,0.538564989957
1402416671867428475,,errorv,,0,,1402416671,826392889,/enu,/base_link,,,2.63399547652,11.4546964707,-29.1977428772,,0.0164670945957,0.026411444148,-0.843027684478,0.53696889446
1402416671867450509,,errorv,,0,,1402416671,836355924,/enu,/base_link,,,2.62922378934,11.4332888522,-29.1948370781,,0.0165027736929,0.0264039709909,-0.843952091189,0.535514104906
1402416671878183221,,errorv,,0,,1402416671,877524251,base_link,/z_drive,,,0.0,0.0,0.0,,0.0,0.0,0.0,1.0
1402416671878220007,,errorv,,0,,1402416671,877551303,/z_drive,port,,,-0.3,0.3048,0.0,,0.0,0.0,0.0,1.0
1402416671878256192,,errorv,,0,,1402416671,877556342,/z_drive,starboard,,,-0.3,-0.3048,0.0,,0.0,0.0,0.0,1.0
1402416671889341668,,errorv,,0,,1402416671,989136759,/base_link,/gps,,,-0.84,0.0,-0.14,,0.0,0.0,0.0,1.0
1402416671889556130,,errorv,,0,,1402416671,989335282,base_link,imu,,,0.13,0.0,-0.1,,1.0,0.0,0.0,0.0
1402416671897741400,,errorv,,0,,1402416671,897505388,base_link,/z_drive,,,0.0,0.0,0.0,,0.0,0.0,0.0,1.0
1402416671897771694,,errorv,,0,,1402416671,897525471,/z_drive,port,,,-0.3,0.3048,0.0,,0.0,0.0,0.0,1.0
1402416671897811350,,errorv,,0,,1402416671,897532775,/z_drive,starboard,,,-0.3,-0.3048,0.0,,0.0,0.0,0.0,1.0
1402416671907192739,,errorv,,0,,1402416671,846354961,/enu,/base_link,,,2.62438784107,11.4117498517,-29.1917507762,,0.0164846581981,0.026293739763,-0.84488410165,0.534048452927
1402416671907214502,,errorv,,0,,1402416671,857353925,/enu,/base_link,,,2.61842906826,11.3878653172,-29.1880942314,,0.01647886836,0.0262535731096,-0.84591291365,0.532419514403
1402416671907239389,,errorv,,0,,1402416671,867358922,/enu,/base_link,,,2.61355146312,11.3663242153,-29.1850815307,,0.0165834100487,0.0261171212889,-0.846834933103,0.530955254766
1402416671915390946,,errorv,,0,,1402416671,877356052,/enu,/base_link,,,2.60841222779,11.3449139842,-29.1818921316,,0.0166246966664,0.0258805888161,-0.847782845479,0.529450716777
1402416671915422602,,errorv,,0,,1402416671,887357950,/enu,/base_link,,,2.60301374075,11.3235093604,-29.1787121386,,0.0166481483493,0.0257812748723,-0.848718000316,0.527954468645
1402416671917727394,,errorv,,0,,1402416671,917505608,base_link,/z_drive,,,0.0,0.0,0.0,,0.0,0.0,0.0,1.0
1402416671917756794,,errorv,,0,,1402416671,917527775,/z_drive,port,,,-0.3,0.3048,0.0,,0.0,0.0,0.0,1.0
1402416671917780826,,errorv,,0,,1402416671,917534679,/z_drive,starboard,,,-0.3,-0.3048,0.0,,0.0,0.0,0.0,1.0
1402416671937769452,,errorv,,0,,1402416671,937583177,base_link,/z_drive,,,0.0,0.0,0.0,,0.0,0.0,0.0,1.0
1402416671937808789,,errorv,,0,,1402416671,937607103,/z_drive,port,,,-0.3,0.3048,0.0,,0.0,0.0,0.0,1.0
1402416671937826127,,errorv,,0,,1402416671,937619376,/z_drive,starboard,,,-0.3,-0.3048,0.0,,0.0,0.0,0.0,1.0
1402416671955097938,,errorv,,0,,1402416671,898358106,/enu,/base_link,,,2.59708979935,11.2998404013,-29.1753597147,,0.0167242313523,0.0255414301837,-0.849736134065,0.526323510679
1402416671955124265,,errorv,,0,,1402416671,908328056,/enu,/base_link,,,2.59209208937,11.2786444475,-29.172243909,,0.0168293728858,0.0253758603898,-0.850659871763,0.524833898001
1402416671957684961,,errorv,,0,,1402416671,957516318,base_link,/z_drive,,,0.0,0.0,0.0,,0.0,0.0,0.0,1.0
1402416671957713496,,errorv,,0,,1402416671,957532527,/z_drive,port,,,-0.3,0.3048,0.0,,0.0,0.0,0.0,1.0
1402416671957737086,,errorv,,0,,1402416671,957542216,/z_drive,starboard,,,-0.3,-0.3048,0.0,,0.0,0.0,0.0,1.0
1402416671977734673,,errorv,,0,,1402416671,977490597,base_link,/z_drive,,,0.0,0.0,0.0,,0.0,0.0,0.0,1.0
1402416671977765215,,errorv,,0,,1402416671,977507845,/z_drive,port,,,-0.3,0.3048,0.0,,0.0,0.0,0.0,1.0
1402416671977792208,,errorv,,0,,1402416671,977516894,/z_drive,starboard,,,-0.3,-0.3048,0.0,,0.0,0.0,0.0,1.0
1402416671989425597,,errorv,,0,,1402416672,89236481,/base_link,/gps,,,-0.84,0.0,-0.14,,0.0,0.0,0.0,1.0
1402416671989623910,,errorv,,0,,1402416672,89439285,base_link,imu,,,0.13,0.0,-0.1,,1.0,0.0,0.0,0.0
1402416671995160823,,errorv,,0,,1402416671,918322086,/enu,/base_link,,,2.58690617845,11.2572071031,-29.1687304816,,0.0168712948635,0.0250933554839,-0.851603494853,0.523313644456
1402416671996175810,,errorv,,0,,1402416671,929330110,/enu,/base_link,,,2.58071475104,11.233688427,-29.1653026407,,0.0169833137852,0.024844375952,-0.852639084247,0.521632932291
1402416671996204234,,errorv,,0,,1402416671,939323902,/enu,/base_link,,,2.57552408919,11.2124570425,-29.1619891445,,0.0170764984965,0.0244387651938,-0.853575429156,0.520115493612
1402416671996228384,,errorv,,0,,1402416671,949302911,/enu,/base_link,,,2.57015582855,11.191531843,-29.1590277425,,0.0172004331677,0.0241042839704,-0.854509398109,0.518591184977
1402416671997648268,,errorv,,0,,1402416671,997507137,base_link,/z_drive,,,0.0,0.0,0.0,,0.0,0.0,0.0,1.0
1402416671997672018,,errorv,,0,,1402416671,997523450,/z_drive,port,,,-0.3,0.3048,0.0,,0.0,0.0,0.0,1.0
1402416671997751010,,errorv,,0,,1402416671,997530106,/z_drive,starboard,,,-0.3,-0.3048,0.0,,0.0,0.0,0.0,1.0
1402416672017683960,,errorv,,0,,1402416672,17489547,base_link,/z_drive,,,0.0,0.0,0.0,,0.0,0.0,0.0,1.0
1402416672017713027,,errorv,,0,,1402416672,17510523,/z_drive,port,,,-0.3,0.3048,0.0,,0.0,0.0,0.0,1.0
1402416672017784096,,errorv,,0,,1402416672,17517771,/z_drive,starboard,,,-0.3,-0.3048,0.0,,0.0,0.0,0.0,1.0
1402416672035058379,,errorv,,0,,1402416671,959322929,/enu,/base_link,,,2.56483584794,11.170464658,-29.1559773856,,0.0172958032931,0.0238184152246,-0.855451155858,0.51704628248
1402416672035323053,,errorv,,0,,1402416671,969302892,/enu,/base_link,,,2.55954398893,11.1495207807,-29.1526225025,,0.0173588926981,0.0234425234578,-0.856383272836,0.515516058862
1402416672035347481,,errorv,,0,,1402416671,980297088,/enu,/base_link,,,2.55303016907,11.1261625342,-29.1489843471,,0.0175683210758,0.0230631320582,-0.857404712531,0.513825461576
1402416672035372947,,errorv,,0,,1402416671,990314006,/enu,/base_link,,,2.54760031405,11.1052302065,-29.1457569006,,0.0176799036518,0.022635416943,-0.858326892007,0.512298746207
1402416672037662982,,errorv,,0,,1402416672,37506926,base_link,/z_drive,,,0.0,0.0,0.0,,0.0,0.0,0.0,1.0
1402416672037717616,,errorv,,0,,1402416672,37521991,/z_drive,port,,,-0.3,0.3048,0.0,,0.0,0.0,0.0,1.0
1402416672037778483,,errorv,,0,,1402416672,37530281,/z_drive,starboard,,,-0.3,-0.3048,0.0,,0.0,0.0,0.0,1.0
1402416672057647029,,errorv,,0,,1402416672,57486553,base_link,/z_drive,,,0.0,0.0,0.0,,0.0,0.0,0.0,1.0
1402416672057670530,,errorv,,0,,1402416672,57502484,/z_drive,port,,,-0.3,0.3048,0.0,,0.0,0.0,0.0,1.0
1402416672057687020,,errorv,,0,,1402416672,57508832,/z_drive,starboard,,,-0.3,-0.3048,0.0,,0.0,0.0,0.0,1.0
1402416672075357765,,errorv,,0,,1402416672,284910,/enu,/base_link,,,2.54231095623,11.0842705258,-29.1425810386,,0.0178310748666,0.0222465133225,-0.859270291932,0.510726649802
1402416672075384678,,errorv,,0,,1402416672,11298894,/enu,/base_link,,,2.53571333564,11.0610400644,-29.1387720762,,0.0179099327198,0.0217380739879,-0.860316914028,0.508980842358
1402416672075403482,,errorv,,0,,1402416672,21313905,/enu,/base_link,,,2.53053077948,11.0399787365,-29.1354948578,,0.0180119527404,0.0213191444291,-0.861271539473,0.507377964572
1402416672075475005,,errorv,,0,,1402416672,31290054,/enu,/base_link,,,2.52493874619,11.0190120243,-29.1319703493,,0.0181363071628,0.0209482402728,-0.862228767071,0.505760614152
1402416672077691514,,errorv,,0,,1402416672,77526753,base_link,/z_drive,,,0.0,0.0,0.0,,0.0,0.0,0.0,1.0
1402416672077768574,,errorv,,0,,1402416672,77543604,/z_drive,port,,,-0.3,0.3048,0.0,,0.0,0.0,0.0,1.0
1402416672077795476,,errorv,,0,,1402416672,77550077,/z_drive,starboard,,,-0.3,-0.3048,0.0,,0.0,0.0,0.0,1.0
1402416672089506128,,errorv,,0,,1402416672,189342155,/base_link,/gps,,,-0.84,0.0,-0.14,,0.0,0.0,0.0,1.0
1402416672089703114,,errorv,,0,,1402416672,189533563,base_link,imu,,,0.13,0.0,-0.1,,1.0,0.0,0.0,0.0
1402416672097818842,,errorv,,0,,1402416672,97630628,base_link,/z_drive,,,0.0,0.0,0.0,,0.0,0.0,0.0,1.0
1402416672097911629,,errorv,,0,,1402416672,97644643,/z_drive,port,,,-0.3,0.3048,0.0,,0.0,0.0,0.0,1.0
1402416672097933023,,errorv,,0,,1402416672,97650686,/z_drive,starboard,,,-0.3,-0.3048,0.0,,0.0,0.0,0.0,1.0
1402416672115208770,,errorv,,0,,1402416672,41285037,/enu,/base_link,,,2.51946657779,10.9984225672,-29.1291661316,,0.0182412800396,0.0205019295459,-0.863185996897,0.504139724033
1402416672115239348,,errorv,,0,,1402416672,51281929,/enu,/base_link,,,2.51408550671,10.9772459218,-29.1253748501,,0.0183967986785,0.0199945945676,-0.864150572892,0.502499314782
1402416672115261715,,errorv,,0,,1402416672,62247991,/enu,/base_link,,,2.50746237562,10.9544529929,-29.1220392156,,0.0185990895811,0.0194420055918,-0.865212842365,0.500682354084
1402416672115323755,,errorv,,0,,1402416672,72244882,/enu,/base_link,,,2.50200952461,10.93373561,-29.1186223448,,-0.0187419303558,-0.0189516750794,0.86616169969,-0.499052586455
1402416672117673252,,errorv,,0,,1402416672,117511771,base_link,/z_drive,,,0.0,0.0,0.0,,0.0,0.0,0.0,1.0
1402416672117698279,,errorv,,0,,1402416672,117533455,/z_drive,port,,,-0.3,0.3048,0.0,,0.0,0.0,0.0,1.0
1402416672117717020,,errorv,,0,,1402416672,117540651,/z_drive,starboard,,,-0.3,-0.3048,0.0,,0.0,0.0,0.0,1.0
1402416672137643602,,errorv,,0,,1402416672,137485004,base_link,/z_drive,,,0.0,0.0,0.0,,0.0,0.0,0.0,1.0
1402416672137855735,,errorv,,0,,1402416672,137499963,/z_drive,port,,,-0.3,0.3048,0.0,,0.0,0.0,0.0,1.0
1402416672137882120,,errorv,,0,,1402416672,137577988,/z_drive,starboard,,,-0.3,-0.3048,0.0,,0.0,0.0,0.0,1.0
1402416672155248724,,errorv,,0,,1402416672,82247018,/enu,/base_link,,,2.49638711599,10.913330551,-29.1150640936,,-0.0188169247081,-0.0184805741968,0.867126270167,-0.497389609169
1402416672155339427,,errorv,,0,,1402416672,92248916,/enu,/base_link,,,2.49066477609,10.8926405013,-29.1118429924,,-0.0189308582216,-0.0180365619843,0.868097825511,-0.495704014893
1402416672155364721,,errorv,,0,,1402416672,103246927,/enu,/base_link,,,2.48403945767,10.8696520344,-29.1081520021,,-0.0190529784219,-0.0176056877567,0.869162965663,-0.493844877357
1402416672155381298,,errorv,,0,,1402416672,113248109,/enu,/base_link,,,2.47847252241,10.8489586859,-29.1048409614,,-0.0191079711068,-0.0172184852864,0.870134418736,-0.492142766417
1402416672157693062,,errorv,,0,,1402416672,157506174,base_link,/z_drive,,,0.0,0.0,0.0,,0.0,0.0,0.0,1.0
1402416672157727073,,errorv,,0,,1402416672,157520385,/z_drive,port,,,-0.3,0.3048,0.0,,0.0,0.0,0.0,1.0
1402416672157750451,,errorv,,0,,1402416672,157526597,/z_drive,starboard,,,-0.3,-0.3048,0.0,,0.0,0.0,0.0,1.0
1402416672177875755,,errorv,,0,,1402416672,177714232,base_link,/z_drive,,,0.0,0.0,0.0,,0.0,0.0,0.0,1.0
1402416672177906009,,errorv,,0,,1402416672,177734091,/z_drive,port,,,-0.3,0.3048,0.0,,0.0,0.0,0.0,1.0
1402416672177929414,,errorv,,0,,1402416672,177740577,/z_drive,starboard,,,-0.3,-0.3048,0.0,,0.0,0.0,0.0,1.0
1402416672189613236,,errorv,,0,,1402416672,289443627,/base_link,/gps,,,-0.84,0.0,-0.14,,0.0,0.0,0.0,1.0
1402416672189785761,,errorv,,0,,1402416672,289626906,base_link,imu,,,0.13,0.0,-0.1,,1.0,0.0,0.0,0.0
1402416672198803358,,errorv,,0,,1402416672,123249053,/enu,/base_link,,,2.47269281124,10.8285338883,-29.1017722384,,-0.019210040093,-0.0167707673539,0.871121670393,-0.490404680945
1402416672198829108,,errorv,,0,,1402416672,133249044,/enu,/base_link,,,2.46702678205,10.8078513592,-29.0984468573,,-0.0193468299905,-0.0164267291275,0.872097576132,-0.488673388312
1402416672198853029,,errorv,,0,,1402416672,143249034,/enu,/base_link,,,2.46124404141,10.7872850248,-29.0948981895,,-0.0194403248417,-0.0160043682256,0.873095572322,-0.486898403735
1402416672198879251,,errorv,,0,,1402416672,154249906,/enu,/base_link,,,2.4544214313,10.7644911319,-29.0911596275,,-0.0195545675683,-0.0156565267186,0.874164011352,-0.484984302133
1402416672198904035,,errorv,,0,,1402416672,164248943,/enu,/base_link,,,2.44875078744,10.7441161202,-29.0879866575,,-0.0196581553986,-0.0152378251869,0.875145329512,-0.48322046505
1402416672198934126,,errorv,,0,,1402416672,197532732,base_link,/z_drive,,,0.0,0.0,0.0,,0.0,0.0,0.0,1.0
1402416672198961600,,errorv,,0,,1402416672,197548161,/z_drive,port,,,-0.3,0.3048,0.0,,0.0,0.0,0.0,1.0
1402416672198986053,,errorv,,0,,1402416672,197554433,/z_drive,starboard,,,-0.3,-0.3048,0.0,,0.0,0.0,0.0,1.0
1402416672217687734,,errorv,,0,,1402416672,217500518,base_link,/z_drive,,,0.0,0.0,0.0,,0.0,0.0,0.0,1.0
1402416672217722433,,errorv,,0,,1402416672,217517379,/z_drive,port,,,-0.3,0.3048,0.0,,0.0,0.0,0.0,1.0
1402416672217790328,,errorv,,0,,1402416672,217524240,/z_drive,starboard,,,-0.3,-0.3048,0.0,,0.0,0.0,0.0,1.0
1402416672235142606,,errorv,,0,,1402416672,174247026,/enu,/base_link,,,2.4429718144,10.7237044601,-29.0848332388,,-0.0197880546777,-0.014928772072,0.876131779163,-0.481433972832
1402416672235171036,,errorv,,0,,1402416672,184246063,/enu,/base_link,,,2.43699967231,10.7035718678,-29.0810817502,,-0.0199128792726,-0.0146031861888,0.877125456424,-0.479626060473
1402416672235232051,,errorv,,0,,1402416672,195245027,/enu,/base_link,,,2.43015784841,10.6811495108,-29.0777286037,,-0.0199428871926,-0.0142827661748,0.878222696905,-0.477622422507
1402416672237680310,,errorv,,0,,1402416672,237520704,base_link,/z_drive,,,0.0,0.0,0.0,,0.0,0.0,0.0,1.0
1402416672237710280,,errorv,,0,,1402416672,237536123,/z_drive,port,,,-0.3,0.3048,0.0,,0.0,0.0,0.0,1.0
1402416672237883663,,errorv,,0,,1402416672,237542725,/z_drive,starboard,,,-0.3,-0.3048,0.0,,0.0,0.0,0.0,1.0
1402416672243346514,,errorv,,0,,1402416672,205246925,/enu,/base_link,,,2.42439659437,10.6608553153,-29.0743594869,,-0.0200289822704,-0.0140528690183,0.879209411699,-0.475806859053
1402416672243374975,,errorv,,0,,1402416672,215245962,/enu,/base_link,,,2.41838478973,10.6402920993,-29.0708356095,,-0.0200969884523,-0.0137847684937,0.880193890841,-0.473988191561
1402416672257726059,,errorv,,0,,1402416672,257514163,base_link,/z_drive,,,0.0,0.0,0.0,,0.0,0.0,0.0,1.0
1402416672257755325,,errorv,,0,,1402416672,257530039,/z_drive,port,,,-0.3,0.3048,0.0,,0.0,0.0,0.0,1.0
1402416672257873159,,errorv,,0,,1402416672,257536470,/z_drive,starboard,,,-0.3,-0.3048,0.0,,0.0,0.0,0.0,1.0
1402416672277717523,,errorv,,0,,1402416672,277523304,base_link,/z_drive,,,0.0,0.0,0.0,,0.0,0.0,0.0,1.0
1402416672277747559,,errorv,,0,,1402416672,277545898,/z_drive,port,,,-0.3,0.3048,0.0,,0.0,0.0,0.0,1.0
1402416672277838389,,errorv,,0,,1402416672,277557624,/z_drive,starboard,,,-0.3,-0.3048,0.0,,0.0,0.0,0.0,1.0
1402416672283006490,,errorv,,0,,1402416672,225249052,/enu,/base_link,,,2.41231723908,10.6200580907,-29.0675269803,,-0.0201717530454,-0.0136594152981,0.881178282918,-0.472156070031
1402416672283162399,,errorv,,0,,1402416672,236166954,/enu,/base_link,,,2.40563668974,10.5979261412,-29.0643133522,,-0.0201903300206,-0.0134455993662,0.882274383164,-0.470110071414
1402416672289714015,,errorv,,0,,1402416672,389543408,/base_link,/gps,,,-0.84,0.0,-0.14,,0.0,0.0,0.0,1.0
1402416672289885924,,errorv,,0,,1402416672,389716546,base_link,imu,,,0.13,0.0,-0.1,,1.0,0.0,0.0,0.0
1402416672297833945,,errorv,,0,,1402416672,297688720,base_link,/z_drive,,,0.0,0.0,0.0,,0.0,0.0,0.0,1.0
1402416672297857381,,errorv,,0,,1402416672,297704993,/z_drive,port,,,-0.3,0.3048,0.0,,0.0,0.0,0.0,1.0
1402416672297916169,,errorv,,0,,1402416672,297709702,/z_drive,starboard,,,-0.3,-0.3048,0.0,,0.0,0.0,0.0,1.0
1402416672317748785,,errorv,,0,,1402416672,317487761,base_link,/z_drive,,,0.0,0.0,0.0,,0.0,0.0,0.0,1.0
1402416672317778017,,errorv,,0,,1402416672,317505021,/z_drive,port,,,-0.3,0.3048,0.0,,0.0,0.0,0.0,1.0
1402416672317823893,,errorv,,0,,1402416672,317514414,/z_drive,starboard,,,-0.3,-0.3048,0.0,,0.0,0.0,0.0,1.0
1402416672323183055,,errorv,,0,,1402416672,246165990,/enu,/base_link,,,2.39956966199,10.5777143506,-29.0609283728,,-0.0202900124636,-0.0132623369214,0.883264235829,-0.468248561684
1402416672323209600,,errorv,,0,,1402416672,256150007,/enu,/base_link,,,2.39389490624,10.5575498118,-29.0577733892,,-0.020367592261,-0.0131696194239,0.884250114085,-0.466383380975
1402416672323232885,,errorv,,0,,1402416672,267141103,/enu,/base_link,,,2.38673614197,10.5351369077,-29.0540799946,,-0.02036715943,-0.0129571266982,0.88533754779,-0.464321782988
1402416672323251894,,errorv,,0,,1402416672,277147054,/enu,/base_link,,,2.38033967262,10.5151346936,-29.050644582,,-0.0204496391772,-0.0128887372183,0.886352228599,-0.462380167793
1402416672337758623,,errorv,,0,,1402416672,337514871,base_link,/z_drive,,,0.0,0.0,0.0,,0.0,0.0,0.0,1.0
1402416672337790972,,errorv,,0,,1402416672,337535666,/z_drive,port,,,-0.3,0.3048,0.0,,0.0,0.0,0.0,1.0
1402416672337811570,,errorv,,0,,1402416672,337546220,/z_drive,starboard,,,-0.3,-0.3048,0.0,,0.0,0.0,0.0,1.0
1402416672357688815,,errorv,,0,,1402416672,357483625,base_link,/z_drive,,,0.0,0.0,0.0,,0.0,0.0,0.0,1.0
1402416672357725509,,errorv,,0,,1402416672,357500049,/z_drive,port,,,-0.3,0.3048,0.0,,0.0,0.0,0.0,1.0
1402416672357749645,,errorv,,0,,1402416672,357508636,/z_drive,starboard,,,-0.3,-0.3048,0.0,,0.0,0.0,0.0,1.0
1402416672363195997,,errorv,,0,,1402416672,287151098,/enu,/base_link,,,2.37450656223,10.4950053824,-29.0475178194,,-0.0204632759064,-0.0128002546795,0.887340697654,-0.460482240814
1402416672363229982,,errorv,,0,,1402416672,298162937,/enu,/base_link,,,2.36707181414,10.4730111973,-29.0441459482,,-0.0205614225558,-0.0127935490411,0.88843468052,-0.45836379815
1402416672363252499,,errorv,,0,,1402416672,308115005,/enu,/base_link,,,2.36090160567,10.4529533512,-29.0408373783,,-0.0205491405298,-0.0127233422286,0.889419624442,-0.456452167311
1402416672363265424,,errorv,,0,,1402416672,318144083,/enu,/base_link,,,2.35488266587,10.4330605731,-29.037952352,,-0.0205822401329,-0.012727039793,0.890431417294,-0.454473635038
1402416672377718111,,errorv,,0,,1402416672,377504770,base_link,/z_drive,,,0.0,0.0,0.0,,0.0,0.0,0.0,1.0
1402416672377789560,,errorv,,0,,1402416672,377522106,/z_drive,port,,,-0.3,0.3048,0.0,,0.0,0.0,0.0,1.0
1402416672377815383,,errorv,,0,,1402416672,377530145,/z_drive,starboard,,,-0.3,-0.3048,0.0,,0.0,0.0,0.0,1.0
1402416672389807363,,errorv,,0,,1402416672,489632113,/base_link,/gps,,,-0.84,0.0,-0.14,,0.0,0.0,0.0,1.0
1402416672389989017,,errorv,,0,,1402416672,489807683,base_link,imu,,,0.13,0.0,-0.1,,1.0,0.0,0.0,0.0
1402416672397684393,,errorv,,0,,1402416672,397514460,base_link,/z_drive,,,0.0,0.0,0.0,,0.0,0.0,0.0,1.0
1402416672397817636,,errorv,,0,,1402416672,397530703,/z_drive,port,,,-0.3,0.3048,0.0,,0.0,0.0,0.0,1.0
1402416672397846181,,errorv,,0,,1402416672,397540144,/z_drive,starboard,,,-0.3,-0.3048,0.0,,0.0,0.0,0.0,1.0
1402416672403213002,,errorv,,0,,1402416672,329153060,/enu,/base_link,,,2.34772812254,10.410788615,-29.0341826925,,-0.0206219846695,-0.0127032300383,0.891535998549,-0.452301807409
1402416672403252065,,errorv,,0,,1402416672,339109897,/enu,/base_link,,,2.34173987293,10.3907569904,-29.0309323132,,-0.0206045072533,-0.0127287869708,0.892523974872,-0.450349182904
1402416672403323424,,errorv,,0,,1402416672,349127054,/enu,/base_link,,,2.33572488806,10.3706964623,-29.0277616768,,-0.0205964932952,-0.0128523497967,0.893512657549,-0.448381235523
1402416672403415313,,errorv,,0,,1402416672,360105037,/enu,/base_link,,,2.32833658453,10.3489584132,-29.0246090062,,-0.0205935566222,-0.0129913549187,0.894596555444,-0.446210861713
1402416672417742988,,errorv,,0,,1402416672,417538290,base_link,/z_drive,,,0.0,0.0,0.0,,0.0,0.0,0.0,1.0
1402416672417902750,,errorv,,0,,1402416672,417559235,/z_drive,port,,,-0.3,0.3048,0.0,,0.0,0.0,0.0,1.0
1402416672418034550,,errorv,,0,,1402416672,417697592,/z_drive,starboard,,,-0.3,-0.3048,0.0,,0.0,0.0,0.0,1.0
1402416672437677817,,errorv,,0,,1402416672,437420873,base_link,/z_drive,,,0.0,0.0,0.0,,0.0,0.0,0.0,1.0
1402416672437750354,,errorv,,0,,1402416672,437467271,/z_drive,port,,,-0.3,0.3048,0.0,,0.0,0.0,0.0,1.0
1402416672437776521,,errorv,,0,,1402416672,437472746,/z_drive,starboard,,,-0.3,-0.3048,0.0,,0.0,0.0,0.0,1.0
1402416672443137864,,errorv,,0,,1402416672,370098114,/enu,/base_link,,,2.32211357711,10.3292134426,-29.0217528566,,-0.0206667174809,-0.0130461602589,0.895577504762,-0.444233741915
1402416672443185599,,errorv,,0,,1402416672,381095886,/enu,/base_link,,,2.31447765856,10.3070671553,-29.0177846786,,-0.0206578489419,-0.0132530515515,0.896652937106,-0.442053300272
1402416672443225893,,errorv,,0,,1402416672,391079902,/enu,/base_link,,,2.30664654725,10.2887252863,-29.0151546083,,-0.0206267079443,-0.0133947728668,0.897635831475,-0.440051170924
1402416672443245894,,errorv,,0,,1402416672,402080059,/enu,/base_link,,,2.29937003822,10.2667719544,-29.0115571448,,-0.0206006766993,-0.0136386214444,0.898699401515,-0.437868685614
1402416672443283676,,errorv,,0,,1402416672,412077903,/enu,/base_link,,,2.29328694635,10.2470492161,-29.0086097629,,-0.020580179752,-0.0138479321473,0.899667809871,-0.435869846237
1402416672457688961,,errorv,,0,,1402416672,457445382,base_link,/z_drive,,,0.0,0.0,0.0,,0.0,0.0,0.0,1.0
1402416672457805843,,errorv,,0,,1402416672,457515259,/z_drive,port,,,-0.3,0.3048,0.0,,0.0,0.0,0.0,1.0
1402416672457878588,,errorv,,0,,1402416672,457528770,/z_drive,starboard,,,-0.3,-0.3048,0.0,,0.0,0.0,0.0,1.0
1402416672477793480,,errorv,,0,,1402416672,477542934,base_link,/z_drive,,,0.0,0.0,0.0,,0.0,0.0,0.0,1.0
1402416672477830704,,errorv,,0,,1402416672,477559105,/z_drive,port,,,-0.3,0.3048,0.0,,0.0,0.0,0.0,1.0
1402416672477856773,,errorv,,0,,1402416672,477567737,/z_drive,starboard,,,-0.3,-0.3048,0.0,,0.0,0.0,0.0,1.0
1402416672483095903,,errorv,,0,,1402416672,423073053,/enu,/base_link,,,2.28561012468,10.2254100767,-29.0055284048,,-0.0205486510698,-0.0139869094117,0.900739691627,-0.433647468842
1402416672483126115,,errorv,,0,,1402416672,433068990,/enu,/base_link,,,2.27956931708,10.2052943647,-29.0023410526,,-0.0205058081014,-0.0142700160617,0.901703612139,-0.431632336986
1402416672483147660,,errorv,,0,,1402416672,444072008,/enu,/base_link,,,2.2722798562,10.1836040156,-28.9994770915,,-0.0204566012984,-0.0144723388944,0.902773731526,-0.42938522161
1402416672489889537,,errorv,,0,,1402416672,589723499,/base_link,/gps,,,-0.84,0.0,-0.14,,0.0,0.0,0.0,1.0
1402416672490081693,,errorv,,0,,1402416672,589904356,base_link,imu,,,0.13,0.0,-0.1,,1.0,0.0,0.0,0.0
1402416672491337486,,errorv,,0,,1402416672,454067945,/enu,/base_link,,,2.26590646746,10.1638080686,-28.9964173481,,-0.0204103500932,-0.0147200533036,0.903729879803,-0.427362892624
1402416672491361954,,errorv,,0,,1402416672,465096950,/enu,/base_link,,,2.25832679419,10.1419672825,-28.9931465174,,-0.0203256701977,-0.0149307159226,0.904792418387,-0.425105422786
1402416672498081397,,errorv,,0,,1402416672,497778769,base_link,/z_drive,,,0.0,0.0,0.0,,0.0,0.0,0.0,1.0
1402416672498146767,,errorv,,0,,1402416672,497796576,/z_drive,port,,,-0.3,0.3048,0.0,,0.0,0.0,0.0,1.0
1402416672498171229,,errorv,,0,,1402416672,497806637,/z_drive,starboard,,,-0.3,-0.3048,0.0,,0.0,0.0,0.0,1.0
1402416672517681868,,errorv,,0,,1402416672,517485219,base_link,/z_drive,,,0.0,0.0,0.0,,0.0,0.0,0.0,1.0
1402416672517710729,,errorv,,0,,1402416672,517501400,/z_drive,port,,,-0.3,0.3048,0.0,,0.0,0.0,0.0,1.0
1402416672517790158,,errorv,,0,,1402416672,517509860,/z_drive,starboard,,,-0.3,-0.3048,0.0,,0.0,0.0,0.0,1.0
1402416672531052795,,errorv,,0,,1402416672,476043939,/enu,/base_link,,,2.25094220748,10.1204467085,-28.9901449293,,-0.0202663572022,-0.0151256937878,0.905825876349,-0.422894750368
1402416672531417884,,errorv,,0,,1402416672,486052036,/enu,/base_link,,,2.24201627548,10.1023657614,-28.9869402533,,-0.0202389539299,-0.0153351800408,0.906784390003,-0.420829284916
1402416672538008852,,errorv,,0,,1402416672,537519663,base_link,/z_drive,,,0.0,0.0,0.0,,0.0,0.0,0.0,1.0
1402416672538042617,,errorv,,0,,1402416672,537538383,/z_drive,port,,,-0.3,0.3048,0.0,,0.0,0.0,0.0,1.0
1402416672538068905,,errorv,,0,,1402416672,537546049,/z_drive,starboard,,,-0.3,-0.3048,0.0,,0.0,0.0,0.0,1.0
1402416672557822654,,errorv,,0,,1402416672,557511722,base_link,/z_drive,,,0.0,0.0,0.0,,0.0,0.0,0.0,1.0
1402416672557856371,,errorv,,0,,1402416672,557541507,/z_drive,port,,,-0.3,0.3048,0.0,,0.0,0.0,0.0,1.0
1402416672557874855,,errorv,,0,,1402416672,557549734,/z_drive,starboard,,,-0.3,-0.3048,0.0,,0.0,0.0,0.0,1.0
1402416672571360235,,errorv,,0,,1402416672,497041940,/enu,/base_link,,,2.23440547042,10.0809668916,-28.9838909249,,-0.0201435488325,-0.0155331381065,0.907836534263,-0.418552011247
1402416672571448262,,errorv,,0,,1402416672,507040977,/enu,/base_link,,,2.22788918049,10.0612042167,-28.9807074741,,-0.0200834978286,-0.0157775110829,0.908786853457,-0.416478304649
1402416672571474090,,errorv,,0,,1402416672,518038034,/enu,/base_link,,,2.22037684036,10.0399102565,-28.9778881629,,-0.0199987906869,-0.0159257104874,0.909840981601,-0.414168816204
1402416672571518287,,errorv,,0,,1402416672,528019905,/enu,/base_link,,,2.21402036649,10.0200179884,-28.9743072056,,-0.0199248274456,-0.0161268345083,0.910775634057,-0.41210516967
1402416672577814670,,errorv,,0,,1402416672,577617147,base_link,/z_drive,,,0.0,0.0,0.0,,0.0,0.0,0.0,1.0
1402416672577843082,,errorv,,0,,1402416672,577645812,/z_drive,port,,,-0.3,0.3048,0.0,,0.0,0.0,0.0,1.0
1402416672577863902,,errorv,,0,,1402416672,577657052,/z_drive,starboard,,,-0.3,-0.3048,0.0,,0.0,0.0,0.0,1.0
1402416672590073975,,errorv,,0,,1402416672,689829997,/base_link,/gps,,,-0.84,0.0,-0.14,,0.0,0.0,0.0,1.0
1402416672590220641,,errorv,,0,,1402416672,690007668,base_link,imu,,,0.13,0.0,-0.1,,1.0,0.0,0.0,0.0
1402416672597781389,,errorv,,0,,1402416672,597521011,base_link,/z_drive,,,0.0,0.0,0.0,,0.0,0.0,0.0,1.0
1402416672597847292,,errorv,,0,,1402416672,597544089,/z_drive,port,,,-0.3,0.3048,0.0,,0.0,0.0,0.0,1.0
1402416672597872011,,errorv,,0,,1402416672,597550991,/z_drive,starboard,,,-0.3,-0.3048,0.0,,0.0,0.0,0.0,1.0
1402416672611236099,,errorv,,0,,1402416672,539017915,/enu,/base_link,,,2.20659991293,9.99847116935,-28.9710670378,,-0.0197898859392,-0.0164461768056,0.911788971497,-0.409852113744
1402416672611307161,,errorv,,0,,1402416672,549016952,/enu,/base_link,,,2.19998573504,9.97913153102,-28.9680289485,,-0.0197005682873,-0.0166132474368,0.912708392558,-0.407798084562
1402416672611341405,,errorv,,0,,1402416672,560019016,/enu,/base_link,,,2.19223277788,9.95770043215,-28.964488461,,-0.0196009457504,-0.0167827309089,0.91372345055,-0.405516459325
1402416672611369354,,errorv,,0,,1402416672,570015907,/enu,/base_link,,,2.18601204138,9.93836815309,-28.9615280112,,-0.0194777444205,-0.0169803359604,0.914631069966,-0.403462875015
1402416672611482685,,errorv,,0,,1402416672,581015110,/enu,/base_link,,,2.17828788451,9.91690715011,-28.9579216287,,-0.0193295222777,-0.0171956698729,0.915628656732,-0.401191776433
1402416672617813188,,errorv,,0,,1402416672,617494740,base_link,/z_drive,,,0.0,0.0,0.0,,0.0,0.0,0.0,1.0
1402416672617846783,,errorv,,0,,1402416672,617513738,/z_drive,port,,,-0.3,0.3048,0.0,,0.0,0.0,0.0,1.0
1402416672617923973,,errorv,,0,,1402416672,617523277,/z_drive,starboard,,,-0.3,-0.3048,0.0,,0.0,0.0,0.0,1.0
1402416672637897951,,errorv,,0,,1402416672,637483801,base_link,/z_drive,,,0.0,0.0,0.0,,0.0,0.0,0.0,1.0
1402416672637926238,,errorv,,0,,1402416672,637508443,/z_drive,port,,,-0.3,0.3048,0.0,,0.0,0.0,0.0,1.0
1402416672637944820,,errorv,,0,,1402416672,637517871,/z_drive,starboard,,,-0.3,-0.3048,0.0,,0.0,0.0,0.0,1.0
1402416672651055079,,errorv,,0,,1402416672,591017007,/enu,/base_link,,,5.79244649272,14.3481995958,-28.5731433692,,-0.00988145752784,-0.012809871017,0.917847872122,-0.396602505845
1402416672651091982,,errorv,,0,,1402416672,602005004,/enu,/base_link,,,5.78941338539,14.3380793342,-28.5690114739,,-0.00972014414167,-0.0129783588429,0.918848209793,-0.394277882159
1402416672651152015,,errorv,,0,,1402416672,611999034,/enu,/base_link,,,5.78658717184,14.3290693519,-28.5654937819,,-0.00963734921994,-0.013027073134,0.919730088062,-0.392216753822
1402416672657853048,,errorv,,0,,1402416672,657480527,base_link,/z_drive,,,0.0,0.0,0.0,,0.0,0.0,0.0,1.0
1402416672657938571,,errorv,,0,,1402416672,657498882,/z_drive,port,,,-0.3,0.3048,0.0,,0.0,0.0,0.0,1.0
1402416672657989463,,errorv,,0,,1402416672,657508386,/z_drive,starboard,,,-0.3,-0.3048,0.0,,0.0,0.0,0.0,1.0
1402416672659484737,,errorv,,0,,1402416672,622026920,/enu,/base_link,,,5.78368387707,14.319955958,-28.5615964578,,-0.0095776164106,-0.0131403572351,0.920601234857,-0.390165306831
1402416672659507661,,errorv,,0,,1402416672,632992029,/enu,/base_link,,,5.78055814546,14.3101617277,-28.5574963112,,-0.00945590400185,-0.0131410971732,0.921562581747,-0.387892131099
1402416672659535219,,errorv,,0,,1402416672,643006086,/enu,/base_link,,,5.63408284839,14.8970206063,-27.8262343681,,-0.0085901985641,-0.0119776814124,0.922623363426,-0.385420384642
1402416672659591749,,errorv,,0,,1402416672,653975009,/enu,/base_link,,,5.6308812663,14.889285961,-27.8213768264,,-0.0084402938146,-0.0120669121424,0.923563187929,-0.383163397226
1402416672677777310,,errorv,,0,,1402416672,677483064,base_link,/z_drive,,,0.0,0.0,0.0,,0.0,0.0,0.0,1.0
1402416672677807292,,errorv,,0,,1402416672,677501771,/z_drive,port,,,-0.3,0.3048,0.0,,0.0,0.0,0.0,1.0
1402416672677878850,,errorv,,0,,1402416672,677511623,/z_drive,starboard,,,-0.3,-0.3048,0.0,,0.0,0.0,0.0,1.0
1402416672690134136,,errorv,,0,,1402416672,789935775,/base_link,/gps,,,-0.84,0.0,-0.14,,0.0,0.0,0.0,1.0
1402416672690300273,,errorv,,0,,1402416672,790118722,base_link,imu,,,0.13,0.0,-0.1,,1.0,0.0,0.0,0.0
1402416672697856285,,errorv,,0,,1402416672,697577902,base_link,/z_drive,,,0.0,0.0,0.0,,0.0,0.0,0.0,1.0
1402416672697878543,,errorv,,0,,1402416672,697596258,/z_drive,port,,,-0.3,0.3048,0.0,,0.0,0.0,0.0,1.0
1402416672697922963,,errorv,,0,,1402416672,697603674,/z_drive,starboard,,,-0.3,-0.3048,0.0,,0.0,0.0,0.0,1.0
1402416672699555518,,errorv,,0,,1402416672,663975000,/enu,/base_link,,,5.62788489278,14.8824524345,-27.8170871311,,-0.00832675011584,-0.0122226204505,0.924412881746,-0.381106411445
1402416672699662493,,errorv,,0,,1402416672,674983024,/enu,/base_link,,,5.62456771103,14.8748858212,-27.8122693766,,-0.00814737319157,-0.0122839520549,0.925349273788,-0.378829046314
1402416672699692379,,errorv,,0,,1402416672,684983968,/enu,/base_link,,,5.38326615571,14.7273627233,-27.1905340697,,-0.00879205125759,-0.0123145827093,0.926056603025,-0.377081183408
1402416672699867936,,errorv,,0,,1402416672,695971012,/enu,/base_link,,,5.37947071584,14.7196488833,-27.1850874157,,-0.00864066103439,-0.012297880364,0.92696186827,-0.374854366239
1402416672717644337,,errorv,,0,,1402416672,717479331,base_link,/z_drive,,,0.0,0.0,0.0,,0.0,0.0,0.0,1.0
1402416672717673513,,errorv,,0,,1402416672,717496505,/z_drive,port,,,-0.3,0.3048,0.0,,0.0,0.0,0.0,1.0
1402416672717741907,,errorv,,0,,1402416672,717503757,/z_drive,starboard,,,-0.3,-0.3048,0.0,,0.0,0.0,0.0,1.0
1402416672737790665,,errorv,,0,,1402416672,737573702,base_link,/z_drive,,,0.0,0.0,0.0,,0.0,0.0,0.0,1.0
1402416672737826984,,errorv,,0,,1402416672,737593046,/z_drive,port,,,-0.3,0.3048,0.0,,0.0,0.0,0.0,1.0
1402416672737853168,,errorv,,0,,1402416672,737601137,/z_drive,starboard,,,-0.3,-0.3048,0.0,,0.0,0.0,0.0,1.0
1402416672739261373,,errorv,,0,,1402416672,705949068,/enu,/base_link,,,5.37588643602,14.7126198653,-27.1799145413,,-0.00847179962578,-0.0121975999424,0.927781593237,-0.372828060127
1402416672739325887,,errorv,,0,,1402416672,715965986,/enu,/base_link,,,5.37236268259,14.7058799033,-27.1752711993,,-0.00824498605786,-0.0122946533185,0.928591456591,-0.37080826373
1402416672757649784,,errorv,,0,,1402416672,757485784,base_link,/z_drive,,,0.0,0.0,0.0,,0.0,0.0,0.0,1.0
1402416672757677721,,errorv,,0,,1402416672,757501910,/z_drive,port,,,-0.3,0.3048,0.0,,0.0,0.0,0.0,1.0
1402416672757836491,,errorv,,0,,1402416672,757506303,/z_drive,starboard,,,-0.3,-0.3048,0.0,,0.0,0.0,0.0,1.0
1402416672777699894,,errorv,,0,,1402416672,777474784,base_link,/z_drive,,,0.0,0.0,0.0,,0.0,0.0,0.0,1.0
1402416672777724639,,errorv,,0,,1402416672,777488985,/z_drive,port,,,-0.3,0.3048,0.0,,0.0,0.0,0.0,1.0
1402416672777794850,,errorv,,0,,1402416672,777493300,/z_drive,starboard,,,-0.3,-0.3048,0.0,,0.0,0.0,0.0,1.0
1402416672779143802,,errorv,,0,,1402416672,726948022,/enu,/base_link,,,5.36830079739,14.6981669175,-27.1693148804,,-0.00796805695745,-0.0122412685756,0.929488273965,-0.368562355611
1402416672779172072,,errorv,,0,,1402416672,736947059,/enu,/base_link,,,5.31748489025,14.7701475575,-26.9616117334,,-0.00724883523623,-0.011597229854,0.930402688407,-0.366283764385
1402416672779193167,,errorv,,0,,1402416672,746947050,/enu,/base_link,,,5.31373105039,14.7639521818,-26.9565839487,,-0.00702947978546,-0.0115100287514,0.931186918871,-0.364292503045
1402416672790223247,,errorv,,0,,1402416672,890044022,/base_link,/gps,,,-0.84,0.0,-0.14,,0.0,0.0,0.0,1.0
1402416672790397626,,errorv,,0,,1402416672,890220456,base_link,imu,,,0.13,0.0,-0.1,,1.0,0.0,0.0,0.0
1402416672797642967,,errorv,,0,,1402416672,797492125,base_link,/z_drive,,,0.0,0.0,0.0,,0.0,0.0,0.0,1.0
1402416672797676041,,errorv,,0,,1402416672,797510381,/z_drive,port,,,-0.3,0.3048,0.0,,0.0,0.0,0.0,1.0
1402416672797744150,,errorv,,0,,1402416672,797518024,/z_drive,starboard,,,-0.3,-0.3048,0.0,,0.0,0.0,0.0,1.0
1402416672817661010,,errorv,,0,,1402416672,817427656,base_link,/z_drive,,,0.0,0.0,0.0,,0.0,0.0,0.0,1.0
1402416672817692156,,errorv,,0,,1402416672,817476390,/z_drive,port,,,-0.3,0.3048,0.0,,0.0,0.0,0.0,1.0
1402416672817769958,,errorv,,0,,1402416672,817485309,/z_drive,starboard,,,-0.3,-0.3048,0.0,,0.0,0.0,0.0,1.0
1402416672819062291,,errorv,,0,,1402416672,757930994,/enu,/base_link,,,5.30988717841,14.7570215542,-26.9506614363,,-0.00674807268586,-0.0113902362364,0.932044456588,-0.362101998029
1402416672819160637,,errorv,,0,,1402416672,767930984,/enu,/base_link,,,5.30631742533,14.7508977338,-26.9455903757,,-0.00652660513452,-0.0113127462888,0.93282176102,-0.36010135707
1402416672819186208,,errorv,,0,,1402416672,777941942,/enu,/base_link,,,5.30272859355,14.7446697819,-26.9401610815,,-0.00631751495401,-0.0111558794957,0.933601598461,-0.358083357208
1402416672837748363,,errorv,,0,,1402416672,837525525,base_link,/z_drive,,,0.0,0.0,0.0,,0.0,0.0,0.0,1.0
1402416672837772370,,errorv,,0,,1402416672,837546269,/z_drive,port,,,-0.3,0.3048,0.0,,0.0,0.0,0.0,1.0
1402416672837798795,,errorv,,0,,1402416672,837552698,/z_drive,starboard,,,-0.3,-0.3048,0.0,,0.0,0.0,0.0,1.0
1402416672857674624,,errorv,,0,,1402416672,857485621,base_link,/z_drive,,,0.0,0.0,0.0,,0.0,0.0,0.0,1.0
1402416672857703696,,errorv,,0,,1402416672,857502298,/z_drive,port,,,-0.3,0.3048,0.0,,0.0,0.0,0.0,1.0
1402416672857720044,,errorv,,0,,1402416672,857508586,/z_drive,starboard,,,-0.3,-0.3048,0.0,,0.0,0.0,0.0,1.0
1402416672859029009,,errorv,,0,,1402416672,788918018,/enu,/base_link,,,5.28764295771,14.6859036239,-26.4564918312,,-0.00705098995233,-0.0113695016925,0.934239902951,-0.356394194264
1402416672859127307,,errorv,,0,,1402416672,798916101,/enu,/base_link,,,5.28358560585,14.6800477665,-26.4510539215,,-0.00678162256338,-0.011170289397,0.934988162544,-0.354438104798
1402416672859151295,,errorv,,0,,1402416672,809901952,/enu,/base_link,,,5.2793260878,14.6730389374,-26.4445841167,,-0.00656973348632,-0.0108887043757,0.935814505631,-0.352263375572
1402416672859207409,,errorv,,0,,1402416672,819889068,/enu,/base_link,,,5.27543378875,14.6669171202,-26.4390151376,,-0.0063756636519,-0.0106010314498,0.936558992141,-0.350291626057
1402416672877713071,,errorv,,0,,1402416672,877530711,base_link,/z_drive,,,0.0,0.0,0.0,,0.0,0.0,0.0,1.0
1402416672877834752,,errorv,,0,,1402416672,877549389,/z_drive,port,,,-0.3,0.3048,0.0,,0.0,0.0,0.0,1.0
1402416672877963897,,errorv,,0,,1402416672,877586919,/z_drive,starboard,,,-0.3,-0.3048,0.0,,0.0,0.0,0.0,1.0
1402416672890360839,,errorv,,0,,1402416672,990151216,/base_link,/gps,,,-0.84,0.0,-0.14,,0.0,0.0,0.0,1.0
1402416672890529768,,errorv,,0,,1402416672,990351855,base_link,imu,,,0.13,0.0,-0.1,,1.0,0.0,0.0,0.0
1402416672897820161,,errorv,,0,,1402416672,897655659,base_link,/z_drive,,,0.0,0.0,0.0,,0.0,0.0,0.0,1.0
1402416672897852227,,errorv,,0,,1402416672,897693078,/z_drive,port,,,-0.3,0.3048,0.0,,0.0,0.0,0.0,1.0
1402416672897922818,,errorv,,0,,1402416672,897705302,/z_drive,starboard,,,-0.3,-0.3048,0.0,,0.0,0.0,0.0,1.0
1402416672899104240,,errorv,,0,,1402416672,829890966,/enu,/base_link,,,5.2715138914,14.6607989292,-26.4333676657,,-0.00612701791989,-0.0103335827572,0.937298350441,-0.348320942493
1402416672899128057,,errorv,,0,,1402416672,840894937,/enu,/base_link,,,5.28456512837,14.6647461796,-26.6318118564,,-0.00777394470869,-0.0110983273955,0.937593214145,-0.347469937839
1402416672899152720,,errorv,,0,,1402416672,850894927,/enu,/base_link,,,5.27990322666,14.6578635742,-26.6261380201,,-0.00755113277351,-0.0108729300744,0.938321320554,-0.345511011661
1402416672899172610,,errorv,,0,,1402416672,860874891,/enu,/base_link,,,5.27522481661,14.6511397408,-26.6204997716,,-0.00735134648737,-0.0106392973303,0.939040731615,-0.343562610633
1402416672917822999,,errorv,,0,,1402416672,917617251,base_link,/z_drive,,,0.0,0.0,0.0,,0.0,0.0,0.0,1.0
1402416672917855939,,errorv,,0,,1402416672,917649251,/z_drive,port,,,-0.3,0.3048,0.0,,0.0,0.0,0.0,1.0
1402416672917887062,,errorv,,0,,1402416672,917660557,/z_drive,starboard,,,-0.3,-0.3048,0.0,,0.0,0.0,0.0,1.0
1402416672937737233,,errorv,,0,,1402416672,937527668,base_link,/z_drive,,,0.0,0.0,0.0,,0.0,0.0,0.0,1.0
1402416672937767430,,errorv,,0,,1402416672,937552855,/z_drive,port,,,-0.3,0.3048,0.0,,0.0,0.0,0.0,1.0
1402416672937858053,,errorv,,0,,1402416672,937564207,/z_drive,starboard,,,-0.3,-0.3048,0.0,,0.0,0.0,0.0,1.0
1402416672939062126,,errorv,,0,,1402416672,870866060,/enu,/base_link,,,5.27076501417,14.6444387002,-26.6150494359,,-0.00710357444334,-0.0104132842627,0.939763490009,-0.341592865247
1402416672939138130,,errorv,,0,,1402416672,881874084,/enu,/base_link,,,5.26570688613,14.6371266644,-26.608926317,,-0.00688571519402,-0.00998876415306,0.940555029626,-0.339424583321
1402416672939166399,,errorv,,0,,1402416672,891875028,/enu,/base_link,,,5.17326546613,14.6950403249,-27.1213634574,,-0.00693094131393,-0.00975619459919,0.941192243858,-0.337659501305
1402416672939279559,,errorv,,0,,1402416672,901879072,/enu,/base_link,,,5.16824710179,14.6882704118,-27.116081026,,-0.00675431535415,-0.00940612094636,0.94190238354,-0.335687062596
1402416672957650220,,errorv,,0,,1402416672,957495543,base_link,/z_drive,,,0.0,0.0,0.0,,0.0,0.0,0.0,1.0
1402416672957806179,,errorv,,0,,1402416672,957528532,/z_drive,port,,,-0.3,0.3048,0.0,,0.0,0.0,0.0,1.0
1402416672957830470,,errorv,,0,,1402416672,957675277,/z_drive,starboard,,,-0.3,-0.3048,0.0,,0.0,0.0,0.0,1.0
1402416672977735870,,errorv,,0,,1402416672,977466313,base_link,/z_drive,,,0.0,0.0,0.0,,0.0,0.0,0.0,1.0
1402416672977800256,,errorv,,0,,1402416672,977483625,/z_drive,port,,,-0.3,0.3048,0.0,,0.0,0.0,0.0,1.0
