rosbagTimestamp,control_method,x_current,x_desired,y_current,y_desired,z_current,z_desired,x_velocity_current,x_velocity_desired,y_velocity_current,y_velocity_desired,z_velocity_current,z_velocity_desired,yaw_current,yaw_desired,yaw_velocity_current,yaw_velocity_desired,roll_current,roll_desired,roll_velocity_current,roll_velocity_desired,pitch_current,pitch_desired,pitch_velocity_current,pitch_velocity_desired,required_force_x,required_force_y,required_moment_z,resultant_force_x,resultant_force_y,resultant_moment_z,current_port_servo_angle,current_port_thruster_force,current_starboard_servo_angle,current_starboard_thruster_force,estimated_port_servo_angle,estimated_port_thruster_force,estimated_starboard_servo_angle,estimated_starboard_thruster_force,cost_value,step,user_defined_1,user_defined_2,user_defined_3,user_defined_4,user_defined_5
1402754391812239187,3,-17.2812262092,-0.00591572024346,-16.618910698,-0.122189614607,57.8520840083,0.10862951003,0.0274996142521,0.0,-0.00954174950866,0.0,0.0858944642121,0.0,1.09100033688,0.0,0.00365113371651,0.0,0.000487901555298,0.0,-0.0108085822057,0.0,0.0719430887848,0.0,0.00571573838048,0.0,0.0,0.0,0.0,-100.0,0.0,30.48,0.00230154196664,0.0,0.000767318410122,0.0,-0.0,-100.0,-0.0,0.0,1014515.2,0.0,0.0,0.0,0.0,0.0,0.0
1402754391832682746,3,-17.2843242843,-0.00591572024346,-16.6200745944,-0.122189614607,57.8516446201,0.10862951003,0.0160260831581,0.0,-0.016056471829,0.0,0.0868442501993,0.0,1.0910631491,0.0,-0.00298006279552,0.0,-0.000107701076311,0.0,-0.00159865577302,0.0,0.071143259226,0.0,0.00762634619116,0.0,0.0,0.0,0.0,-100.0,0.0,30.48,0.00230154196664,0.0,0.000767318410122,0.0,-0.0,-100.0,-0.0,0.0,1014515.2,0.0,0.0,0.0,0.0,0.0,0.0
1402754391851978396,3,-17.2843242843,-0.00591572024346,-16.6200745944,-0.122189614607,57.8516446201,0.10862951003,0.0160260831581,0.0,-0.016056471829,0.0,0.0868442501993,0.0,1.0910631491,0.0,-0.00298006279552,0.0,-0.000107701076311,0.0,-0.00159865577302,0.0,0.071143259226,0.0,0.00762634619116,0.0,0.0,0.0,0.0,-100.0,0.0,30.48,0.00230154196664,0.0,0.000767318410122,0.0,-0.0,-100.0,-0.0,0.0,1014515.2,0.0,0.0,0.0,0.0,0.0,0.0
1402754391871744920,3,-17.2839629587,-0.00591572024346,-16.620498524,-0.122189614607,57.8536323736,0.10862951003,0.0172019093102,0.0,-0.0163489078977,0.0,0.0884701723535,0.0,1.09112108689,0.0,0.00344916801582,0.0,8.84901599649e-05,0.0,-0.00204411136805,0.0,0.0713106429053,0.0,0.0129931039759,0.0,0.0,0.0,0.0,-100.0,0.0,30.48,0.00230154196664,0.0,0.000767318410122,0.0,-0.0,-100.0,-0.0,0.0,1014515.2,0.0,0.0,0.0,0.0,0.0,0.0
1402754391891884166,3,-17.2839629587,-0.00591572024346,-16.620498524,-0.122189614607,57.8536323736,0.10862951003,0.0172019093102,0.0,-0.0163489078977,0.0,0.0884701723535,0.0,1.09112108689,0.0,0.00344916801582,0.0,8.84901599649e-05,0.0,-0.00204411136805,0.0,0.0713106429053,0.0,0.0129931039759,0.0,0.0,0.0,0.0,-100.0,0.0,30.48,0.00230154196664,0.0,0.000767318410122,0.0,-0.0,-100.0,-0.0,0.0,1014515.2,0.0,0.0,0.0,0.0,0.0,0.0
1402754391912145250,3,-17.2841150937,-0.00591572024346,-16.613374622,-0.122189614607,57.8464413349,0.10862951003,0.0146494436942,0.0,-0.00389782260877,0.0,0.0871812710828,0.0,1.0911959922,0.0,-0.000732591903177,0.0,-0.000543416826172,0.0,0.00186866672482,0.0,0.0726938088589,0.0,0.00687571836168,0.0,0.0,0.0,0.0,-100.0,0.0,30.48,0.00230154196664,0.0,0.000767318410122,0.0,-0.0,-100.0,-0.0,0.0,1014515.2,0.0,0.0,0.0,0.0,0.0,0.0
1402754391932213583,3,-17.2841150937,-0.00591572024346,-16.613374622,-0.122189614607,57.8464413349,0.10862951003,0.0146494436942,0.0,-0.00389782260877,0.0,0.0871812710828,0.0,1.0911959922,0.0,-0.000732591903177,0.0,-0.000543416826172,0.0,0.00186866672482,0.0,0.0726938088589,0.0,0.00687571836168,0.0,0.0,0.0,0.0,-100.0,0.0,30.48,0.00230154196664,0.0,0.000767318410122,0.0,-0.0,-100.0,-0.0,0.0,1014515.2,0.0,0.0,0.0,0.0,0.0,0.0
1402754391953043078,3,-17.2806323153,-0.00591572024346,-16.6160047691,-0.122189614607,57.8515375173,0.10862951003,0.0193380904364,0.0,-0.00816321656452,0.0,0.08959452593,0.0,1.09127249003,0.0,-0.00508038342946,0.0,0.000488849145333,0.0,0.00146081534282,0.0,0.072556726569,0.0,0.00585815012289,0.0,0.0,0.0,0.0,-100.0,0.0,30.48,0.00230154196664,0.0,0.000767318410122,0.0,-0.0,-100.0,-0.0,0.0,1014515.2,0.0,0.0,0.0,0.0,0.0,0.0
1402754391971881881,3,-17.2806323153,-0.00591572024346,-16.6160047691,-0.122189614607,57.8515375173,0.10862951003,0.0193380904364,0.0,-0.00816321656452,0.0,0.08959452593,0.0,1.09127249003,0.0,-0.00508038342946,0.0,0.000488849145333,0.0,0.00146081534282,0.0,0.072556726569,0.0,0.00585815012289,0.0,0.0,0.0,0.0,-100.0,0.0,30.48,0.00230154196664,0.0,0.000767318410122,0.0,-0.0,-100.0,-0.0,0.0,1014515.2,0.0,0.0,0.0,0.0,0.0,0.0
1402754391992148777,3,-17.2806323153,-0.00591572024346,-16.6160047691,-0.122189614607,57.8515375173,0.10862951003,0.0193380904364,0.0,-0.00816321656452,0.0,0.08959452593,0.0,1.09127249003,0.0,-0.00508038342946,0.0,0.000488849145333,0.0,0.00146081534282,0.0,0.072556726569,0.0,0.00585815012289,0.0,0.0,0.0,0.0,-100.0,0.0,30.48,0.00230154196664,0.0,0.000767318410122,0.0,-0.0,-100.0,-0.0,0.0,1014515.2,0.0,0.0,0.0,0.0,0.0,0.0
1402754392012064281,3,-17.2800453445,-0.00591572024346,-16.6166751832,-0.122189614607,57.8522668777,0.10862951003,0.018767710657,0.0,-0.0120214840598,0.0,0.0909769313785,0.0,1.09151136867,0.0,0.00853779341716,0.0,0.000729137832166,0.0,0.00181831869711,0.0,0.0720521898769,0.0,0.000542549611913,0.0,0.0,0.0,0.0,-100.0,0.0,30.48,0.00230154196664,-100.0,0.000767318410122,0.0,-0.0,-100.0,-0.0,0.0,1014515.2,0.0,0.0,0.0,0.0,0.0,0.0
1402754392033279974,3,-17.2800278751,-0.00591572024346,-16.6141731387,-0.122189614607,57.8473595262,0.10862951003,0.0174365595281,0.0,-0.0107683651173,0.0,0.0904837406925,0.0,1.09156203646,0.0,-0.00272486549335,0.0,0.000815872614026,0.0,0.00964979811525,0.0,0.0720278364662,0.0,0.00628922901604,0.0,0.0,0.0,0.0,-100.0,0.0,30.48,0.00230154196664,-100.0,0.000767318410122,0.0,-0.0,-100.0,-0.0,0.0,1014515.2,0.0,0.0,0.0,0.0,0.0,0.0
1402754392052413910,3,-17.2800278751,-0.00591572024346,-16.6141731387,-0.122189614607,57.8473595262,0.10862951003,0.0174365595281,0.0,-0.0107683651173,0.0,0.0904837406925,0.0,1.09156203646,0.0,-0.00272486549335,0.0,0.000815872614026,0.0,0.00964979811525,0.0,0.0720278364662,0.0,0.00628922901604,0.0,0.0,0.0,0.0,-100.0,0.0,30.48,0.00230154196664,-100.0,0.000767318410122,0.0,-0.0,-100.0,-0.0,0.0,1014515.2,0.0,0.0,0.0,0.0,0.0,0.0
1402754392072622419,3,-17.2757252101,-0.00591572024346,-16.6182248061,-0.122189614607,57.861131292,0.10862951003,0.0223718830716,0.0,-0.0138114339027,0.0,0.0952214548924,0.0,1.0916789933,0.0,0.00236720202754,0.0,0.00170576105624,0.0,0.00619508187149,0.0,0.0718372101951,0.0,-0.000610946280993,0.0,0.0,0.0,0.0,-100.0,0.0,30.48,0.00230154196664,-100.0,0.000767318410122,0.0,-0.0,-100.0,-0.0,0.0,1014515.2,0.0,0.0,0.0,0.0,0.0,0.0
1402754392091854891,3,-17.2757252101,-0.00591572024346,-16.6182248061,-0.122189614607,57.861131292,0.10862951003,0.0223718830716,0.0,-0.0138114339027,0.0,0.0952214548924,0.0,1.0916789933,0.0,0.00236720202754,0.0,0.00170576105624,0.0,0.00619508187149,0.0,0.0718372101951,0.0,-0.000610946280993,0.0,0.0,0.0,0.0,-100.0,0.0,30.48,0.00230154196664,-100.0,0.00230154196664,0.0,-0.0,-100.0,-0.0,0.0,1014515.2,0.0,0.0,0.0,0.0,0.0,0.0
1402754392111735211,3,-17.2744797168,-0.00591572024346,-16.6189130955,-0.122189614607,57.8659884962,0.10862951003,0.023367295124,0.0,-0.0142036695775,0.0,0.0963597034792,0.0,1.0918982069,0.0,0.00198466276176,0.0,0.00188610367224,0.0,0.00968168386373,0.0,0.0715159199923,0.0,0.00179046855912,0.0,0.0,0.0,0.0,-100.0,0.0,30.48,0.00230154196664,-100.0,0.00383600394174,0.0,-0.0,-100.0,-0.0,0.0,1014515.2,0.0,0.0,0.0,0.0,0.0,0.0
1402754392131779499,3,-17.2744797168,-0.00591572024346,-16.6189130955,-0.122189614607,57.8659884962,0.10862951003,0.023367295124,0.0,-0.0142036695775,0.0,0.0963597034792,0.0,1.0918982069,0.0,0.00198466276176,0.0,0.00188610367224,0.0,0.00968168386373,0.0,0.0715159199923,0.0,0.00179046855912,0.0,0.0,0.0,0.0,-100.0,0.0,30.48,0.00230154196664,-100.0,0.00383600394174,0.0,-0.0,-100.0,-0.0,0.0,1014515.2,0.0,0.0,0.0,0.0,0.0,0.0
1402754392151927588,3,-17.2780397441,-0.00591572024346,-16.6123095618,-0.122189614607,57.8544292368,0.10862951003,0.016465792429,0.0,-0.00507911935191,0.0,0.0912180084621,0.0,1.09188552239,0.0,-0.00241084749446,0.0,0.00101265586728,0.0,0.0103611344683,0.0,0.0719682058863,0.0,0.000956549685117,0.0,0.0,0.0,0.0,-100.0,0.0,30.48,0.00230154196664,-100.0,0.00383600394174,0.0,-0.0,-100.0,-0.0,0.0,1014515.2,0.0,0.0,0.0,0.0,0.0,0.0
1402754392172927166,3,-17.2807295652,-0.00591572024346,-16.6144123011,-0.122189614607,57.8535671343,0.10862951003,0.00805944148284,0.0,-0.0145023156726,0.0,0.0875882491845,0.0,1.09192934747,0.0,0.000721527629383,0.0,0.000873274089185,0.0,0.00363006598765,0.0,0.0710194694875,0.0,-0.00290562294929,0.0,0.0,0.0,0.0,-100.0,0.0,30.48,0.00230154196664,-100.0,0.00383600394174,0.0,-0.0,-100.0,-0.0,0.0,1014515.2,0.0,0.0,0.0,0.0,0.0,0.0
1402754392191830997,3,-17.2807295652,-0.00591572024346,-16.6144123011,-0.122189614607,57.8535671343,0.10862951003,0.00805944148284,0.0,-0.0145023156726,0.0,0.0875882491845,0.0,1.09192934747,0.0,0.000721527629383,0.0,0.000873274089185,0.0,0.00363006598765,0.0,0.0710194694875,0.0,-0.00290562294929,0.0,0.0,0.0,0.0,-100.0,0.0,30.48,0.00230154196664,-100.0,0.000767318410122,0.0,-0.0,-100.0,-0.0,0.0,1014515.2,0.0,0.0,0.0,0.0,0.0,0.0
1402754392211929594,3,-17.2805953913,-0.00591572024346,-16.6147645028,-0.122189614607,57.8552882595,0.10862951003,0.00228282693391,0.0,-0.0227290172538,0.0,0.0861665355274,0.0,1.09212090552,0.0,0.01526484334,0.0,0.000912041459433,0.0,-0.00344878682916,0.0,0.0710210956281,0.0,0.0038056299692,0.0,0.0,0.0,0.0,-100.0,0.0,30.48,0.00230154196664,-100.0,-0.00383606751517,0.0,-0.0,-100.0,-0.0,0.0,1014515.2,0.0,0.0,0.0,0.0,0.0,0.0
1402754392231752569,3,-17.2805953913,-0.00591572024346,-16.6147645028,-0.122189614607,57.8552882595,0.10862951003,0.00228282693391,0.0,-0.0227290172538,0.0,0.0861665355274,0.0,1.09212090552,0.0,0.01526484334,0.0,0.000912041459433,0.0,-0.00344878682916,0.0,0.0710210956281,0.0,0.0038056299692,0.0,0.0,0.0,0.0,-100.0,0.0,30.48,0.00230154196664,-100.0,-0.00383606751517,0.0,-0.0,-100.0,-0.0,0.0,1014515.2,0.0,0.0,0.0,0.0,0.0,0.0
1402754392251869295,3,-17.2831925471,-0.00591572024346,-16.6171851659,-0.122189614607,57.8635511371,0.10862951003,-0.0219692345413,0.0,-0.0427100076073,0.0,0.0787899145706,0.0,1.09278202339,0.0,0.0345356253,0.0,0.000344917295218,0.0,-0.0122489737418,0.0,0.0715558475917,0.0,0.0117966467439,0.0,0.0,0.0,0.0,-100.0,0.0,30.48,0.00230154196664,-100.0,-0.00383606751517,0.0,-0.0,-100.0,-0.0,0.0,1014515.2,0.0,0.0,0.0,0.0,0.0,0.0
1402754392271977503,3,-17.2831925471,-0.00591572024346,-16.6171851659,-0.122189614607,57.8635511371,0.10862951003,-0.0219692345413,0.0,-0.0427100076073,0.0,0.0787899145706,0.0,1.09278202339,0.0,0.0345356253,0.0,0.000344917295218,0.0,-0.0122489737418,0.0,0.0715558475917,0.0,0.0117966467439,0.0,0.0,0.0,0.0,-100.0,0.0,30.48,0.00230154196664,-100.0,-0.00383606751517,0.0,-0.0,-100.0,-0.0,0.0,1014515.2,0.0,0.0,0.0,0.0,0.0,0.0
1402754392292237269,3,-17.274227402,-0.00591572024346,-16.6217067297,-0.122189614607,57.876040188,0.10862951003,-0.0152379214881,0.0,-0.063474326302,0.0,0.0760747332717,0.0,1.09717354711,0.0,0.0620120194568,0.0,0.00245286571338,0.0,-0.0366198132451,0.0,0.0741432611265,0.0,0.017020107529,0.0,0.0,0.0,0.0,-100.0,0.0,30.48,0.00230154196664,-100.0,-0.00383606751517,0.0,-0.0,-100.0,-0.0,0.0,1014515.2,0.0,0.0,0.0,0.0,0.0,0.0
1402754392311912107,3,-17.274227402,-0.00591572024346,-16.6217067297,-0.122189614607,57.876040188,0.10862951003,-0.0152379214881,0.0,-0.063474326302,0.0,0.0760747332717,0.0,1.09717354711,0.0,0.0620120194568,0.0,0.00245286571338,0.0,-0.0366198132451,0.0,0.0741432611265,0.0,0.017020107529,0.0,0.0,0.0,0.0,-100.0,0.0,30.48,0.00230154196664,-100.0,-0.00383606751517,0.0,-0.0,-100.0,-0.0,0.0,1014515.2,0.0,0.0,0.0,0.0,0.0,0.0
1402754392331812613,3,-17.2750251037,-0.00591572024346,-16.6247282208,-0.122189614607,57.8789090623,0.10862951003,-0.0310267293242,0.0,-0.0878129873804,0.0,0.0739076469157,0.0,1.10044918148,0.0,0.0950859974119,0.0,0.0027627283864,0.0,-0.0424181985977,0.0,0.0758840063926,0.0,0.0177911555696,0.0,0.0,0.0,0.0,-100.0,0.0,30.48,0.00230154196664,-100.0,-0.00383606751517,0.0,-0.0,-100.0,-0.0,0.0,1014515.2,0.0,0.0,0.0,0.0,0.0,0.0
1402754392351808866,3,-17.2750251037,-0.00591572024346,-16.6247282208,-0.122189614607,57.8789090623,0.10862951003,-0.0310267293242,0.0,-0.0878129873804,0.0,0.0739076469157,0.0,1.10044918148,0.0,0.0950859974119,0.0,0.0027627283864,0.0,-0.0424181985977,0.0,0.0758840063926,0.0,0.0177911555696,0.0,0.0,0.0,0.0,-100.0,0.0,30.48,0.00230154196664,-100.0,-0.00383606751517,0.0,-0.0,-100.0,-0.0,0.0,1014515.2,0.0,0.0,0.0,0.0,0.0,0.0
1402754392371727355,3,-17.2814648563,-0.00591572024346,-16.6362325491,-0.122189614607,57.8904126169,0.10862951003,-0.0580532948277,0.0,-0.122571517964,0.0,0.0705247124958,0.0,1.10558665579,0.0,0.112954733957,0.0,0.00234343457254,0.0,-0.0402591523791,0.0,0.0772680307273,0.0,0.0141719744984,0.0,0.0,0.0,0.0,-100.0,0.0,30.48,0.00230154196664,-100.0,-0.00383606751517,0.0,-0.0,-100.0,-0.0,0.0,1014515.2,0.0,0.0,0.0,0.0,0.0,0.0
1402754392391844019,3,-17.2814648563,-0.00591572024346,-16.6362325491,-0.122189614607,57.8904126169,0.10862951003,-0.0580532948277,0.0,-0.122571517964,0.0,0.0705247124958,0.0,1.10558665579,0.0,0.112954733957,0.0,0.00234343457254,0.0,-0.0402591523791,0.0,0.0772680307273,0.0,0.0141719744984,0.0,0.0,0.0,0.0,-100.0,0.0,30.48,0.00230154196664,-100.0,-0.00383606751517,0.0,-0.0,-100.0,-0.0,0.0,1014515.2,0.0,0.0,0.0,0.0,0.0,0.0
1402754392411877097,3,-17.2857233383,-0.00591572024346,-16.6462314117,-0.122189614607,57.9089157141,0.10862951003,-0.0842968951883,0.0,-0.145912614493,0.0,0.0787242987659,0.0,1.11087948431,0.0,0.131850927152,0.0,0.00125304933813,0.0,-0.0411909226603,0.0,0.0799786052369,0.0,0.0134459978731,0.0,0.0,0.0,0.0,-100.0,0.0,30.48,0.00230154196664,-100.0,-0.00383606751517,0.0,-0.0,-100.0,-0.0,0.0,1014515.2,0.0,0.0,0.0,0.0,0.0,0.0
1402754392431759982,3,-17.2857233383,-0.00591572024346,-16.6462314117,-0.122189614607,57.9089157141,0.10862951003,-0.0842968951883,0.0,-0.145912614493,0.0,0.0787242987659,0.0,1.11087948431,0.0,0.131850927152,0.0,0.00125304933813,0.0,-0.0411909226603,0.0,0.0799786052369,0.0,0.0134459978731,0.0,0.0,0.0,0.0,-100.0,0.0,30.48,0.00383600394174,-100.0,-0.00383606751517,0.0,-0.0,-100.0,-0.0,0.0,1014515.2,0.0,0.0,0.0,0.0,0.0,0.0
1402754392452051498,3,-17.2875445933,-0.00591572024346,-16.649374252,-0.122189614607,57.9104936382,0.10862951003,-0.0899987736577,0.0,-0.156897953308,0.0,0.0799530678044,0.0,1.11367682218,0.0,0.137629799551,0.0,0.00128813704212,0.0,-0.0385082097648,0.0,0.0808904042909,0.0,0.0180818315683,0.0,0.0,0.0,0.0,-100.0,0.0,30.48,0.00383600394174,-100.0,-0.00383606751517,0.0,-0.0,-100.0,-0.0,0.0,1014515.2,0.0,0.0,0.0,0.0,0.0,0.0
1402754392473601678,3,-17.2875445933,-0.00591572024346,-16.649374252,-0.122189614607,57.9104936382,0.10862951003,-0.0899987736577,0.0,-0.156897953308,0.0,0.0799530678044,0.0,1.11367682218,0.0,0.137629799551,0.0,0.00128813704212,0.0,-0.0385082097648,0.0,0.0808904042909,0.0,0.0180818315683,0.0,0.0,0.0,0.0,-100.0,0.0,30.48,0.00230154196664,-100.0,-0.00383606751517,0.0,-0.0,-100.0,-0.0,0.0,1014515.2,0.0,0.0,0.0,0.0,0.0,0.0
1402754392491915503,3,-17.289544501,-0.00591572024346,-16.6590433296,-0.122189614607,57.9111421927,0.10862951003,-0.0975339863891,0.0,-0.187456869249,0.0,0.0850825377371,0.0,1.12199878668,0.0,0.153234525706,0.0,0.0026616348345,0.0,-0.031011696573,0.0,0.0818609575197,0.0,0.0150335586998,0.0,0.0,0.0,0.0,-100.0,0.0,30.48,0.00383600394174,-100.0,-0.00383606751517,0.0,-0.0,-100.0,-0.0,0.0,1014515.2,0.0,0.0,0.0,0.0,0.0,0.0
1402754392512041483,3,-17.289544501,-0.00591572024346,-16.6590433296,-0.122189614607,57.9111421927,0.10862951003,-0.0975339863891,0.0,-0.187456869249,0.0,0.0850825377371,0.0,1.12199878668,0.0,0.153234525706,0.0,0.0026616348345,0.0,-0.031011696573,0.0,0.0818609575197,0.0,0.0150335586998,0.0,0.0,0.0,0.0,-100.0,0.0,30.48,0.00383600394174,-100.0,-0.00383606751517,0.0,-0.0,-100.0,-0.0,0.0,1014515.2,0.0,0.0,0.0,0.0,0.0,0.0
1402754392531895378,3,-17.2948746901,-0.00591572024346,-16.6694966081,-0.122189614607,57.915492686,0.10862951003,-0.112895697508,0.0,-0.21747585688,0.0,0.0881714438027,0.0,1.13049959669,0.0,0.170671839552,0.0,0.00277138929795,0.0,-0.00765334717648,0.0,0.0827977953261,0.0,0.00693308000528,0.0,0.0,0.0,0.0,-100.0,0.0,30.48,0.00383600394174,-100.0,-0.00383606751517,0.0,-0.0,-100.0,-0.0,0.0,1014515.2,0.0,0.0,0.0,0.0,0.0,0.0
1402754392551835772,3,-17.2948746901,-0.00591572024346,-16.6694966081,-0.122189614607,57.915492686,0.10862951003,-0.112895697508,0.0,-0.21747585688,0.0,0.0881714438027,0.0,1.13049959669,0.0,0.170671839552,0.0,0.00277138929795,0.0,-0.00765334717648,0.0,0.0827977953261,0.0,0.00693308000528,0.0,0.0,0.0,0.0,-100.0,0.0,30.48,0.00230154196664,-100.0,-0.00383606751517,0.0,-0.0,-100.0,-0.0,0.0,1014515.2,0.0,0.0,0.0,0.0,0.0,0.0
1402754392572085850,3,-17.2941766847,-0.00591572024346,-16.6759732542,-0.122189614607,57.9185007841,0.10862951003,-0.111079228875,0.0,-0.230048356731,0.0,0.0974714654104,0.0,1.13836979685,0.0,0.179603335878,0.0,0.00415496928109,0.0,0.000922989781743,0.0,0.0836807569627,0.0,0.00778711262734,0.0,0.0,0.0,0.0,-100.0,0.0,30.48,0.00383600394174,-100.0,-0.00383606751517,0.0,-0.0,-100.0,-0.0,0.0,1014515.2,0.0,0.0,0.0,0.0,0.0,0.0
1402754392591704957,3,-17.296692102,-0.00591572024346,-16.6810271339,-0.122189614607,57.9207960656,0.10862951003,-0.11991188271,0.0,-0.240855683552,0.0,0.0998430051702,0.0,1.14220901058,0.0,0.18471429099,0.0,0.00427137495341,0.0,0.0133028218258,0.0,0.0835351691491,0.0,-0.00182471835566,0.0,0.0,0.0,0.0,-100.0,0.0,30.48,0.00383600394174,-100.0,-0.00383606751517,0.0,-0.0,-100.0,-0.0,0.0,1014515.2,0.0,0.0,0.0,0.0,0.0,0.0
1402754392611832107,3,-17.296692102,-0.00591572024346,-16.6810271339,-0.122189614607,57.9207960656,0.10862951003,-0.11991188271,0.0,-0.240855683552,0.0,0.0998430051702,0.0,1.14220901058,0.0,0.18471429099,0.0,0.00427137495341,0.0,0.0133028218258,0.0,0.0835351691491,0.0,-0.00182471835566,0.0,0.0,0.0,0.0,-100.0,0.0,30.48,0.00383600394174,-100.0,-0.00383606751517,0.0,-0.0,-100.0,-0.0,0.0,1014515.2,0.0,0.0,0.0,0.0,0.0,0.0
1402754392632295349,3,-17.3031476179,-0.00591572024346,-16.6890145879,-0.122189614607,57.923736252,0.10862951003,-0.133991868721,0.0,-0.2556252251,0.0,0.102142845204,0.0,1.14488959794,0.0,0.19119112426,0.0,0.00383374775154,0.0,0.0155884875696,0.0,0.0825007287923,0.0,0.00230009706168,0.0,0.0,0.0,0.0,-100.0,0.0,30.48,0.00383600394174,-100.0,-0.00383606751517,0.0,-0.0,-100.0,-0.0,0.0,1014515.2,0.0,0.0,0.0,0.0,0.0,0.0
1402754392651785369,3,-17.3031476179,-0.00591572024346,-16.6890145879,-0.122189614607,57.923736252,0.10862951003,-0.133991868721,0.0,-0.2556252251,0.0,0.102142845204,0.0,1.14488959794,0.0,0.19119112426,0.0,0.00383374775154,0.0,0.0155884875696,0.0,0.0825007287923,0.0,0.00230009706168,0.0,0.0,0.0,0.0,-100.0,0.0,30.48,0.00383600394174,-100.0,-0.00383606751517,0.0,-0.0,-100.0,-0.0,0.0,1014515.2,0.0,0.0,0.0,0.0,0.0,0.0
1402754392673774924,3,-17.3064778576,-0.00591572024346,-16.6952483742,-0.122189614607,57.9255743737,0.10862951003,-0.139637912082,0.0,-0.265876425082,0.0,0.109436006193,0.0,1.15418862448,0.0,0.210253113764,0.0,0.00408958132523,0.0,0.0272033965593,0.0,0.0832524880317,0.0,-0.0152298977014,0.0,0.0,0.0,0.0,-100.0,0.0,30.48,0.00383600394174,-100.0,-0.00383606751517,0.0,-0.0,-100.0,-0.0,0.0,1014515.2,0.0,0.0,0.0,0.0,0.0,0.0
1402754392693177444,3,-17.3064778576,-0.00591572024346,-16.6952483742,-0.122189614607,57.9255743737,0.10862951003,-0.139637912082,0.0,-0.265876425082,0.0,0.109436006193,0.0,1.15418862448,0.0,0.210253113764,0.0,0.00408958132523,0.0,0.0272033965593,0.0,0.0832524880317,0.0,-0.0152298977014,0.0,0.0,0.0,0.0,-100.0,0.0,30.48,0.00383600394174,-100.0,-0.00383606751517,0.0,-0.0,-100.0,-0.0,0.0,1014515.2,0.0,0.0,0.0,0.0,0.0,0.0
1402754392712112268,3,-17.3117670758,-0.00591572024346,-16.7017706713,-0.122189614607,57.9209518611,0.10862951003,-0.146504112598,0.0,-0.278902418538,0.0,0.113086304426,0.0,1.16421616948,0.0,0.22023319618,0.0,0.00408335465149,0.0,0.0330901512889,0.0,0.0828931021498,0.0,-0.017932514529,0.0,0.0,0.0,0.0,-100.0,0.0,30.48,0.00383600394174,-100.0,-0.00383606751517,0.0,-0.0,-100.0,-0.0,0.0,1014515.2,0.0,0.0,0.0,0.0,0.0,0.0
1402754392731713715,3,-17.3117670758,-0.00591572024346,-16.7017706713,-0.122189614607,57.9209518611,0.10862951003,-0.146504112598,0.0,-0.278902418538,0.0,0.113086304426,0.0,1.16421616948,0.0,0.22023319618,0.0,0.00408335465149,0.0,0.0330901512889,0.0,0.0828931021498,0.0,-0.017932514529,0.0,0.0,0.0,0.0,-100.0,0.0,30.48,0.00383600394174,-100.0,-0.00383606751517,0.0,-0.0,-100.0,-0.0,0.0,1014515.2,0.0,0.0,0.0,0.0,0.0,0.0
1402754392751812498,3,-17.3203518798,-0.00591572024346,-16.7206295897,-0.122189614607,57.9284274455,0.10862951003,-0.161739266964,0.0,-0.309213225554,0.0,0.120705695444,0.0,1.17608893153,0.0,0.230458275956,0.0,0.00447187569769,0.0,0.0353497634516,0.0,0.0799143828608,0.0,-0.0215752682536,0.0,0.0,0.0,0.0,-100.0,0.0,30.48,0.00383600394174,-100.0,-0.00383606751517,0.0,-0.0,-100.0,-0.0,0.0,1014515.2,0.0,0.0,0.0,0.0,0.0,0.0
1402754392771858025,3,-17.3203518798,-0.00591572024346,-16.7206295897,-0.122189614607,57.9284274455,0.10862951003,-0.161739266964,0.0,-0.309213225554,0.0,0.120705695444,0.0,1.17608893153,0.0,0.230458275956,0.0,0.00447187569769,0.0,0.0353497634516,0.0,0.0799143828608,0.0,-0.0215752682536,0.0,0.0,0.0,0.0,-100.0,0.0,30.48,0.00383600394174,-100.0,-0.00383606751517,0.0,-0.0,-100.0,-0.0,0.0,1014515.2,0.0,0.0,0.0,0.0,0.0,0.0
1402754392791914239,3,-17.3284090232,-0.00591572024346,-16.7362980648,-0.122189614607,57.9336303547,0.10862951003,-0.170512095027,0.0,-0.332694768918,0.0,0.112882263894,0.0,1.18885291344,0.0,0.246783421806,0.0,0.00430418742376,0.0,0.0461749949097,0.0,0.0780962799023,0.0,-0.0115408787328,0.0,0.0,0.0,0.0,-100.0,0.0,30.48,0.00383600394174,-100.0,-0.00383606751517,0.0,-0.0,-100.0,-0.0,0.0,1014515.2,0.0,0.0,0.0,0.0,0.0,0.0
1402754392812496666,3,-17.3284090232,-0.00591572024346,-16.7362980648,-0.122189614607,57.9336303547,0.10862951003,-0.170512095027,0.0,-0.332694768918,0.0,0.112882263894,0.0,1.18885291344,0.0,0.246783421806,0.0,0.00430418742376,0.0,0.0461749949097,0.0,0.0780962799023,0.0,-0.0115408787328,0.0,0.0,0.0,0.0,-100.0,0.0,30.48,0.00383600394174,-100.0,-0.00383606751517,0.0,-0.0,-100.0,-0.0,0.0,1014515.2,0.0,0.0,0.0,0.0,0.0,0.0
1402754392831872419,3,-17.3320119085,-0.00591572024346,-16.7434970845,-0.122189614607,57.9363675128,0.10862951003,-0.174201102466,0.0,-0.341943123252,0.0,0.112706262391,0.0,1.19404212099,0.0,0.251480835172,0.0,0.00440903022356,0.0,0.0430537109433,0.0,0.0772499554202,0.0,-0.0122594326131,0.0,0.0,0.0,0.0,-100.0,0.0,30.48,0.00383600394174,-100.0,-0.00383606751517,0.0,-0.0,-100.0,-0.0,0.0,1014515.2,0.0,0.0,0.0,0.0,0.0,0.0
1402754392851801299,3,-17.3320119085,-0.00591572024346,-16.7434970845,-0.122189614607,57.9363675128,0.10862951003,-0.174201102466,0.0,-0.341943123252,0.0,0.112706262391,0.0,1.19404212099,0.0,0.251480835172,0.0,0.00440903022356,0.0,0.0430537109433,0.0,0.0772499554202,0.0,-0.0122594326131,0.0,0.0,0.0,0.0,-100.0,0.0,30.48,0.00383600394174,-100.0,-0.00383606751517,0.0,-0.0,-100.0,-0.0,0.0,1014515.2,0.0,0.0,0.0,0.0,0.0,0.0
1402754392872348375,3,-17.3393569131,-0.00591572024346,-16.7600626864,-0.122189614607,57.9382224269,0.10862951003,-0.182955226292,0.0,-0.365213947984,0.0,0.109739776905,0.0,1.20509811381,0.0,0.261026177479,0.0,0.0047710677602,0.0,0.0331443522611,0.0,0.0751890212219,0.0,-0.0146018185517,0.0,0.0,0.0,0.0,-100.0,0.0,30.48,0.00383600394174,-100.0,-0.00383606751517,0.0,-0.0,-100.0,-0.0,0.0,1014515.2,0.0,0.0,0.0,0.0,0.0,0.0
1402754392892286323,3,-17.3393569131,-0.00591572024346,-16.7600626864,-0.122189614607,57.9382224269,0.10862951003,-0.182955226292,0.0,-0.365213947984,0.0,0.109739776905,0.0,1.20509811381,0.0,0.261026177479,0.0,0.0047710677602,0.0,0.0331443522611,0.0,0.0751890212219,0.0,-0.0146018185517,0.0,0.0,0.0,0.0,-100.0,0.0,30.48,0.00383600394174,-100.0,-0.00383606751517,0.0,-0.0,-100.0,-0.0,0.0,1014515.2,0.0,0.0,0.0,0.0,0.0,0.0
1402754392912129423,3,-17.3451328507,-0.00591572024346,-16.7773781248,-0.122189614607,57.9455502789,0.10862951003,-0.18599670982,0.0,-0.38359816889,0.0,0.106948775837,0.0,1.21713167681,0.0,0.268570258445,0.0,0.00543696873245,0.0,0.0306089140168,0.0,0.0743203367727,0.0,-0.00399002146221,0.0,0.0,0.0,0.0,-100.0,0.0,30.48,0.00383600394174,-100.0,-0.00383606751517,0.0,-0.0,-100.0,-0.0,0.0,1014515.2,0.0,0.0,0.0,0.0,0.0,0.0
1402754392931957301,3,-17.3451328507,-0.00591572024346,-16.7773781248,-0.122189614607,57.9455502789,0.10862951003,-0.18599670982,0.0,-0.38359816889,0.0,0.106948775837,0.0,1.21713167681,0.0,0.268570258445,0.0,0.00543696873245,0.0,0.0306089140168,0.0,0.0743203367727,0.0,-0.00399002146221,0.0,0.0,0.0,0.0,-100.0,0.0,30.48,0.00383600394174,-100.0,-0.00383606751517,0.0,-0.0,-100.0,-0.0,0.0,1014515.2,0.0,0.0,0.0,0.0,0.0,0.0
1402754392951779419,3,-17.3502198734,-0.00591572024346,-16.8018781132,-0.122189614607,57.9514981684,0.10862951003,-0.177514375057,0.0,-0.413183124884,0.0,0.101732909955,0.0,1.23373832347,0.0,0.280643612218,0.0,0.00740261209216,0.0,0.0179283057345,0.0,0.0730647009558,0.0,0.00637445780065,0.0,0.0,0.0,0.0,-100.0,0.0,30.48,0.00383600394174,-100.0,-0.00383606751517,0.0,-0.0,-100.0,-0.0,0.0,1014515.2,0.0,0.0,0.0,0.0,0.0,0.0
1402754392971898623,3,-17.3502198734,-0.00591572024346,-16.8018781132,-0.122189614607,57.9514981684,0.10862951003,-0.177514375057,0.0,-0.413183124884,0.0,0.101732909955,0.0,1.23373832347,0.0,0.280643612218,0.0,0.00740261209216,0.0,0.0179283057345,0.0,0.0730647009558,0.0,0.00637445780065,0.0,0.0,0.0,0.0,-100.0,0.0,30.48,0.00383600394174,-100.0,-0.00383606751517,0.0,-0.0,-100.0,-0.0,0.0,1014515.2,0.0,0.0,0.0,0.0,0.0,0.0
1402754392992508944,3,-17.3609605927,-0.00591572024346,-16.8326112966,-0.122189614607,57.9828729955,0.10862951003,-0.193486851645,0.0,-0.433899001281,0.0,0.100393847357,0.0,1.24714431497,0.0,0.291097678847,0.0,0.0066970478192,0.0,-0.000334513173747,0.0,0.0727548409696,0.0,0.00910072489334,0.0,0.0,0.0,0.0,-100.0,0.0,30.48,0.00383600394174,-100.0,-0.00383606751517,0.0,-0.0,-100.0,-0.0,0.0,1014515.2,0.0,0.0,0.0,0.0,0.0,0.0
1402754393012294638,3,-17.3609605927,-0.00591572024346,-16.8326112966,-0.122189614607,57.9828729955,0.10862951003,-0.193486851645,0.0,-0.433899001281,0.0,0.100393847357,0.0,1.24714431497,0.0,0.291097678847,0.0,0.0066970478192,0.0,-0.000334513173747,0.0,0.0727548409696,0.0,0.00910072489334,0.0,0.0,0.0,0.0,-100.0,0.0,30.48,0.00383600394174,-100.0,-0.00383606751517,0.0,-0.0,-100.0,-0.0,0.0,1014515.2,0.0,0.0,0.0,0.0,0.0,0.0
1402754393031819317,3,-17.3651734942,-0.00591572024346,-16.8422038462,-0.122189614607,57.9849419522,0.10862951003,-0.196334036086,0.0,-0.444241488816,0.0,0.0987042554735,0.0,1.25359598646,0.0,0.294358492347,0.0,0.0067087184235,0.0,-0.00661643323384,0.0,0.0727545503306,0.0,-0.00212901205953,0.0,0.0,0.0,0.0,-100.0,0.0,30.48,0.00383600394174,-100.0,-0.00383606751517,0.0,-0.0,-100.0,-0.0,0.0,1014515.2,0.0,0.0,0.0,0.0,0.0,0.0
1402754393051942777,3,-17.3651734942,-0.00591572024346,-16.8422038462,-0.122189614607,57.9849419522,0.10862951003,-0.196334036086,0.0,-0.444241488816,0.0,0.0987042554735,0.0,1.25359598646,0.0,0.294358492347,0.0,0.0067087184235,0.0,-0.00661643323384,0.0,0.0727545503306,0.0,-0.00212901205953,0.0,0.0,0.0,0.0,-100.0,0.0,30.48,0.00383600394174,-100.0,-0.00383606751517,0.0,-0.0,-100.0,-0.0,0.0,1014515.2,0.0,0.0,0.0,0.0,0.0,0.0
1402754393071900602,3,-17.3750164714,-0.00591572024346,-16.8700589043,-0.122189614607,58.0056016137,0.10862951003,-0.207782847802,0.0,-0.46884366735,0.0,0.0944030745457,0.0,1.26465864665,0.0,0.297271197073,0.0,0.00620521481862,0.0,-0.0141589885584,0.0,0.0721371831962,0.0,-0.00152227772306,0.0,0.0,0.0,0.0,-100.0,0.0,30.48,0.00383600394174,-100.0,-0.00383606751517,0.0,-0.0,-100.0,-0.0,0.0,1014515.2,0.0,0.0,0.0,0.0,0.0,0.0
1402754393092417424,3,-17.3750164714,-0.00591572024346,-16.8700589043,-0.122189614607,58.0056016137,0.10862951003,-0.207782847802,0.0,-0.46884366735,0.0,0.0944030745457,0.0,1.26465864665,0.0,0.297271197073,0.0,0.00620521481862,0.0,-0.0141589885584,0.0,0.0721371831962,0.0,-0.00152227772306,0.0,0.0,0.0,0.0,-100.0,0.0,30.48,0.00383600394174,-100.0,-0.00383606751517,0.0,-0.0,-100.0,-0.0,0.0,1014515.2,0.0,0.0,0.0,0.0,0.0,0.0
1402754393112250336,3,-17.3808798078,-0.00591572024346,-16.8928035401,-0.122189614607,58.0185183869,0.10862951003,-0.205544850869,0.0,-0.486266663246,0.0,0.0951907469378,0.0,1.27767316529,0.0,0.307078858975,0.0,0.00660940974816,0.0,-0.0193964027558,0.0,0.0731753925653,0.0,0.00812577798187,0.0,0.0,0.0,0.0,-100.0,0.0,30.48,0.00383600394174,-100.0,-0.00383606751517,0.0,-0.0,-100.0,-0.0,0.0,1014515.2,0.0,0.0,0.0,0.0,0.0,0.0
1402754393131859380,3,-17.3808798078,-0.00591572024346,-16.8928035401,-0.122189614607,58.0185183869,0.10862951003,-0.205544850869,0.0,-0.486266663246,0.0,0.0951907469378,0.0,1.27767316529,0.0,0.307078858975,0.0,0.00660940974816,0.0,-0.0193964027558,0.0,0.0731753925653,0.0,0.00812577798187,0.0,0.0,0.0,0.0,-100.0,0.0,30.48,0.00383600394174,-100.0,-0.00383606751517,0.0,-0.0,-100.0,-0.0,0.0,1014515.2,0.0,0.0,0.0,0.0,0.0,0.0
1402754393151852066,3,-17.3894103608,-0.00591572024346,-16.9169435075,-0.122189614607,58.0122838237,0.10862951003,-0.203831909216,0.0,-0.517653597088,0.0,0.0817874448121,0.0,1.29113656246,0.0,0.306564067278,0.0,0.0077414805795,0.0,-0.0157896012777,0.0,0.0724501256982,0.0,0.00595085168463,0.0,0.0,0.0,0.0,-100.0,0.0,30.48,0.00383600394174,-100.0,-0.00383606751517,0.0,-0.0,-100.0,-0.0,0.0,1014515.2,0.0,0.0,0.0,0.0,0.0,0.0
1402754393172321535,3,-17.3894103608,-0.00591572024346,-16.9169435075,-0.122189614607,58.0122838237,0.10862951003,-0.203831909216,0.0,-0.517653597088,0.0,0.0817874448121,0.0,1.29113656246,0.0,0.306564067278,0.0,0.0077414805795,0.0,-0.0157896012777,0.0,0.0724501256982,0.0,0.00595085168463,0.0,0.0,0.0,0.0,-100.0,0.0,30.48,0.00383600394174,-100.0,-0.00383606751517,0.0,-0.0,-100.0,-0.0,0.0,1014515.2,0.0,0.0,0.0,0.0,0.0,0.0
1402754393192316801,3,-17.4002505836,-0.00591572024346,-16.9474122216,-0.122189614607,58.0289669423,0.10862951003,-0.209782404497,0.0,-0.539017454481,0.0,0.0848587056896,0.0,1.30721064722,0.0,0.322022528463,0.0,0.00670429504761,0.0,-0.0214988420751,0.0,0.0739259448321,0.0,-0.00409634641849,0.0,0.0,0.0,0.0,-100.0,0.0,30.48,0.00383600394174,-100.0,-0.00383606751517,0.0,-0.0,-100.0,-0.0,0.0,1014515.2,0.0,0.0,0.0,0.0,0.0,0.0
1402754393211828578,3,-17.4002505836,-0.00591572024346,-16.9474122216,-0.122189614607,58.0289669423,0.10862951003,-0.209782404497,0.0,-0.539017454481,0.0,0.0848587056896,0.0,1.30721064722,0.0,0.322022528463,0.0,0.00670429504761,0.0,-0.0214988420751,0.0,0.0739259448321,0.0,-0.00409634641849,0.0,0.0,0.0,0.0,-100.0,0.0,30.48,0.00383600394174,-100.0,-0.00383606751517,0.0,-0.0,-100.0,-0.0,0.0,1014515.2,0.0,0.0,0.0,0.0,0.0,0.0
1402754393231622880,3,-17.4064723566,-0.00591572024346,-16.9621119364,-0.122189614607,58.0461552466,0.10862951003,-0.212946767355,0.0,-0.536382788815,0.0,0.0917593737995,0.0,1.31731677685,0.0,0.323883148239,0.0,0.00533305068835,0.0,-0.0193169112213,0.0,0.0768268319457,0.0,-0.00226974483276,0.0,0.0,0.0,0.0,-100.0,0.0,30.48,0.00383600394174,-100.0,-0.00383606751517,0.0,-0.0,-100.0,-0.0,0.0,1014515.2,0.0,0.0,0.0,0.0,0.0,0.0
1402754393251902682,3,-17.4108842054,-0.00591572024346,-16.9734442222,-0.122189614607,58.0481315248,0.10862951003,-0.212101124477,0.0,-0.546301094145,0.0,0.0941744867676,0.0,1.32415694492,0.0,0.331548128864,0.0,0.00523265981316,0.0,-0.0158561443485,0.0,0.0771915410174,0.0,-0.00367848894127,0.0,0.0,0.0,0.0,-100.0,0.0,30.48,0.00383600394174,-100.0,-0.00383606751517,0.0,-0.0,-100.0,-0.0,0.0,1014515.2,0.0,0.0,0.0,0.0,0.0,0.0
1402754393271940657,3,-17.4108842054,-0.00591572024346,-16.9734442222,-0.122189614607,58.0481315248,0.10862951003,-0.212101124477,0.0,-0.546301094145,0.0,0.0941744867676,0.0,1.32415694492,0.0,0.331548128864,0.0,0.00523265981316,0.0,-0.0158561443485,0.0,0.0771915410174,0.0,-0.00367848894127,0.0,0.0,0.0,0.0,-100.0,0.0,30.48,0.00383600394174,-100.0,-0.00383606751517,0.0,-0.0,-100.0,-0.0,0.0,1014515.2,0.0,0.0,0.0,0.0,0.0,0.0
1402754393292552350,3,-17.4171281188,-0.00591572024346,-16.9829806128,-0.122189614607,58.0283108338,0.10862951003,-0.211752601316,0.0,-0.563930543614,0.0,0.0882533809632,0.0,1.33073217709,0.0,0.327423374259,0.0,0.00561005225641,0.0,-0.0167037520022,0.0,0.0763794021703,0.0,-0.011013065622,0.0,0.0,0.0,0.0,-100.0,0.0,30.48,0.00383600394174,-100.0,-0.00383606751517,0.0,-0.0,-100.0,-0.0,0.0,1014515.2,0.0,0.0,0.0,0.0,0.0,0.0
1402754393311920953,3,-17.4171281188,-0.00591572024346,-16.9829806128,-0.122189614607,58.0283108338,0.10862951003,-0.211752601316,0.0,-0.563930543614,0.0,0.0882533809632,0.0,1.33073217709,0.0,0.327423374259,0.0,0.00561005225641,0.0,-0.0167037520022,0.0,0.0763794021703,0.0,-0.011013065622,0.0,0.0,0.0,0.0,-100.0,0.0,30.48,0.00383600394174,-100.0,-0.00383606751517,0.0,-0.0,-100.0,-0.0,0.0,1014515.2,0.0,0.0,0.0,0.0,0.0,0.0
1402754393331795117,3,-17.4259381567,-0.00591572024346,-17.0071312296,-0.122189614607,58.0323498884,0.10862951003,-0.209801683214,0.0,-0.58444930721,0.0,0.0965472417727,0.0,1.34470667978,0.0,0.335141742001,0.0,0.00517471326251,0.0,-0.00853096063864,0.0,0.0768145547246,0.0,-0.00403658979484,0.0,0.0,0.0,0.0,-100.0,0.0,30.48,0.00383600394174,-100.0,-0.00383606751517,0.0,-0.0,-100.0,-0.0,0.0,1014515.2,0.0,0.0,0.0,0.0,0.0,0.0
1402754393351717999,3,-17.4259381567,-0.00591572024346,-17.0071312296,-0.122189614607,58.0323498884,0.10862951003,-0.209801683214,0.0,-0.58444930721,0.0,0.0965472417727,0.0,1.34470667978,0.0,0.335141742001,0.0,0.00517471326251,0.0,-0.00853096063864,0.0,0.0768145547246,0.0,-0.00403658979484,0.0,0.0,0.0,0.0,-100.0,0.0,30.48,0.00383600394174,-100.0,-0.00383606751517,0.0,-0.0,-100.0,-0.0,0.0,1014515.2,0.0,0.0,0.0,0.0,0.0,0.0
1402754393371717595,3,-17.4303714333,-0.00591572024346,-17.0485408027,-0.122189614607,58.0564080474,0.10862951003,-0.198801756496,0.0,-0.621102294028,0.0,0.103114541746,0.0,1.36236956409,0.0,0.344041305856,0.0,0.0057209051474,0.0,-0.00129489557636,0.0,0.0761004252418,0.0,-0.0130640994832,0.0,0.0,0.0,0.0,-100.0,0.0,30.48,0.00383600394174,-100.0,-0.00383606751517,0.0,-0.0,-100.0,-0.0,0.0,1014515.2,0.0,0.0,0.0,0.0,0.0,0.0
1402754393391714420,3,-17.4303714333,-0.00591572024346,-17.0485408027,-0.122189614607,58.0564080474,0.10862951003,-0.198801756496,0.0,-0.621102294028,0.0,0.103114541746,0.0,1.36236956409,0.0,0.344041305856,0.0,0.0057209051474,0.0,-0.00129489557636,0.0,0.0761004252418,0.0,-0.0130640994832,0.0,0.0,0.0,0.0,-100.0,0.0,30.48,0.00383600394174,-100.0,-0.00383606751517,0.0,-0.0,-100.0,-0.0,0.0,1014515.2,0.0,0.0,0.0,0.0,0.0,0.0
1402754393411830226,3,-17.4407115683,-0.00591572024346,-17.0821333077,-0.122189614607,58.0620798215,0.10862951003,-0.193921649877,0.0,-0.645517352308,0.0,0.110722769912,0.0,1.38048127811,0.0,0.346805194301,0.0,0.00525972434758,0.0,0.00385146861477,0.0,0.0759967398676,0.0,-0.0113714259165,0.0,0.0,0.0,0.0,-100.0,0.0,30.48,0.00383600394174,-100.0,-0.00383606751517,0.0,-0.0,-100.0,-0.0,0.0,1014515.2,0.0,0.0,0.0,0.0,0.0,0.0
1402754393431785686,3,-17.4407115683,-0.00591572024346,-17.0821333077,-0.122189614607,58.0620798215,0.10862951003,-0.193921649877,0.0,-0.645517352308,0.0,0.110722769912,0.0,1.38048127811,0.0,0.346805194301,0.0,0.00525972434758,0.0,0.00385146861477,0.0,0.0759967398676,0.0,-0.0113714259165,0.0,0.0,0.0,0.0,-100.0,0.0,30.48,0.00383600394174,-100.0,-0.00383606751517,0.0,-0.0,-100.0,-0.0,0.0,1014515.2,0.0,0.0,0.0,0.0,0.0,0.0
1402754393451770375,3,-17.4475990688,-0.00591572024346,-17.0889714347,-0.122189614607,58.0568240649,0.10862951003,-0.19730343708,0.0,-0.640212087215,0.0,0.110673277757,0.0,1.3879420516,0.0,0.345379934116,0.0,0.00409881001109,0.0,0.00698713854932,0.0,0.0773636741676,0.0,-0.0144674473669,0.0,0.0,0.0,0.0,-100.0,0.0,30.48,0.00383600394174,-100.0,-0.00383606751517,0.0,-0.0,-100.0,-0.0,0.0,1014515.2,0.0,0.0,0.0,0.0,0.0,0.0
1402754393472349863,3,-17.4475990688,-0.00591572024346,-17.0889714347,-0.122189614607,58.0568240649,0.10862951003,-0.19730343708,0.0,-0.640212087215,0.0,0.110673277757,0.0,1.3879420516,0.0,0.345379934116,0.0,0.00409881001109,0.0,0.00698713854932,0.0,0.0773636741676,0.0,-0.0144674473669,0.0,0.0,0.0,0.0,-100.0,0.0,30.48,0.00383600394174,-100.0,-0.00383606751517,0.0,-0.0,-100.0,-0.0,0.0,1014515.2,0.0,0.0,0.0,0.0,0.0,0.0
1402754393492043438,3,-17.4522650753,-0.00591572024346,-17.1178535427,-0.122189614607,58.0516630001,0.10862951003,-0.181813966021,0.0,-0.668455651843,0.0,0.109805070158,0.0,1.40235715375,0.0,0.355037955035,0.0,0.00530219567332,0.0,0.0113368372854,0.0,0.0757485862371,0.0,-0.0046652518406,0.0,0.0,0.0,0.0,-100.0,0.0,30.48,0.00383600394174,-100.0,-0.00383606751517,0.0,-0.0,-100.0,-0.0,0.0,1014515.2,0.0,0.0,0.0,0.0,0.0,0.0
1402754393512442328,3,-17.4522650753,-0.00591572024346,-17.1178535427,-0.122189614607,58.0516630001,0.10862951003,-0.181813966021,0.0,-0.668455651843,0.0,0.109805070158,0.0,1.40235715375,0.0,0.355037955035,0.0,0.00530219567332,0.0,0.0113368372854,0.0,0.0757485862371,0.0,-0.0046652518406,0.0,0.0,0.0,0.0,-100.0,0.0,30.48,0.00383600394174,-100.0,-0.00383606751517,0.0,-0.0,-100.0,-0.0,0.0,1014515.2,0.0,0.0,0.0,0.0,0.0,0.0
1402754393531809617,3,-17.4595717805,-0.00591572024346,-17.1457196848,-0.122189614607,58.0562802679,0.10862951003,-0.177219492392,0.0,-0.68618543063,0.0,0.110214793932,0.0,1.41685962088,0.0,0.360442097716,0.0,0.0050759698894,0.0,0.0171348070757,0.0,0.0750999191523,0.0,-0.0147383717141,0.0,0.0,0.0,0.0,-100.0,0.0,30.48,0.00383600394174,-100.0,-0.00383606751517,0.0,-0.0,-100.0,-0.0,0.0,1014515.2,0.0,0.0,0.0,0.0,0.0,0.0
1402754393551822728,3,-17.4595717805,-0.00591572024346,-17.1457196848,-0.122189614607,58.0562802679,0.10862951003,-0.177219492392,0.0,-0.68618543063,0.0,0.110214793932,0.0,1.41685962088,0.0,0.360442097716,0.0,0.0050759698894,0.0,0.0171348070757,0.0,0.0750999191523,0.0,-0.0147383717141,0.0,0.0,0.0,0.0,-100.0,0.0,30.48,0.00383600394174,-100.0,-0.00383606751517,0.0,-0.0,-100.0,-0.0,0.0,1014515.2,0.0,0.0,0.0,0.0,0.0,0.0
1402754393573236468,3,-17.4739058878,-0.00591572024346,-17.1816611815,-0.122189614607,58.0687474,0.10862951003,-0.186220529759,0.0,-0.700483658451,0.0,0.111697336322,0.0,1.43557305705,0.0,0.360837081618,0.0,0.00306135511509,0.0,0.0198344107782,0.0,0.0750401512206,0.0,-0.00926053808946,0.0,0.0,0.0,0.0,-100.0,0.0,30.48,0.00383600394174,-100.0,-0.00383606751517,0.0,-0.0,-100.0,-0.0,0.0,1014515.2,0.0,0.0,0.0,0.0,0.0,0.0
1402754393591920761,3,-17.4739058878,-0.00591572024346,-17.1816611815,-0.122189614607,58.0687474,0.10862951003,-0.186220529759,0.0,-0.700483658451,0.0,0.111697336322,0.0,1.43557305705,0.0,0.360837081618,0.0,0.00306135511509,0.0,0.0198344107782,0.0,0.0750401512206,0.0,-0.00926053808946,0.0,0.0,0.0,0.0,-100.0,0.0,30.48,0.00383600394174,-100.0,-0.00383606751517,0.0,-0.0,-100.0,-0.0,0.0,1014515.2,0.0,0.0,0.0,0.0,0.0,0.0
1402754393611688039,3,-17.472190614,-0.00591572024346,-17.2042858092,-0.122189614607,58.074235348,0.10862951003,-0.164699563091,0.0,-0.710018332869,0.0,0.115470888066,0.0,1.44727384855,0.0,0.36080682209,0.0,0.00485136651799,0.0,0.01189948674,0.0,0.0748909878859,0.0,-0.00462537260465,0.0,0.0,0.0,0.0,-100.0,0.0,30.48,0.00383600394174,-100.0,-0.00383606751517,0.0,-0.0,-100.0,-0.0,0.0,1014515.2,0.0,0.0,0.0,0.0,0.0,0.0
1402754393632166419,3,-17.4756207001,-0.00591572024346,-17.2192809712,-0.122189614607,58.076671258,0.10862951003,-0.161461247656,0.0,-0.718439209377,0.0,0.11541773695,0.0,1.45491038208,0.0,0.359049525658,0.0,0.00474879986842,0.0,0.0150899295501,0.0,0.0745255181311,0.0,-0.000929330309097,0.0,0.0,0.0,0.0,-100.0,0.0,30.48,0.00383600394174,-100.0,-0.00383606751517,0.0,-0.0,-100.0,-0.0,0.0,1014515.2,0.0,0.0,0.0,0.0,0.0,0.0
1402754393652022033,3,-17.4756207001,-0.00591572024346,-17.2192809712,-0.122189614607,58.076671258,0.10862951003,-0.161461247656,0.0,-0.718439209377,0.0,0.11541773695,0.0,1.45491038208,0.0,0.359049525658,0.0,0.00474879986842,0.0,0.0150899295501,0.0,0.0745255181311,0.0,-0.000929330309097,0.0,0.0,0.0,0.0,-100.0,0.0,30.48,0.00383600394174,-100.0,-0.00383606751517,0.0,-0.0,-100.0,-0.0,0.0,1014515.2,0.0,0.0,0.0,0.0,0.0,0.0
1402754393671995268,3,-17.4803319156,-0.00591572024346,-17.2358712987,-0.122189614607,58.0843213287,0.10862951003,-0.16043218131,0.0,-0.722703741998,0.0,0.11549469779,0.0,1.46284050046,0.0,0.36650706788,0.0,0.00431779155706,0.0,0.0154812924203,0.0,0.0746435930187,0.0,-0.00125051904379,0.0,0.0,0.0,0.0,-100.0,0.0,30.48,0.00383600394174,-100.0,-0.00383606751517,0.0,-0.0,-100.0,-0.0,0.0,1014515.2,0.0,0.0,0.0,0.0,0.0,0.0
1402754393691840240,3,-17.4803319156,-0.00591572024346,-17.2358712987,-0.122189614607,58.0843213287,0.10862951003,-0.16043218131,0.0,-0.722703741998,0.0,0.11549469779,0.0,1.46284050046,0.0,0.36650706788,0.0,0.00431779155706,0.0,0.0154812924203,0.0,0.0746435930187,0.0,-0.00125051904379,0.0,0.0,0.0,0.0,-100.0,0.0,30.48,0.00383600394174,-100.0,-0.00383606751517,0.0,-0.0,-100.0,-0.0,0.0,1014515.2,0.0,0.0,0.0,0.0,0.0,0.0
1402754393711910525,3,-17.497418065,-0.00591572024346,-17.2653252252,-0.122189614607,58.0744253865,0.10862951003,-0.171937585039,0.0,-0.741139380825,0.0,0.109481042266,0.0,1.47694976012,0.0,0.369829382017,0.0,0.00227553338776,0.0,0.00545138707927,0.0,0.0730255773943,0.0,-0.00911460206925,0.0,0.0,0.0,0.0,-100.0,0.0,30.48,0.00383600394174,-100.0,-0.00383606751517,0.0,-0.0,-100.0,-0.0,0.0,1014515.2,0.0,0.0,0.0,0.0,0.0,0.0
1402754393731838136,3,-17.497418065,-0.00591572024346,-17.2653252252,-0.122189614607,58.0744253865,0.10862951003,-0.171937585039,0.0,-0.741139380825,0.0,0.109481042266,0.0,1.47694976012,0.0,0.369829382017,0.0,0.00227553338776,0.0,0.00545138707927,0.0,0.0730255773943,0.0,-0.00911460206925,0.0,0.0,0.0,0.0,-100.0,0.0,30.48,0.00383600394174,-100.0,-0.00383606751517,0.0,-0.0,-100.0,-0.0,0.0,1014515.2,0.0,0.0,0.0,0.0,0.0,0.0
1402754393753005763,3,-17.5057321083,-0.00591572024346,-17.2980319382,-0.122189614607,58.0893632212,0.10862951003,-0.173019655358,0.0,-0.752328443927,0.0,0.10783169154,0.0,1.49249043445,0.0,0.366313444205,0.0,0.00120360368814,0.0,0.00731965025665,0.0,0.0731969275821,0.0,-0.020023902834,0.0,0.0,0.0,0.0,-100.0,0.0,30.48,0.00383600394174,-100.0,-0.00383606751517,0.0,-0.0,-100.0,-0.0,0.0,1014515.2,0.0,0.0,0.0,0.0,0.0,0.0
1402754393771846830,3,-17.5057321083,-0.00591572024346,-17.2980319382,-0.122189614607,58.0893632212,0.10862951003,-0.173019655358,0.0,-0.752328443927,0.0,0.10783169154,0.0,1.49249043445,0.0,0.366313444205,0.0,0.00120360368814,0.0,0.00731965025665,0.0,0.0731969275821,0.0,-0.020023902834,0.0,0.0,0.0,0.0,-100.0,0.0,30.48,0.00383600394174,-100.0,-0.00383606751517,0.0,-0.0,-100.0,-0.0,0.0,1014515.2,0.0,0.0,0.0,0.0,0.0,0.0
1402754393791975728,3,-17.5099322584,-0.00591572024346,-17.3173375592,-0.122189614607,58.0641772664,0.10862951003,-0.146850426438,0.0,-0.750956059629,0.0,0.0983877283135,0.0,1.50895729738,0.0,0.370760906354,0.0,0.00241474232547,0.0,-0.00189855990622,0.0,0.0746656081723,0.0,-0.0258736478216,0.0,0.0,0.0,0.0,-100.0,0.0,30.48,0.00383600394174,-100.0,-0.00383606751517,0.0,-0.0,-100.0,-0.0,0.0,1014515.2,0.0,0.0,0.0,0.0,0.0,0.0
1402754393812344631,3,-17.5099322584,-0.00591572024346,-17.3173375592,-0.122189614607,58.0641772664,0.10862951003,-0.146850426438,0.0,-0.750956059629,0.0,0.0983877283135,0.0,1.50895729738,0.0,0.370760906354,0.0,0.00241474232547,0.0,-0.00189855990622,0.0,0.0746656081723,0.0,-0.0258736478216,0.0,0.0,0.0,0.0,-100.0,0.0,30.48,0.00383600394174,-100.0,-0.00383606751517,0.0,-0.0,-100.0,-0.0,0.0,1014515.2,0.0,0.0,0.0,0.0,0.0,0.0
1402754393832037354,3,-17.5179734563,-0.00591572024346,-17.3565062756,-0.122189614607,58.0691984012,0.10862951003,-0.135814980861,0.0,-0.762494286001,0.0,0.0973607619116,0.0,1.52855862332,0.0,0.37112589129,0.0,0.00132571820406,0.0,0.0025441099538,0.0,0.0749852842732,0.0,-0.0175016154727,0.0,0.0,0.0,0.0,-100.0,0.0,30.48,0.00383600394174,-100.0,-0.00383606751517,0.0,-0.0,-100.0,-0.0,0.0,1014515.2,0.0,0.0,0.0,0.0,0.0,0.0
1402754393852731805,3,-17.5179734563,-0.00591572024346,-17.3565062756,-0.122189614607,58.0691984012,0.10862951003,-0.135814980861,0.0,-0.762494286001,0.0,0.0973607619116,0.0,1.52855862332,0.0,0.37112589129,0.0,0.00132571820406,0.0,0.0025441099538,0.0,0.0749852842732,0.0,-0.0175016154727,0.0,0.0,0.0,0.0,-100.0,0.0,30.48,0.00383600394174,-100.0,-0.00383606751517,0.0,-0.0,-100.0,-0.0,0.0,1014515.2,0.0,0.0,0.0,0.0,0.0,0.0
1402754393871871409,3,-17.5334736855,-0.00591572024346,-17.4001535283,-0.122189614607,58.0841930988,0.10862951003,-0.146358787738,0.0,-0.773848274604,0.0,0.101626268697,0.0,1.54899226104,0.0,0.380728637361,0.0,-0.00236060444501,0.0,-0.0110568870355,0.0,0.0755951093528,0.0,-0.0268252992305,0.0,0.0,0.0,0.0,-100.0,0.0,30.48,0.00383600394174,-100.0,-0.00383606751517,0.0,-0.0,-100.0,-0.0,0.0,1014515.2,0.0,0.0,0.0,0.0,0.0,0.0
1402754393891846302,3,-17.5334736855,-0.00591572024346,-17.4001535283,-0.122189614607,58.0841930988,0.10862951003,-0.146358787738,0.0,-0.773848274604,0.0,0.101626268697,0.0,1.54899226104,0.0,0.380728637361,0.0,-0.00236060444501,0.0,-0.0110568870355,0.0,0.0755951093528,0.0,-0.0268252992305,0.0,0.0,0.0,0.0,-100.0,0.0,30.48,0.00383600394174,-100.0,-0.00383606751517,0.0,-0.0,-100.0,-0.0,0.0,1014515.2,0.0,0.0,0.0,0.0,0.0,0.0
1402754393911797252,3,-17.5364461615,-0.00591572024346,-17.4162711217,-0.122189614607,58.0860854522,0.10862951003,-0.140413255436,0.0,-0.779568390415,0.0,0.101234602849,0.0,1.55678518526,0.0,0.376241774677,0.0,-0.00276038247667,0.0,-0.00667570473509,0.0,0.0757380688149,0.0,-0.0187257094242,0.0,0.0,0.0,0.0,-100.0,0.0,30.48,0.00383600394174,-100.0,-0.00383606751517,0.0,-0.0,-100.0,-0.0,0.0,1014515.2,0.0,0.0,0.0,0.0,0.0,0.0
1402754393932430013,3,-17.5364461615,-0.00591572024346,-17.4162711217,-0.122189614607,58.0860854522,0.10862951003,-0.140413255436,0.0,-0.779568390415,0.0,0.101234602849,0.0,1.55678518526,0.0,0.376241774677,0.0,-0.00276038247667,0.0,-0.00667570473509,0.0,0.0757380688149,0.0,-0.0187257094242,0.0,0.0,0.0,0.0,-100.0,0.0,30.48,0.00383600394174,-100.0,-0.00383606751517,0.0,-0.0,-100.0,-0.0,0.0,1014515.2,0.0,0.0,0.0,0.0,0.0,0.0
1402754393952077532,3,-17.5475888308,-0.00591572024346,-17.442585025,-0.122189614607,58.0692268053,0.10862951003,-0.138576432936,0.0,-0.786661398789,0.0,0.0966138942383,0.0,1.57326151211,0.0,0.382888835567,0.0,-0.00426504167422,0.0,-0.008823179083,0.0,0.0765945577806,0.0,-0.0228823146102,0.0,0.0,0.0,0.0,-100.0,0.0,30.48,0.00383600394174,-100.0,-0.00383606751517,0.0,-0.0,-100.0,-0.0,0.0,1014515.2,0.0,0.0,0.0,0.0,0.0,0.0
1402754393971840622,3,-17.5475888308,-0.00591572024346,-17.442585025,-0.122189614607,58.0692268053,0.10862951003,-0.138576432936,0.0,-0.786661398789,0.0,0.0966138942383,0.0,1.57326151211,0.0,0.382888835567,0.0,-0.00426504167422,0.0,-0.008823179083,0.0,0.0765945577806,0.0,-0.0228823146102,0.0,0.0,0.0,0.0,-100.0,0.0,30.48,0.00383600394174,-100.0,-0.00383606751517,0.0,-0.0,-100.0,-0.0,0.0,1014515.2,0.0,0.0,0.0,0.0,0.0,0.0
1402754393991984965,3,-17.5588114035,-0.00591572024346,-17.4807369326,-0.122189614607,58.0692320679,0.10862951003,-0.133844507964,0.0,-0.793189188355,0.0,0.0961723575255,0.0,1.59475636554,0.0,0.380875864336,0.0,-0.00593299166609,0.0,-0.00726590096262,0.0,0.0783503921125,0.0,-0.00612900907556,0.0,0.0,0.0,0.0,-100.0,0.0,30.48,0.00383600394174,-100.0,-0.00383606751517,0.0,-0.0,-100.0,-0.0,0.0,1014515.2,0.0,0.0,0.0,0.0,0.0,0.0
1402754394011794017,3,-17.5588114035,-0.00591572024346,-17.4807369326,-0.122189614607,58.0692320679,0.10862951003,-0.133844507964,0.0,-0.793189188355,0.0,0.0961723575255,0.0,1.59475636554,0.0,0.380875864336,0.0,-0.00593299166609,0.0,-0.00726590096262,0.0,0.0783503921125,0.0,-0.00612900907556,0.0,0.0,0.0,0.0,-100.0,0.0,30.48,0.00383600394174,-100.0,-0.00383606751517,0.0,-0.0,-100.0,-0.0,0.0,1014515.2,0.0,0.0,0.0,0.0,0.0,0.0
1402754394032055325,3,-17.5609092448,-0.00591572024346,-17.5214272523,-0.122189614607,58.0872785629,0.10862951003,-0.119737745948,0.0,-0.813838519046,0.0,0.100429142952,0.0,1.60965551981,0.0,0.38677676022,0.0,-0.00587894942816,0.0,-0.00550817159331,0.0,0.0775759882862,0.0,-0.00678340452508,0.0,0.0,0.0,0.0,-100.0,0.0,30.48,0.00383600394174,-100.0,-0.00383606751517,0.0,-0.0,-100.0,-0.0,0.0,1014515.2,0.0,0.0,0.0,0.0,0.0,0.0
1402754394052092800,3,-17.5609092448,-0.00591572024346,-17.5214272523,-0.122189614607,58.0872785629,0.10862951003,-0.119737745948,0.0,-0.813838519046,0.0,0.100429142952,0.0,1.60965551981,0.0,0.38677676022,0.0,-0.00587894942816,0.0,-0.00550817159331,0.0,0.0775759882862,0.0,-0.00678340452508,0.0,0.0,0.0,0.0,-100.0,0.0,30.48,0.00383600394174,-100.0,-0.00383606751517,0.0,-0.0,-100.0,-0.0,0.0,1014515.2,0.0,0.0,0.0,0.0,0.0,0.0
1402754394071817859,3,-17.5644523307,-0.00591572024346,-17.5467010105,-0.122189614607,58.0903504668,0.10862951003,-0.111373164107,0.0,-0.822761832619,0.0,0.100285443372,0.0,1.62144815764,0.0,0.383767798896,0.0,-0.00590499521032,0.0,-0.00558259831684,0.0,0.077815189604,0.0,-0.00367038009644,0.0,0.0,0.0,0.0,-100.0,0.0,30.48,0.00383600394174,-100.0,-0.00383606751517,0.0,-0.0,-100.0,-0.0,0.0,1014515.2,0.0,0.0,0.0,0.0,0.0,0.0
1402754394091909868,3,-17.5644523307,-0.00591572024346,-17.5467010105,-0.122189614607,58.0903504668,0.10862951003,-0.111373164107,0.0,-0.822761832619,0.0,0.100285443372,0.0,1.62144815764,0.0,0.383767798896,0.0,-0.00590499521032,0.0,-0.00558259831684,0.0,0.077815189604,0.0,-0.00367038009644,0.0,0.0,0.0,0.0,-100.0,0.0,30.48,0.00383600394174,-100.0,-0.00383606751517,0.0,-0.0,-100.0,-0.0,0.0,1014515.2,0.0,0.0,0.0,0.0,0.0,0.0
1402754394111908932,3,-17.577732124,-0.00591572024346,-17.584584776,-0.122189614607,58.0568052921,0.10862951003,-0.0955786291517,0.0,-0.822006189189,0.0,0.0886102201934,0.0,1.64747239374,0.0,0.388489069999,0.0,-0.00556806595479,0.0,-0.0123530285607,0.0,0.0798302398003,0.0,0.0161477930527,0.0,0.0,0.0,0.0,-100.0,0.0,30.48,0.00383600394174,-100.0,-0.00383606751517,0.0,-0.0,-100.0,-0.0,0.0,1014515.2,0.0,0.0,0.0,0.0,0.0,0.0
1402754394131956040,3,-17.577732124,-0.00591572024346,-17.584584776,-0.122189614607,58.0568052921,0.10862951003,-0.0955786291517,0.0,-0.822006189189,0.0,0.0886102201934,0.0,1.64747239374,0.0,0.388489069999,0.0,-0.00556806595479,0.0,-0.0123530285607,0.0,0.0798302398003,0.0,0.0161477930527,0.0,0.0,0.0,0.0,-100.0,0.0,30.48,0.00383600394174,-100.0,-0.00383606751517,0.0,-0.0,-100.0,-0.0,0.0,1014515.2,0.0,0.0,0.0,0.0,0.0,0.0
1402754394151586694,3,-17.5805887552,-0.00591572024346,-17.6102023167,-0.122189614607,58.0596212717,0.10862951003,-0.0873995255564,0.0,-0.830046466413,0.0,0.0889941378397,0.0,1.65974553054,0.0,0.393290455386,0.0,-0.00527556489146,0.0,-0.00308693298648,0.0,0.0799976726624,0.0,0.00171707118175,0.0,0.0,0.0,0.0,-100.0,0.0,30.48,0.00383600394174,-100.0,-0.00383606751517,0.0,-0.0,-100.0,-0.0,0.0,1014515.2,0.0,0.0,0.0,0.0,0.0,0.0
1402754394171783072,3,-17.5810731143,-0.00591572024346,-17.6185326521,-0.122189614607,58.060814641,0.10862951003,-0.0778534366396,0.0,-0.810584506642,0.0,0.0912630616854,0.0,1.67074884478,0.0,0.398472057943,0.0,-0.00472864719933,0.0,-0.00474030294648,0.0,0.0831343076834,0.0,0.0109902682853,0.0,0.0,0.0,0.0,-100.0,0.0,30.48,0.00383600394174,-100.0,-0.00383606751517,0.0,-0.0,-100.0,-0.0,0.0,1014515.2,0.0,0.0,0.0,0.0,0.0,0.0
1402754394191894822,3,-17.5810731143,-0.00591572024346,-17.6185326521,-0.122189614607,58.060814641,0.10862951003,-0.0778534366396,0.0,-0.810584506642,0.0,0.0912630616854,0.0,1.67074884478,0.0,0.398472057943,0.0,-0.00472864719933,0.0,-0.00474030294648,0.0,0.0831343076834,0.0,0.0109902682853,0.0,0.0,0.0,0.0,-100.0,0.0,30.48,0.00383600394174,-100.0,-0.00383606751517,0.0,-0.0,-100.0,-0.0,0.0,1014515.2,0.0,0.0,0.0,0.0,0.0,0.0
1402754394212387339,3,-17.5826637088,-0.00591572024346,-17.6356130521,-0.122189614607,58.0627200471,0.10862951003,-0.0701725171104,0.0,-0.81473835124,0.0,0.0927323456981,0.0,1.67912105623,0.0,0.399999906129,0.0,-0.00431561528171,0.0,-0.00706332972875,0.0,0.0831427119747,0.0,0.0216529592991,0.0,0.0,0.0,0.0,-100.0,0.0,30.48,0.00383600394174,-100.0,-0.00383606751517,0.0,-0.0,-100.0,-0.0,0.0,1014515.2,0.0,0.0,0.0,0.0,0.0,0.0
1402754394231878866,3,-17.5826637088,-0.00591572024346,-17.6356130521,-0.122189614607,58.0627200471,0.10862951003,-0.0701725171104,0.0,-0.81473835124,0.0,0.0927323456981,0.0,1.67912105623,0.0,0.399999906129,0.0,-0.00431561528171,0.0,-0.00706332972875,0.0,0.0831427119747,0.0,0.0216529592991,0.0,0.0,0.0,0.0,-100.0,0.0,30.48,0.00383600394174,-100.0,-0.00383606751517,0.0,-0.0,-100.0,-0.0,0.0,1014515.2,0.0,0.0,0.0,0.0,0.0,0.0
1402754394251999264,3,-17.5841193709,-0.00591572024346,-17.6761028186,-0.122189614607,58.0559517893,0.10862951003,-0.0541870721427,0.0,-0.852217368805,0.0,0.0899728029704,0.0,1.69135946867,0.0,0.401312981383,0.0,-0.00357666546764,0.0,0.00527303605173,0.0,0.0790138951211,0.0,0.00634783857124,0.0,0.0,0.0,0.0,-100.0,0.0,30.48,0.00383600394174,-100.0,-0.00383606751517,0.0,-0.0,-100.0,-0.0,0.0,1014515.2,0.0,0.0,0.0,0.0,0.0,0.0
1402754394271821212,3,-17.5841193709,-0.00591572024346,-17.6761028186,-0.122189614607,58.0559517893,0.10862951003,-0.0541870721427,0.0,-0.852217368805,0.0,0.0899728029704,0.0,1.69135946867,0.0,0.401312981383,0.0,-0.00357666546764,0.0,0.00527303605173,0.0,0.0790138951211,0.0,0.00634783857124,0.0,0.0,0.0,0.0,-100.0,0.0,30.48,0.00383600394174,-100.0,-0.00383606751517,0.0,-0.0,-100.0,-0.0,0.0,1014515.2,0.0,0.0,0.0,0.0,0.0,0.0
1402754394291828320,3,-17.5826652997,-0.00591572024346,-17.7081727498,-0.122189614607,58.074235753,0.10862951003,-0.0383449958255,0.0,-0.843349403976,0.0,0.0956978315511,0.0,1.71058338011,0.0,0.401507019017,0.0,-0.00302466509794,0.0,0.00395098568664,0.0,0.0811508631031,0.0,0.0196953235605,0.0,0.0,0.0,0.0,-100.0,0.0,30.48,0.00383600394174,-100.0,-0.00383606751517,0.0,-0.0,-100.0,-0.0,0.0,1014515.2,0.0,0.0,0.0,0.0,0.0,0.0
1402754394311864983,3,-17.5826652997,-0.00591572024346,-17.7081727498,-0.122189614607,58.074235753,0.10862951003,-0.0383449958255,0.0,-0.843349403976,0.0,0.0956978315511,0.0,1.71058338011,0.0,0.401507019017,0.0,-0.00302466509794,0.0,0.00395098568664,0.0,0.0811508631031,0.0,0.0196953235605,0.0,0.0,0.0,0.0,-100.0,0.0,30.48,0.00383600394174,-100.0,-0.00383606751517,0.0,-0.0,-100.0,-0.0,0.0,1014515.2,0.0,0.0,0.0,0.0,0.0,0.0
1402754394331664529,3,-17.5839378312,-0.00591572024346,-17.7428505255,-0.122189614607,58.0780617859,0.10862951003,-0.0233847183699,0.0,-0.851016230179,0.0,0.0975900768016,0.0,1.72710249508,0.0,0.405781343698,0.0,-0.00258194760121,0.0,0.00758893610454,0.0,0.080773551796,0.0,0.00846382229914,0.0,0.0,0.0,0.0,-100.0,0.0,30.48,0.00383600394174,-100.0,-0.00383606751517,0.0,-0.0,-100.0,-0.0,0.0,1014515.2,0.0,0.0,0.0,0.0,0.0,0.0
1402754394351839627,3,-17.5839378312,-0.00591572024346,-17.7428505255,-0.122189614607,58.0780617859,0.10862951003,-0.0233847183699,0.0,-0.851016230179,0.0,0.0975900768016,0.0,1.72710249508,0.0,0.405781343698,0.0,-0.00258194760121,0.0,0.00758893610454,0.0,0.080773551796,0.0,0.00846382229914,0.0,0.0,0.0,0.0,-100.0,0.0,30.48,0.00383600394174,-100.0,-0.00383606751517,0.0,-0.0,-100.0,-0.0,0.0,1014515.2,0.0,0.0,0.0,0.0,0.0,0.0
1402754394372169701,3,-17.5853356863,-0.00591572024346,-17.782259708,-0.122189614607,58.0623093031,0.10862951003,-0.00761662627423,0.0,-0.865538544449,0.0,0.0907457021395,0.0,1.74708019109,0.0,0.404689013758,0.0,-0.00207919144737,0.0,0.0158618027624,0.0,0.0794308516098,0.0,0.0039608816028,0.0,0.0,0.0,0.0,-100.0,0.0,30.48,0.00383600394174,-100.0,-0.00383606751517,0.0,-0.0,-100.0,-0.0,0.0,1014515.2,0.0,0.0,0.0,0.0,0.0,0.0
1402754394392362630,3,-17.5853356863,-0.00591572024346,-17.782259708,-0.122189614607,58.0623093031,0.10862951003,-0.00761662627423,0.0,-0.865538544449,0.0,0.0907457021395,0.0,1.74708019109,0.0,0.404689013758,0.0,-0.00207919144737,0.0,0.0158618027624,0.0,0.0794308516098,0.0,0.0039608816028,0.0,0.0,0.0,0.0,-100.0,0.0,30.48,0.00383600394174,-100.0,-0.00383606751517,0.0,-0.0,-100.0,-0.0,0.0,1014515.2,0.0,0.0,0.0,0.0,0.0,0.0
1402754394411890817,3,-17.5855008589,-0.00591572024346,-17.8089932208,-0.122189614607,58.0649501703,0.10862951003,0.00279543472406,0.0,-0.870906393782,0.0,0.0942025300096,0.0,1.75967710522,0.0,0.407420937709,0.0,-0.0019495486194,0.0,0.00775814952814,0.0,0.0791214357538,0.0,0.00418048409864,0.0,0.0,0.0,0.0,-100.0,0.0,30.48,0.00383600394174,-100.0,-0.00383606751517,0.0,-0.0,-100.0,-0.0,0.0,1014515.2,0.0,0.0,0.0,0.0,0.0,0.0
1402754394431827063,3,-17.5880555552,-0.00591572024346,-17.8230509321,-0.122189614607,58.0584123079,0.10862951003,0.00482107921975,0.0,-0.866064580288,0.0,0.0916137508218,0.0,1.76999848339,0.0,0.409487628057,0.0,-0.00237867658858,0.0,0.00923455990442,0.0,0.0801782768395,0.0,0.00698441001139,0.0,0.0,0.0,0.0,-100.0,0.0,30.48,0.00383600394174,-100.0,-0.00383606751517,0.0,-0.0,-100.0,-0.0,0.0,1014515.2,0.0,0.0,0.0,0.0,0.0,0.0
1402754394452102287,3,-17.5880555552,-0.00591572024346,-17.8230509321,-0.122189614607,58.0584123079,0.10862951003,0.00482107921975,0.0,-0.866064580288,0.0,0.0916137508218,0.0,1.76999848339,0.0,0.409487628057,0.0,-0.00237867658858,0.0,0.00923455990442,0.0,0.0801782768395,0.0,0.00698441001139,0.0,0.0,0.0,0.0,-100.0,0.0,30.48,0.00383600394174,-100.0,-0.00383606751517,0.0,-0.0,-100.0,-0.0,0.0,1014515.2,0.0,0.0,0.0,0.0,0.0,0.0
1402754394471845775,3,-17.5878871608,-0.00591572024346,-17.8412430374,-0.122189614607,58.060287333,0.10862951003,0.0127034262267,0.0,-0.868711627152,0.0,0.092114236837,0.0,1.77862958588,0.0,0.413542875822,0.0,-0.00222120365669,0.0,0.00691535326163,0.0,0.0799421073147,0.0,0.00840599728272,0.0,0.0,0.0,0.0,-100.0,0.0,30.48,0.00383600394174,-100.0,-0.00383606751517,0.0,-0.0,-100.0,-0.0,0.0,1014515.2,0.0,0.0,0.0,0.0,0.0,0.0
1402754394491851758,3,-17.5878871608,-0.00591572024346,-17.8412430374,-0.122189614607,58.060287333,0.10862951003,0.0127034262267,0.0,-0.868711627152,0.0,0.092114236837,0.0,1.77862958588,0.0,0.413542875822,0.0,-0.00222120365669,0.0,0.00691535326163,0.0,0.0799421073147,0.0,0.00840599728272,0.0,0.0,0.0,0.0,-100.0,0.0,30.48,0.00383600394174,-100.0,-0.00383606751517,0.0,-0.0,-100.0,-0.0,0.0,1014515.2,0.0,0.0,0.0,0.0,0.0,0.0
1402754394512719520,3,-17.5880347282,-0.00591572024346,-17.872273641,-0.122189614607,58.0502898379,0.10862951003,0.0263721437826,0.0,-0.868022231918,0.0,0.0874394725454,0.0,1.79592514469,0.0,0.414510634322,0.0,-0.00218501821709,0.0,0.00789133453295,0.0,0.0800253208142,0.0,-0.000765660460986,0.0,0.0,0.0,0.0,-100.0,0.0,30.48,0.00383600394174,-100.0,-0.00383606751517,0.0,-0.0,-100.0,-0.0,0.0,1014515.2,0.0,0.0,0.0,0.0,0.0,0.0
1402754394531905408,3,-17.5880347282,-0.00591572024346,-17.872273641,-0.122189614607,58.0502898379,0.10862951003,0.0263721437826,0.0,-0.868022231918,0.0,0.0874394725454,0.0,1.79592514469,0.0,0.414510634322,0.0,-0.00218501821709,0.0,0.00789133453295,0.0,0.0800253208142,0.0,-0.000765660460986,0.0,0.0,0.0,0.0,-100.0,0.0,30.48,0.00383600394174,-100.0,-0.00383606751517,0.0,-0.0,-100.0,-0.0,0.0,1014515.2,0.0,0.0,0.0,0.0,0.0,0.0
1402754394552678233,3,-17.5866060565,-0.00591572024346,-17.9077177666,-0.122189614607,58.0535440124,0.10862951003,0.0423037598388,0.0,-0.871752910004,0.0,0.0871557837052,0.0,1.81296321681,0.0,0.418245388668,0.0,-0.00219928956125,0.0,0.0155447571601,0.0,0.0796137240426,0.0,-0.00260677543533,0.0,0.0,0.0,0.0,-100.0,0.0,30.48,0.00383600394174,-100.0,-0.00383606751517,0.0,-0.0,-100.0,-0.0,0.0,1014515.2,0.0,0.0,0.0,0.0,0.0,0.0
1402754394571864780,3,-17.5866060565,-0.00591572024346,-17.9077177666,-0.122189614607,58.0535440124,0.10862951003,0.0423037598388,0.0,-0.871752910004,0.0,0.0871557837052,0.0,1.81296321681,0.0,0.418245388668,0.0,-0.00219928956125,0.0,0.0155447571601,0.0,0.0796137240426,0.0,-0.00260677543533,0.0,0.0,0.0,0.0,-100.0,0.0,30.48,0.00383600394174,-100.0,-0.00383606751517,0.0,-0.0,-100.0,-0.0,0.0,1014515.2,0.0,0.0,0.0,0.0,0.0,0.0
