rosbagTimestamp,control_method,x_current,x_desired,y_current,y_desired,z_current,z_desired,x_velocity_current,x_velocity_desired,y_velocity_current,y_velocity_desired,z_velocity_current,z_velocity_desired,yaw_current,yaw_desired,yaw_velocity_current,yaw_velocity_desired,roll_current,roll_desired,roll_velocity_current,roll_velocity_desired,pitch_current,pitch_desired,pitch_velocity_current,pitch_velocity_desired,required_force_x,required_force_y,required_moment_z,resultant_force_x,resultant_force_y,resultant_moment_z,current_port_servo_angle,current_port_thruster_force,current_starboard_servo_angle,current_starboard_thruster_force,estimated_port_servo_angle,estimated_port_thruster_force,estimated_starboard_servo_angle,estimated_starboard_thruster_force,cost_value,step,user_defined_1,user_defined_2,user_defined_3,user_defined_4,user_defined_5
1402752656206189112,3,-7.08201541628,-0.00591572024346,9.24505677214,-0.122189614607,-1.99110116964,0.10862951003,0.0335447301723,0.0,-0.0120873590181,0.0,0.063024782599,0.0,-0.903091892022,0.0,-0.00187383749205,0.0,-0.00354158842273,0.0,0.00642559861749,0.0,0.0757947126596,0.0,0.0160595161222,0.0,0.0,0.0,0.0,100.0,-0.0,-30.48,0.00230154196664,0.0,0.00230154196664,0.0,-0.0,100.0,-0.0,0.0,1014515.2,0.0,0.0,0.0,0.0,0.0,0.0
1402752656225675680,3,-7.08550213709,-0.00591572024346,9.23910287009,-0.122189614607,-1.9944345747,0.10862951003,0.0186205354307,0.0,-0.021712804183,0.0,0.0623773679568,0.0,-0.903143186267,0.0,0.00182443829116,0.0,-0.00191477636131,0.0,0.00269933685988,0.0,0.0760763858374,0.0,0.0113497338122,0.0,0.0,0.0,0.0,100.0,-0.0,-30.48,0.00230154196664,0.0,0.00230154196664,0.0,-0.0,100.0,-0.0,0.0,1014515.2,0.0,0.0,0.0,0.0,0.0,0.0
1402752656246202936,3,-7.08550213709,-0.00591572024346,9.23910287009,-0.122189614607,-1.9944345747,0.10862951003,0.0186205354307,0.0,-0.021712804183,0.0,0.0623773679568,0.0,-0.903143186267,0.0,0.00182443829116,0.0,-0.00191477636131,0.0,0.00269933685988,0.0,0.0760763858374,0.0,0.0113497338122,0.0,0.0,0.0,0.0,100.0,-0.0,-30.48,0.00230154196664,0.0,0.00230154196664,0.0,-0.0,100.0,-0.0,0.0,1014515.2,0.0,0.0,0.0,0.0,0.0,0.0
1402752656265744523,3,-7.08523739592,-0.00591572024346,9.23889670925,-0.122189614607,-1.99392789449,0.10862951003,0.0182920591558,0.0,-0.0216719846164,0.0,0.0630278598723,0.0,-0.903128952732,0.0,0.00524346713176,0.0,-0.00199911076637,0.0,-0.00054079377956,0.0,0.0761326834368,0.0,0.0102967159729,0.0,0.0,0.0,0.0,100.0,-0.0,-30.48,0.00230154196664,0.0,0.00230154196664,0.0,-0.0,100.0,-0.0,0.0,1014515.2,0.0,0.0,0.0,0.0,0.0,0.0
1402752656285681774,3,-7.08523739592,-0.00591572024346,9.23889670925,-0.122189614607,-1.99392789449,0.10862951003,0.0182920591558,0.0,-0.0216719846164,0.0,0.0630278598723,0.0,-0.903128952732,0.0,0.00524346713176,0.0,-0.00199911076637,0.0,-0.00054079377956,0.0,0.0761326834368,0.0,0.0102967159729,0.0,0.0,0.0,0.0,100.0,-0.0,-30.48,0.00230154196664,0.0,0.00230154196664,0.0,-0.0,100.0,-0.0,0.0,1014515.2,0.0,0.0,0.0,0.0,0.0,0.0
1402752656305738205,3,-7.08529350886,-0.00591572024346,9.24169892958,-0.122189614607,-1.99039318006,0.10862951003,0.0117619820508,0.0,-0.0102073872175,0.0,0.0648744620092,0.0,-0.903361310477,0.0,-0.00666494691932,0.0,-0.00229714997133,0.0,-0.000733972651861,0.0,0.0749003502365,0.0,0.00550596688608,0.0,0.0,0.0,0.0,100.0,-0.0,-30.48,0.00230154196664,0.0,0.00230154196664,0.0,-0.0,100.0,-0.0,0.0,1014515.2,0.0,0.0,0.0,0.0,0.0,0.0
1402752656325865742,3,-7.08529350886,-0.00591572024346,9.24169892958,-0.122189614607,-1.99039318006,0.10862951003,0.0117619820508,0.0,-0.0102073872175,0.0,0.0648744620092,0.0,-0.903361310477,0.0,-0.00666494691932,0.0,-0.00229714997133,0.0,-0.000733972651861,0.0,0.0749003502365,0.0,0.00550596688608,0.0,0.0,0.0,0.0,100.0,-0.0,-30.48,0.00230154196664,0.0,0.00230154196664,0.0,-0.0,100.0,-0.0,0.0,1014515.2,0.0,0.0,0.0,0.0,0.0,0.0
1402752656345701040,3,-7.07616515107,-0.00591572024346,9.24003842457,-0.122189614607,-1.9897718053,0.10862951003,0.0231197698205,0.0,-0.00973622507767,0.0,0.0647461924876,0.0,-0.903718247112,0.0,-0.00129412003306,0.0,-0.00338515919339,0.0,-0.00486028967599,0.0,0.0755588094572,0.0,-0.00868820107587,0.0,0.0,0.0,0.0,100.0,-0.0,-30.48,0.00230154196664,0.0,0.00230154196664,0.0,-0.0,100.0,-0.0,0.0,1014515.2,0.0,0.0,0.0,0.0,0.0,0.0
1402752656365653755,3,-7.07616515107,-0.00591572024346,9.24003842457,-0.122189614607,-1.9897718053,0.10862951003,0.0231197698205,0.0,-0.00973622507767,0.0,0.0647461924876,0.0,-0.903718247112,0.0,-0.00129412003306,0.0,-0.00338515919339,0.0,-0.00486028967599,0.0,0.0755588094572,0.0,-0.00868820107587,0.0,0.0,0.0,0.0,100.0,-0.0,-30.48,0.00230154196664,0.0,0.00230154196664,0.0,-0.0,100.0,-0.0,0.0,1014515.2,0.0,0.0,0.0,0.0,0.0,0.0
1402752656386381166,3,-7.07327498159,-0.00591572024346,9.23656300623,-0.122189614607,-1.98665957134,0.10862951003,0.0193733194596,0.0,-0.0126297549554,0.0,0.065888654085,0.0,-0.903784257852,0.0,0.00514627945208,0.0,-0.00280334763284,0.0,-0.0105186428471,0.0,0.0751598298648,0.0,-0.0170036231181,0.0,0.0,0.0,0.0,100.0,-0.0,-30.48,0.00230154196664,0.0,0.00230154196664,0.0,-0.0,100.0,-0.0,0.0,1014515.2,0.0,0.0,0.0,0.0,0.0,0.0
1402752656405681338,3,-7.07327498159,-0.00591572024346,9.23656300623,-0.122189614607,-1.98665957134,0.10862951003,0.0193733194596,0.0,-0.0126297549554,0.0,0.065888654085,0.0,-0.903784257852,0.0,0.00514627945208,0.0,-0.00280334763284,0.0,-0.0105186428471,0.0,0.0751598298648,0.0,-0.0170036231181,0.0,0.0,0.0,0.0,100.0,-0.0,-30.48,0.00230154196664,0.0,0.00230154196664,0.0,-0.0,100.0,-0.0,0.0,1014515.2,0.0,0.0,0.0,0.0,0.0,0.0
1402752656425768421,3,-7.07132733135,-0.00591572024346,9.23850714263,-0.122189614607,-1.98480697381,0.10862951003,0.0167840457168,0.0,-0.00413872033068,0.0,0.0677855329271,0.0,-0.904012057884,0.0,-0.00195764588187,0.0,-0.00277567070762,0.0,-0.0146361027704,0.0,0.0735321471972,0.0,-0.00913198868857,0.0,0.0,0.0,0.0,100.0,-0.0,-30.48,0.00230154196664,0.0,0.00230154196664,0.0,-0.0,100.0,-0.0,0.0,1014515.2,0.0,0.0,0.0,0.0,0.0,0.0
1402752656446268983,3,-7.07132733135,-0.00591572024346,9.23850714263,-0.122189614607,-1.98480697381,0.10862951003,0.0167840457168,0.0,-0.00413872033068,0.0,0.0677855329271,0.0,-0.904012057884,0.0,-0.00195764588187,0.0,-0.00277567070762,0.0,-0.0146361027704,0.0,0.0735321471972,0.0,-0.00913198868857,0.0,0.0,0.0,0.0,100.0,-0.0,-30.48,0.00230154196664,0.0,0.00230154196664,0.0,-0.0,100.0,-0.0,0.0,1014515.2,0.0,0.0,0.0,0.0,0.0,0.0
1402752656465782525,3,-7.07185795375,-0.00591572024346,9.24105769554,-0.122189614607,-1.98692430947,0.10862951003,0.00707487131232,0.0,0.00357065586677,0.0,0.0657756055552,0.0,-0.904306431299,0.0,-0.00626677861587,0.0,-0.00208376738758,0.0,-0.0148435397837,0.0,0.0711978744244,0.0,-0.0229919882993,0.0,0.0,0.0,0.0,100.0,-0.0,-30.48,0.00230154196664,0.0,0.00230154196664,0.0,-0.0,100.0,-0.0,0.0,1014515.2,0.0,0.0,0.0,0.0,0.0,0.0
1402752656485765598,3,-7.07185795375,-0.00591572024346,9.24105769554,-0.122189614607,-1.98692430947,0.10862951003,0.00707487131232,0.0,0.00357065586677,0.0,0.0657756055552,0.0,-0.904306431299,0.0,-0.00626677861587,0.0,-0.00208376738758,0.0,-0.0148435397837,0.0,0.0711978744244,0.0,-0.0229919882993,0.0,0.0,0.0,0.0,100.0,-0.0,-30.48,0.00230154196664,0.0,0.00230154196664,0.0,-0.0,100.0,-0.0,0.0,1014515.2,0.0,0.0,0.0,0.0,0.0,0.0
1402752656505621855,3,-7.07153167143,-0.00591572024346,9.2412529281,-0.122189614607,-1.98365831353,0.10862951003,0.00670713094299,0.0,0.00346305814993,0.0,0.0680416926977,0.0,-0.90457305091,0.0,-0.00422673779833,0.0,-0.00186038733664,0.0,-0.00888457986832,0.0,0.0699885167027,0.0,-0.0234185350765,0.0,0.0,0.0,0.0,100.0,-0.0,-30.48,0.00230154196664,0.0,0.00230154196664,0.0,-0.0,100.0,-0.0,0.0,1014515.2,0.0,0.0,0.0,0.0,0.0,0.0
1402752656526312048,3,-7.07153167143,-0.00591572024346,9.2412529281,-0.122189614607,-1.98365831353,0.10862951003,0.00670713094299,0.0,0.00346305814993,0.0,0.0680416926977,0.0,-0.90457305091,0.0,-0.00422673779833,0.0,-0.00186038733664,0.0,-0.00888457986832,0.0,0.0699885167027,0.0,-0.0234185350765,0.0,0.0,0.0,0.0,100.0,-0.0,-30.48,0.00230154196664,0.0,0.00230154196664,0.0,-0.0,100.0,-0.0,0.0,1014515.2,0.0,0.0,0.0,0.0,0.0,0.0
1402752656545774867,3,-7.07134555902,-0.00591572024346,9.2411881376,-0.122189614607,-1.98211643363,0.10862951003,0.00813793274853,0.0,0.0048384096895,0.0,0.067885638801,0.0,-0.904703264804,0.0,-0.00314927275387,0.0,-0.00182635595089,0.0,-0.0219837835107,0.0,0.0694872953868,0.0,-0.0101503544858,0.0,0.0,0.0,0.0,100.0,-0.0,-30.48,0.00230154196664,0.0,0.00230154196664,0.0,-0.0,100.0,-0.0,0.0,1014515.2,0.0,0.0,0.0,0.0,0.0,0.0
1402752656565703977,3,-7.07134555902,-0.00591572024346,9.2411881376,-0.122189614607,-1.98211643363,0.10862951003,0.00813793274853,0.0,0.0048384096895,0.0,0.067885638801,0.0,-0.904703264804,0.0,-0.00314927275387,0.0,-0.00182635595089,0.0,-0.0219837835107,0.0,0.0694872953868,0.0,-0.0101503544858,0.0,0.0,0.0,0.0,100.0,-0.0,-30.48,0.00230154196664,0.0,0.00230154196664,0.0,-0.0,100.0,-0.0,0.0,1014515.2,0.0,0.0,0.0,0.0,0.0,0.0
1402752656585416795,3,-7.0666940222,-0.00591572024346,9.23084488506,-0.122189614607,-1.97861234055,0.10862951003,0.0105097595868,0.0,-0.0150843215493,0.0,0.0673941988556,0.0,-0.904929096766,0.0,-0.00235707398792,0.0,-0.000528957039142,0.0,-0.011678005272,0.0,0.0703222043481,0.0,-0.0152105363138,0.0,0.0,0.0,0.0,100.0,-0.0,-30.48,0.00230154196664,0.0,0.00230154196664,0.0,-0.0,100.0,-0.0,0.0,1014515.2,0.0,0.0,0.0,0.0,0.0,0.0
1402752656605560913,3,-7.0666940222,-0.00591572024346,9.23084488506,-0.122189614607,-1.97861234055,0.10862951003,0.0105097595868,0.0,-0.0150843215493,0.0,0.0673941988556,0.0,-0.904929096766,0.0,-0.00235707398792,0.0,-0.000528957039142,0.0,-0.011678005272,0.0,0.0703222043481,0.0,-0.0152105363138,0.0,0.0,0.0,0.0,100.0,-0.0,-30.48,0.00230154196664,100.0,0.00230154196664,0.0,-0.0,100.0,-0.0,0.0,1014515.2,0.0,0.0,0.0,0.0,0.0,0.0
1402752656625572836,3,-7.06371414036,-0.00591572024346,9.22939234669,-0.122189614607,-1.97751034114,0.10862951003,0.0124026802709,0.0,-0.0147920333917,0.0,0.0660281038389,0.0,-0.905264552053,0.0,-0.0103878583538,0.0,-0.000466654167773,0.0,-0.0117212781634,0.0,0.0697027264164,0.0,-0.00622084700441,0.0,0.0,0.0,0.0,100.0,-0.0,-30.48,0.00230154196664,100.0,0.00230154196664,0.0,-0.0,100.0,-0.0,0.0,1014515.2,0.0,0.0,0.0,0.0,0.0,0.0
1402752656645798883,3,-7.06371414036,-0.00591572024346,9.22939234669,-0.122189614607,-1.97751034114,0.10862951003,0.0124026802709,0.0,-0.0147920333917,0.0,0.0660281038389,0.0,-0.905264552053,0.0,-0.0103878583538,0.0,-0.000466654167773,0.0,-0.0117212781634,0.0,0.0697027264164,0.0,-0.00622084700441,0.0,0.0,0.0,0.0,100.0,-0.0,-30.48,0.00230154196664,100.0,0.00230154196664,0.0,-0.0,100.0,-0.0,0.0,1014515.2,0.0,0.0,0.0,0.0,0.0,0.0
1402752656666152128,3,-7.0582062132,-0.00591572024346,9.22563117436,-0.122189614607,-1.97750424206,0.10862951003,0.0191096795565,0.0,-0.0214477785781,0.0,0.0641754376381,0.0,-0.905729452959,0.0,-0.00445683455379,0.0,-0.000617935688935,0.0,-0.000553736049024,0.0,0.0700933328213,0.0,-0.000229975459433,0.0,0.0,0.0,0.0,100.0,-0.0,-30.48,0.00230154196664,100.0,0.00230154196664,0.0,-0.0,100.0,-0.0,0.0,1014515.2,0.0,0.0,0.0,0.0,0.0,0.0
1402752656685530118,3,-7.0582062132,-0.00591572024346,9.22563117436,-0.122189614607,-1.97750424206,0.10862951003,0.0191096795565,0.0,-0.0214477785781,0.0,0.0641754376381,0.0,-0.905729452959,0.0,-0.00445683455379,0.0,-0.000617935688935,0.0,-0.000553736049024,0.0,0.0700933328213,0.0,-0.000229975459433,0.0,0.0,0.0,0.0,100.0,-0.0,-30.48,0.00230154196664,100.0,0.00230154196664,0.0,-0.0,100.0,-0.0,0.0,1014515.2,0.0,0.0,0.0,0.0,0.0,0.0
1402752656705787179,3,-7.0575742894,-0.00591572024346,9.22231208706,-0.122189614607,-1.96534936302,0.10862951003,0.0123408488426,0.0,-0.0220252846211,0.0,0.0661070068784,0.0,-0.906057838401,0.0,-0.0086885151625,0.0,-2.42520137675e-05,0.0,0.000914315712822,0.0,0.0693972308119,0.0,0.00452503630718,0.0,0.0,0.0,0.0,100.0,-0.0,-30.48,0.00230154196664,100.0,0.00230154196664,0.0,-0.0,100.0,-0.0,0.0,1014515.2,0.0,0.0,0.0,0.0,0.0,0.0
1402752656725822415,3,-7.0575742894,-0.00591572024346,9.22231208706,-0.122189614607,-1.96534936302,0.10862951003,0.0123408488426,0.0,-0.0220252846211,0.0,0.0661070068784,0.0,-0.906057838401,0.0,-0.0086885151625,0.0,-2.42520137675e-05,0.0,0.000914315712822,0.0,0.0693972308119,0.0,0.00452503630718,0.0,0.0,0.0,0.0,100.0,-0.0,-30.48,0.00230154196664,100.0,0.00230154196664,0.0,-0.0,100.0,-0.0,0.0,1014515.2,0.0,0.0,0.0,0.0,0.0,0.0
1402752656745945414,3,-7.04891365236,-0.00591572024346,9.22327814672,-0.122189614607,-1.96843655568,0.10862951003,0.0251580168866,0.0,-0.0193301414698,0.0,0.0612010140676,0.0,-0.906377683305,0.0,-0.00168283218609,0.0,-0.00152539118641,0.0,0.0073788518656,0.0,0.0700487386724,0.0,0.00433033519767,0.0,0.0,0.0,0.0,100.0,-0.0,-30.48,0.00230154196664,100.0,0.00230154196664,0.0,-0.0,100.0,-0.0,0.0,1014515.2,0.0,0.0,0.0,0.0,0.0,0.0
1402752656765958572,3,-7.04891365236,-0.00591572024346,9.22327814672,-0.122189614607,-1.96843655568,0.10862951003,0.0251580168866,0.0,-0.0193301414698,0.0,0.0612010140676,0.0,-0.906377683305,0.0,-0.00168283218609,0.0,-0.00152539118641,0.0,0.0073788518656,0.0,0.0700487386724,0.0,0.00433033519767,0.0,0.0,0.0,0.0,100.0,-0.0,-30.48,0.00230154196664,100.0,0.00230154196664,0.0,-0.0,100.0,-0.0,0.0,1014515.2,0.0,0.0,0.0,0.0,0.0,0.0
1402752656785657761,3,-7.04664651258,-0.00591572024346,9.22183522251,-0.122189614607,-1.95903112853,0.10862951003,0.0275572615937,0.0,-0.0297554425947,0.0,0.0651210901624,0.0,-0.90693728551,0.0,-0.018037660242,0.0,-0.00123028477593,0.0,0.013614592419,0.0,0.069691557191,0.0,-0.00439003254642,0.0,0.0,0.0,0.0,100.0,-0.0,-30.48,0.00230154196664,100.0,0.00230154196664,0.0,-0.0,100.0,-0.0,0.0,1014515.2,0.0,0.0,0.0,0.0,0.0,0.0
1402752656805548121,3,-7.04664651258,-0.00591572024346,9.22183522251,-0.122189614607,-1.95903112853,0.10862951003,0.0275572615937,0.0,-0.0297554425947,0.0,0.0651210901624,0.0,-0.90693728551,0.0,-0.018037660242,0.0,-0.00123028477593,0.0,0.013614592419,0.0,0.069691557191,0.0,-0.00439003254642,0.0,0.0,0.0,0.0,100.0,-0.0,-30.48,0.00230154196664,100.0,0.00230154196664,0.0,-0.0,100.0,-0.0,0.0,1014515.2,0.0,0.0,0.0,0.0,0.0,0.0
1402752656825642291,3,-7.04422925316,-0.00591572024346,9.22365521399,-0.122189614607,-1.95176138705,0.10862951003,0.0365211174813,0.0,-0.0522863144447,0.0,0.0679624394989,0.0,-0.908287634669,0.0,-0.045222315139,0.0,-0.00165493493327,0.0,-0.0054419972608,0.0,0.0683103313461,0.0,-0.00683190071156,0.0,0.0,0.0,0.0,100.0,-0.0,-30.48,0.00230154196664,100.0,0.00230154196664,0.0,-0.0,100.0,-0.0,0.0,1014515.2,0.0,0.0,0.0,0.0,0.0,0.0
1402752656845533540,3,-7.04422925316,-0.00591572024346,9.22365521399,-0.122189614607,-1.95176138705,0.10862951003,0.0365211174813,0.0,-0.0522863144447,0.0,0.0679624394989,0.0,-0.908287634669,0.0,-0.045222315139,0.0,-0.00165493493327,0.0,-0.0054419972608,0.0,0.0683103313461,0.0,-0.00683190071156,0.0,0.0,0.0,0.0,100.0,-0.0,-30.48,0.00230154196664,100.0,0.00230154196664,0.0,-0.0,100.0,-0.0,0.0,1014515.2,0.0,0.0,0.0,0.0,0.0,0.0
1402752656866107032,3,-7.035076439,-0.00591572024346,9.20897113007,-0.122189614607,-1.94792477454,0.10862951003,0.0696273095565,0.0,-0.119375644746,0.0,0.0772737279423,0.0,-0.914177369468,0.0,-0.092665836741,0.0,-0.00158859257178,0.0,-0.0515829001631,0.0,0.0686297734927,0.0,-0.0182074963277,0.0,0.0,0.0,0.0,100.0,-0.0,-30.48,0.00230154196664,100.0,0.00230154196664,0.0,-0.0,100.0,-0.0,0.0,1014515.2,0.0,0.0,0.0,0.0,0.0,0.0
1402752656885680590,3,-7.035076439,-0.00591572024346,9.20897113007,-0.122189614607,-1.94792477454,0.10862951003,0.0696273095565,0.0,-0.119375644746,0.0,0.0772737279423,0.0,-0.914177369468,0.0,-0.092665836741,0.0,-0.00158859257178,0.0,-0.0515829001631,0.0,0.0686297734927,0.0,-0.0182074963277,0.0,0.0,0.0,0.0,100.0,-0.0,-30.48,0.00230154196664,100.0,0.00230154196664,0.0,-0.0,100.0,-0.0,0.0,1014515.2,0.0,0.0,0.0,0.0,0.0,0.0
1402752656905742902,3,-7.03268297462,-0.00591572024346,9.20476913781,-0.122189614607,-1.945387402,0.10862951003,0.0857653930649,0.0,-0.147885609913,0.0,0.0912800642701,0.0,-0.918098818109,0.0,-0.131110506639,0.0,-0.00219738295238,0.0,-0.057730115651,0.0,0.0669102688173,0.0,-0.0132010186452,0.0,0.0,0.0,0.0,100.0,-0.0,-30.48,0.00230154196664,100.0,0.00230154196664,0.0,-0.0,100.0,-0.0,0.0,1014515.2,0.0,0.0,0.0,0.0,0.0,0.0
1402752656925604140,3,-7.03144473379,-0.00591572024346,9.20012754209,-0.122189614607,-1.94780658011,0.10862951003,0.0900133813282,0.0,-0.165869493073,0.0,0.0919416231211,0.0,-0.921986743084,0.0,-0.144786937605,0.0,-0.00234323038108,0.0,-0.0770773453756,0.0,0.0649391282227,0.0,-0.00973687605578,0.0,0.0,0.0,0.0,100.0,-0.0,-30.48,0.00230154196664,100.0,0.00230154196664,0.0,-0.0,100.0,-0.0,0.0,1014515.2,0.0,0.0,0.0,0.0,0.0,0.0
1402752656945784539,3,-7.03144473379,-0.00591572024346,9.20012754209,-0.122189614607,-1.94780658011,0.10862951003,0.0900133813282,0.0,-0.165869493073,0.0,0.0919416231211,0.0,-0.921986743084,0.0,-0.144786937605,0.0,-0.00234323038108,0.0,-0.0770773453756,0.0,0.0649391282227,0.0,-0.00973687605578,0.0,0.0,0.0,0.0,100.0,-0.0,-30.48,0.00230154196664,100.0,0.00230154196664,0.0,-0.0,100.0,-0.0,0.0,1014515.2,0.0,0.0,0.0,0.0,0.0,0.0
1402752656966193154,3,-7.02950388436,-0.00591572024346,9.19642049578,-0.122189614607,-1.94584558746,0.10862951003,0.0982904174812,0.0,-0.185197042855,0.0,0.0909569777327,0.0,-0.925387932304,0.0,-0.161169935749,0.0,-0.00306660945921,0.0,-0.0836787105199,0.0,0.063208319398,0.0,-0.0149657347542,0.0,0.0,0.0,0.0,100.0,-0.0,-30.48,0.00230154196664,100.0,0.00230154196664,0.0,-0.0,100.0,-0.0,0.0,1014515.2,0.0,0.0,0.0,0.0,0.0,0.0
1402752656985598683,3,-7.02950388436,-0.00591572024346,9.19642049578,-0.122189614607,-1.94584558746,0.10862951003,0.0982904174812,0.0,-0.185197042855,0.0,0.0909569777327,0.0,-0.925387932304,0.0,-0.161169935749,0.0,-0.00306660945921,0.0,-0.0836787105199,0.0,0.063208319398,0.0,-0.0149657347542,0.0,0.0,0.0,0.0,100.0,-0.0,-30.48,0.00230154196664,100.0,0.00230154196664,0.0,-0.0,100.0,-0.0,0.0,1014515.2,0.0,0.0,0.0,0.0,0.0,0.0
1402752657005720633,3,-7.01527285313,-0.00591572024346,9.18953640255,-0.122189614607,-1.93765091554,0.10862951003,0.128606611853,0.0,-0.221187534518,0.0,0.103789656769,0.0,-0.931391864842,0.0,-0.189412465157,0.0,-0.00592242660669,0.0,-0.0769101173911,0.0,0.0600222370473,0.0,-0.028993054036,0.0,0.0,0.0,0.0,100.0,-0.0,-30.48,0.00230154196664,100.0,0.00230154196664,0.0,-0.0,100.0,-0.0,0.0,1014515.2,0.0,0.0,0.0,0.0,0.0,0.0
1402752657025571240,3,-7.01527285313,-0.00591572024346,9.18953640255,-0.122189614607,-1.93765091554,0.10862951003,0.128606611853,0.0,-0.221187534518,0.0,0.103789656769,0.0,-0.931391864842,0.0,-0.189412465157,0.0,-0.00592242660669,0.0,-0.0769101173911,0.0,0.0600222370473,0.0,-0.028993054036,0.0,0.0,0.0,0.0,100.0,-0.0,-30.48,0.00230154196664,100.0,0.00230154196664,0.0,-0.0,100.0,-0.0,0.0,1014515.2,0.0,0.0,0.0,0.0,0.0,0.0
1402752657045887519,3,-7.00779442569,-0.00591572024346,9.17796698653,-0.122189614607,-1.93821626463,0.10862951003,0.14818351232,0.0,-0.266867606031,0.0,0.101584546566,0.0,-0.943109440353,0.0,-0.238247768137,0.0,-0.0068763898221,0.0,-0.0657715355541,0.0,0.0556689852386,0.0,-0.0192055129077,0.0,0.0,0.0,0.0,100.0,-0.0,-30.48,0.00230154196664,100.0,0.00230154196664,0.0,-0.0,100.0,-0.0,0.0,1014515.2,0.0,0.0,0.0,0.0,0.0,0.0
1402752657065951401,3,-7.00779442569,-0.00591572024346,9.17796698653,-0.122189614607,-1.93821626463,0.10862951003,0.14818351232,0.0,-0.266867606031,0.0,0.101584546566,0.0,-0.943109440353,0.0,-0.238247768137,0.0,-0.0068763898221,0.0,-0.0657715355541,0.0,0.0556689852386,0.0,-0.0192055129077,0.0,0.0,0.0,0.0,100.0,-0.0,-30.48,0.00230154196664,100.0,0.00230154196664,0.0,-0.0,100.0,-0.0,0.0,1014515.2,0.0,0.0,0.0,0.0,0.0,0.0
1402752657086161864,3,-6.99689673355,-0.00591572024346,9.15891373196,-0.122189614607,-1.92744893306,0.10862951003,0.16112572839,0.0,-0.323314249814,0.0,0.0962617374119,0.0,-0.957631854542,0.0,-0.271119356802,0.0,-0.00664017406099,0.0,-0.039654784135,0.0,0.052849937967,0.0,-0.0385457394178,0.0,0.0,0.0,0.0,100.0,-0.0,-30.48,0.00230154196664,100.0,0.00230154196664,0.0,-0.0,100.0,-0.0,0.0,1014515.2,0.0,0.0,0.0,0.0,0.0,0.0
1402752657105473729,3,-6.99689673355,-0.00591572024346,9.15891373196,-0.122189614607,-1.92744893306,0.10862951003,0.16112572839,0.0,-0.323314249814,0.0,0.0962617374119,0.0,-0.957631854542,0.0,-0.271119356802,0.0,-0.00664017406099,0.0,-0.039654784135,0.0,0.052849937967,0.0,-0.0385457394178,0.0,0.0,0.0,0.0,100.0,-0.0,-30.48,0.00230154196664,100.0,0.00230154196664,0.0,-0.0,100.0,-0.0,0.0,1014515.2,0.0,0.0,0.0,0.0,0.0,0.0
1402752657125684750,3,-6.99656698453,-0.00591572024346,9.15231493401,-0.122189614607,-1.92793870497,0.10862951003,0.156533044557,0.0,-0.341623332644,0.0,0.0919551131391,0.0,-0.964523357999,0.0,-0.282662260516,0.0,-0.00547460879286,0.0,-0.0231513752289,0.0,0.0512928690909,0.0,-0.0354542417381,0.0,0.0,0.0,0.0,100.0,-0.0,-30.48,0.00230154196664,100.0,0.00230154196664,0.0,-0.0,100.0,-0.0,0.0,1014515.2,0.0,0.0,0.0,0.0,0.0,0.0
1402752657145693480,3,-6.99656698453,-0.00591572024346,9.15231493401,-0.122189614607,-1.92793870497,0.10862951003,0.156533044557,0.0,-0.341623332644,0.0,0.0919551131391,0.0,-0.964523357999,0.0,-0.282662260516,0.0,-0.00547460879286,0.0,-0.0231513752289,0.0,0.0512928690909,0.0,-0.0354542417381,0.0,0.0,0.0,0.0,100.0,-0.0,-30.48,0.00230154196664,100.0,0.00230154196664,0.0,-0.0,100.0,-0.0,0.0,1014515.2,0.0,0.0,0.0,0.0,0.0,0.0
1402752657165837794,3,-6.98968284884,-0.00591572024346,9.13717719765,-0.122189614607,-1.92420295473,0.10862951003,0.170966525202,0.0,-0.380508940056,0.0,0.0907145393272,0.0,-0.977166228454,0.0,-0.30625313206,0.0,-0.00539484319446,0.0,-0.00692450115886,0.0,0.0505059631394,0.0,-0.00832742695466,0.0,0.0,0.0,0.0,100.0,-0.0,-30.48,0.00230154196664,100.0,0.00230154196664,0.0,-0.0,100.0,-0.0,0.0,1014515.2,0.0,0.0,0.0,0.0,0.0,0.0
1402752657185823818,3,-6.98968284884,-0.00591572024346,9.13717719765,-0.122189614607,-1.92420295473,0.10862951003,0.170966525202,0.0,-0.380508940056,0.0,0.0907145393272,0.0,-0.977166228454,0.0,-0.30625313206,0.0,-0.00539484319446,0.0,-0.00692450115886,0.0,0.0505059631394,0.0,-0.00832742695466,0.0,0.0,0.0,0.0,100.0,-0.0,-30.48,0.00230154196664,100.0,0.00230154196664,0.0,-0.0,100.0,-0.0,0.0,1014515.2,0.0,0.0,0.0,0.0,0.0,0.0
1402752657205845503,3,-6.97815618333,-0.00591572024346,9.11799118009,-0.122189614607,-1.91273399535,0.10862951003,0.180890946554,0.0,-0.418181194442,0.0,0.0881302790873,0.0,-0.993654646153,0.0,-0.333772598993,0.0,-0.0048134494602,0.0,0.0167400526856,0.0,0.0498067436801,0.0,0.0138123995304,0.0,0.0,0.0,0.0,100.0,-0.0,-30.48,0.00230154196664,100.0,0.00230154196664,0.0,-0.0,100.0,-0.0,0.0,1014515.2,0.0,0.0,0.0,0.0,0.0,0.0
1402752657226181192,3,-6.97815618333,-0.00591572024346,9.11799118009,-0.122189614607,-1.91273399535,0.10862951003,0.180890946554,0.0,-0.418181194442,0.0,0.0881302790873,0.0,-0.993654646153,0.0,-0.333772598993,0.0,-0.0048134494602,0.0,0.0167400526856,0.0,0.0498067436801,0.0,0.0138123995304,0.0,0.0,0.0,0.0,100.0,-0.0,-30.48,0.00230154196664,100.0,0.00230154196664,0.0,-0.0,100.0,-0.0,0.0,1014515.2,0.0,0.0,0.0,0.0,0.0,0.0
1402752657245738800,3,-6.95715274523,-0.00591572024346,9.08795618229,-0.122189614607,-1.92045025879,0.10862951003,0.216279319269,0.0,-0.478527202224,0.0,0.070231378191,0.0,-1.01231182484,0.0,-0.364870915661,0.0,-0.00595003662986,0.0,0.0252612932749,0.0,0.0541428541979,0.0,0.0140115350825,0.0,0.0,0.0,0.0,100.0,-0.0,-30.48,0.00230154196664,100.0,0.00230154196664,0.0,-0.0,100.0,-0.0,0.0,1014515.2,0.0,0.0,0.0,0.0,0.0,0.0
1402752657265553153,3,-6.95715274523,-0.00591572024346,9.08795618229,-0.122189614607,-1.92045025879,0.10862951003,0.216279319269,0.0,-0.478527202224,0.0,0.070231378191,0.0,-1.01231182484,0.0,-0.364870915661,0.0,-0.00595003662986,0.0,0.0252612932749,0.0,0.0541428541979,0.0,0.0140115350825,0.0,0.0,0.0,0.0,100.0,-0.0,-30.48,0.00230154196664,100.0,0.00230154196664,0.0,-0.0,100.0,-0.0,0.0,1014515.2,0.0,0.0,0.0,0.0,0.0,0.0
1402752657285670236,3,-6.9526476999,-0.00591572024346,9.07751565145,-0.122189614607,-1.91867148105,0.10862951003,0.220953100708,0.0,-0.495349130089,0.0,0.0644953796729,0.0,-1.02028154226,0.0,-0.376711880146,0.0,-0.00595913842803,0.0,0.02564991619,0.0,0.0548671842603,0.0,0.0193364387554,0.0,0.0,0.0,0.0,100.0,-0.0,-30.48,0.00230154196664,100.0,0.00230154196664,0.0,-0.0,100.0,-0.0,0.0,1014515.2,0.0,0.0,0.0,0.0,0.0,0.0
1402752657306366200,3,-6.9526476999,-0.00591572024346,9.07751565145,-0.122189614607,-1.91867148105,0.10862951003,0.220953100708,0.0,-0.495349130089,0.0,0.0644953796729,0.0,-1.02028154226,0.0,-0.376711880146,0.0,-0.00595913842803,0.0,0.02564991619,0.0,0.0548671842603,0.0,0.0193364387554,0.0,0.0,0.0,0.0,100.0,-0.0,-30.48,0.00230154196664,100.0,0.00230154196664,0.0,-0.0,100.0,-0.0,0.0,1014515.2,0.0,0.0,0.0,0.0,0.0,0.0
1402752657326424965,3,-6.94811614926,-0.00591572024346,9.05669680466,-0.122189614607,-1.91808675113,0.10862951003,0.218063723309,0.0,-0.525092757635,0.0,0.0603793690845,0.0,-1.03844020122,0.0,-0.398630861713,0.0,-0.00515238399729,0.0,0.0375473623765,0.0,0.0557978077313,0.0,0.0387966606334,0.0,0.0,0.0,0.0,100.0,-0.0,-30.48,0.00230154196664,100.0,0.00230154196664,0.0,-0.0,100.0,-0.0,0.0,1014515.2,0.0,0.0,0.0,0.0,0.0,0.0
1402752657346049414,3,-6.94811614926,-0.00591572024346,9.05669680466,-0.122189614607,-1.91808675113,0.10862951003,0.218063723309,0.0,-0.525092757635,0.0,0.0603793690845,0.0,-1.03844020122,0.0,-0.398630861713,0.0,-0.00515238399729,0.0,0.0375473623765,0.0,0.0557978077313,0.0,0.0387966606334,0.0,0.0,0.0,0.0,100.0,-0.0,-30.48,0.00230154196664,100.0,0.00230154196664,0.0,-0.0,100.0,-0.0,0.0,1014515.2,0.0,0.0,0.0,0.0,0.0,0.0
1402752657365395737,3,-6.94031000636,-0.00591572024346,9.0310426175,-0.122189614607,-1.92183371782,0.10862951003,0.219907149176,0.0,-0.562924100376,0.0,0.0630880998597,0.0,-1.05788149359,0.0,-0.414056405787,0.0,-0.00459584131917,0.0,0.0458625938046,0.0,0.0581682207157,0.0,0.0283128053502,0.0,0.0,0.0,0.0,100.0,-0.0,-30.48,0.00383600394174,100.0,0.00230154196664,0.0,-0.0,100.0,-0.0,0.0,1014515.2,0.0,0.0,0.0,0.0,0.0,0.0
1402752657385507289,3,-6.94031000636,-0.00591572024346,9.0310426175,-0.122189614607,-1.92183371782,0.10862951003,0.219907149176,0.0,-0.562924100376,0.0,0.0630880998597,0.0,-1.05788149359,0.0,-0.414056405787,0.0,-0.00459584131917,0.0,0.0458625938046,0.0,0.0581682207157,0.0,0.0283128053502,0.0,0.0,0.0,0.0,100.0,-0.0,-30.48,0.00230154196664,100.0,0.00230154196664,0.0,-0.0,100.0,-0.0,0.0,1014515.2,0.0,0.0,0.0,0.0,0.0,0.0
1402752657405818693,3,-6.93672960897,-0.00591572024346,9.00424525533,-0.122189614607,-1.92558292132,0.10862951003,0.210005390147,0.0,-0.591313929731,0.0,0.0596264055983,0.0,-1.08206244583,0.0,-0.433222456259,0.0,-0.0037962588038,0.0,0.0279087032798,0.0,0.0591758530869,0.0,0.0279462577528,0.0,0.0,0.0,0.0,100.0,-0.0,-30.48,0.00230154196664,100.0,0.00230154196664,0.0,-0.0,100.0,-0.0,0.0,1014515.2,0.0,0.0,0.0,0.0,0.0,0.0
1402752657426168899,3,-6.93672960897,-0.00591572024346,9.00424525533,-0.122189614607,-1.92558292132,0.10862951003,0.210005390147,0.0,-0.591313929731,0.0,0.0596264055983,0.0,-1.08206244583,0.0,-0.433222456259,0.0,-0.0037962588038,0.0,0.0279087032798,0.0,0.0591758530869,0.0,0.0279462577528,0.0,0.0,0.0,0.0,100.0,-0.0,-30.48,0.00230154196664,100.0,0.00230154196664,0.0,-0.0,100.0,-0.0,0.0,1014515.2,0.0,0.0,0.0,0.0,0.0,0.0
1402752657445815434,3,-6.93014143577,-0.00591572024346,8.98572971795,-0.122189614607,-1.92372442533,0.10862951003,0.214317674316,0.0,-0.612301585844,0.0,0.0678755223425,0.0,-1.0957984067,0.0,-0.445985030376,0.0,-0.00423169498977,0.0,0.0264494544287,0.0,0.0605036885081,0.0,0.0221586792987,0.0,0.0,0.0,0.0,100.0,-0.0,-30.48,0.00230154196664,100.0,0.00230154196664,0.0,-0.0,100.0,-0.0,0.0,1014515.2,0.0,0.0,0.0,0.0,0.0,0.0
1402752657465663373,3,-6.92704457374,-0.00591572024346,8.9793641301,-0.122189614607,-1.91621086694,0.10862951003,0.208717683534,0.0,-0.611151078898,0.0,0.0767863797372,0.0,-1.10364347231,0.0,-0.444049533991,0.0,-0.00446649568864,0.0,0.0222519535279,0.0,0.0592812550655,0.0,0.0178913848382,0.0,0.0,0.0,0.0,100.0,-0.0,-30.48,0.00230154196664,100.0,0.00230154196664,0.0,-0.0,100.0,-0.0,0.0,1014515.2,0.0,0.0,0.0,0.0,0.0,0.0
1402752657485856855,3,-6.92704457374,-0.00591572024346,8.9793641301,-0.122189614607,-1.91621086694,0.10862951003,0.208717683534,0.0,-0.611151078898,0.0,0.0767863797372,0.0,-1.10364347231,0.0,-0.444049533991,0.0,-0.00446649568864,0.0,0.0222519535279,0.0,0.0592812550655,0.0,0.0178913848382,0.0,0.0,0.0,0.0,100.0,-0.0,-30.48,0.00383600394174,100.0,0.00230154196664,0.0,-0.0,100.0,-0.0,0.0,1014515.2,0.0,0.0,0.0,0.0,0.0,0.0
1402752657505749107,3,-6.92268300312,-0.00591572024346,8.96641906499,-0.122189614607,-1.91459611828,0.10862951003,0.211194132638,0.0,-0.625186946441,0.0,0.0808747723638,0.0,-1.11306373233,0.0,-0.450772315331,0.0,-0.00477624572289,0.0,0.0238503549021,0.0,0.0599609408042,0.0,0.021639359162,0.0,0.0,0.0,0.0,100.0,-0.0,-30.48,0.00230154196664,100.0,0.00230154196664,0.0,-0.0,100.0,-0.0,0.0,1014515.2,0.0,0.0,0.0,0.0,0.0,0.0
1402752657526016261,3,-6.92268300312,-0.00591572024346,8.96641906499,-0.122189614607,-1.91459611828,0.10862951003,0.211194132638,0.0,-0.625186946441,0.0,0.0808747723638,0.0,-1.11306373233,0.0,-0.450772315331,0.0,-0.00477624572289,0.0,0.0238503549021,0.0,0.0599609408042,0.0,0.021639359162,0.0,0.0,0.0,0.0,100.0,-0.0,-30.48,0.00230154196664,100.0,0.00230154196664,0.0,-0.0,100.0,-0.0,0.0,1014515.2,0.0,0.0,0.0,0.0,0.0,0.0
1402752657545586570,3,-6.91392618205,-0.00591572024346,8.94032598786,-0.122189614607,-1.91140079987,0.10862951003,0.212373058755,0.0,-0.650375060888,0.0,0.0767609658773,0.0,-1.13184946462,0.0,-0.458084524765,0.0,-0.00520133650656,0.0,0.0111596855587,0.0,0.0607534014267,0.0,0.0118930004004,0.0,0.0,0.0,0.0,100.0,-0.0,-30.48,0.00230154196664,100.0,0.00230154196664,0.0,-0.0,100.0,-0.0,0.0,1014515.2,0.0,0.0,0.0,0.0,0.0,0.0
1402752657565568870,3,-6.91392618205,-0.00591572024346,8.94032598786,-0.122189614607,-1.91140079987,0.10862951003,0.212373058755,0.0,-0.650375060888,0.0,0.0767609658773,0.0,-1.13184946462,0.0,-0.458084524765,0.0,-0.00520133650656,0.0,0.0111596855587,0.0,0.0607534014267,0.0,0.0118930004004,0.0,0.0,0.0,0.0,100.0,-0.0,-30.48,0.00230154196664,100.0,0.00230154196664,0.0,-0.0,100.0,-0.0,0.0,1014515.2,0.0,0.0,0.0,0.0,0.0,0.0
1402752657585696335,3,-6.91346676754,-0.00591572024346,8.91155526542,-0.122189614607,-1.91660541137,0.10862951003,0.194455890893,0.0,-0.677862882834,0.0,0.0785702046564,0.0,-1.15483018111,0.0,-0.468474938826,0.0,-0.0039706043145,0.0,-0.00342911275812,0.0,0.0608699555951,0.0,0.00993128788746,0.0,0.0,0.0,0.0,100.0,-0.0,-30.48,0.00230154196664,100.0,0.00230154196664,0.0,-0.0,100.0,-0.0,0.0,1014515.2,0.0,0.0,0.0,0.0,0.0,0.0
1402752657605762845,3,-6.91346676754,-0.00591572024346,8.91155526542,-0.122189614607,-1.91660541137,0.10862951003,0.194455890893,0.0,-0.677862882834,0.0,0.0785702046564,0.0,-1.15483018111,0.0,-0.468474938826,0.0,-0.0039706043145,0.0,-0.00342911275812,0.0,0.0608699555951,0.0,0.00993128788746,0.0,0.0,0.0,0.0,100.0,-0.0,-30.48,0.00230154196664,100.0,0.00230154196664,0.0,-0.0,100.0,-0.0,0.0,1014515.2,0.0,0.0,0.0,0.0,0.0,0.0
1402752657626241560,3,-6.89223587243,-0.00591572024346,8.88739727857,-0.122189614607,-1.90199103101,0.10862951003,0.21680253984,0.0,-0.695144707342,0.0,0.0867196093598,0.0,-1.16927033789,0.0,-0.47638925284,0.0,-0.00673811761641,0.0,-0.013352303082,0.0,0.0606760102775,0.0,0.0177920121524,0.0,0.0,0.0,0.0,100.0,-0.0,-30.48,0.00230154196664,100.0,0.00230154196664,0.0,-0.0,100.0,-0.0,0.0,1014515.2,0.0,0.0,0.0,0.0,0.0,0.0
1402752657645582158,3,-6.89223587243,-0.00591572024346,8.88739727857,-0.122189614607,-1.90199103101,0.10862951003,0.21680253984,0.0,-0.695144707342,0.0,0.0867196093598,0.0,-1.16927033789,0.0,-0.47638925284,0.0,-0.00673811761641,0.0,-0.013352303082,0.0,0.0606760102775,0.0,0.0177920121524,0.0,0.0,0.0,0.0,100.0,-0.0,-30.48,0.00230154196664,100.0,0.00230154196664,0.0,-0.0,100.0,-0.0,0.0,1014515.2,0.0,0.0,0.0,0.0,0.0,0.0
1402752657665603891,3,-6.88898014148,-0.00591572024346,8.85632860597,-0.122189614607,-1.91934874462,0.10862951003,0.204011562749,0.0,-0.731284067183,0.0,0.0806342998686,0.0,-1.19145123576,0.0,-0.48176559727,0.0,-0.00602826920726,0.0,-0.0218811769215,0.0,0.061254029145,0.0,0.0144610999053,0.0,0.0,0.0,0.0,100.0,-0.0,-30.48,0.00230154196664,100.0,0.00230154196664,0.0,-0.0,100.0,-0.0,0.0,1014515.2,0.0,0.0,0.0,0.0,0.0,0.0
1402752657685568331,3,-6.88898014148,-0.00591572024346,8.85632860597,-0.122189614607,-1.91934874462,0.10862951003,0.204011562749,0.0,-0.731284067183,0.0,0.0806342998686,0.0,-1.19145123576,0.0,-0.48176559727,0.0,-0.00602826920726,0.0,-0.0218811769215,0.0,0.061254029145,0.0,0.0144610999053,0.0,0.0,0.0,0.0,100.0,-0.0,-30.48,0.00230154196664,100.0,0.00230154196664,0.0,-0.0,100.0,-0.0,0.0,1014515.2,0.0,0.0,0.0,0.0,0.0,0.0
1402752657705769917,3,-6.87778484878,-0.00591572024346,8.81286031991,-0.122189614607,-1.93070538617,0.10862951003,0.193253636574,0.0,-0.775467694339,0.0,0.0824389353591,0.0,-1.22002332548,0.0,-0.486633309125,0.0,-0.00654112991409,0.0,-0.0276085710373,0.0,0.0610083543878,0.0,0.0159655675171,0.0,0.0,0.0,0.0,100.0,-0.0,-30.48,0.00230154196664,100.0,0.00230154196664,0.0,-0.0,100.0,-0.0,0.0,1014515.2,0.0,0.0,0.0,0.0,0.0,0.0
1402752657725644743,3,-6.87778484878,-0.00591572024346,8.81286031991,-0.122189614607,-1.93070538617,0.10862951003,0.193253636574,0.0,-0.775467694339,0.0,0.0824389353591,0.0,-1.22002332548,0.0,-0.486633309125,0.0,-0.00654112991409,0.0,-0.0276085710373,0.0,0.0610083543878,0.0,0.0159655675171,0.0,0.0,0.0,0.0,100.0,-0.0,-30.48,0.00230154196664,100.0,0.00230154196664,0.0,-0.0,100.0,-0.0,0.0,1014515.2,0.0,0.0,0.0,0.0,0.0,0.0
1402752657746413989,3,-6.87090638498,-0.00591572024346,8.78439440871,-0.122189614607,-1.92778282846,0.10862951003,0.186525157731,0.0,-0.79964236939,0.0,0.0935502860262,0.0,-1.2377809507,0.0,-0.491812597805,0.0,-0.00709733322586,0.0,-0.0215427229918,0.0,0.0603159892696,0.0,0.0092928999088,0.0,0.0,0.0,0.0,100.0,-0.0,-30.48,0.00230154196664,100.0,0.00230154196664,0.0,-0.0,100.0,-0.0,0.0,1014515.2,0.0,0.0,0.0,0.0,0.0,0.0
1402752657765709449,3,-6.86868943693,-0.00591572024346,8.74400305683,-0.122189614607,-1.9174644715,0.10862951003,0.160071581166,0.0,-0.837471438172,0.0,0.0947560769762,0.0,-1.26170860982,0.0,-0.493259668209,0.0,-0.00598356562845,0.0,-0.0210094430104,0.0,0.0601532685792,0.0,0.0160640313713,0.0,0.0,0.0,0.0,100.0,-0.0,-30.48,0.00230154196664,100.0,0.00230154196664,0.0,-0.0,100.0,-0.0,0.0,1014515.2,0.0,0.0,0.0,0.0,0.0,0.0
1402752657785599775,3,-6.86868943693,-0.00591572024346,8.74400305683,-0.122189614607,-1.9174644715,0.10862951003,0.160071581166,0.0,-0.837471438172,0.0,0.0947560769762,0.0,-1.26170860982,0.0,-0.493259668209,0.0,-0.00598356562845,0.0,-0.0210094430104,0.0,0.0601532685792,0.0,0.0160640313713,0.0,0.0,0.0,0.0,100.0,-0.0,-30.48,0.00230154196664,100.0,0.00230154196664,0.0,-0.0,100.0,-0.0,0.0,1014515.2,0.0,0.0,0.0,0.0,0.0,0.0
1402752657805654701,3,-6.86710682255,-0.00591572024346,8.73551850765,-0.122189614607,-1.9163838688,0.10862951003,0.154334527024,0.0,-0.842174728136,0.0,0.0916856243378,0.0,-1.2665949696,0.0,-0.486167672725,0.0,-0.00613961647004,0.0,-0.0261694862966,0.0,0.0599252393813,0.0,0.00804310621868,0.0,0.0,0.0,0.0,100.0,-0.0,-30.48,0.00230154196664,100.0,0.00230154196664,0.0,-0.0,100.0,-0.0,0.0,1014515.2,0.0,0.0,0.0,0.0,0.0,0.0
1402752657825886489,3,-6.86710682255,-0.00591572024346,8.73551850765,-0.122189614607,-1.9163838688,0.10862951003,0.154334527024,0.0,-0.842174728136,0.0,0.0916856243378,0.0,-1.2665949696,0.0,-0.486167672725,0.0,-0.00613961647004,0.0,-0.0261694862966,0.0,0.0599252393813,0.0,0.00804310621868,0.0,0.0,0.0,0.0,100.0,-0.0,-30.48,0.00230154196664,100.0,0.00230154196664,0.0,-0.0,100.0,-0.0,0.0,1014515.2,0.0,0.0,0.0,0.0,0.0,0.0
1402752657845792877,3,-6.85426951975,-0.00591572024346,8.70572041829,-0.122189614607,-1.94019887216,0.10862951003,0.167330882213,0.0,-0.881844080699,0.0,0.0788925641816,0.0,-1.27759878142,0.0,-0.494558343685,0.0,-0.00843810408622,0.0,-0.0258053468903,0.0,0.0621976731807,0.0,0.0182080990353,0.0,0.0,0.0,0.0,100.0,-0.0,-30.48,0.00230154196664,100.0,0.00230154196664,0.0,-0.0,100.0,-0.0,0.0,1014515.2,0.0,0.0,0.0,0.0,0.0,0.0
1402752657865569465,3,-6.85426951975,-0.00591572024346,8.70572041829,-0.122189614607,-1.94019887216,0.10862951003,0.167330882213,0.0,-0.881844080699,0.0,0.0788925641816,0.0,-1.27759878142,0.0,-0.494558343685,0.0,-0.00843810408622,0.0,-0.0258053468903,0.0,0.0621976731807,0.0,0.0182080990353,0.0,0.0,0.0,0.0,100.0,-0.0,-30.48,0.00230154196664,100.0,0.00230154196664,0.0,-0.0,100.0,-0.0,0.0,1014515.2,0.0,0.0,0.0,0.0,0.0,0.0
1402752657885627652,3,-6.85266681494,-0.00591572024346,8.68061255772,-0.122189614607,-1.93626218264,0.10862951003,0.143463195436,0.0,-0.880844890963,0.0,0.0797663053458,0.0,-1.30120648085,0.0,-0.499168214494,0.0,-0.00903905360522,0.0,-0.0125454465497,0.0,0.0585317334114,0.0,0.00640163112563,0.0,0.0,0.0,0.0,100.0,-0.0,-30.48,0.00230154196664,100.0,0.00230154196664,0.0,-0.0,100.0,-0.0,0.0,1014515.2,0.0,0.0,0.0,0.0,0.0,0.0
1402752657905546650,3,-6.85266681494,-0.00591572024346,8.68061255772,-0.122189614607,-1.93626218264,0.10862951003,0.143463195436,0.0,-0.880844890963,0.0,0.0797663053458,0.0,-1.30120648085,0.0,-0.499168214494,0.0,-0.00903905360522,0.0,-0.0125454465497,0.0,0.0585317334114,0.0,0.00640163112563,0.0,0.0,0.0,0.0,100.0,-0.0,-30.48,0.00230154196664,100.0,0.00230154196664,0.0,-0.0,100.0,-0.0,0.0,1014515.2,0.0,0.0,0.0,0.0,0.0,0.0
1402752657925758400,3,-6.84699684817,-0.00591572024346,8.64405962971,-0.122189614607,-1.93326245308,0.10862951003,0.132833187018,0.0,-0.905091704352,0.0,0.0654261162581,0.0,-1.32166433246,0.0,-0.499800124277,0.0,-0.0101748347199,0.0,-0.00935524231644,0.0,0.0582606843881,0.0,0.0227444477543,0.0,0.0,0.0,0.0,100.0,-0.0,-30.48,0.00230154196664,100.0,0.00230154196664,0.0,-0.0,100.0,-0.0,0.0,1014515.2,0.0,0.0,0.0,0.0,0.0,0.0
1402752657945564623,3,-6.84699684817,-0.00591572024346,8.64405962971,-0.122189614607,-1.93326245308,0.10862951003,0.132833187018,0.0,-0.905091704352,0.0,0.0654261162581,0.0,-1.32166433246,0.0,-0.499800124277,0.0,-0.0101748347199,0.0,-0.00935524231644,0.0,0.0582606843881,0.0,0.0227444477543,0.0,0.0,0.0,0.0,100.0,-0.0,-30.48,0.00230154196664,100.0,0.00383600394174,0.0,-0.0,100.0,-0.0,0.0,1014515.2,0.0,0.0,0.0,0.0,0.0,0.0
1402752657965572805,3,-6.84927151421,-0.00591572024346,8.59363982753,-0.122189614607,-1.92629309092,0.10862951003,0.0911525486605,0.0,-0.940113882061,0.0,0.0789275013421,0.0,-1.35199809357,0.0,-0.492176323971,0.0,-0.00865399544176,0.0,0.00111795795143,0.0,0.0581284849352,0.0,0.028633837789,0.0,0.0,0.0,0.0,100.0,-0.0,-30.48,0.00383600394174,100.0,0.00230154196664,0.0,-0.0,100.0,-0.0,0.0,1014515.2,0.0,0.0,0.0,0.0,0.0,0.0
1402752657985607239,3,-6.84927151421,-0.00591572024346,8.59363982753,-0.122189614607,-1.92629309092,0.10862951003,0.0911525486605,0.0,-0.940113882061,0.0,0.0789275013421,0.0,-1.35199809357,0.0,-0.492176323971,0.0,-0.00865399544176,0.0,0.00111795795143,0.0,0.0581284849352,0.0,0.028633837789,0.0,0.0,0.0,0.0,100.0,-0.0,-30.48,0.00230154196664,100.0,0.00230154196664,0.0,-0.0,100.0,-0.0,0.0,1014515.2,0.0,0.0,0.0,0.0,0.0,0.0
1402752658006020749,3,-6.84565719836,-0.00591572024346,8.5501289552,-0.122189614607,-1.95513981285,0.10862951003,0.0804095044048,0.0,-0.967130693929,0.0,0.0574446743577,0.0,-1.37509235819,0.0,-0.485934139888,0.0,-0.010650496956,0.0,0.0102383546995,0.0,0.059000856027,0.0,0.0153399883372,0.0,0.0,0.0,0.0,100.0,-0.0,-30.48,0.00230154196664,100.0,0.00230154196664,0.0,-0.0,100.0,-0.0,0.0,1014515.2,0.0,0.0,0.0,0.0,0.0,0.0
1402752658025594610,3,-6.84565719836,-0.00591572024346,8.5501289552,-0.122189614607,-1.95513981285,0.10862951003,0.0804095044048,0.0,-0.967130693929,0.0,0.0574446743577,0.0,-1.37509235819,0.0,-0.485934139888,0.0,-0.010650496956,0.0,0.0102383546995,0.0,0.059000856027,0.0,0.0153399883372,0.0,0.0,0.0,0.0,100.0,-0.0,-30.48,0.00230154196664,100.0,0.00230154196664,0.0,-0.0,100.0,-0.0,0.0,1014515.2,0.0,0.0,0.0,0.0,0.0,0.0
1402752658045550027,3,-6.84401156128,-0.00591572024346,8.52974671726,-0.122189614607,-1.95406465992,0.10862951003,0.0746544244409,0.0,-0.977023043805,0.0,0.0552459091141,0.0,-1.38530457767,0.0,-0.483255444996,0.0,-0.0109460196963,0.0,0.0108908683223,0.0,0.059165806824,0.0,0.0179497639221,0.0,0.0,0.0,0.0,100.0,-0.0,-30.48,0.00230154196664,100.0,0.00230154196664,0.0,-0.0,100.0,-0.0,0.0,1014515.2,0.0,0.0,0.0,0.0,0.0,0.0
1402752658065594783,3,-6.84401156128,-0.00591572024346,8.52974671726,-0.122189614607,-1.95406465992,0.10862951003,0.0746544244409,0.0,-0.977023043805,0.0,0.0552459091141,0.0,-1.38530457767,0.0,-0.483255444996,0.0,-0.0109460196963,0.0,0.0108908683223,0.0,0.059165806824,0.0,0.0179497639221,0.0,0.0,0.0,0.0,100.0,-0.0,-30.48,0.00383600394174,100.0,0.00230154196664,0.0,-0.0,100.0,-0.0,0.0,1014515.2,0.0,0.0,0.0,0.0,0.0,0.0
1402752658085743995,3,-6.83156407017,-0.00591572024346,8.48928099279,-0.122189614607,-1.96118486846,0.10862951003,0.0840279866536,0.0,-1.00396815604,0.0,0.0525416889213,0.0,-1.40080825701,0.0,-0.480861716178,0.0,-0.0136029466851,0.0,0.00466664958788,0.0,0.0606159034872,0.0,0.0117285633714,0.0,0.0,0.0,0.0,100.0,-0.0,-30.48,0.00230154196664,100.0,0.00230154196664,0.0,-0.0,100.0,-0.0,0.0,1014515.2,0.0,0.0,0.0,0.0,0.0,0.0
1402752658105948842,3,-6.83156407017,-0.00591572024346,8.48928099279,-0.122189614607,-1.96118486846,0.10862951003,0.0840279866536,0.0,-1.00396815604,0.0,0.0525416889213,0.0,-1.40080825701,0.0,-0.480861716178,0.0,-0.0136029466851,0.0,0.00466664958788,0.0,0.0606159034872,0.0,0.0117285633714,0.0,0.0,0.0,0.0,100.0,-0.0,-30.48,0.00230154196664,100.0,0.00230154196664,0.0,-0.0,100.0,-0.0,0.0,1014515.2,0.0,0.0,0.0,0.0,0.0,0.0
1402752658125574334,3,-6.83736680866,-0.00591572024346,8.45033202476,-0.122189614607,-1.95329035867,0.10862951003,0.0468787234144,0.0,-1.01441165218,0.0,0.0601372873433,0.0,-1.42521972877,0.0,-0.480539960227,0.0,-0.0113511528415,0.0,0.0128882929542,0.0,0.059754269949,0.0,3.30593528892e-05,0.0,0.0,0.0,0.0,100.0,-0.0,-30.48,0.00230154196664,100.0,0.00230154196664,0.0,-0.0,100.0,-0.0,0.0,1014515.2,0.0,0.0,0.0,0.0,0.0,0.0
1402752658145688114,3,-6.83736680866,-0.00591572024346,8.45033202476,-0.122189614607,-1.95329035867,0.10862951003,0.0468787234144,0.0,-1.01441165218,0.0,0.0601372873433,0.0,-1.42521972877,0.0,-0.480539960227,0.0,-0.0113511528415,0.0,0.0128882929542,0.0,0.059754269949,0.0,3.30593528892e-05,0.0,0.0,0.0,0.0,100.0,-0.0,-30.48,0.00230154196664,100.0,0.00230154196664,0.0,-0.0,100.0,-0.0,0.0,1014515.2,0.0,0.0,0.0,0.0,0.0,0.0
1402752658166153791,3,-6.83562197448,-0.00591572024346,8.40853429028,-0.122189614607,-1.950835748,0.10862951003,0.0339597941375,0.0,-1.03152462921,0.0,0.0588912780529,0.0,-1.4445454314,0.0,-0.462266715754,0.0,-0.0111082731096,0.0,0.00834447706849,0.0,0.060252528574,0.0,-0.00311236659804,0.0,0.0,0.0,0.0,100.0,-0.0,-30.48,0.00230154196664,100.0,0.00230154196664,0.0,-0.0,100.0,-0.0,0.0,1014515.2,0.0,0.0,0.0,0.0,0.0,0.0
1402752658185693658,3,-6.83562197448,-0.00591572024346,8.40853429028,-0.122189614607,-1.950835748,0.10862951003,0.0339597941375,0.0,-1.03152462921,0.0,0.0588912780529,0.0,-1.4445454314,0.0,-0.462266715754,0.0,-0.0111082731096,0.0,0.00834447706849,0.0,0.060252528574,0.0,-0.00311236659804,0.0,0.0,0.0,0.0,100.0,-0.0,-30.48,0.00230154196664,100.0,0.00230154196664,0.0,-0.0,100.0,-0.0,0.0,1014515.2,0.0,0.0,0.0,0.0,0.0,0.0
1402752658205892071,3,-6.83257503335,-0.00591572024346,8.35500840038,-0.122189614607,-1.96382283649,0.10862951003,0.0247932400059,0.0,-1.08397402181,0.0,0.0570916395543,0.0,-1.45784449792,0.0,-0.465567669349,0.0,-0.0106440300895,0.0,0.010861971138,0.0,0.0642053709262,0.0,0.00323924580483,0.0,0.0,0.0,0.0,100.0,-0.0,-30.48,0.00230154196664,100.0,0.00230154196664,0.0,-0.0,100.0,-0.0,0.0,1014515.2,0.0,0.0,0.0,0.0,0.0,0.0
1402752658225586543,3,-6.83257503335,-0.00591572024346,8.35500840038,-0.122189614607,-1.96382283649,0.10862951003,0.0247932400059,0.0,-1.08397402181,0.0,0.0570916395543,0.0,-1.45784449792,0.0,-0.465567669349,0.0,-0.0106440300895,0.0,0.010861971138,0.0,0.0642053709262,0.0,0.00323924580483,0.0,0.0,0.0,0.0,100.0,-0.0,-30.48,0.00230154196664,100.0,0.00230154196664,0.0,-0.0,100.0,-0.0,0.0,1014515.2,0.0,0.0,0.0,0.0,0.0,0.0
1402752658245733318,3,-6.8383595681,-0.00591572024346,8.32048289472,-0.122189614607,-1.9473486366,0.10862951003,-0.0110814525903,0.0,-1.07152112709,0.0,0.0806588311475,0.0,-1.48399554256,0.0,-0.466312026292,0.0,-0.00896435570389,0.0,0.0146624394238,0.0,0.0614848071226,0.0,-0.0154981814616,0.0,0.0,0.0,0.0,100.0,-0.0,-30.48,0.00230154196664,100.0,0.00230154196664,0.0,-0.0,100.0,-0.0,0.0,1014515.2,0.0,0.0,0.0,0.0,0.0,0.0
1402752658266092639,3,-6.8383595681,-0.00591572024346,8.32048289472,-0.122189614607,-1.9473486366,0.10862951003,-0.0110814525903,0.0,-1.07152112709,0.0,0.0806588311475,0.0,-1.48399554256,0.0,-0.466312026292,0.0,-0.00896435570389,0.0,0.0146624394238,0.0,0.0614848071226,0.0,-0.0154981814616,0.0,0.0,0.0,0.0,100.0,-0.0,-30.48,0.00230154196664,100.0,0.00230154196664,0.0,-0.0,100.0,-0.0,0.0,1014515.2,0.0,0.0,0.0,0.0,0.0,0.0
1402752658285693587,3,-6.83777341333,-0.00591572024346,8.27496760834,-0.122189614607,-1.95873563019,0.10862951003,-0.0220825208058,0.0,-1.09909931407,0.0,0.0781902168971,0.0,-1.50046045813,0.0,-0.465848761673,0.0,-0.00883947511051,0.0,0.0144193083245,0.0,0.0632411307833,0.0,-0.021270377134,0.0,0.0,0.0,0.0,100.0,-0.0,-30.48,0.00230154196664,100.0,0.00230154196664,0.0,-0.0,100.0,-0.0,0.0,1014515.2,0.0,0.0,0.0,0.0,0.0,0.0
1402752658306483684,3,-6.83777341333,-0.00591572024346,8.27496760834,-0.122189614607,-1.95873563019,0.10862951003,-0.0220825208058,0.0,-1.09909931407,0.0,0.0781902168971,0.0,-1.50046045813,0.0,-0.465848761673,0.0,-0.00883947511051,0.0,0.0144193083245,0.0,0.0632411307833,0.0,-0.021270377134,0.0,0.0,0.0,0.0,100.0,-0.0,-30.48,0.00230154196664,100.0,0.00230154196664,0.0,-0.0,100.0,-0.0,0.0,1014515.2,0.0,0.0,0.0,0.0,0.0,0.0
1402752658326044065,3,-6.84249568239,-0.00591572024346,8.23463906384,-0.122189614607,-1.96851885785,0.10862951003,-0.0431671132638,0.0,-1.10687918318,0.0,0.0619243382205,0.0,-1.52069399695,0.0,-0.458961300731,0.0,-0.00828674891776,0.0,0.00540526893621,0.0,0.0629792514058,0.0,-0.00536991798764,0.0,0.0,0.0,0.0,100.0,-0.0,-30.48,0.00230154196664,100.0,0.00230154196664,0.0,-0.0,100.0,-0.0,0.0,1014515.2,0.0,0.0,0.0,0.0,0.0,0.0
1402752658345983283,3,-6.84249568239,-0.00591572024346,8.23463906384,-0.122189614607,-1.96851885785,0.10862951003,-0.0431671132638,0.0,-1.10687918318,0.0,0.0619243382205,0.0,-1.52069399695,0.0,-0.458961300731,0.0,-0.00828674891776,0.0,0.00540526893621,0.0,0.0629792514058,0.0,-0.00536991798764,0.0,0.0,0.0,0.0,100.0,-0.0,-30.48,0.00230154196664,100.0,0.00230154196664,0.0,-0.0,100.0,-0.0,0.0,1014515.2,0.0,0.0,0.0,0.0,0.0,0.0
1402752658366191227,3,-6.84468029785,-0.00591572024346,8.18896463275,-0.122189614607,-1.96570162244,0.10862951003,-0.0606190269683,0.0,-1.12136395604,0.0,0.0672178646515,0.0,-1.5392801645,0.0,-0.452856623953,0.0,-0.00825834806497,0.0,0.00226947613912,0.0,0.0634273366409,0.0,0.0015604193043,0.0,0.0,0.0,0.0,100.0,-0.0,-30.48,0.00230154196664,100.0,0.00230154196664,0.0,-0.0,100.0,-0.0,0.0,1014515.2,0.0,0.0,0.0,0.0,0.0,0.0
1402752658385592225,3,-6.84468029785,-0.00591572024346,8.18896463275,-0.122189614607,-1.96570162244,0.10862951003,-0.0606190269683,0.0,-1.12136395604,0.0,0.0672178646515,0.0,-1.5392801645,0.0,-0.452856623953,0.0,-0.00825834806497,0.0,0.00226947613912,0.0,0.0634273366409,0.0,0.0015604193043,0.0,0.0,0.0,0.0,100.0,-0.0,-30.48,0.00230154196664,100.0,0.00230154196664,0.0,-0.0,100.0,-0.0,0.0,1014515.2,0.0,0.0,0.0,0.0,0.0,0.0
1402752658405787563,3,-6.84749508139,-0.00591572024346,8.14363246202,-0.122189614607,-1.97200672174,0.10862951003,-0.0776795858602,0.0,-1.14222732369,0.0,0.0645758671462,0.0,-1.5560327443,0.0,-0.449946298462,0.0,-0.00842658333036,0.0,0.0077682286781,0.0,0.0643103130646,0.0,0.00148332521661,0.0,0.0,0.0,0.0,100.0,-0.0,-30.48,0.00230154196664,100.0,0.00230154196664,0.0,-0.0,100.0,-0.0,0.0,1014515.2,0.0,0.0,0.0,0.0,0.0,0.0
1402752658426207109,3,-6.84749508139,-0.00591572024346,8.14363246202,-0.122189614607,-1.97200672174,0.10862951003,-0.0776795858602,0.0,-1.14222732369,0.0,0.0645758671462,0.0,-1.5560327443,0.0,-0.449946298462,0.0,-0.00842658333036,0.0,0.0077682286781,0.0,0.0643103130646,0.0,0.00148332521661,0.0,0.0,0.0,0.0,100.0,-0.0,-30.48,0.00230154196664,100.0,0.00230154196664,0.0,-0.0,100.0,-0.0,0.0,1014515.2,0.0,0.0,0.0,0.0,0.0,0.0
1402752658445460245,3,-6.85398531448,-0.00591572024346,8.10484378316,-0.122189614607,-1.97525703781,0.10862951003,-0.101198792977,0.0,-1.14022291917,0.0,0.062986698234,0.0,-1.57747877457,0.0,-0.44172519094,0.0,-0.0083673808485,0.0,0.00530336955045,0.0,0.0628619123279,0.0,0.0114520799643,0.0,0.0,0.0,0.0,100.0,-0.0,-30.48,0.00230154196664,100.0,0.00230154196664,0.0,-0.0,100.0,-0.0,0.0,1014515.2,0.0,0.0,0.0,0.0,0.0,0.0
1402752658466235312,3,-6.85398531448,-0.00591572024346,8.10484378316,-0.122189614607,-1.97525703781,0.10862951003,-0.101198792977,0.0,-1.14022291917,0.0,0.062986698234,0.0,-1.57747877457,0.0,-0.44172519094,0.0,-0.0083673808485,0.0,0.00530336955045,0.0,0.0628619123279,0.0,0.0114520799643,0.0,0.0,0.0,0.0,100.0,-0.0,-30.48,0.00230154196664,100.0,0.00230154196664,0.0,-0.0,100.0,-0.0,0.0,1014515.2,0.0,0.0,0.0,0.0,0.0,0.0
1402752658485712009,3,-6.86196532679,-0.00591572024346,8.03073930449,-0.122189614607,-1.9720328191,0.10862951003,-0.137966207332,0.0,-1.19501868115,0.0,0.0698010544215,0.0,-1.59333501838,0.0,-0.436481869724,0.0,-0.00690344914351,0.0,0.00668155494141,0.0,0.0667856683484,0.0,0.00452971741647,0.0,0.0,0.0,0.0,100.0,-0.0,-30.48,0.00230154196664,100.0,0.00230154196664,0.0,-0.0,100.0,-0.0,0.0,1014515.2,0.0,0.0,0.0,0.0,0.0,0.0
1402752658505712961,3,-6.86196532679,-0.00591572024346,8.03073930449,-0.122189614607,-1.9720328191,0.10862951003,-0.137966207332,0.0,-1.19501868115,0.0,0.0698010544215,0.0,-1.59333501838,0.0,-0.436481869724,0.0,-0.00690344914351,0.0,0.00668155494141,0.0,0.0667856683484,0.0,0.00452971741647,0.0,0.0,0.0,0.0,100.0,-0.0,-30.48,0.00230154196664,100.0,0.00230154196664,0.0,-0.0,100.0,-0.0,0.0,1014515.2,0.0,0.0,0.0,0.0,0.0,0.0
1402752658525705678,3,-6.86633065701,-0.00591572024346,7.99474744704,-0.122189614607,-1.96991369683,0.10862951003,-0.153003930445,0.0,-1.20382667451,0.0,0.0670326717545,0.0,-1.606537863,0.0,-0.440858197926,0.0,-0.00709275547535,0.0,0.00427699070289,0.0,0.0668682251156,0.0,0.00674157195125,0.0,0.0,0.0,0.0,100.0,-0.0,-30.48,0.00230154196664,100.0,0.00230154196664,0.0,-0.0,100.0,-0.0,0.0,1014515.2,0.0,0.0,0.0,0.0,0.0,0.0
1402752658545693363,3,-6.86967461002,-0.00591572024346,7.96943079468,-0.122189614607,-1.96850246548,0.10862951003,-0.163499983431,0.0,-1.20944381849,0.0,0.0652294504108,0.0,-1.61583908345,0.0,-0.439813066396,0.0,-0.00723867504057,0.0,0.00435271685051,0.0,0.0669121802023,0.0,0.0107501055859,0.0,0.0,0.0,0.0,100.0,-0.0,-30.48,0.00230154196664,100.0,0.00230154196664,0.0,-0.0,100.0,-0.0,0.0,1014515.2,0.0,0.0,0.0,0.0,0.0,0.0
1402752658565673808,3,-6.86967461002,-0.00591572024346,7.96943079468,-0.122189614607,-1.96850246548,0.10862951003,-0.163499983431,0.0,-1.20944381849,0.0,0.0652294504108,0.0,-1.61583908345,0.0,-0.439813066396,0.0,-0.00723867504057,0.0,0.00435271685051,0.0,0.0669121802023,0.0,0.0107501055859,0.0,0.0,0.0,0.0,100.0,-0.0,-30.48,0.00230154196664,100.0,0.00230154196664,0.0,-0.0,100.0,-0.0,0.0,1014515.2,0.0,0.0,0.0,0.0,0.0,0.0
1402752658586211818,3,-6.88317061585,-0.00591572024346,7.9740404141,-0.122189614607,-1.9913077686,0.10862951003,-0.180824664941,0.0,-1.15296291156,0.0,0.0597445488411,0.0,-1.63702669553,0.0,-0.434619376493,0.0,-0.00710268301773,0.0,0.00481152893602,0.0,0.0609832162274,0.0,0.0144710238061,0.0,0.0,0.0,0.0,100.0,-0.0,-30.48,0.00230154196664,100.0,0.00230154196664,0.0,-0.0,100.0,-0.0,0.0,1014515.2,0.0,0.0,0.0,0.0,0.0,0.0
1402752658605598429,3,-6.88317061585,-0.00591572024346,7.9740404141,-0.122189614607,-1.9913077686,0.10862951003,-0.180824664941,0.0,-1.15296291156,0.0,0.0597445488411,0.0,-1.63702669553,0.0,-0.434619376493,0.0,-0.00710268301773,0.0,0.00481152893602,0.0,0.0609832162274,0.0,0.0144710238061,0.0,0.0,0.0,0.0,100.0,-0.0,-30.48,0.00230154196664,100.0,0.00230154196664,0.0,-0.0,100.0,-0.0,0.0,1014515.2,0.0,0.0,0.0,0.0,0.0,0.0
1402752658625702662,3,-6.88999140917,-0.00591572024346,7.930133913,-0.122189614607,-2.00075378242,0.10862951003,-0.194866335387,0.0,-1.15898547789,0.0,0.0511408604973,0.0,-1.65509111138,0.0,-0.435475753786,0.0,-0.00809108482362,0.0,-0.00629945686428,0.0,0.0605507662335,0.0,0.00165891927722,0.0,0.0,0.0,0.0,100.0,-0.0,-30.48,0.00230154196664,100.0,0.00230154196664,0.0,-0.0,100.0,-0.0,0.0,1014515.2,0.0,0.0,0.0,0.0,0.0,0.0
1402752658645640646,3,-6.88999140917,-0.00591572024346,7.930133913,-0.122189614607,-2.00075378242,0.10862951003,-0.194866335387,0.0,-1.15898547789,0.0,0.0511408604973,0.0,-1.65509111138,0.0,-0.435475753786,0.0,-0.00809108482362,0.0,-0.00629945686428,0.0,0.0605507662335,0.0,0.00165891927722,0.0,0.0,0.0,0.0,100.0,-0.0,-30.48,0.00230154196664,100.0,0.00230154196664,0.0,-0.0,100.0,-0.0,0.0,1014515.2,0.0,0.0,0.0,0.0,0.0,0.0
1402752658665705999,3,-6.90442208671,-0.00591572024346,7.88839919921,-0.122189614607,-2.00309594548,0.10862951003,-0.228362228998,0.0,-1.15925160219,0.0,0.0501618815136,0.0,-1.67411768239,0.0,-0.429829989735,0.0,-0.00683289733587,0.0,-0.00239886056509,0.0,0.0596836063015,0.0,0.00343832389275,0.0,0.0,0.0,0.0,100.0,-0.0,-30.48,0.00230154196664,100.0,0.00230154196664,0.0,-0.0,100.0,-0.0,0.0,1014515.2,0.0,0.0,0.0,0.0,0.0,0.0
1402752658685661904,3,-6.90442208671,-0.00591572024346,7.88839919921,-0.122189614607,-2.00309594548,0.10862951003,-0.228362228998,0.0,-1.15925160219,0.0,0.0501618815136,0.0,-1.67411768239,0.0,-0.429829989735,0.0,-0.00683289733587,0.0,-0.00239886056509,0.0,0.0596836063015,0.0,0.00343832389275,0.0,0.0,0.0,0.0,100.0,-0.0,-30.48,0.00230154196664,100.0,0.00230154196664,0.0,-0.0,100.0,-0.0,0.0,1014515.2,0.0,0.0,0.0,0.0,0.0,0.0
1402752658705961910,3,-6.92025774519,-0.00591572024346,7.83849108091,-0.122189614607,-2.02097390696,0.10862951003,-0.262019277772,0.0,-1.18109961293,0.0,0.0403260091862,0.0,-1.68841768159,0.0,-0.42925252572,0.0,-0.00561971108574,0.0,-0.00548616966809,0.0,0.0611881695735,0.0,0.00445728296609,0.0,0.0,0.0,0.0,100.0,-0.0,-30.48,0.00230154196664,100.0,0.00230154196664,0.0,-0.0,100.0,-0.0,0.0,1014515.2,0.0,0.0,0.0,0.0,0.0,0.0
1402752658725667210,3,-6.92025774519,-0.00591572024346,7.83849108091,-0.122189614607,-2.02097390696,0.10862951003,-0.262019277772,0.0,-1.18109961293,0.0,0.0403260091862,0.0,-1.68841768159,0.0,-0.42925252572,0.0,-0.00561971108574,0.0,-0.00548616966809,0.0,0.0611881695735,0.0,0.00445728296609,0.0,0.0,0.0,0.0,100.0,-0.0,-30.48,0.00230154196664,100.0,0.00230154196664,0.0,-0.0,100.0,-0.0,0.0,1014515.2,0.0,0.0,0.0,0.0,0.0,0.0
1402752658745569967,3,-6.93095150512,-0.00591572024346,7.78934269692,-0.122189614607,-2.00947128122,0.10862951003,-0.287067266089,0.0,-1.1879525568,0.0,0.0453937168691,0.0,-1.7059372011,0.0,-0.417049227746,0.0,-0.00544841682059,0.0,-0.00354296661323,0.0,0.0610355708271,0.0,0.0049319536289,0.0,0.0,0.0,0.0,100.0,-0.0,-30.48,0.00230154196664,100.0,0.00230154196664,0.0,-0.0,100.0,-0.0,0.0,1014515.2,0.0,0.0,0.0,0.0,0.0,0.0
1402752658766324027,3,-6.93095150512,-0.00591572024346,7.78934269692,-0.122189614607,-2.00947128122,0.10862951003,-0.287067266089,0.0,-1.1879525568,0.0,0.0453937168691,0.0,-1.7059372011,0.0,-0.417049227746,0.0,-0.00544841682059,0.0,-0.00354296661323,0.0,0.0610355708271,0.0,0.0049319536289,0.0,0.0,0.0,0.0,100.0,-0.0,-30.48,0.00230154196664,100.0,0.00230154196664,0.0,-0.0,100.0,-0.0,0.0,1014515.2,0.0,0.0,0.0,0.0,0.0,0.0
1402752658785708525,3,-6.9482686382,-0.00591572024346,7.75312094894,-0.122189614607,-2.03525697045,0.10862951003,-0.311581243147,0.0,-1.17465008266,0.0,0.0313163556305,0.0,-1.72660928469,0.0,-0.421064212854,0.0,-0.00507323702652,0.0,0.000520100906539,0.0,0.059196323353,0.0,-0.00197783079617,0.0,0.0,0.0,0.0,100.0,-0.0,-30.48,0.00230154196664,100.0,0.00230154196664,0.0,-0.0,100.0,-0.0,0.0,1014515.2,0.0,0.0,0.0,0.0,0.0,0.0
1402752658805764972,3,-6.9482686382,-0.00591572024346,7.75312094894,-0.122189614607,-2.03525697045,0.10862951003,-0.311581243147,0.0,-1.17465008266,0.0,0.0313163556305,0.0,-1.72660928469,0.0,-0.421064212854,0.0,-0.00507323702652,0.0,0.000520100906539,0.0,0.059196323353,0.0,-0.00197783079617,0.0,0.0,0.0,0.0,100.0,-0.0,-30.48,0.00230154196664,100.0,0.00230154196664,0.0,-0.0,100.0,-0.0,0.0,1014515.2,0.0,0.0,0.0,0.0,0.0,0.0
1402752658826396642,3,-6.96650264327,-0.00591572024346,7.7102420827,-0.122189614607,-2.04612105724,0.10862951003,-0.34443045308,0.0,-1.17253765858,0.0,0.0263081903516,0.0,-1.74429901361,0.0,-0.408836690034,0.0,-0.00378525095674,0.0,0.00326102536053,0.0,0.0585624975352,0.0,0.00214331716434,0.0,0.0,0.0,0.0,100.0,-0.0,-30.48,0.00230154196664,100.0,0.00230154196664,0.0,-0.0,100.0,-0.0,0.0,1014515.2,0.0,0.0,0.0,0.0,0.0,0.0
1402752658845594663,3,-6.96650264327,-0.00591572024346,7.7102420827,-0.122189614607,-2.04612105724,0.10862951003,-0.34443045308,0.0,-1.17253765858,0.0,0.0263081903516,0.0,-1.74429901361,0.0,-0.408836690034,0.0,-0.00378525095674,0.0,0.00326102536053,0.0,0.0585624975352,0.0,0.00214331716434,0.0,0.0,0.0,0.0,100.0,-0.0,-30.48,0.00230154196664,100.0,0.00230154196664,0.0,-0.0,100.0,-0.0,0.0,1014515.2,0.0,0.0,0.0,0.0,0.0,0.0
1402752658865555915,3,-6.98105764295,-0.00591572024346,7.66213145549,-0.122189614607,-2.04512431856,0.10862951003,-0.366772952644,0.0,-1.1764031161,0.0,0.0292745862786,0.0,-1.7611163174,0.0,-0.40522621012,0.0,-0.00366132360485,0.0,0.00388211169903,0.0,0.0585072936835,0.0,0.00128632866173,0.0,0.0,0.0,0.0,100.0,-0.0,-30.48,0.00230154196664,100.0,0.00230154196664,0.0,-0.0,100.0,-0.0,0.0,1014515.2,0.0,0.0,0.0,0.0,0.0,0.0
1402752658885586749,3,-6.98105764295,-0.00591572024346,7.66213145549,-0.122189614607,-2.04512431856,0.10862951003,-0.366772952644,0.0,-1.1764031161,0.0,0.0292745862786,0.0,-1.7611163174,0.0,-0.40522621012,0.0,-0.00366132360485,0.0,0.00388211169903,0.0,0.0585072936835,0.0,0.00128632866173,0.0,0.0,0.0,0.0,100.0,-0.0,-30.48,0.00230154196664,100.0,0.00230154196664,0.0,-0.0,100.0,-0.0,0.0,1014515.2,0.0,0.0,0.0,0.0,0.0,0.0
1402752658905723559,3,-6.98804179599,-0.00591572024346,7.60216391292,-0.122189614607,-2.0271156613,0.10862951003,-0.372706605091,0.0,-1.20946132911,0.0,0.0380614721521,0.0,-1.77280941986,0.0,-0.409033249159,0.0,-0.0057431113623,0.0,0.00341656284547,0.0,0.0610880589589,0.0,0.00705098548444,0.0,0.0,0.0,0.0,100.0,-0.0,-30.48,0.00230154196664,100.0,0.00230154196664,0.0,-0.0,100.0,-0.0,0.0,1014515.2,0.0,0.0,0.0,0.0,0.0,0.0
1402752658925799348,3,-6.98804179599,-0.00591572024346,7.60216391292,-0.122189614607,-2.0271156613,0.10862951003,-0.372706605091,0.0,-1.20946132911,0.0,0.0380614721521,0.0,-1.77280941986,0.0,-0.409033249159,0.0,-0.0057431113623,0.0,0.00341656284547,0.0,0.0610880589589,0.0,0.00705098548444,0.0,0.0,0.0,0.0,100.0,-0.0,-30.48,0.00230154196664,100.0,0.00230154196664,0.0,-0.0,100.0,-0.0,0.0,1014515.2,0.0,0.0,0.0,0.0,0.0,0.0
1402752658946209523,3,-7.00427078015,-0.00591572024346,7.55675729221,-0.122189614607,-2.01216656409,0.10862951003,-0.399834037613,0.0,-1.19921104775,0.0,0.0421875770229,0.0,-1.7916074271,0.0,-0.398078586166,0.0,-0.0048584957776,0.0,-0.00314626437174,0.0,0.0599202610881,0.0,-0.00356212892822,0.0,0.0,0.0,0.0,100.0,-0.0,-30.48,0.00230154196664,100.0,0.00230154196664,0.0,-0.0,100.0,-0.0,0.0,1014515.2,0.0,0.0,0.0,0.0,0.0,0.0
1402752658965526934,3,-7.00427078015,-0.00591572024346,7.55675729221,-0.122189614607,-2.01216656409,0.10862951003,-0.399834037613,0.0,-1.19921104775,0.0,0.0421875770229,0.0,-1.7916074271,0.0,-0.398078586166,0.0,-0.0048584957776,0.0,-0.00314626437174,0.0,0.0599202610881,0.0,-0.00356212892822,0.0,0.0,0.0,0.0,100.0,-0.0,-30.48,0.00230154196664,100.0,0.00230154196664,0.0,-0.0,100.0,-0.0,0.0,1014515.2,0.0,0.0,0.0,0.0,0.0,0.0
