rosbagTimestamp,control_method,x_current,x_desired,y_current,y_desired,x_velocity_current,x_velocity_desired,y_velocity_current,y_velocity_desired,yaw_current,yaw_desired,required_force_x,required_force_y,required_moment_z,resultant_force_x,resultant_force_y,resultant_moment_z,current_port_servo_angle,current_port_thruster_force,current_starboard_servo_angle,current_starboard_thruster_force,estimated_port_servo_angle,estimated_port_thruster_force,estimated_starboard_servo_angle,estimated_starboard_thruster_force,cost_value,step,user_defined_1,user_defined_2,user_defined_3,user_defined_4,user_defined_5
1402598029502954005,0,-6.88415802427,-0.114322152727,-36.3048008886,0.043815185726,0.281700870751,0.0,0.373476571669,0.0,0.350817521183,0.0,0.0,0.0,0.0,196.628257791,25.7483940531,-19.6669694804,-0.00997320015982,100.0,-0.00383606751517,100.0,0.0,100.0,0.26041744126,100.0,2558018.33087,0.0,0.0,0.0,0.0,0.0,0.0
1402598029522059014,0,-6.88415802427,-0.114322152727,-36.3048008886,0.043815185726,0.281700870751,0.0,0.373476571669,0.0,0.350817521183,0.0,0.0,0.0,0.0,196.628257791,25.7483940531,-19.6669694804,-0.00997320015982,100.0,0.000767318410122,100.0,0.0,100.0,0.26041744126,100.0,2558018.33086,0.0,0.0,0.0,0.0,0.0,0.0
1402598029542663165,0,-6.86974094943,-0.114322152727,-36.2852251981,0.043815185726,0.279293217062,0.0,0.37402877385,0.0,0.353199585983,0.0,0.0,0.0,0.0,196.628257791,25.7483940531,-19.6669694804,-0.00997320015982,100.0,0.0345230976765,100.0,0.0,100.0,0.26041744126,100.0,2558018.33078,0.0,0.0,0.0,0.0,0.0,0.0
1402598029562933834,0,-6.86974094943,-0.114322152727,-36.2852251981,0.043815185726,0.279293217062,0.0,0.37402877385,0.0,0.353199585983,0.0,0.0,0.0,0.0,196.780990068,25.168233181,-19.200438227,-0.00997320015982,100.0,0.0652101914112,100.0,0.0,100.0,0.254418150756,100.0,2537186.29757,0.0,0.0,0.0,0.0,0.0,0.0
1402598029582760378,0,-6.85609087107,-0.114322152727,-36.265874001,0.043815185726,0.27719646055,0.0,0.374466066645,0.0,0.355337069079,0.0,0.0,0.0,0.0,196.780990068,25.168233181,-19.200438227,-0.00997320015982,100.0,0.095897285146,100.0,0.0,100.0,0.254418150756,100.0,2537186.29751,0.0,0.0,0.0,0.0,0.0,0.0
1402598029605086085,0,-6.85609087107,-0.114322152727,-36.265874001,0.043815185726,0.27719646055,0.0,0.374466066645,0.0,0.355337069079,0.0,0.0,0.0,0.0,196.780990068,25.168233181,-19.200438227,-0.00843897660331,100.0,0.128118602437,100.0,0.0,100.0,0.254418150756,100.0,2537186.29747,0.0,0.0,0.0,0.0,0.0,0.0
1402598029622763557,0,-6.85031343593,-0.114322152727,-36.2578659207,0.043815185726,0.276060521276,0.0,0.375658000713,0.0,0.356198677441,0.0,0.0,0.0,0.0,196.780990068,25.168233181,-19.200438227,-0.00997320015982,100.0,0.161874381704,100.0,0.0,100.0,0.254418150756,100.0,2537186.29743,0.0,0.0,0.0,0.0,0.0,0.0
1402598029645820099,0,-6.85031343593,-0.114322152727,-36.2578659207,0.043815185726,0.276060521276,0.0,0.375658000713,0.0,0.356198677441,0.0,0.0,0.0,0.0,196.780990068,25.168233181,-19.200438227,-0.00843897660331,100.0,0.198698846502,100.0,0.0,100.0,0.254418150756,100.0,2537186.2974,0.0,0.0,0.0,0.0,0.0,0.0
1402598029662664689,0,-6.83899677926,-0.114322152727,-36.2419690375,0.043815185726,0.285855575611,0.0,0.381488136421,0.0,0.357659591686,0.0,0.0,0.0,0.0,196.780990068,25.168233181,-19.200438227,-0.00843897660331,100.0,0.232454864186,100.0,0.0,100.0,0.254418150756,100.0,2537186.29739,0.0,0.0,0.0,0.0,0.0,0.0
1402598029682303379,0,-6.83899677926,-0.114322152727,-36.2419690375,0.043815185726,0.285855575611,0.0,0.381488136421,0.0,0.357659591686,0.0,0.0,0.0,0.0,196.780990068,25.168233181,-19.200438227,-0.00843897660331,100.0,0.250866977376,100.0,0.0,100.0,0.254418150756,100.0,2537186.29739,0.0,0.0,0.0,0.0,0.0,0.0
1402598029702158663,0,-6.82645129578,-0.114322152727,-36.2255964779,0.043815185726,0.345464636047,0.0,0.400327971734,0.0,0.358811454199,0.0,0.0,0.0,0.0,196.780990068,25.168233181,-19.200438227,-0.00690451462821,100.0,0.260073033971,100.0,0.0,100.0,0.254418150756,100.0,2537186.29739,0.0,0.0,0.0,0.0,0.0,0.0
1402598029722716768,0,-6.82645129578,-0.114322152727,-36.2255964779,0.043815185726,0.345464636047,0.0,0.400327971734,0.0,0.358811454199,0.0,0.0,0.0,0.0,196.780990068,25.168233181,-19.200438227,-0.00843897660331,100.0,0.264676419896,100.0,0.0,100.0,0.254418150756,100.0,2537186.29739,0.0,0.0,0.0,0.0,0.0,0.0
1402598029742285458,0,-6.81081271447,-0.114322152727,-36.2077186058,0.043815185726,0.414309673374,0.0,0.431523891296,0.0,0.359394479094,0.0,0.0,0.0,0.0,196.780990068,25.168233181,-19.200438227,-0.00843897660331,100.0,0.266210643453,100.0,0.0,100.0,0.254418150756,100.0,2537186.29739,0.0,0.0,0.0,0.0,0.0,0.0
1402598029762698585,0,-6.81081271447,-0.114322152727,-36.2077186058,0.043815185726,0.414309673374,0.0,0.431523891296,0.0,0.359394479094,0.0,0.0,0.0,0.0,196.780990068,25.168233181,-19.200438227,-0.00690451462821,100.0,0.266210643453,100.0,0.0,100.0,0.254418150756,100.0,2537186.29739,0.0,0.0,0.0,0.0,0.0,0.0
1402598029781809841,0,-6.78833104637,-0.114322152727,-36.1841702091,0.043815185726,0.485973664079,0.0,0.472415604283,0.0,0.359960902368,0.0,0.0,0.0,0.0,196.780990068,25.168233181,-19.200438227,-0.00690451462821,100.0,0.264676419896,100.0,0.0,100.0,0.254418150756,100.0,2537186.29739,0.0,0.0,0.0,0.0,0.0,0.0
1402598029802391631,0,-6.78833104637,-0.114322152727,-36.1841702091,0.043815185726,0.485973664079,0.0,0.472415604283,0.0,0.359960902368,0.0,0.0,0.0,0.0,196.780990068,25.168233181,-19.200438227,-0.00843897660331,100.0,0.263141957921,100.0,0.0,100.0,0.254418150756,100.0,2537186.29739,0.0,0.0,0.0,0.0,0.0,0.0
1402598029822172004,0,-6.76168052029,-0.114322152727,-36.1584347797,0.043815185726,0.557496702869,0.0,0.505621256796,0.0,0.360893218701,0.0,0.0,0.0,0.0,196.780990068,25.168233181,-19.200438227,-0.00843897660331,100.0,0.261607495946,100.0,0.0,100.0,0.254418150756,100.0,2537186.29739,0.0,0.0,0.0,0.0,0.0,0.0
1402598029842814446,0,-6.76168052029,-0.114322152727,-36.1584347797,0.043815185726,0.557496702869,0.0,0.505621256796,0.0,0.360893218701,0.0,0.0,0.0,0.0,196.780990068,25.168233181,-19.200438227,-0.00843897660331,100.0,0.261607495946,100.0,0.0,100.0,0.254418150756,100.0,2537186.29739,0.0,0.0,0.0,0.0,0.0,0.0
1402598029862140849,0,-6.75046328505,-0.114322152727,-36.1481892999,0.043815185726,0.584486383345,0.0,0.517147564433,0.0,0.361450731828,0.0,0.0,0.0,0.0,196.780990068,25.168233181,-19.200438227,-0.00843897660331,100.0,0.261607495946,100.0,0.0,100.0,0.254418150756,100.0,2537186.29739,0.0,0.0,0.0,0.0,0.0,0.0
1402598029882668526,0,-6.75046328505,-0.114322152727,-36.1481892999,0.043815185726,0.584486383345,0.0,0.517147564433,0.0,0.361450731828,0.0,0.0,0.0,0.0,196.780990068,25.168233181,-19.200438227,-0.00690451462821,100.0,0.261607495946,100.0,0.0,100.0,0.254418150756,100.0,2537186.29739,0.0,0.0,0.0,0.0,0.0,0.0
1402598029902034045,0,-6.72491011379,-0.114322152727,-36.1254962692,0.043815185726,0.642441153987,0.0,0.545248336154,0.0,0.362734591251,0.0,0.0,0.0,0.0,196.780990068,25.168233181,-19.200438227,-0.00843897660331,100.0,0.261607495946,100.0,0.0,100.0,0.254418150756,100.0,2537186.29739,0.0,0.0,0.0,0.0,0.0,0.0
1402598029922788493,0,-6.72491011379,-0.114322152727,-36.1254962692,0.043815185726,0.642441153987,0.0,0.545248336154,0.0,0.362734591251,0.0,0.0,0.0,0.0,196.780990068,25.168233181,-19.200438227,-0.00690451462821,100.0,0.261607495946,100.0,0.0,100.0,0.254418150756,100.0,2537186.29739,0.0,0.0,0.0,0.0,0.0,0.0
1402598029942139461,0,-6.69796667123,-0.114322152727,-36.1022547619,0.043815185726,0.699776086264,0.0,0.570342261149,0.0,0.36413267299,0.0,0.0,0.0,0.0,196.780990068,25.168233181,-19.200438227,-0.00843897660331,100.0,0.261607495946,100.0,0.0,100.0,0.254418150756,100.0,2537186.29739,0.0,0.0,0.0,0.0,0.0,0.0
1402598029962824485,0,-6.69796667123,-0.114322152727,-36.1022547619,0.043815185726,0.699776086264,0.0,0.570342261149,0.0,0.36413267299,0.0,0.0,0.0,0.0,196.780990068,25.168233181,-19.200438227,-0.00690451462821,100.0,0.261607495946,100.0,0.0,100.0,0.254418150756,100.0,2537186.29739,0.0,0.0,0.0,0.0,0.0,0.0
1402598029982392572,0,-6.66859986931,-0.114322152727,-36.0780223901,0.043815185726,0.751666368614,0.0,0.599098017797,0.0,0.365673438899,0.0,0.0,0.0,0.0,196.780990068,25.168233181,-19.200438227,-0.00690451462821,100.0,0.261607495946,100.0,0.0,100.0,0.254418150756,100.0,2537186.29739,0.0,0.0,0.0,0.0,0.0,0.0
1402598030002706721,0,-6.66859986931,-0.114322152727,-36.0780223901,0.043815185726,0.751666368614,0.0,0.599098017797,0.0,0.365673438899,0.0,0.0,0.0,0.0,196.780990068,25.168233181,-19.200438227,-0.00690451462821,100.0,0.261607495946,100.0,0.0,100.0,0.254418150756,100.0,2537186.29739,0.0,0.0,0.0,0.0,0.0,0.0
1402598030022113674,0,-6.63718431642,-0.114322152727,-36.0523915962,0.043815185726,0.803070355162,0.0,0.620852271455,0.0,0.367223419602,0.0,0.0,0.0,0.0,196.780990068,25.168233181,-19.200438227,-0.00690451462821,100.0,0.261607495946,100.0,0.0,100.0,0.254418150756,100.0,2537186.29739,0.0,0.0,0.0,0.0,0.0,0.0
1402598030042880609,0,-6.63718431642,-0.114322152727,-36.0523915962,0.043815185726,0.803070355162,0.0,0.620852271455,0.0,0.367223419602,0.0,0.0,0.0,0.0,196.780990068,25.168233181,-19.200438227,-0.00690451462821,100.0,0.261607495946,100.0,0.0,100.0,0.254418150756,100.0,2537186.29739,0.0,0.0,0.0,0.0,0.0,0.0
1402598030062910398,0,-6.59421374055,-0.114322152727,-36.018972526,0.043815185726,0.865650239107,0.0,0.649322716944,0.0,0.369177025164,0.0,0.0,0.0,0.0,196.780990068,25.168233181,-19.200438227,-0.00690451462821,100.0,0.261607495946,100.0,0.0,100.0,0.254418150756,100.0,2537186.29739,0.0,0.0,0.0,0.0,0.0,0.0
1402598030082784095,0,-6.59421374055,-0.114322152727,-36.018972526,0.043815185726,0.865650239107,0.0,0.649322716944,0.0,0.369177025164,0.0,0.0,0.0,0.0,196.780990068,25.168233181,-19.200438227,-0.00690451462821,100.0,0.261607495946,100.0,0.0,100.0,0.254418150756,100.0,2537186.29739,0.0,0.0,0.0,0.0,0.0,0.0
1402598030102185239,0,-6.56724015316,-0.114322152727,-35.9984558389,0.043815185726,0.901439600214,0.0,0.664384207492,0.0,0.370457746314,0.0,0.0,0.0,0.0,196.780990068,25.168233181,-19.200438227,-0.00690451462821,100.0,0.261607495946,100.0,0.0,100.0,0.254418150756,100.0,2537186.29739,0.0,0.0,0.0,0.0,0.0,0.0
1402598030122782713,0,-6.54808783018,-0.114322152727,-35.9842546213,0.043815185726,0.924547170484,0.0,0.672009096792,0.0,0.371239205522,0.0,0.0,0.0,0.0,196.780990068,25.168233181,-19.200438227,-0.00690451462821,100.0,0.261607495946,100.0,0.0,100.0,0.254418150756,100.0,2537186.29739,0.0,0.0,0.0,0.0,0.0,0.0
1402598030142792015,0,-6.54808783018,-0.114322152727,-35.9842546213,0.043815185726,0.924547170484,0.0,0.672009096792,0.0,0.371239205522,0.0,0.0,0.0,0.0,196.780990068,25.168233181,-19.200438227,-0.00690451462821,100.0,0.261607495946,100.0,0.0,100.0,0.254418150756,100.0,2537186.29739,0.0,0.0,0.0,0.0,0.0,0.0
1402598030162600681,0,-6.52899859984,-0.114322152727,-35.9698662572,0.043815185726,0.947595195635,0.0,0.683294259709,0.0,0.372189716537,0.0,0.0,0.0,0.0,196.780990068,25.168233181,-19.200438227,-0.00690451462821,100.0,0.260073033971,100.0,0.0,100.0,0.254418150756,100.0,2537186.29739,0.0,0.0,0.0,0.0,0.0,0.0
1402598030185461501,0,-6.52899859984,-0.114322152727,-35.9698662572,0.043815185726,0.947595195635,0.0,0.683294259709,0.0,0.372189716537,0.0,0.0,0.0,0.0,196.780990068,25.168233181,-19.200438227,-0.00690451462821,100.0,0.261607495946,100.0,0.0,100.0,0.254418150756,100.0,2537186.29739,0.0,0.0,0.0,0.0,0.0,0.0
1402598030202787953,0,-6.48845587254,-0.114322152727,-35.9402622496,0.043815185726,0.993064902882,0.0,0.700572496037,0.0,0.374040102394,0.0,0.0,0.0,0.0,196.780990068,25.168233181,-19.200438227,-0.00690451462821,100.0,0.261607495946,100.0,0.0,100.0,0.254418150756,100.0,2537186.29739,0.0,0.0,0.0,0.0,0.0,0.0
1402598030222137620,0,-6.48845587254,-0.114322152727,-35.9402622496,0.043815185726,0.993064902882,0.0,0.700572496037,0.0,0.374040102394,0.0,0.0,0.0,0.0,196.780990068,25.168233181,-19.200438227,-0.00690451462821,100.0,0.260073033971,100.0,0.0,100.0,0.254418150756,100.0,2537186.29739,0.0,0.0,0.0,0.0,0.0,0.0
1402598030242183702,0,-6.44748843185,-0.114322152727,-35.9108819245,0.043815185726,1.03441168066,0.0,0.717256292058,0.0,0.376008052229,0.0,0.0,0.0,0.0,196.780990068,25.168233181,-19.200438227,-0.00690451462821,100.0,0.260073033971,100.0,0.0,100.0,0.254418150756,100.0,2537186.29739,0.0,0.0,0.0,0.0,0.0,0.0
1402598030262656583,0,-6.44748843185,-0.114322152727,-35.9108819245,0.043815185726,1.03441168066,0.0,0.717256292058,0.0,0.376008052229,0.0,0.0,0.0,0.0,196.780990068,25.168233181,-19.200438227,-0.00690451462821,100.0,0.261607495946,100.0,0.0,100.0,0.254418150756,100.0,2537186.29739,0.0,0.0,0.0,0.0,0.0,0.0
1402598030282167636,0,-6.39284408139,-0.114322152727,-35.8724861642,0.043815185726,1.08356462823,0.0,0.734936640909,0.0,0.3786681692,0.0,0.0,0.0,0.0,196.780990068,25.168233181,-19.200438227,-0.00690451462821,100.0,0.261607495946,100.0,0.0,100.0,0.254418150756,100.0,2537186.29739,0.0,0.0,0.0,0.0,0.0,0.0
1402598030302592065,0,-6.39284408139,-0.114322152727,-35.8724861642,0.043815185726,1.08356462823,0.0,0.734936640909,0.0,0.3786681692,0.0,0.0,0.0,0.0,196.780990068,25.168233181,-19.200438227,-0.00690451462821,100.0,0.260073033971,100.0,0.0,100.0,0.254418150756,100.0,2537186.29739,0.0,0.0,0.0,0.0,0.0,0.0
1402598030322056073,0,-6.33473789348,-0.114322152727,-35.8325676341,0.043815185726,1.13217404692,0.0,0.754730285894,0.0,0.381756471709,0.0,0.0,0.0,0.0,196.780990068,25.168233181,-19.200438227,-0.00690451462821,100.0,0.260073033971,100.0,0.0,100.0,0.254418150756,100.0,2537186.29739,0.0,0.0,0.0,0.0,0.0,0.0
1402598030343287288,0,-6.33473789348,-0.114322152727,-35.8325676341,0.043815185726,1.13217404692,0.0,0.754730285894,0.0,0.381756471709,0.0,0.0,0.0,0.0,196.780990068,25.168233181,-19.200438227,-0.00690451462821,100.0,0.260073033971,100.0,0.0,100.0,0.254418150756,100.0,2537186.29739,0.0,0.0,0.0,0.0,0.0,0.0
1402598030365252564,0,-6.31228857963,-0.114322152727,-35.8172127213,0.043815185726,1.14940484983,0.0,0.762204387629,0.0,0.382902305577,0.0,0.0,0.0,0.0,196.780990068,25.168233181,-19.200438227,-0.00690451462821,100.0,0.260073033971,100.0,0.0,100.0,0.254418150756,100.0,2537186.29739,0.0,0.0,0.0,0.0,0.0,0.0
1402598030382760761,0,-6.31228857963,-0.114322152727,-35.8172127213,0.043815185726,1.14940484983,0.0,0.762204387629,0.0,0.382902305577,0.0,0.0,0.0,0.0,196.780990068,25.168233181,-19.200438227,-0.00690451462821,100.0,0.260073033971,100.0,0.0,100.0,0.254418150756,100.0,2537186.29739,0.0,0.0,0.0,0.0,0.0,0.0
1402598030402414865,0,-6.26374118905,-0.114322152727,-35.78423304,0.043815185726,1.18323973751,0.0,0.780515949074,0.0,0.385520551096,0.0,0.0,0.0,0.0,196.780990068,25.168233181,-19.200438227,-0.00690451462821,100.0,0.260073033971,100.0,0.0,100.0,0.254418150756,100.0,2537186.29739,0.0,0.0,0.0,0.0,0.0,0.0
1402598030422229564,0,-6.26374118905,-0.114322152727,-35.78423304,0.043815185726,1.18323973751,0.0,0.780515949074,0.0,0.385520551096,0.0,0.0,0.0,0.0,196.780990068,25.168233181,-19.200438227,-0.00690451462821,100.0,0.261607495946,100.0,0.0,100.0,0.254418150756,100.0,2537186.29739,0.0,0.0,0.0,0.0,0.0,0.0
1402598030442795217,0,-6.20205949727,-0.114322152727,-35.7426212547,0.043815185726,1.22004297059,0.0,0.803112628135,0.0,0.388725520798,0.0,0.0,0.0,0.0,196.780990068,25.168233181,-19.200438227,-0.00690451462821,100.0,0.261607495946,100.0,0.0,100.0,0.254418150756,100.0,2537186.29739,0.0,0.0,0.0,0.0,0.0,0.0
1402598030462324937,0,-6.20205949727,-0.114322152727,-35.7426212547,0.043815185726,1.22004297059,0.0,0.803112628135,0.0,0.388725520798,0.0,0.0,0.0,0.0,196.780990068,25.168233181,-19.200438227,-0.00690451462821,100.0,0.260073033971,100.0,0.0,100.0,0.254418150756,100.0,2537186.29739,0.0,0.0,0.0,0.0,0.0,0.0
1402598030482787989,0,-6.16425675387,-0.114322152727,-35.7169499305,0.043815185726,1.24087848651,0.0,0.819290210923,0.0,0.390591524587,0.0,0.0,0.0,0.0,196.780990068,25.168233181,-19.200438227,-0.00690451462821,100.0,0.260073033971,100.0,0.0,100.0,0.254418150756,100.0,2537186.29739,0.0,0.0,0.0,0.0,0.0,0.0
1402598030502202694,0,-6.11325934283,-0.114322152727,-35.6827997656,0.043815185726,1.26717022931,0.0,0.834026244142,0.0,0.393112549037,0.0,0.0,0.0,0.0,196.780990068,25.168233181,-19.200438227,-0.00690451462821,100.0,0.260073033971,100.0,0.0,100.0,0.254418150756,100.0,2537186.29739,0.0,0.0,0.0,0.0,0.0,0.0
1402598030522691201,0,-6.11325934283,-0.114322152727,-35.6827997656,0.043815185726,1.26717022931,0.0,0.834026244142,0.0,0.393112549037,0.0,0.0,0.0,0.0,196.780990068,25.168233181,-19.200438227,-0.00690451462821,100.0,0.261607495946,100.0,0.0,100.0,0.254418150756,100.0,2537186.29739,0.0,0.0,0.0,0.0,0.0,0.0
1402598030542257958,0,-6.06114422643,-0.114322152727,-35.647797569,0.043815185726,1.29672574825,0.0,0.847747035188,0.0,0.395571872729,0.0,0.0,0.0,0.0,196.780990068,25.168233181,-19.200438227,-0.00690451462821,100.0,0.260073033971,100.0,0.0,100.0,0.254418150756,100.0,2537186.29739,0.0,0.0,0.0,0.0,0.0,0.0
1402598030562963441,0,-6.06114422643,-0.114322152727,-35.647797569,0.043815185726,1.29672574825,0.0,0.847747035188,0.0,0.395571872729,0.0,0.0,0.0,0.0,196.780990068,25.168233181,-19.200438227,-0.00843897660331,100.0,0.261607495946,100.0,0.0,100.0,0.254418150756,100.0,2537186.29739,0.0,0.0,0.0,0.0,0.0,0.0
1402598030582461481,0,-6.04726693376,-0.114322152727,-35.6384142131,0.043815185726,1.3013983188,0.0,0.85550834105,0.0,0.3961771711,0.0,0.0,0.0,0.0,196.780990068,25.168233181,-19.200438227,-0.00690451462821,100.0,0.261607495946,100.0,0.0,100.0,0.254418150756,100.0,2537186.29739,0.0,0.0,0.0,0.0,0.0,0.0
1402598030602932054,0,-6.04726693376,-0.114322152727,-35.6384142131,0.043815185726,1.3013983188,0.0,0.85550834105,0.0,0.3961771711,0.0,0.0,0.0,0.0,196.780990068,25.168233181,-19.200438227,-0.00690451462821,100.0,0.261607495946,100.0,0.0,100.0,0.254418150756,100.0,2537186.29739,0.0,0.0,0.0,0.0,0.0,0.0
1402598030622261830,0,-6.00837007429,-0.114322152727,-35.6121193414,0.043815185726,1.32119064487,0.0,0.866295632256,0.0,0.397737928698,0.0,0.0,0.0,0.0,196.780990068,25.168233181,-19.200438227,-0.00690451462821,100.0,0.261607495946,100.0,0.0,100.0,0.254418150756,100.0,2537186.29739,0.0,0.0,0.0,0.0,0.0,0.0
1402598030642802292,0,-6.00837007429,-0.114322152727,-35.6121193414,0.043815185726,1.32119064487,0.0,0.866295632256,0.0,0.397737928698,0.0,0.0,0.0,0.0,196.780990068,25.168233181,-19.200438227,-0.00690451462821,100.0,0.261607495946,100.0,0.0,100.0,0.254418150756,100.0,2537186.29739,0.0,0.0,0.0,0.0,0.0,0.0
1402598030662423087,0,-5.95422721733,-0.114322152727,-35.5756325094,0.043815185726,1.3461663563,0.0,0.884463345568,0.0,0.399799521786,0.0,0.0,0.0,0.0,196.780990068,25.168233181,-19.200438227,-0.00690451462821,100.0,0.260073033971,100.0,0.0,100.0,0.254418150756,100.0,2537186.29739,0.0,0.0,0.0,0.0,0.0,0.0
1402598030682726078,0,-5.95422721733,-0.114322152727,-35.5756325094,0.043815185726,1.3461663563,0.0,0.884463345568,0.0,0.399799521786,0.0,0.0,0.0,0.0,196.780990068,25.168233181,-19.200438227,-0.00690451462821,100.0,0.261607495946,100.0,0.0,100.0,0.254418150756,100.0,2537186.29739,0.0,0.0,0.0,0.0,0.0,0.0
1402598030702096576,0,-5.89918084996,-0.114322152727,-35.5388442248,0.043815185726,1.37043335293,0.0,0.900908685056,0.0,0.401834246725,0.0,0.0,0.0,0.0,196.780990068,25.168233181,-19.200438227,-0.00843897660331,100.0,0.260073033971,100.0,0.0,100.0,0.254418150756,100.0,2537186.29739,0.0,0.0,0.0,0.0,0.0,0.0
1402598030722543445,0,-5.89918084996,-0.114322152727,-35.5388442248,0.043815185726,1.37043335293,0.0,0.900908685056,0.0,0.401834246725,0.0,0.0,0.0,0.0,196.780990068,25.168233181,-19.200438227,-0.00843897660331,100.0,0.261607495946,100.0,0.0,100.0,0.254418150756,100.0,2537186.29739,0.0,0.0,0.0,0.0,0.0,0.0
1402598030742185512,0,-5.82802860196,-0.114322152727,-35.4905091343,0.043815185726,1.39816722927,0.0,0.923344910056,0.0,0.404499057958,0.0,0.0,0.0,0.0,196.780990068,25.168233181,-19.200438227,-0.00843897660331,100.0,0.261607495946,100.0,0.0,100.0,0.254418150756,100.0,2537186.29739,0.0,0.0,0.0,0.0,0.0,0.0
1402598030762792914,0,-5.82802860196,-0.114322152727,-35.4905091343,0.043815185726,1.39816722927,0.0,0.923344910056,0.0,0.404499057958,0.0,0.0,0.0,0.0,196.780990068,25.168233181,-19.200438227,-0.00690451462821,100.0,0.261607495946,100.0,0.0,100.0,0.254418150756,100.0,2537186.29739,0.0,0.0,0.0,0.0,0.0,0.0
1402598030782483271,0,-5.75681182473,-0.114322152727,-35.4421435683,0.043815185726,1.42255161887,0.0,0.947872056262,0.0,0.407195891171,0.0,0.0,0.0,0.0,196.780990068,25.168233181,-19.200438227,-0.00690451462821,100.0,0.261607495946,100.0,0.0,100.0,0.254418150756,100.0,2537186.29739,0.0,0.0,0.0,0.0,0.0,0.0
1402598030802900093,0,-5.75681182473,-0.114322152727,-35.4421435683,0.043815185726,1.42255161887,0.0,0.947872056262,0.0,0.407195891171,0.0,0.0,0.0,0.0,196.780990068,25.168233181,-19.200438227,-0.00690451462821,100.0,0.261607495946,100.0,0.0,100.0,0.254418150756,100.0,2537186.29739,0.0,0.0,0.0,0.0,0.0,0.0
1402598030823805188,0,-5.72718672453,-0.114322152727,-35.4220290133,0.043815185726,1.43099213369,0.0,0.955227850531,0.0,0.408420486329,0.0,0.0,0.0,0.0,196.780990068,25.168233181,-19.200438227,-0.00690451462821,100.0,0.261607495946,100.0,0.0,100.0,0.254418150756,100.0,2537186.29739,0.0,0.0,0.0,0.0,0.0,0.0
1402598030842786971,0,-5.72718672453,-0.114322152727,-35.4220290133,0.043815185726,1.43099213369,0.0,0.955227850531,0.0,0.408420486329,0.0,0.0,0.0,0.0,196.780990068,25.168233181,-19.200438227,-0.00843897660331,100.0,0.260073033971,100.0,0.0,100.0,0.254418150756,100.0,2537186.29739,0.0,0.0,0.0,0.0,0.0,0.0
1402598030865006773,0,-5.67023805382,-0.114322152727,-35.3827835659,0.043815185726,1.44618515143,0.0,0.974729469753,0.0,0.410780871033,0.0,0.0,0.0,0.0,196.780990068,25.168233181,-19.200438227,-0.00690451462821,100.0,0.260073033971,100.0,0.0,100.0,0.254418150756,100.0,2537186.29739,0.0,0.0,0.0,0.0,0.0,0.0
1402598030882730584,0,-5.67023805382,-0.114322152727,-35.3827835659,0.043815185726,1.44618515143,0.0,0.974729469753,0.0,0.410780871033,0.0,0.0,0.0,0.0,196.780990068,25.168233181,-19.200438227,-0.00690451462821,100.0,0.261607495946,100.0,0.0,100.0,0.254418150756,100.0,2537186.29739,0.0,0.0,0.0,0.0,0.0,0.0
1402598030902240009,0,-5.61129747483,-0.114322152727,-35.3418864391,0.043815185726,1.46313297586,0.0,0.992266880745,0.0,0.413550986132,0.0,0.0,0.0,0.0,196.780990068,25.168233181,-19.200438227,-0.00690451462821,100.0,0.261607495946,100.0,0.0,100.0,0.254418150756,100.0,2537186.29739,0.0,0.0,0.0,0.0,0.0,0.0
1402598030922636401,0,-5.61129747483,-0.114322152727,-35.3418864391,0.043815185726,1.46313297586,0.0,0.992266880745,0.0,0.413550986132,0.0,0.0,0.0,0.0,196.780990068,25.168233181,-19.200438227,-0.00690451462821,100.0,0.261607495946,100.0,0.0,100.0,0.254418150756,100.0,2537186.29739,0.0,0.0,0.0,0.0,0.0,0.0
1402598030942351150,0,-5.55157073787,-0.114322152727,-35.3002098395,0.043815185726,1.47947617846,0.0,1.00765935218,0.0,0.416238425193,0.0,0.0,0.0,0.0,196.780990068,25.168233181,-19.200438227,-0.00690451462821,100.0,0.261607495946,100.0,0.0,100.0,0.254418150756,100.0,2537186.29739,0.0,0.0,0.0,0.0,0.0,0.0
1402598030962399491,0,-5.55157073787,-0.114322152727,-35.3002098395,0.043815185726,1.47947617846,0.0,1.00765935218,0.0,0.416238425193,0.0,0.0,0.0,0.0,196.780990068,25.168233181,-19.200438227,-0.00690451462821,100.0,0.260073033971,100.0,0.0,100.0,0.254418150756,100.0,2537186.29739,0.0,0.0,0.0,0.0,0.0,0.0
1402598030983002296,0,-5.49158376754,-0.114322152727,-35.2580109588,0.043815185726,1.49280282053,0.0,1.02187968152,0.0,0.419242593195,0.0,0.0,0.0,0.0,196.780990068,25.168233181,-19.200438227,-0.00690451462821,100.0,0.261607495946,100.0,0.0,100.0,0.254418150756,100.0,2537186.29739,0.0,0.0,0.0,0.0,0.0,0.0
1402598031002367227,0,-5.49158376754,-0.114322152727,-35.2580109588,0.043815185726,1.49280282053,0.0,1.02187968152,0.0,0.419242593195,0.0,0.0,0.0,0.0,196.780990068,25.168233181,-19.200438227,-0.00690451462821,100.0,0.261607495946,100.0,0.0,100.0,0.254418150756,100.0,2537186.29739,0.0,0.0,0.0,0.0,0.0,0.0
1402598031022675871,0,-5.43222036909,-0.114322152727,-35.2164078552,0.043815185726,1.50707068583,0.0,1.03310344318,0.0,0.422307500028,0.0,0.0,0.0,0.0,196.780990068,25.168233181,-19.200438227,-0.00690451462821,100.0,0.260073033971,100.0,0.0,100.0,0.254418150756,100.0,2537186.29739,0.0,0.0,0.0,0.0,0.0,0.0
1402598031042199445,0,-5.43222036909,-0.114322152727,-35.2164078552,0.043815185726,1.50707068583,0.0,1.03310344318,0.0,0.422307500028,0.0,0.0,0.0,0.0,196.780990068,25.168233181,-19.200438227,-0.00690451462821,100.0,0.261607495946,100.0,0.0,100.0,0.254418150756,100.0,2537186.29739,0.0,0.0,0.0,0.0,0.0,0.0
1402598031062182356,0,-5.37089823597,-0.114322152727,-35.1731110901,0.043815185726,1.51915068369,0.0,1.04847669119,0.0,0.425400696829,0.0,0.0,0.0,0.0,196.780990068,25.168233181,-19.200438227,-0.00690451462821,100.0,0.260073033971,100.0,0.0,100.0,0.254418150756,100.0,2537186.29739,0.0,0.0,0.0,0.0,0.0,0.0
1402598031082762239,0,-5.37089823597,-0.114322152727,-35.1731110901,0.043815185726,1.51915068369,0.0,1.04847669119,0.0,0.425400696829,0.0,0.0,0.0,0.0,196.780990068,25.168233181,-19.200438227,-0.00690451462821,100.0,0.261607495946,100.0,0.0,100.0,0.254418150756,100.0,2537186.29739,0.0,0.0,0.0,0.0,0.0,0.0
1402598031102148772,0,-5.30922279908,-0.114322152727,-35.1293994619,0.043815185726,1.53022235318,0.0,1.06265231877,0.0,0.428659304791,0.0,0.0,0.0,0.0,196.780990068,25.168233181,-19.200438227,-0.00843897660331,100.0,0.260073033971,100.0,0.0,100.0,0.254418150756,100.0,2537186.29739,0.0,0.0,0.0,0.0,0.0,0.0
1402598031122774848,0,-5.30922279908,-0.114322152727,-35.1293994619,0.043815185726,1.53022235318,0.0,1.06265231877,0.0,0.428659304791,0.0,0.0,0.0,0.0,196.780990068,25.168233181,-19.200438227,-0.00690451462821,100.0,0.260073033971,100.0,0.0,100.0,0.254418150756,100.0,2537186.29739,0.0,0.0,0.0,0.0,0.0,0.0
1402598031142237170,0,-5.2471424155,-0.114322152727,-35.0848678892,0.043815185726,1.53903747744,0.0,1.07302795929,0.0,0.43193641731,0.0,0.0,0.0,0.0,196.780990068,25.168233181,-19.200438227,-0.00690451462821,100.0,0.261607495946,100.0,0.0,100.0,0.254418150756,100.0,2537186.29739,0.0,0.0,0.0,0.0,0.0,0.0
1402598031163045168,0,-5.2471424155,-0.114322152727,-35.0848678892,0.043815185726,1.53903747744,0.0,1.07302795929,0.0,0.43193641731,0.0,0.0,0.0,0.0,196.780990068,25.168233181,-19.200438227,-0.00690451462821,100.0,0.261607495946,100.0,0.0,100.0,0.254418150756,100.0,2537186.29739,0.0,0.0,0.0,0.0,0.0,0.0
1402598031182127213,0,-5.16935304887,-0.114322152727,-35.0287719936,0.043815185726,1.54752959481,0.0,1.09431288573,0.0,0.436357871016,0.0,0.0,0.0,0.0,196.780990068,25.168233181,-19.200438227,-0.00690451462821,100.0,0.261607495946,100.0,0.0,100.0,0.254418150756,100.0,2537186.29739,0.0,0.0,0.0,0.0,0.0,0.0
1402598031202707520,0,-5.16935304887,-0.114322152727,-35.0287719936,0.043815185726,1.54752959481,0.0,1.09431288573,0.0,0.436357871016,0.0,0.0,0.0,0.0,196.780990068,25.168233181,-19.200438227,-0.00690451462821,100.0,0.261607495946,100.0,0.0,100.0,0.254418150756,100.0,2537186.29739,0.0,0.0,0.0,0.0,0.0,0.0
1402598031224915338,0,-5.09132697487,-0.114322152727,-34.9718356321,0.043815185726,1.55524960702,0.0,1.11161096315,0.0,0.440860514766,0.0,0.0,0.0,0.0,196.780990068,25.168233181,-19.200438227,-0.00843897660331,100.0,0.261607495946,100.0,0.0,100.0,0.254418150756,100.0,2537186.29739,0.0,0.0,0.0,0.0,0.0,0.0
1402598031242745375,0,-5.09132697487,-0.114322152727,-34.9718356321,0.043815185726,1.55524960702,0.0,1.11161096315,0.0,0.440860514766,0.0,0.0,0.0,0.0,196.780990068,25.168233181,-19.200438227,-0.00690451462821,100.0,0.260073033971,100.0,0.0,100.0,0.254418150756,100.0,2537186.29739,0.0,0.0,0.0,0.0,0.0,0.0
1402598031262171694,0,-5.05904223332,-0.114322152727,-34.9481625841,0.043815185726,1.55783483867,0.0,1.11930307557,0.0,0.442661636026,0.0,0.0,0.0,0.0,196.780990068,25.168233181,-19.200438227,-0.00690451462821,100.0,0.261607495946,100.0,0.0,100.0,0.254418150756,100.0,2537186.29739,0.0,0.0,0.0,0.0,0.0,0.0
1402598031282411335,0,-5.05904223332,-0.114322152727,-34.9481625841,0.043815185726,1.55783483867,0.0,1.11930307557,0.0,0.442661636026,0.0,0.0,0.0,0.0,196.780990068,25.168233181,-19.200438227,-0.00690451462821,100.0,0.261607495946,100.0,0.0,100.0,0.254418150756,100.0,2537186.29739,0.0,0.0,0.0,0.0,0.0,0.0
1402598031302995599,0,-4.99551156705,-0.114322152727,-34.901508989,0.043815185726,1.56768454439,0.0,1.12835409384,0.0,0.446341028341,0.0,0.0,0.0,0.0,196.780990068,25.168233181,-19.200438227,-0.00690451462821,100.0,0.260073033971,100.0,0.0,100.0,0.254418150756,100.0,2537186.29739,0.0,0.0,0.0,0.0,0.0,0.0
1402598031322273437,0,-4.99551156705,-0.114322152727,-34.901508989,0.043815185726,1.56768454439,0.0,1.12835409384,0.0,0.446341028341,0.0,0.0,0.0,0.0,196.780990068,25.168233181,-19.200438227,-0.00690451462821,100.0,0.261607495946,100.0,0.0,100.0,0.254418150756,100.0,2537186.29739,0.0,0.0,0.0,0.0,0.0,0.0
1402598031342915268,0,-4.93232346681,-0.114322152727,-34.8540094232,0.043815185726,1.57221027748,0.0,1.14357295626,0.0,0.449927192193,0.0,0.0,0.0,0.0,196.780990068,25.168233181,-19.200438227,-0.00690451462821,100.0,0.261607495946,100.0,0.0,100.0,0.254418150756,100.0,2537186.29739,0.0,0.0,0.0,0.0,0.0,0.0
1402598031362206265,0,-4.93232346681,-0.114322152727,-34.8540094232,0.043815185726,1.57221027748,0.0,1.14357295626,0.0,0.449927192193,0.0,0.0,0.0,0.0,196.780990068,25.168233181,-19.200438227,-0.00690451462821,100.0,0.261607495946,100.0,0.0,100.0,0.254418150756,100.0,2537186.29739,0.0,0.0,0.0,0.0,0.0,0.0
1402598031383051085,0,-4.86866961285,-0.114322152727,-34.8061970375,0.043815185726,1.57384485018,0.0,1.16018454321,0.0,0.453468193236,0.0,0.0,0.0,0.0,196.780990068,25.168233181,-19.200438227,-0.00690451462821,100.0,0.261607495946,100.0,0.0,100.0,0.254418150756,100.0,2537186.29739,0.0,0.0,0.0,0.0,0.0,0.0
1402598031402166926,0,-4.86866961285,-0.114322152727,-34.8061970375,0.043815185726,1.57384485018,0.0,1.16018454321,0.0,0.453468193236,0.0,0.0,0.0,0.0,196.780990068,25.168233181,-19.200438227,-0.00690451462821,100.0,0.261607495946,100.0,0.0,100.0,0.254418150756,100.0,2537186.29739,0.0,0.0,0.0,0.0,0.0,0.0
1402598031422714196,0,-4.80493919321,-0.114322152727,-34.7578442496,0.043815185726,1.57896763544,0.0,1.17150048158,0.0,0.45704897517,0.0,0.0,0.0,0.0,196.780990068,25.168233181,-19.200438227,-0.00690451462821,100.0,0.261607495946,100.0,0.0,100.0,0.254418150756,100.0,2537186.29739,0.0,0.0,0.0,0.0,0.0,0.0
1402598031442208011,0,-4.80493919321,-0.114322152727,-34.7578442496,0.043815185726,1.57896763544,0.0,1.17150048158,0.0,0.45704897517,0.0,0.0,0.0,0.0,196.780990068,25.168233181,-19.200438227,-0.00690451462821,100.0,0.261607495946,100.0,0.0,100.0,0.254418150756,100.0,2537186.29739,0.0,0.0,0.0,0.0,0.0,0.0
1402598031462754143,0,-4.74081721216,-0.114322152727,-34.7086571238,0.043815185726,1.58296633572,0.0,1.18342891207,0.0,0.460593600906,0.0,0.0,0.0,0.0,196.780990068,25.168233181,-19.200438227,-0.00690451462821,100.0,0.261607495946,100.0,0.0,100.0,0.254418150756,100.0,2537186.29739,0.0,0.0,0.0,0.0,0.0,0.0
1402598031482203257,0,-4.74081721216,-0.114322152727,-34.7086571238,0.043815185726,1.58296633572,0.0,1.18342891207,0.0,0.460593600906,0.0,0.0,0.0,0.0,196.780990068,25.168233181,-19.200438227,-0.00690451462821,100.0,0.261607495946,100.0,0.0,100.0,0.254418150756,100.0,2537186.29739,0.0,0.0,0.0,0.0,0.0,0.0
1402598031502654159,0,-4.67853097722,-0.114322152727,-34.6603056137,0.043815185726,1.58787391291,0.0,1.19310343571,0.0,0.464029854972,0.0,0.0,0.0,0.0,196.780990068,25.168233181,-19.200438227,-0.00690451462821,100.0,0.261607495946,100.0,0.0,100.0,0.254418150756,100.0,2537186.29739,0.0,0.0,0.0,0.0,0.0,0.0
1402598031522124654,0,-4.67853097722,-0.114322152727,-34.6603056137,0.043815185726,1.58787391291,0.0,1.19310343571,0.0,0.464029854972,0.0,0.0,0.0,0.0,196.780990068,25.168233181,-19.200438227,-0.00690451462821,100.0,0.261607495946,100.0,0.0,100.0,0.254418150756,100.0,2537186.29739,0.0,0.0,0.0,0.0,0.0,0.0
1402598031542681616,0,-4.59864541918,-0.114322152727,-34.5984045707,0.043815185726,1.592515893,0.0,1.20943979892,0.0,0.468407686236,0.0,0.0,0.0,0.0,196.780990068,25.168233181,-19.200438227,-0.00690451462821,100.0,0.261607495946,100.0,0.0,100.0,0.254418150756,100.0,2537186.29739,0.0,0.0,0.0,0.0,0.0,0.0
1402598031562165575,0,-4.59864541918,-0.114322152727,-34.5984045707,0.043815185726,1.592515893,0.0,1.20943979892,0.0,0.468407686236,0.0,0.0,0.0,0.0,196.780990068,25.168233181,-19.200438227,-0.00690451462821,100.0,0.261607495946,100.0,0.0,100.0,0.254418150756,100.0,2537186.29739,0.0,0.0,0.0,0.0,0.0,0.0
1402598031583312514,0,-4.55142074942,-0.114322152727,-34.5614416008,0.043815185726,1.59393465261,0.0,1.21919205539,0.0,0.471014573525,0.0,0.0,0.0,0.0,196.780990068,25.168233181,-19.200438227,-0.00690451462821,100.0,0.261607495946,100.0,0.0,100.0,0.254418150756,100.0,2537186.29739,0.0,0.0,0.0,0.0,0.0,0.0
1402598031602188692,0,-4.5182549702,-0.114322152727,-34.535232101,0.043815185726,1.59499752149,0.0,1.22633669777,0.0,0.472753687912,0.0,0.0,0.0,0.0,196.780990068,25.168233181,-19.200438227,-0.00690451462821,100.0,0.261607495946,100.0,0.0,100.0,0.254418150756,100.0,2537186.29739,0.0,0.0,0.0,0.0,0.0,0.0
1402598031622850881,0,-4.5182549702,-0.114322152727,-34.535232101,0.043815185726,1.59499752149,0.0,1.22633669777,0.0,0.472753687912,0.0,0.0,0.0,0.0,196.780990068,25.168233181,-19.200438227,-0.00690451462821,100.0,0.261607495946,100.0,0.0,100.0,0.254418150756,100.0,2537186.29739,0.0,0.0,0.0,0.0,0.0,0.0
1402598031642277117,0,-4.48729472139,-0.114322152727,-34.5100913897,0.043815185726,1.59573910775,0.0,1.23384056968,0.0,0.474328025982,0.0,0.0,0.0,0.0,196.780990068,25.168233181,-19.200438227,-0.00690451462821,100.0,0.261607495946,100.0,0.0,100.0,0.254418150756,100.0,2537186.29739,0.0,0.0,0.0,0.0,0.0,0.0
1402598031662544484,0,-4.48729472139,-0.114322152727,-34.5100913897,0.043815185726,1.59573910775,0.0,1.23384056968,0.0,0.474328025982,0.0,0.0,0.0,0.0,196.780990068,25.168233181,-19.200438227,-0.00690451462821,100.0,0.261607495946,100.0,0.0,100.0,0.254418150756,100.0,2537186.29739,0.0,0.0,0.0,0.0,0.0,0.0
1402598031682521800,0,-4.42263879413,-0.114322152727,-34.4585676602,0.043815185726,1.59666314702,0.0,1.24953911976,0.0,0.477523925998,0.0,0.0,0.0,0.0,196.780990068,25.168233181,-19.200438227,-0.00843897660331,100.0,0.261607495946,100.0,0.0,100.0,0.254418150756,100.0,2537186.29739,0.0,0.0,0.0,0.0,0.0,0.0
1402598031702680774,0,-4.42263879413,-0.114322152727,-34.4585676602,0.043815185726,1.59666314702,0.0,1.24953911976,0.0,0.477523925998,0.0,0.0,0.0,0.0,196.780990068,25.168233181,-19.200438227,-0.00843897660331,100.0,0.261607495946,100.0,0.0,100.0,0.254418150756,100.0,2537186.29739,0.0,0.0,0.0,0.0,0.0,0.0
1402598031724474332,0,-4.35812803467,-0.114322152727,-34.4064399034,0.043815185726,1.59499387739,0.0,1.26444967399,0.0,0.480570839859,0.0,0.0,0.0,0.0,196.780990068,25.168233181,-19.200438227,-0.00690451462821,100.0,0.261607495946,100.0,0.0,100.0,0.254418150756,100.0,2537186.29739,0.0,0.0,0.0,0.0,0.0,0.0
1402598031742856668,0,-4.35812803467,-0.114322152727,-34.4064399034,0.043815185726,1.59499387739,0.0,1.26444967399,0.0,0.480570839859,0.0,0.0,0.0,0.0,196.780990068,25.168233181,-19.200438227,-0.00690451462821,100.0,0.261607495946,100.0,0.0,100.0,0.254418150756,100.0,2537186.29739,0.0,0.0,0.0,0.0,0.0,0.0
1402598031762181767,0,-4.29370627816,-0.114322152727,-34.3536403743,0.043815185726,1.59646635477,0.0,1.27715762407,0.0,0.483648215399,0.0,0.0,0.0,0.0,196.780990068,25.168233181,-19.200438227,-0.00690451462821,100.0,0.261607495946,100.0,0.0,100.0,0.254418150756,100.0,2537186.29739,0.0,0.0,0.0,0.0,0.0,0.0
1402598031782737859,0,-4.29370627816,-0.114322152727,-34.3536403743,0.043815185726,1.59646635477,0.0,1.27715762407,0.0,0.483648215399,0.0,0.0,0.0,0.0,196.780990068,25.168233181,-19.200438227,-0.00690451462821,100.0,0.261607495946,100.0,0.0,100.0,0.254418150756,100.0,2537186.29739,0.0,0.0,0.0,0.0,0.0,0.0
1402598031802151320,0,-4.22939582921,-0.114322152727,-34.3001060877,0.043815185726,1.59447527358,0.0,1.29137654232,0.0,0.48667481241,0.0,0.0,0.0,0.0,196.780990068,25.168233181,-19.200438227,-0.00690451462821,100.0,0.260073033971,100.0,0.0,100.0,0.254418150756,100.0,2537186.29739,0.0,0.0,0.0,0.0,0.0,0.0
1402598031822191723,0,-4.22939582921,-0.114322152727,-34.3001060877,0.043815185726,1.59447527358,0.0,1.29137654232,0.0,0.48667481241,0.0,0.0,0.0,0.0,196.780990068,25.168233181,-19.200438227,-0.00690451462821,100.0,0.261607495946,100.0,0.0,100.0,0.254418150756,100.0,2537186.29739,0.0,0.0,0.0,0.0,0.0,0.0
1402598031842934296,0,-4.16547813127,-0.114322152727,-34.2462805757,0.043815185726,1.59213818874,0.0,1.30689665643,0.0,0.489842636782,0.0,0.0,0.0,0.0,196.780990068,25.168233181,-19.200438227,-0.00690451462821,100.0,0.261607495946,100.0,0.0,100.0,0.254418150756,100.0,2537186.29739,0.0,0.0,0.0,0.0,0.0,0.0
1402598031862360748,0,-4.16547813127,-0.114322152727,-34.2462805757,0.043815185726,1.59213818874,0.0,1.30689665643,0.0,0.489842636782,0.0,0.0,0.0,0.0,196.780990068,25.168233181,-19.200438227,-0.00690451462821,100.0,0.261607495946,100.0,0.0,100.0,0.254418150756,100.0,2537186.29739,0.0,0.0,0.0,0.0,0.0,0.0
1402598031883094443,0,-4.10091562843,-0.114322152727,-34.1914383012,0.043815185726,1.591067888,0.0,1.31969187031,0.0,0.493100111894,0.0,0.0,0.0,0.0,196.780990068,25.168233181,-19.200438227,-0.00690451462821,100.0,0.261607495946,100.0,0.0,100.0,0.254418150756,100.0,2537186.29739,0.0,0.0,0.0,0.0,0.0,0.0
1402598031902082854,0,-4.10091562843,-0.114322152727,-34.1914383012,0.043815185726,1.591067888,0.0,1.31969187031,0.0,0.493100111894,0.0,0.0,0.0,0.0,196.780990068,25.168233181,-19.200438227,-0.00690451462821,100.0,0.261607495946,100.0,0.0,100.0,0.254418150756,100.0,2537186.29739,0.0,0.0,0.0,0.0,0.0,0.0
1402598031922729613,0,-4.02158798261,-0.114322152727,-34.1227417358,0.043815185726,1.58472714202,0.0,1.33840790897,0.0,0.497155176598,0.0,0.0,0.0,0.0,196.780990068,25.168233181,-19.200438227,-0.00690451462821,100.0,0.261607495946,100.0,0.0,100.0,0.254418150756,100.0,2537186.29739,0.0,0.0,0.0,0.0,0.0,0.0
1402598031942230761,0,-4.02158798261,-0.114322152727,-34.1227417358,0.043815185726,1.58472714202,0.0,1.33840790897,0.0,0.497155176598,0.0,0.0,0.0,0.0,196.780990068,25.168233181,-19.200438227,-0.00690451462821,100.0,0.260073033971,100.0,0.0,100.0,0.254418150756,100.0,2537186.29739,0.0,0.0,0.0,0.0,0.0,0.0
1402598031962814959,0,-3.94062245548,-0.114322152727,-34.051576923,0.043815185726,1.58075633105,0.0,1.35918341777,0.0,0.501136702273,0.0,0.0,0.0,0.0,196.780990068,25.168233181,-19.200438227,-0.00690451462821,100.0,0.261607495946,100.0,0.0,100.0,0.254418150756,100.0,2537186.29739,0.0,0.0,0.0,0.0,0.0,0.0
1402598031982131476,0,-3.94062245548,-0.114322152727,-34.051576923,0.043815185726,1.58075633105,0.0,1.35918341777,0.0,0.501136702273,0.0,0.0,0.0,0.0,196.780990068,25.168233181,-19.200438227,-0.00690451462821,100.0,0.261607495946,100.0,0.0,100.0,0.254418150756,100.0,2537186.29739,0.0,0.0,0.0,0.0,0.0,0.0
1402598032002720581,0,-3.90983394009,-0.114322152727,-34.0242068578,0.043815185726,1.58321622064,0.0,1.35482944527,0.0,0.502622720769,0.0,0.0,0.0,0.0,196.780990068,25.168233181,-19.200438227,-0.00690451462821,100.0,0.261607495946,100.0,0.0,100.0,0.254418150756,100.0,2537186.29739,0.0,0.0,0.0,0.0,0.0,0.0
1402598032022226026,0,-3.90983394009,-0.114322152727,-34.0242068578,0.043815185726,1.58321622064,0.0,1.35482944527,0.0,0.502622720769,0.0,0.0,0.0,0.0,196.780990068,25.168233181,-19.200438227,-0.00690451462821,100.0,0.261607495946,100.0,0.0,100.0,0.254418150756,100.0,2537186.29739,0.0,0.0,0.0,0.0,0.0,0.0
1402598032042826409,0,-3.8444616769,-0.114322152727,-33.9661377122,0.043815185726,1.58160525424,0.0,1.36814493251,0.0,0.5057692707,0.0,0.0,0.0,0.0,196.780990068,25.168233181,-19.200438227,-0.00690451462821,100.0,0.261607495946,100.0,0.0,100.0,0.254418150756,100.0,2537186.29739,0.0,0.0,0.0,0.0,0.0,0.0
1402598032062170813,0,-3.8444616769,-0.114322152727,-33.9661377122,0.043815185726,1.58160525424,0.0,1.36814493251,0.0,0.5057692707,0.0,0.0,0.0,0.0,196.780990068,25.168233181,-19.200438227,-0.00690451462821,100.0,0.260073033971,100.0,0.0,100.0,0.254418150756,100.0,2537186.29739,0.0,0.0,0.0,0.0,0.0,0.0
1402598032082766871,0,-3.78119826655,-0.114322152727,-33.9088495519,0.043815185726,1.58289653451,0.0,1.37756693678,0.0,0.508665277769,0.0,0.0,0.0,0.0,196.780990068,25.168233181,-19.200438227,-0.00690451462821,100.0,0.261607495946,100.0,0.0,100.0,0.254418150756,100.0,2537186.29739,0.0,0.0,0.0,0.0,0.0,0.0
1402598032102077355,0,-3.78119826655,-0.114322152727,-33.9088495519,0.043815185726,1.58289653451,0.0,1.37756693678,0.0,0.508665277769,0.0,0.0,0.0,0.0,196.780990068,25.168233181,-19.200438227,-0.00690451462821,100.0,0.260073033971,100.0,0.0,100.0,0.254418150756,100.0,2537186.29739,0.0,0.0,0.0,0.0,0.0,0.0
1402598032122758068,0,-3.71576501248,-0.114322152727,-33.8499227634,0.043815185726,1.5821985391,0.0,1.38720423392,0.0,0.51191108845,0.0,0.0,0.0,0.0,196.780990068,25.168233181,-19.200438227,-0.00690451462821,100.0,0.261607495946,100.0,0.0,100.0,0.254418150756,100.0,2537186.29739,0.0,0.0,0.0,0.0,0.0,0.0
1402598032142944042,0,-3.71576501248,-0.114322152727,-33.8499227634,0.043815185726,1.5821985391,0.0,1.38720423392,0.0,0.51191108845,0.0,0.0,0.0,0.0,196.780990068,25.168233181,-19.200438227,-0.00690451462821,100.0,0.261607495946,100.0,0.0,100.0,0.254418150756,100.0,2537186.29739,0.0,0.0,0.0,0.0,0.0,0.0
1402598032162751729,0,-3.63343221989,-0.114322152727,-33.7746031911,0.043815185726,1.57697989189,0.0,1.40619625822,0.0,0.515588094664,0.0,0.0,0.0,0.0,196.780990068,25.168233181,-19.200438227,-0.00690451462821,100.0,0.261607495946,100.0,0.0,100.0,0.254418150756,100.0,2537186.29739,0.0,0.0,0.0,0.0,0.0,0.0
1402598032184906637,0,-3.63343221989,-0.114322152727,-33.7746031911,0.043815185726,1.57697989189,0.0,1.40619625822,0.0,0.515588094664,0.0,0.0,0.0,0.0,196.780990068,25.168233181,-19.200438227,-0.00843897660331,100.0,0.261607495946,100.0,0.0,100.0,0.254418150756,100.0,2537186.29739,0.0,0.0,0.0,0.0,0.0,0.0
1402598032202725626,0,-3.58529423272,-0.114322152727,-33.730166127,0.043815185726,1.57587917136,0.0,1.41186998336,0.0,0.517662728788,0.0,0.0,0.0,0.0,196.780990068,25.168233181,-19.200438227,-0.00690451462821,100.0,0.261607495946,100.0,0.0,100.0,0.254418150756,100.0,2537186.29739,0.0,0.0,0.0,0.0,0.0,0.0
1402598032222129158,0,-3.55459201522,-0.114322152727,-33.7015327604,0.043815185726,1.57440386268,0.0,1.41766919604,0.0,0.518968485374,0.0,0.0,0.0,0.0,196.780990068,25.168233181,-19.200438227,-0.00690451462821,100.0,0.261607495946,100.0,0.0,100.0,0.254418150756,100.0,2537186.29739,0.0,0.0,0.0,0.0,0.0,0.0
1402598032242127589,0,-3.55459201522,-0.114322152727,-33.7015327604,0.043815185726,1.57440386268,0.0,1.41766919604,0.0,0.518968485374,0.0,0.0,0.0,0.0,196.780990068,25.168233181,-19.200438227,-0.00690451462821,100.0,0.261607495946,100.0,0.0,100.0,0.254418150756,100.0,2537186.29739,0.0,0.0,0.0,0.0,0.0,0.0
1402598032263008556,0,-3.52177576323,-0.114322152727,-33.6711240843,0.043815185726,1.57299293722,0.0,1.42280036573,0.0,0.520259971777,0.0,0.0,0.0,0.0,196.780990068,25.168233181,-19.200438227,-0.00690451462821,100.0,0.261607495946,100.0,0.0,100.0,0.254418150756,100.0,2537186.29739,0.0,0.0,0.0,0.0,0.0,0.0
1402598032282180606,0,-3.52177576323,-0.114322152727,-33.6711240843,0.043815185726,1.57299293722,0.0,1.42280036573,0.0,0.520259971777,0.0,0.0,0.0,0.0,196.780990068,25.168233181,-19.200438227,-0.00690451462821,100.0,0.261607495946,100.0,0.0,100.0,0.254418150756,100.0,2537186.29739,0.0,0.0,0.0,0.0,0.0,0.0
1402598032302725653,0,-3.45899504284,-0.114322152727,-33.6119629993,0.043815185726,1.57277690762,0.0,1.43442587109,0.0,0.522765418317,0.0,0.0,0.0,0.0,196.780990068,25.168233181,-19.200438227,-0.00690451462821,100.0,0.261607495946,100.0,0.0,100.0,0.254418150756,100.0,2537186.29739,0.0,0.0,0.0,0.0,0.0,0.0
1402598032322143069,0,-3.45899504284,-0.114322152727,-33.6119629993,0.043815185726,1.57277690762,0.0,1.43442587109,0.0,0.522765418317,0.0,0.0,0.0,0.0,196.780990068,25.168233181,-19.200438227,-0.00690451462821,100.0,0.261607495946,100.0,0.0,100.0,0.254418150756,100.0,2537186.29739,0.0,0.0,0.0,0.0,0.0,0.0
1402598032342814699,0,-3.39403175428,-0.114322152727,-33.5503321828,0.043815185726,1.56939125153,0.0,1.44709456387,0.0,0.525337412893,0.0,0.0,0.0,0.0,196.780990068,25.168233181,-19.200438227,-0.00690451462821,100.0,0.261607495946,100.0,0.0,100.0,0.254418150756,100.0,2537186.29739,0.0,0.0,0.0,0.0,0.0,0.0
1402598032362006037,0,-3.39403175428,-0.114322152727,-33.5503321828,0.043815185726,1.56939125153,0.0,1.44709456387,0.0,0.525337412893,0.0,0.0,0.0,0.0,196.780990068,25.168233181,-19.200438227,-0.00690451462821,100.0,0.261607495946,100.0,0.0,100.0,0.254418150756,100.0,2537186.29739,0.0,0.0,0.0,0.0,0.0,0.0
1402598032382631374,0,-3.331223591,-0.114322152727,-33.4901106156,0.043815185726,1.56530908601,0.0,1.45443394827,0.0,0.528099831231,0.0,0.0,0.0,0.0,196.780990068,25.168233181,-19.200438227,-0.00690451462821,100.0,0.261607495946,100.0,0.0,100.0,0.254418150756,100.0,2537186.29739,0.0,0.0,0.0,0.0,0.0,0.0
1402598032402042317,0,-3.331223591,-0.114322152727,-33.4901106156,0.043815185726,1.56530908601,0.0,1.45443394827,0.0,0.528099831231,0.0,0.0,0.0,0.0,196.780990068,25.168233181,-19.200438227,-0.00690451462821,100.0,0.261607495946,100.0,0.0,100.0,0.254418150756,100.0,2537186.29739,0.0,0.0,0.0,0.0,0.0,0.0
1402598032422667637,0,-3.26845983364,-0.114322152727,-33.4292518019,0.043815185726,1.56260620003,0.0,1.46523107332,0.0,0.530812427395,0.0,0.0,0.0,0.0,196.780990068,25.168233181,-19.200438227,-0.00690451462821,100.0,0.261607495946,100.0,0.0,100.0,0.254418150756,100.0,2537186.29739,0.0,0.0,0.0,0.0,0.0,0.0
1402598032443498786,0,-3.26845983364,-0.114322152727,-33.4292518019,0.043815185726,1.56260620003,0.0,1.46523107332,0.0,0.530812427395,0.0,0.0,0.0,0.0,196.780990068,25.168233181,-19.200438227,-0.00690451462821,100.0,0.261607495946,100.0,0.0,100.0,0.254418150756,100.0,2537186.29739,0.0,0.0,0.0,0.0,0.0,0.0
1402598032462751437,0,-3.20621621631,-0.114322152727,-33.3680711061,0.043815185726,1.55434188236,0.0,1.48121205112,0.0,0.533306487816,0.0,0.0,0.0,0.0,196.780990068,25.168233181,-19.200438227,-0.00690451462821,100.0,0.261607495946,100.0,0.0,100.0,0.254418150756,100.0,2537186.29739,0.0,0.0,0.0,0.0,0.0,0.0
1402598032484675506,0,-3.20621621631,-0.114322152727,-33.3680711061,0.043815185726,1.55434188236,0.0,1.48121205112,0.0,0.533306487816,0.0,0.0,0.0,0.0,196.780990068,25.168233181,-19.200438227,-0.00690451462821,100.0,0.261607495946,100.0,0.0,100.0,0.254418150756,100.0,2537186.29739,0.0,0.0,0.0,0.0,0.0,0.0
1402598032502655688,0,-3.14381047367,-0.114322152727,-33.3062897782,0.043815185726,1.55000038673,0.0,1.49361845301,0.0,0.535598922742,0.0,0.0,0.0,0.0,196.780990068,25.168233181,-19.200438227,-0.00690451462821,100.0,0.261607495946,100.0,0.0,100.0,0.254418150756,100.0,2537186.29739,0.0,0.0,0.0,0.0,0.0,0.0
1402598032522111663,0,-3.14381047367,-0.114322152727,-33.3062897782,0.043815185726,1.55000038673,0.0,1.49361845301,0.0,0.535598922742,0.0,0.0,0.0,0.0,196.780990068,25.168233181,-19.200438227,-0.00843897660331,100.0,0.261607495946,100.0,0.0,100.0,0.254418150756,100.0,2537186.29739,0.0,0.0,0.0,0.0,0.0,0.0
1402598032542189745,0,-3.06444362154,-0.114322152727,-33.2271906965,0.043815185726,1.54792943406,0.0,1.50413620144,0.0,0.538482569115,0.0,0.0,0.0,0.0,196.780990068,25.168233181,-19.200438227,-0.00690451462821,100.0,0.261607495946,100.0,0.0,100.0,0.254418150756,100.0,2537186.29739,0.0,0.0,0.0,0.0,0.0,0.0
1402598032562804601,0,-3.06444362154,-0.114322152727,-33.2271906965,0.043815185726,1.54792943406,0.0,1.50413620144,0.0,0.538482569115,0.0,0.0,0.0,0.0,196.780990068,25.168233181,-19.200438227,-0.00690451462821,100.0,0.261607495946,100.0,0.0,100.0,0.254418150756,100.0,2537186.29739,0.0,0.0,0.0,0.0,0.0,0.0
1402598032582395463,0,-2.9877187191,-0.114322152727,-33.1490934815,0.043815185726,1.53828647559,0.0,1.51959726551,0.0,0.54123066268,0.0,0.0,0.0,0.0,196.780990068,25.168233181,-19.200438227,-0.00690451462821,100.0,0.261607495946,100.0,0.0,100.0,0.254418150756,100.0,2537186.29739,0.0,0.0,0.0,0.0,0.0,0.0
1402598032602516319,0,-2.9877187191,-0.114322152727,-33.1490934815,0.043815185726,1.53828647559,0.0,1.51959726551,0.0,0.54123066268,0.0,0.0,0.0,0.0,196.780990068,25.168233181,-19.200438227,-0.00690451462821,100.0,0.261607495946,100.0,0.0,100.0,0.254418150756,100.0,2537186.29739,0.0,0.0,0.0,0.0,0.0,0.0
1402598032622165072,0,-2.95581692135,-0.114322152727,-33.1163489591,0.043815185726,1.53921993372,0.0,1.5237252332,0.0,0.542511720572,0.0,0.0,0.0,0.0,196.780990068,25.168233181,-19.200438227,-0.00690451462821,100.0,0.261607495946,100.0,0.0,100.0,0.254418150756,100.0,2537186.29739,0.0,0.0,0.0,0.0,0.0,0.0
1402598032642659850,0,-2.95581692135,-0.114322152727,-33.1163489591,0.043815185726,1.53921993372,0.0,1.5237252332,0.0,0.542511720572,0.0,0.0,0.0,0.0,196.780990068,25.168233181,-19.200438227,-0.00690451462821,100.0,0.261607495946,100.0,0.0,100.0,0.254418150756,100.0,2537186.29739,0.0,0.0,0.0,0.0,0.0,0.0
1402598032662171227,0,-2.89487665109,-0.114322152727,-33.0527507272,0.043815185726,1.52492942842,0.0,1.54513669828,0.0,0.544866261017,0.0,0.0,0.0,0.0,196.780990068,25.168233181,-19.200438227,-0.00690451462821,100.0,0.261607495946,100.0,0.0,100.0,0.254418150756,100.0,2537186.29739,0.0,0.0,0.0,0.0,0.0,0.0
1402598032682814967,0,-2.89487665109,-0.114322152727,-33.0527507272,0.043815185726,1.52492942842,0.0,1.54513669828,0.0,0.544866261017,0.0,0.0,0.0,0.0,196.780990068,25.168233181,-19.200438227,-0.00690451462821,100.0,0.261607495946,100.0,0.0,100.0,0.254418150756,100.0,2537186.29739,0.0,0.0,0.0,0.0,0.0,0.0
1402598032702022872,0,-2.87304420553,-0.114322152727,-34.2967962038,0.043815185726,1.49363136657,0.0,1.032748893,0.0,0.548010135995,0.0,0.0,0.0,0.0,196.780990068,25.168233181,-19.200438227,-0.00690451462821,100.0,0.261607495946,100.0,0.0,100.0,0.254418150756,100.0,2537186.29739,0.0,0.0,0.0,0.0,0.0,0.0
1402598032722657432,0,-2.87304420553,-0.114322152727,-34.2967962038,0.043815185726,1.49363136657,0.0,1.032748893,0.0,0.548010135995,0.0,0.0,0.0,0.0,196.780990068,25.168233181,-19.200438227,-0.00690451462821,100.0,0.261607495946,100.0,0.0,100.0,0.254418150756,100.0,2537186.29739,0.0,0.0,0.0,0.0,0.0,0.0
1402598032742227449,0,-2.83091860565,-0.114322152727,-34.4088047598,0.043815185726,1.46596159877,0.0,0.979855082157,0.0,0.551529229729,0.0,0.0,0.0,0.0,196.780990068,25.168233181,-19.200438227,-0.00690451462821,100.0,0.261607495946,100.0,0.0,100.0,0.254418150756,100.0,2537186.29739,0.0,0.0,0.0,0.0,0.0,0.0
1402598032762739486,0,-2.83091860565,-0.114322152727,-34.4088047598,0.043815185726,1.46596159877,0.0,0.979855082157,0.0,0.551529229729,0.0,0.0,0.0,0.0,196.780990068,25.168233181,-19.200438227,-0.00690451462821,100.0,0.261607495946,100.0,0.0,100.0,0.254418150756,100.0,2537186.29739,0.0,0.0,0.0,0.0,0.0,0.0
1402598032782335394,0,-2.67160514201,-0.114322152727,-34.4581173355,0.043815185726,1.51288412789,0.0,0.955112673351,0.0,0.552628683459,0.0,0.0,0.0,0.0,196.780990068,25.168233181,-19.200438227,-0.00690451462821,100.0,0.261607495946,100.0,0.0,100.0,0.254418150756,100.0,2537186.29739,0.0,0.0,0.0,0.0,0.0,0.0
1402598032802658040,0,-2.67160514201,-0.114322152727,-34.4581173355,0.043815185726,1.51288412789,0.0,0.955112673351,0.0,0.552628683459,0.0,0.0,0.0,0.0,196.780990068,25.168233181,-19.200438227,-0.00690451462821,100.0,0.261607495946,100.0,0.0,100.0,0.254418150756,100.0,2537186.29739,0.0,0.0,0.0,0.0,0.0,0.0
1402598032822159041,0,-2.52869069661,-0.114322152727,-34.4390362989,0.043815185726,1.53974157669,0.0,0.954214514549,0.0,0.554938001211,0.0,0.0,0.0,0.0,196.780990068,25.168233181,-19.200438227,-0.00690451462821,100.0,0.261607495946,100.0,0.0,100.0,0.254418150756,100.0,2537186.29739,0.0,0.0,0.0,0.0,0.0,0.0
1402598032842817515,0,-2.52869069661,-0.114322152727,-34.4390362989,0.043815185726,1.53974157669,0.0,0.954214514549,0.0,0.554938001211,0.0,0.0,0.0,0.0,196.780990068,25.168233181,-19.200438227,-0.00690451462821,100.0,0.261607495946,100.0,0.0,100.0,0.254418150756,100.0,2537186.29739,0.0,0.0,0.0,0.0,0.0,0.0
1402598032862393896,0,-2.46539184412,-0.114322152727,-34.4001163775,0.043815185726,1.53604817687,0.0,0.95496421474,0.0,0.556766351345,0.0,0.0,0.0,0.0,196.780990068,25.168233181,-19.200438227,-0.00690451462821,100.0,0.261607495946,100.0,0.0,100.0,0.254418150756,100.0,2537186.29739,0.0,0.0,0.0,0.0,0.0,0.0
1402598032882829191,0,-2.46539184412,-0.114322152727,-34.4001163775,0.043815185726,1.53604817687,0.0,0.95496421474,0.0,0.556766351345,0.0,0.0,0.0,0.0,196.780990068,25.168233181,-19.200438227,-0.00690451462821,100.0,0.261607495946,100.0,0.0,100.0,0.254418150756,100.0,2537186.29739,0.0,0.0,0.0,0.0,0.0,0.0
1402598032902417391,0,-2.41953097728,-0.114322152727,-34.3600469962,0.043815185726,1.5013745532,0.0,0.948430192623,0.0,0.559900652453,0.0,0.0,0.0,0.0,196.780990068,25.168233181,-19.200438227,-0.00690451462821,100.0,0.261607495946,100.0,0.0,100.0,0.254418150756,100.0,2537186.29739,0.0,0.0,0.0,0.0,0.0,0.0
1402598032922646050,0,-2.41953097728,-0.114322152727,-34.3600469962,0.043815185726,1.5013745532,0.0,0.948430192623,0.0,0.559900652453,0.0,0.0,0.0,0.0,196.780990068,25.168233181,-19.200438227,-0.00690451462821,100.0,0.261607495946,100.0,0.0,100.0,0.254418150756,100.0,2537186.29739,0.0,0.0,0.0,0.0,0.0,0.0
1402598032942389371,0,-2.35425429696,-0.114322152727,-34.3298089748,0.043815185726,1.50196781085,0.0,0.979630276094,0.0,0.560690922092,0.0,0.0,0.0,0.0,196.780990068,25.168233181,-19.200438227,-0.00690451462821,100.0,0.261607495946,100.0,0.0,100.0,0.254418150756,100.0,2537186.29739,0.0,0.0,0.0,0.0,0.0,0.0
1402598032962194447,0,-2.31309682102,-0.114322152727,-34.3013946175,0.043815185726,1.48859140209,0.0,0.975744952344,0.0,0.562152215172,0.0,0.0,0.0,0.0,196.780990068,25.168233181,-19.200438227,-0.00690451462821,100.0,0.261607495946,100.0,0.0,100.0,0.254418150756,100.0,2537186.29739,0.0,0.0,0.0,0.0,0.0,0.0
1402598032982807066,0,-2.31309682102,-0.114322152727,-34.3013946175,0.043815185726,1.48859140209,0.0,0.975744952344,0.0,0.562152215172,0.0,0.0,0.0,0.0,196.780990068,25.168233181,-19.200438227,-0.00690451462821,100.0,0.261607495946,100.0,0.0,100.0,0.254418150756,100.0,2537186.29739,0.0,0.0,0.0,0.0,0.0,0.0
1402598033002115775,0,-2.2873390078,-0.114322152727,-34.2848040328,0.043815185726,1.48840406932,0.0,0.974189310326,0.0,0.562997607148,0.0,0.0,0.0,0.0,196.780990068,25.168233181,-19.200438227,-0.00690451462821,100.0,0.261607495946,100.0,0.0,100.0,0.254418150756,100.0,2537186.29739,0.0,0.0,0.0,0.0,0.0,0.0
1402598033023431137,0,-2.2873390078,-0.114322152727,-34.2848040328,0.043815185726,1.48840406932,0.0,0.974189310326,0.0,0.562997607148,0.0,0.0,0.0,0.0,196.780990068,25.168233181,-19.200438227,-0.00690451462821,100.0,0.260073033971,100.0,0.0,100.0,0.254418150756,100.0,2537186.29739,0.0,0.0,0.0,0.0,0.0,0.0
1402598033042371226,0,-2.2216133253,-0.114322152727,-34.2400034507,0.043815185726,1.50565707426,0.0,0.975158608908,0.0,0.565330007581,0.0,0.0,0.0,0.0,196.780990068,25.168233181,-19.200438227,-0.00690451462821,100.0,0.261607495946,100.0,0.0,100.0,0.254418150756,100.0,2537186.29739,0.0,0.0,0.0,0.0,0.0,0.0
1402598033062809470,0,-2.2216133253,-0.114322152727,-34.2400034507,0.043815185726,1.50565707426,0.0,0.975158608908,0.0,0.565330007581,0.0,0.0,0.0,0.0,196.780990068,25.168233181,-19.200438227,-0.00690451462821,100.0,0.260073033971,100.0,0.0,100.0,0.254418150756,100.0,2537186.29739,0.0,0.0,0.0,0.0,0.0,0.0
1402598033082203247,0,-2.1509762572,-0.114322152727,-34.1831185028,0.043815185726,1.50331935106,0.0,0.973412780556,0.0,0.567589286462,0.0,0.0,0.0,0.0,196.780990068,25.168233181,-19.200438227,-0.00690451462821,100.0,0.261607495946,100.0,0.0,100.0,0.254418150756,100.0,2537186.29739,0.0,0.0,0.0,0.0,0.0,0.0
1402598033102592289,0,-2.1509762572,-0.114322152727,-34.1831185028,0.043815185726,1.50331935106,0.0,0.973412780556,0.0,0.567589286462,0.0,0.0,0.0,0.0,196.780990068,25.168233181,-19.200438227,-0.00690451462821,100.0,0.261607495946,100.0,0.0,100.0,0.254418150756,100.0,2537186.29739,0.0,0.0,0.0,0.0,0.0,0.0
1402598033122282623,0,-2.08936334164,-0.114322152727,-34.1433887877,0.043815185726,1.49712719656,0.0,0.978021815797,0.0,0.569476752012,0.0,0.0,0.0,0.0,196.780990068,25.168233181,-19.200438227,-0.00690451462821,100.0,0.261607495946,100.0,0.0,100.0,0.254418150756,100.0,2537186.29739,0.0,0.0,0.0,0.0,0.0,0.0
1402598033142842975,0,-2.08936334164,-0.114322152727,-34.1433887877,0.043815185726,1.49712719656,0.0,0.978021815797,0.0,0.569476752012,0.0,0.0,0.0,0.0,196.780990068,25.168233181,-19.200438227,-0.00690451462821,100.0,0.261607495946,100.0,0.0,100.0,0.254418150756,100.0,2537186.29739,0.0,0.0,0.0,0.0,0.0,0.0
1402598033162289741,0,-2.00710366458,-0.114322152727,-34.1282373277,0.043815185726,1.48155984802,0.0,1.00264513157,0.0,0.570793558067,0.0,0.0,0.0,0.0,196.780990068,25.168233181,-19.200438227,-0.00690451462821,100.0,0.261607495946,100.0,0.0,100.0,0.254418150756,100.0,2537186.29739,0.0,0.0,0.0,0.0,0.0,0.0
1402598033182384918,0,-2.00710366458,-0.114322152727,-34.1282373277,0.043815185726,1.48155984802,0.0,1.00264513157,0.0,0.570793558067,0.0,0.0,0.0,0.0,196.780990068,25.168233181,-19.200438227,-0.00690451462821,100.0,0.261607495946,100.0,0.0,100.0,0.254418150756,100.0,2537186.29739,0.0,0.0,0.0,0.0,0.0,0.0
1402598033202766907,0,-1.94107593695,-0.114322152727,-34.0019778987,0.043815185726,1.48237480058,0.0,0.981194990037,0.0,0.575549589899,0.0,0.0,0.0,0.0,196.780990068,25.168233181,-19.200438227,-0.00690451462821,100.0,0.261607495946,100.0,0.0,100.0,0.254418150756,100.0,2537186.29739,0.0,0.0,0.0,0.0,0.0,0.0
1402598033222108034,0,-1.94107593695,-0.114322152727,-34.0019778987,0.043815185726,1.48237480058,0.0,0.981194990037,0.0,0.575549589899,0.0,0.0,0.0,0.0,196.780990068,25.168233181,-19.200438227,-0.00690451462821,100.0,0.261607495946,100.0,0.0,100.0,0.254418150756,100.0,2537186.29739,0.0,0.0,0.0,0.0,0.0,0.0
1402598033242941500,0,-1.92191363608,-0.114322152727,-34.0203741269,0.043815185726,1.48823995724,0.0,0.995171137424,0.0,0.575897320407,0.0,0.0,0.0,0.0,196.780990068,25.168233181,-19.200438227,-0.00690451462821,100.0,0.261607495946,100.0,0.0,100.0,0.254418150756,100.0,2537186.29739,0.0,0.0,0.0,0.0,0.0,0.0
1402598033262313421,0,-1.92191363608,-0.114322152727,-34.0203741269,0.043815185726,1.48823995724,0.0,0.995171137424,0.0,0.575897320407,0.0,0.0,0.0,0.0,196.780990068,25.168233181,-19.200438227,-0.00690451462821,100.0,0.261607495946,100.0,0.0,100.0,0.254418150756,100.0,2537186.29739,0.0,0.0,0.0,0.0,0.0,0.0
1402598033282663031,0,-1.84195650699,-0.114322152727,-33.9454082217,0.043815185726,1.47650820273,0.0,0.991557521387,0.0,0.578788000144,0.0,0.0,0.0,0.0,196.780990068,25.168233181,-19.200438227,-0.00690451462821,100.0,0.261607495946,100.0,0.0,100.0,0.254418150756,100.0,2537186.29739,0.0,0.0,0.0,0.0,0.0,0.0
1402598033302179071,0,-1.84195650699,-0.114322152727,-33.9454082217,0.043815185726,1.47650820273,0.0,0.991557521387,0.0,0.578788000144,0.0,0.0,0.0,0.0,196.780990068,25.168233181,-19.200438227,-0.00690451462821,100.0,0.261607495946,100.0,0.0,100.0,0.254418150756,100.0,2537186.29739,0.0,0.0,0.0,0.0,0.0,0.0
1402598033322686672,0,-1.77974314545,-0.114322152727,-33.9038563222,0.043815185726,1.47189144559,0.0,0.993423274962,0.0,0.581375907931,0.0,0.0,0.0,0.0,196.780990068,25.168233181,-19.200438227,-0.00690451462821,100.0,0.261607495946,100.0,0.0,100.0,0.254418150756,100.0,2537186.29739,0.0,0.0,0.0,0.0,0.0,0.0
1402598033342220884,0,-1.77974314545,-0.114322152727,-33.9038563222,0.043815185726,1.47189144559,0.0,0.993423274962,0.0,0.581375907931,0.0,0.0,0.0,0.0,196.780990068,25.168233181,-19.200438227,-0.00690451462821,100.0,0.261607495946,100.0,0.0,100.0,0.254418150756,100.0,2537186.29739,0.0,0.0,0.0,0.0,0.0,0.0
