rosbagTimestamp,control_method,x_current,x_desired,y_current,y_desired,z_current,z_desired,x_velocity_current,x_velocity_desired,y_velocity_current,y_velocity_desired,z_velocity_current,z_velocity_desired,yaw_current,yaw_desired,yaw_velocity_current,yaw_velocity_desired,roll_current,roll_desired,roll_velocity_current,roll_velocity_desired,pitch_current,pitch_desired,pitch_velocity_current,pitch_velocity_desired,required_force_x,required_force_y,required_moment_z,resultant_force_x,resultant_force_y,resultant_moment_z,current_port_servo_angle,current_port_thruster_force,current_starboard_servo_angle,current_starboard_thruster_force,estimated_port_servo_angle,estimated_port_thruster_force,estimated_starboard_servo_angle,estimated_starboard_thruster_force,cost_value,step,user_defined_1,user_defined_2,user_defined_3,user_defined_4,user_defined_5
1402752990487679192,3,-8.89665366945,-0.00591572024346,7.65500470838,-0.122189614607,2.15636233161,0.10862951003,0.00305552409866,0.0,-0.0323089884903,0.0,0.12641723153,0.0,-1.79085620556,0.0,0.0086892073516,0.0,-0.000382058951248,0.0,0.0122109929316,0.0,0.0732267348912,0.0,0.00761403395164,0.0,0.0,0.0,0.0,75.0,-0.0,22.86,0.00230154196664,0.0,-0.00383606751517,0.0,-0.0,0.0,-0.0,75.0,570664.8,0.0,0.0,0.0,0.0,0.0,0.0
1402752990506737874,3,-8.89642023166,-0.00591572024346,7.6541978842,-0.122189614607,2.16003011667,0.10862951003,0.003711543849,0.0,-0.0317585986336,0.0,0.127579824847,0.0,-1.79073709919,0.0,0.00480094138733,0.0,-0.000526108355842,0.0,0.00265425812114,0.0,0.0732986329279,0.0,0.0033484888602,0.0,0.0,0.0,0.0,75.0,-0.0,22.86,0.00230154196664,0.0,-0.00383606751517,0.0,-0.0,0.0,-0.0,75.0,570664.8,0.0,0.0,0.0,0.0,0.0,0.0
1402752990526816594,3,-8.89635952194,-0.00591572024346,7.65347216781,-0.122189614607,2.16260862423,0.10862951003,0.00531212151415,0.0,-0.0321376964792,0.0,0.12890360832,0.0,-1.79066823491,0.0,0.00285378123891,0.0,-0.000740458921662,0.0,0.00400693974139,0.0,0.0733505791958,0.0,0.0129517479912,0.0,0.0,0.0,0.0,75.0,-0.0,22.86,0.00230154196664,0.0,-0.00383606751517,0.0,-0.0,0.0,-0.0,75.0,570664.8,0.0,0.0,0.0,0.0,0.0,0.0
1402752990547300342,3,-8.89635952194,-0.00591572024346,7.65347216781,-0.122189614607,2.16260862423,0.10862951003,0.00531212151415,0.0,-0.0321376964792,0.0,0.12890360832,0.0,-1.79066823491,0.0,0.00285378123891,0.0,-0.000740458921662,0.0,0.00400693974139,0.0,0.0733505791958,0.0,0.0129517479912,0.0,0.0,0.0,0.0,75.0,-0.0,22.86,0.00230154196664,0.0,-0.00383606751517,0.0,-0.0,0.0,-0.0,75.0,570664.8,0.0,0.0,0.0,0.0,0.0,0.0
1402752990566961195,3,-8.88736323576,-0.00591572024346,7.65598687369,-0.122189614607,2.15124584205,0.10862951003,0.0201834429986,0.0,-0.0413026876465,0.0,0.129884889909,0.0,-1.79080868649,0.0,0.00719310067789,0.0,-0.00252434641276,0.0,0.00253918778041,0.0,0.0741292227616,0.0,0.00579964568421,0.0,0.0,0.0,0.0,75.0,-0.0,22.86,0.00230154196664,0.0,-0.00383606751517,0.0,-0.0,0.0,-0.0,75.0,570664.8,0.0,0.0,0.0,0.0,0.0,0.0
1402752990586964222,3,-8.88736323576,-0.00591572024346,7.65598687369,-0.122189614607,2.15124584205,0.10862951003,0.0201834429986,0.0,-0.0413026876465,0.0,0.129884889909,0.0,-1.79080868649,0.0,0.00719310067789,0.0,-0.00252434641276,0.0,0.00253918778041,0.0,0.0741292227616,0.0,0.00579964568421,0.0,0.0,0.0,0.0,75.0,-0.0,22.86,0.00230154196664,0.0,-0.00383606751517,0.0,-0.0,0.0,-0.0,75.0,570664.8,0.0,0.0,0.0,0.0,0.0,0.0
1402752990606807968,3,-8.88655763998,-0.00591572024346,7.65423669683,-0.122189614607,2.15663696577,0.10862951003,0.0220712675921,0.0,-0.0411870105108,0.0,0.131035431733,0.0,-1.7905237537,0.0,0.00759394252142,0.0,-0.00273154834313,0.0,-0.00551377715616,0.0,0.0739456761743,0.0,0.00825020232321,0.0,0.0,0.0,0.0,75.0,-0.0,22.86,0.00230154196664,0.0,-0.00383606751517,0.0,-0.0,0.0,-0.0,75.0,570664.8,0.0,0.0,0.0,0.0,0.0,0.0
1402752990626879183,3,-8.88655763998,-0.00591572024346,7.65423669683,-0.122189614607,2.15663696577,0.10862951003,0.0220712675921,0.0,-0.0411870105108,0.0,0.131035431733,0.0,-1.7905237537,0.0,0.00759394252142,0.0,-0.00273154834313,0.0,-0.00551377715616,0.0,0.0739456761743,0.0,0.00825020232321,0.0,0.0,0.0,0.0,75.0,-0.0,22.86,0.00230154196664,0.0,-0.00383606751517,0.0,-0.0,0.0,-0.0,75.0,570664.8,0.0,0.0,0.0,0.0,0.0,0.0
1402752990646789905,3,-8.89337551738,-0.00591572024346,7.66901847704,-0.122189614607,2.13172758612,0.10862951003,0.00846417214632,0.0,-0.0285143857315,0.0,0.130635079725,0.0,-1.7899726007,0.0,0.00990954158333,0.0,-0.00099832253731,0.0,-0.00876892839365,0.0,0.072493055063,0.0,0.00132046162948,0.0,0.0,0.0,0.0,75.0,-0.0,22.86,0.00230154196664,0.0,-0.00383606751517,0.0,-0.0,0.0,-0.0,75.0,570664.8,0.0,0.0,0.0,0.0,0.0,0.0
1402752990667102472,3,-8.89337551738,-0.00591572024346,7.66901847704,-0.122189614607,2.13172758612,0.10862951003,0.00846417214632,0.0,-0.0285143857315,0.0,0.130635079725,0.0,-1.7899726007,0.0,0.00990954158333,0.0,-0.00099832253731,0.0,-0.00876892839365,0.0,0.072493055063,0.0,0.00132046162948,0.0,0.0,0.0,0.0,75.0,-0.0,22.86,0.00230154196664,0.0,-0.00383606751517,0.0,-0.0,0.0,-0.0,75.0,570664.8,0.0,0.0,0.0,0.0,0.0,0.0
1402752990686759780,3,-8.88963750259,-0.00591572024346,7.68116934955,-0.122189614607,2.10090546175,0.10862951003,0.018825683692,0.0,-0.0293705449372,0.0,0.129242463593,0.0,-1.78982472165,0.0,0.00474576830017,0.0,-0.0017318660333,0.0,-0.00706330617059,0.0,0.0722360467889,0.0,-0.00321232149714,0.0,0.0,0.0,0.0,75.0,-0.0,22.86,0.00230154196664,0.0,-0.00383606751517,0.0,-0.0,0.0,-0.0,75.0,570664.8,0.0,0.0,0.0,0.0,0.0,0.0
1402752990706812128,3,-8.88963750259,-0.00591572024346,7.68116934955,-0.122189614607,2.10090546175,0.10862951003,0.018825683692,0.0,-0.0293705449372,0.0,0.129242463593,0.0,-1.78982472165,0.0,0.00474576830017,0.0,-0.0017318660333,0.0,-0.00706330617059,0.0,0.0722360467889,0.0,-0.00321232149714,0.0,0.0,0.0,0.0,75.0,-0.0,22.86,0.00230154196664,0.0,-0.00383606751517,0.0,-0.0,0.0,-0.0,75.0,570664.8,0.0,0.0,0.0,0.0,0.0,0.0
1402752990726832759,3,-8.88570283853,-0.00591572024346,7.68251699005,-0.122189614607,2.08626799872,0.10862951003,0.0221604928858,0.0,-0.0430878258206,0.0,0.128747391969,0.0,-1.78977589871,0.0,0.00895662178266,0.0,-0.00225008313616,0.0,-0.013444364308,0.0,0.0733091837757,0.0,-0.00347585752879,0.0,0.0,0.0,0.0,75.0,-0.0,22.86,0.00230154196664,0.0,-0.00383606751517,0.0,-0.0,0.0,-0.0,75.0,570664.8,0.0,0.0,0.0,0.0,0.0,0.0
1402752990746916408,3,-8.88570283853,-0.00591572024346,7.68251699005,-0.122189614607,2.08626799872,0.10862951003,0.0221604928858,0.0,-0.0430878258206,0.0,0.128747391969,0.0,-1.78977589871,0.0,0.00895662178266,0.0,-0.00225008313616,0.0,-0.013444364308,0.0,0.0733091837757,0.0,-0.00347585752879,0.0,0.0,0.0,0.0,75.0,-0.0,22.86,0.00230154196664,0.0,-0.00383606751517,0.0,-0.0,0.0,-0.0,75.0,570664.8,0.0,0.0,0.0,0.0,0.0,0.0
1402752990766944252,3,-8.88118687465,-0.00591572024346,7.6939708792,-0.122189614607,2.06816290125,0.10862951003,0.0243620361434,0.0,-0.0365169548075,0.0,0.128824668597,0.0,-1.78947936432,0.0,0.00599243820747,0.0,-0.0020937345445,0.0,-0.0132958039086,0.0,0.0720563929557,0.0,-0.0063441686847,0.0,0.0,0.0,0.0,75.0,-0.0,22.86,0.00230154196664,0.0,-0.00383606751517,0.0,-0.0,0.0,-0.0,75.0,570664.8,0.0,0.0,0.0,0.0,0.0,0.0
1402752990786879237,3,-8.88118687465,-0.00591572024346,7.6939708792,-0.122189614607,2.06816290125,0.10862951003,0.0243620361434,0.0,-0.0365169548075,0.0,0.128824668597,0.0,-1.78947936432,0.0,0.00599243820747,0.0,-0.0020937345445,0.0,-0.0132958039086,0.0,0.0720563929557,0.0,-0.0063441686847,0.0,0.0,0.0,0.0,75.0,-0.0,22.86,0.00230154196664,0.0,-0.00383606751517,0.0,-0.0,0.0,-0.0,75.0,570664.8,0.0,0.0,0.0,0.0,0.0,0.0
1402752990807440509,3,-8.88406094159,-0.00591572024346,7.70196666211,-0.122189614607,2.04468190069,0.10862951003,0.0161802176034,0.0,-0.040907780592,0.0,0.127609006484,0.0,-1.78910751485,0.0,0.00660022931766,0.0,-0.00128354151245,0.0,-0.00583078793535,0.0,0.0722307151396,0.0,-0.00226649540471,0.0,0.0,0.0,0.0,75.0,-0.0,22.86,0.00230154196664,0.0,-0.00383606751517,0.0,-0.0,0.0,-0.0,75.0,570664.8,0.0,0.0,0.0,0.0,0.0,0.0
1402752990826970719,3,-8.88406094159,-0.00591572024346,7.70196666211,-0.122189614607,2.04468190069,0.10862951003,0.0161802176034,0.0,-0.040907780592,0.0,0.127609006484,0.0,-1.78910751485,0.0,0.00660022931766,0.0,-0.00128354151245,0.0,-0.00583078793535,0.0,0.0722307151396,0.0,-0.00226649540471,0.0,0.0,0.0,0.0,75.0,-0.0,22.86,0.00230154196664,0.0,-0.00383606751517,0.0,-0.0,0.0,-0.0,75.0,570664.8,0.0,0.0,0.0,0.0,0.0,0.0
1402752990847261392,3,-8.87204822791,-0.00591572024346,7.71319810688,-0.122189614607,2.03212547656,0.10862951003,0.0312665084291,0.0,-0.031673539927,0.0,0.12732683433,0.0,-1.78885452438,0.0,0.0104122985057,0.0,-0.00234743135113,0.0,-0.00937048365934,0.0,0.0706407950693,0.0,0.0021081123972,0.0,0.0,0.0,0.0,75.0,-0.0,22.86,0.00230154196664,0.0,-0.00383606751517,0.0,-0.0,0.0,-0.0,75.0,570664.8,0.0,0.0,0.0,0.0,0.0,0.0
1402752990867452482,3,-8.87204822791,-0.00591572024346,7.71319810688,-0.122189614607,2.03212547656,0.10862951003,0.0312665084291,0.0,-0.031673539927,0.0,0.12732683433,0.0,-1.78885452438,0.0,0.0104122985057,0.0,-0.00234743135113,0.0,-0.00937048365934,0.0,0.0706407950693,0.0,0.0021081123972,0.0,0.0,0.0,0.0,75.0,-0.0,22.86,0.00230154196664,0.0,-0.00383606751517,0.0,-0.0,0.0,-0.0,75.0,570664.8,0.0,0.0,0.0,0.0,0.0,0.0
1402752990886779831,3,-8.88412527015,-0.00591572024346,7.72420921626,-0.122189614607,1.99702245639,0.10862951003,0.00583680113433,0.0,-0.0374502318548,0.0,0.124626686087,0.0,-1.78838362091,0.0,0.00492131810671,0.0,-0.000142625538273,0.0,0.00106456983208,0.0,0.0714712358087,0.0,0.00234325039206,0.0,0.0,0.0,0.0,75.0,-0.0,22.86,0.00230154196664,0.0,-0.00383606751517,0.0,-0.0,0.0,-0.0,75.0,570664.8,0.0,0.0,0.0,0.0,0.0,0.0
1402752990906906510,3,-8.88412527015,-0.00591572024346,7.72420921626,-0.122189614607,1.99702245639,0.10862951003,0.00583680113433,0.0,-0.0374502318548,0.0,0.124626686087,0.0,-1.78838362091,0.0,0.00492131810671,0.0,-0.000142625538273,0.0,0.00106456983208,0.0,0.0714712358087,0.0,0.00234325039206,0.0,0.0,0.0,0.0,75.0,-0.0,22.86,0.00230154196664,0.0,-0.00383606751517,75.0,-0.0,0.0,-0.0,75.0,570664.8,0.0,0.0,0.0,0.0,0.0,0.0
1402752990926765380,3,-8.87653673766,-0.00591572024346,7.72286803108,-0.122189614607,1.99976046377,0.10862951003,0.0105202509203,0.0,-0.0455671134686,0.0,0.126630896395,0.0,-1.78807649341,0.0,0.00775149645988,0.0,-0.00102860577994,0.0,0.00112583303914,0.0,0.0721592483087,0.0,-0.00151122032872,0.0,0.0,0.0,0.0,75.0,-0.0,22.86,0.00230154196664,0.0,-0.00383606751517,75.0,-0.0,0.0,-0.0,75.0,570664.8,0.0,0.0,0.0,0.0,0.0,0.0
1402752990946784484,3,-8.87653673766,-0.00591572024346,7.72286803108,-0.122189614607,1.99976046377,0.10862951003,0.0105202509203,0.0,-0.0455671134686,0.0,0.126630896395,0.0,-1.78807649341,0.0,0.00775149645988,0.0,-0.00102860577994,0.0,0.00112583303914,0.0,0.0721592483087,0.0,-0.00151122032872,0.0,0.0,0.0,0.0,75.0,-0.0,22.86,0.00230154196664,0.0,-0.00383606751517,75.0,-0.0,0.0,-0.0,75.0,570664.8,0.0,0.0,0.0,0.0,0.0,0.0
1402752990966827992,3,-8.86942277804,-0.00591572024346,7.73682536406,-0.122189614607,1.97838145677,0.10862951003,0.0210847645255,0.0,-0.0341563620277,0.0,0.124696316737,0.0,-1.78781213054,0.0,0.0113291398123,0.0,-0.00180341109731,0.0,0.00267443701711,0.0,0.0707229279681,0.0,0.00186862884096,0.0,0.0,0.0,0.0,75.0,-0.0,22.86,0.00230154196664,0.0,-0.000767381983555,75.0,-0.0,0.0,-0.0,75.0,570664.8,0.0,0.0,0.0,0.0,0.0,0.0
1402752990987003686,3,-8.86942277804,-0.00591572024346,7.73682536406,-0.122189614607,1.97838145677,0.10862951003,0.0210847645255,0.0,-0.0341563620277,0.0,0.124696316737,0.0,-1.78781213054,0.0,0.0113291398123,0.0,-0.00180341109731,0.0,0.00267443701711,0.0,0.0707229279681,0.0,0.00186862884096,0.0,0.0,0.0,0.0,75.0,-0.0,22.86,0.00230154196664,0.0,-0.000767381983555,75.0,-0.0,0.0,-0.0,75.0,570664.8,0.0,0.0,0.0,0.0,0.0,0.0
1402752991006998250,3,-8.86836220685,-0.00591572024346,7.73496298795,-0.122189614607,1.98494135649,0.10862951003,0.0231167022657,0.0,-0.0345558645749,0.0,0.124787404628,0.0,-1.78743095805,0.0,0.00471452457629,0.0,-0.00205163853491,0.0,0.00451777196373,0.0,0.0707960054631,0.0,0.00670500768024,0.0,0.0,0.0,0.0,75.0,-0.0,22.86,0.00230154196664,0.0,-0.00383606751517,75.0,-0.0,0.0,-0.0,75.0,570664.8,0.0,0.0,0.0,0.0,0.0,0.0
1402752991026647170,3,-8.86836220685,-0.00591572024346,7.73496298795,-0.122189614607,1.98494135649,0.10862951003,0.0231167022657,0.0,-0.0345558645749,0.0,0.124787404628,0.0,-1.78743095805,0.0,0.00471452457629,0.0,-0.00205163853491,0.0,0.00451777196373,0.0,0.0707960054631,0.0,0.00670500768024,0.0,0.0,0.0,0.0,75.0,-0.0,22.86,0.00230154196664,0.0,-0.00230160554007,75.0,-0.0,0.0,-0.0,75.0,570664.8,0.0,0.0,0.0,0.0,0.0,0.0
1402752991046728666,3,-8.86780963575,-0.00591572024346,7.74452951724,-0.122189614607,1.955206903,0.10862951003,0.0235398700045,0.0,-0.0398351242643,0.0,0.121807432928,0.0,-1.78733557141,0.0,0.00987073377589,0.0,-0.00235922201586,0.0,0.00644737291154,0.0,0.0715411219138,0.0,0.00873392639186,0.0,0.0,0.0,0.0,75.0,-0.0,22.86,0.00230154196664,0.0,-0.00230160554007,75.0,-0.0,0.0,-0.0,75.0,570664.8,0.0,0.0,0.0,0.0,0.0,0.0
1402752991066907449,3,-8.86780963575,-0.00591572024346,7.74452951724,-0.122189614607,1.955206903,0.10862951003,0.0235398700045,0.0,-0.0398351242643,0.0,0.121807432928,0.0,-1.78733557141,0.0,0.00987073377589,0.0,-0.00235922201586,0.0,0.00644737291154,0.0,0.0715411219138,0.0,0.00873392639186,0.0,0.0,0.0,0.0,75.0,-0.0,22.86,0.00230154196664,0.0,-0.00383606751517,75.0,-0.0,0.0,-0.0,75.0,570664.8,0.0,0.0,0.0,0.0,0.0,0.0
1402752991086978186,3,-8.86663042591,-0.00591572024346,7.75285877523,-0.122189614607,1.94709737345,0.10862951003,0.0171686277352,0.0,-0.0411863483389,0.0,0.12556682534,0.0,-1.78687096004,0.0,0.0140002049316,0.0,-0.0015600841687,0.0,0.0139072663382,0.0,0.0708288198423,0.0,0.0236953266989,0.0,0.0,0.0,0.0,75.0,-0.0,22.86,0.00230154196664,0.0,-0.00383606751517,75.0,-0.0,0.0,-0.0,75.0,570664.8,0.0,0.0,0.0,0.0,0.0,0.0
1402752991106949676,3,-8.86663042591,-0.00591572024346,7.75285877523,-0.122189614607,1.94709737345,0.10862951003,0.0171686277352,0.0,-0.0411863483389,0.0,0.12556682534,0.0,-1.78687096004,0.0,0.0140002049316,0.0,-0.0015600841687,0.0,0.0139072663382,0.0,0.0708288198423,0.0,0.0236953266989,0.0,0.0,0.0,0.0,75.0,-0.0,22.86,0.00230154196664,0.0,-0.00383606751517,75.0,-0.0,0.0,-0.0,75.0,570664.8,0.0,0.0,0.0,0.0,0.0,0.0
1402752991126753378,3,-8.86597533954,-0.00591572024346,7.75044479762,-0.122189614607,1.95222598104,0.10862951003,0.01136789668,0.0,-0.0683188193508,0.0,0.124029968875,0.0,-1.78578538462,0.0,0.0340117512651,0.0,-0.000881884263235,0.0,-0.0432763008656,0.0,0.0701403739152,0.0,-0.0387893903694,0.0,0.0,0.0,0.0,75.0,-0.0,22.86,0.00230154196664,0.0,-0.00383606751517,75.0,-0.0,0.0,-0.0,75.0,570664.8,0.0,0.0,0.0,0.0,0.0,0.0
1402752991146832040,3,-8.86597533954,-0.00591572024346,7.75044479762,-0.122189614607,1.95222598104,0.10862951003,0.01136789668,0.0,-0.0683188193508,0.0,0.124029968875,0.0,-1.78578538462,0.0,0.0340117512651,0.0,-0.000881884263235,0.0,-0.0432763008656,0.0,0.0701403739152,0.0,-0.0387893903694,0.0,0.0,0.0,0.0,75.0,-0.0,22.86,0.00230154196664,0.0,-0.00383606751517,75.0,-0.0,0.0,-0.0,75.0,570664.8,0.0,0.0,0.0,0.0,0.0,0.0
1402752991166812094,3,-8.86610864311,-0.00591572024346,7.74960762665,-0.122189614607,1.94016948154,0.10862951003,0.0061389445721,0.0,-0.106324875639,0.0,0.115836387423,0.0,-1.78343706948,0.0,0.0551674106034,0.0,-0.0011249321832,0.0,-0.0662418308836,0.0,0.0699096553895,0.0,-0.0312287078926,0.0,0.0,0.0,0.0,75.0,-0.0,22.86,0.00230154196664,0.0,-0.00383606751517,75.0,-0.0,0.0,-0.0,75.0,570664.8,0.0,0.0,0.0,0.0,0.0,0.0
1402752991186804230,3,-8.86610864311,-0.00591572024346,7.74960762665,-0.122189614607,1.94016948154,0.10862951003,0.0061389445721,0.0,-0.106324875639,0.0,0.115836387423,0.0,-1.78343706948,0.0,0.0551674106034,0.0,-0.0011249321832,0.0,-0.0662418308836,0.0,0.0699096553895,0.0,-0.0312287078926,0.0,0.0,0.0,0.0,75.0,-0.0,22.86,0.00230154196664,0.0,-0.00383606751517,75.0,-0.0,0.0,-0.0,75.0,570664.8,0.0,0.0,0.0,0.0,0.0,0.0
1402752991206674188,3,-8.8578499304,-0.00591572024346,7.7619455202,-0.122189614607,1.92099082222,0.10862951003,0.0193945019469,0.0,-0.121069498566,0.0,0.13467198731,0.0,-1.78132087493,0.0,0.0679048823653,0.0,0.000207999600074,0.0,-0.0681964918986,0.0,0.0659414505217,0.0,-0.0235241771236,0.0,0.0,0.0,0.0,75.0,-0.0,22.86,0.00230154196664,0.0,-0.00383606751517,75.0,-0.0,0.0,-0.0,75.0,570664.8,0.0,0.0,0.0,0.0,0.0,0.0
1402752991226763704,3,-8.8578499304,-0.00591572024346,7.7619455202,-0.122189614607,1.92099082222,0.10862951003,0.0193945019469,0.0,-0.121069498566,0.0,0.13467198731,0.0,-1.78132087493,0.0,0.0679048823653,0.0,0.000207999600074,0.0,-0.0681964918986,0.0,0.0659414505217,0.0,-0.0235241771236,0.0,0.0,0.0,0.0,75.0,-0.0,22.86,0.00230154196664,0.0,-0.00383606751517,75.0,-0.0,0.0,-0.0,75.0,570664.8,0.0,0.0,0.0,0.0,0.0,0.0
1402752991246861312,3,-8.86414486295,-0.00591572024346,7.76799229429,-0.122189614607,1.88870138275,0.10862951003,0.0110413636783,0.0,-0.153970682687,0.0,0.143314061124,0.0,-1.77822655281,0.0,0.0798677296546,0.0,0.002857284672,0.0,-0.0925665853339,0.0,0.0639663293421,0.0,-0.0352925881412,0.0,0.0,0.0,0.0,75.0,-0.0,22.86,0.00230154196664,0.0,-0.00383606751517,75.0,-0.0,0.0,-0.0,75.0,570664.8,0.0,0.0,0.0,0.0,0.0,0.0
1402752991266750858,3,-8.86414486295,-0.00591572024346,7.76799229429,-0.122189614607,1.88870138275,0.10862951003,0.0110413636783,0.0,-0.153970682687,0.0,0.143314061124,0.0,-1.77822655281,0.0,0.0798677296546,0.0,0.002857284672,0.0,-0.0925665853339,0.0,0.0639663293421,0.0,-0.0352925881412,0.0,0.0,0.0,0.0,75.0,-0.0,22.86,0.00230154196664,0.0,-0.00383606751517,75.0,-0.0,0.0,-0.0,75.0,570664.8,0.0,0.0,0.0,0.0,0.0,0.0
1402752991316594962,3,-8.86342886122,-0.00591572024346,7.7744921522,-0.122189614607,1.86849050027,0.10862951003,0.0113917493736,0.0,-0.173757545228,0.0,0.140243508557,0.0,-1.77513123906,0.0,0.0985684634605,0.0,0.00495630943495,0.0,-0.0731638660929,0.0,0.0601542007097,0.0,-0.00706893556102,0.0,0.0,0.0,0.0,75.0,-0.0,22.86,0.00230154196664,0.0,-0.00383606751517,75.0,-0.0,0.0,-0.0,75.0,570664.8,0.0,0.0,0.0,0.0,0.0,0.0
1402752991316883998,3,-8.86342886122,-0.00591572024346,7.7744921522,-0.122189614607,1.86849050027,0.10862951003,0.0113917493736,0.0,-0.173757545228,0.0,0.140243508557,0.0,-1.77513123906,0.0,0.0985684634605,0.0,0.00495630943495,0.0,-0.0731638660929,0.0,0.0601542007097,0.0,-0.00706893556102,0.0,0.0,0.0,0.0,75.0,-0.0,22.86,0.00230154196664,0.0,-0.00383606751517,75.0,-0.0,0.0,-0.0,75.0,570664.8,0.0,0.0,0.0,0.0,0.0,0.0
1402752991327527368,3,-8.85987927742,-0.00591572024346,7.7714650111,-0.122189614607,1.86539720617,0.10862951003,0.0101140052324,0.0,-0.202448762932,0.0,0.137511125114,0.0,-1.77109530473,0.0,0.106989154133,0.0,0.00750449011416,0.0,-0.0733122512588,0.0,0.0574420165127,0.0,-0.00664302872553,0.0,0.0,0.0,0.0,75.0,-0.0,22.86,0.00230154196664,0.0,-0.00383606751517,75.0,-0.0,0.0,-0.0,75.0,570664.8,0.0,0.0,0.0,0.0,0.0,0.0
1402752991346766050,3,-8.85987927742,-0.00591572024346,7.7714650111,-0.122189614607,1.86539720617,0.10862951003,0.0101140052324,0.0,-0.202448762932,0.0,0.137511125114,0.0,-1.77109530473,0.0,0.106989154133,0.0,0.00750449011416,0.0,-0.0733122512588,0.0,0.0574420165127,0.0,-0.00664302872553,0.0,0.0,0.0,0.0,75.0,-0.0,22.86,0.00230154196664,0.0,-0.00383606751517,75.0,-0.0,0.0,-0.0,75.0,570664.8,0.0,0.0,0.0,0.0,0.0,0.0
1402752991367269487,3,-8.85630875927,-0.00591572024346,7.77255060029,-0.122189614607,1.84409772496,0.10862951003,0.0153689902997,0.0,-0.236798906041,0.0,0.130351681271,0.0,-1.76483747007,0.0,0.123816015856,0.0,0.00845510695059,0.0,-0.0465547902204,0.0,0.0544081598154,0.0,0.00519823322997,0.0,0.0,0.0,0.0,75.0,-0.0,22.86,0.00230154196664,0.0,-0.00383606751517,75.0,-0.0,0.0,-0.0,75.0,570664.8,0.0,0.0,0.0,0.0,0.0,0.0
1402752991387063505,3,-8.85630875927,-0.00591572024346,7.77255060029,-0.122189614607,1.84409772496,0.10862951003,0.0153689902997,0.0,-0.236798906041,0.0,0.130351681271,0.0,-1.76483747007,0.0,0.123816015856,0.0,0.00845510695059,0.0,-0.0465547902204,0.0,0.0544081598154,0.0,0.00519823322997,0.0,0.0,0.0,0.0,75.0,-0.0,22.86,0.00230154196664,0.0,-0.00383606751517,75.0,-0.0,0.0,-0.0,75.0,570664.8,0.0,0.0,0.0,0.0,0.0,0.0
1402752991406834210,3,-8.85578711859,-0.00591572024346,7.76482397607,-0.122189614607,1.84810724861,0.10862951003,0.0148036341634,0.0,-0.258160057626,0.0,0.127176993267,0.0,-1.76061579659,0.0,0.139792639913,0.0,0.00850020359648,0.0,-0.0272042805949,0.0,0.0534421689267,0.0,0.00120714101054,0.0,0.0,0.0,0.0,75.0,-0.0,22.86,0.00230154196664,0.0,-0.00383606751517,75.0,-0.0,0.0,-0.0,75.0,570664.8,0.0,0.0,0.0,0.0,0.0,0.0
1402752991426838988,3,-8.85705095832,-0.00591572024346,7.77512360718,-0.122189614607,1.81471225422,0.10862951003,0.0139006268685,0.0,-0.264381221895,0.0,0.122780853615,0.0,-1.75855984346,0.0,0.142156265733,0.0,0.00912502113272,0.0,-0.0194091933885,0.0,0.0523631282789,0.0,-0.00277965412838,0.0,0.0,0.0,0.0,75.0,-0.0,22.86,0.00230154196664,0.0,-0.00383606751517,75.0,-0.0,0.0,-0.0,75.0,570664.8,0.0,0.0,0.0,0.0,0.0,0.0
1402752991447253759,3,-8.85705095832,-0.00591572024346,7.77512360718,-0.122189614607,1.81471225422,0.10862951003,0.0139006268685,0.0,-0.264381221895,0.0,0.122780853615,0.0,-1.75855984346,0.0,0.142156265733,0.0,0.00912502113272,0.0,-0.0194091933885,0.0,0.0523631282789,0.0,-0.00277965412838,0.0,0.0,0.0,0.0,75.0,-0.0,22.86,0.00230154196664,0.0,-0.00383606751517,75.0,-0.0,0.0,-0.0,75.0,570664.8,0.0,0.0,0.0,0.0,0.0,0.0
1402752991466855616,3,-8.85672559312,-0.00591572024346,7.76970486133,-0.122189614607,1.81709288525,0.10862951003,0.017074643039,0.0,-0.279504483734,0.0,0.122337151732,0.0,-1.7556701385,0.0,0.15085761124,0.0,0.00877166911322,0.0,0.00566011147272,0.0,0.0522645504957,0.0,0.0248835132469,0.0,0.0,0.0,0.0,75.0,-0.0,22.86,0.00230154196664,0.0,-0.00383606751517,75.0,-0.0,0.0,-0.0,75.0,570664.8,0.0,0.0,0.0,0.0,0.0,0.0
1402752991486773396,3,-8.85672559312,-0.00591572024346,7.76970486133,-0.122189614607,1.81709288525,0.10862951003,0.017074643039,0.0,-0.279504483734,0.0,0.122337151732,0.0,-1.7556701385,0.0,0.15085761124,0.0,0.00877166911322,0.0,0.00566011147272,0.0,0.0522645504957,0.0,0.0248835132469,0.0,0.0,0.0,0.0,75.0,-0.0,22.86,0.00230154196664,0.0,-0.00383606751517,75.0,-0.0,0.0,-0.0,75.0,570664.8,0.0,0.0,0.0,0.0,0.0,0.0
1402752991506733581,3,-8.85931053551,-0.00591572024346,7.76695273683,-0.122189614607,1.80405894011,0.10862951003,0.00516167914424,0.0,-0.301248781302,0.0,0.120197370561,0.0,-1.75134390112,0.0,0.161152196774,0.0,0.00939771959626,0.0,0.0189120737762,0.0,0.0523591111105,0.0,0.00447923411403,0.0,0.0,0.0,0.0,75.0,-0.0,22.86,0.00230154196664,0.0,-0.00383606751517,75.0,-0.0,0.0,-0.0,75.0,570664.8,0.0,0.0,0.0,0.0,0.0,0.0
1402752991526791366,3,-8.85931053551,-0.00591572024346,7.76695273683,-0.122189614607,1.80405894011,0.10862951003,0.00516167914424,0.0,-0.301248781302,0.0,0.120197370561,0.0,-1.75134390112,0.0,0.161152196774,0.0,0.00939771959626,0.0,0.0189120737762,0.0,0.0523591111105,0.0,0.00447923411403,0.0,0.0,0.0,0.0,75.0,-0.0,22.86,0.00230154196664,0.0,-0.00383606751517,75.0,-0.0,0.0,-0.0,75.0,570664.8,0.0,0.0,0.0,0.0,0.0,0.0
1402752991546980995,3,-8.85906482949,-0.00591572024346,7.75375153462,-0.122189614607,1.80911299775,0.10862951003,0.00704380411323,0.0,-0.326798990874,0.0,0.121218621503,0.0,-1.74434586419,0.0,0.175167903215,0.0,0.00806953043602,0.0,0.0428076688398,0.0,0.0534810894124,0.0,0.0176632696948,0.0,0.0,0.0,0.0,75.0,-0.0,22.86,0.00230154196664,0.0,-0.00383606751517,75.0,-0.0,0.0,-0.0,75.0,570664.8,0.0,0.0,0.0,0.0,0.0,0.0
1402752991566920661,3,-8.85906482949,-0.00591572024346,7.75375153462,-0.122189614607,1.80911299775,0.10862951003,0.00704380411323,0.0,-0.326798990874,0.0,0.121218621503,0.0,-1.74434586419,0.0,0.175167903215,0.0,0.00806953043602,0.0,0.0428076688398,0.0,0.0534810894124,0.0,0.0176632696948,0.0,0.0,0.0,0.0,75.0,-0.0,22.86,0.00230154196664,0.0,-0.00383606751517,75.0,-0.0,0.0,-0.0,75.0,570664.8,0.0,0.0,0.0,0.0,0.0,0.0
1402752991587234702,3,-8.85813580193,-0.00591572024346,7.7558679364,-0.122189614607,1.78107476714,0.10862951003,0.00657558616951,0.0,-0.341941854515,0.0,0.110283302236,0.0,-1.73794993859,0.0,0.189808027546,0.0,0.00714868805143,0.0,0.0478849950357,0.0,0.0545012227527,0.0,0.0297561010701,0.0,0.0,0.0,0.0,75.0,-0.0,22.86,0.00230154196664,0.0,-0.00383606751517,75.0,-0.0,0.0,-0.0,75.0,570664.8,0.0,0.0,0.0,0.0,0.0,0.0
1402752991606870461,3,-8.85813580193,-0.00591572024346,7.7558679364,-0.122189614607,1.78107476714,0.10862951003,0.00657558616951,0.0,-0.341941854515,0.0,0.110283302236,0.0,-1.73794993859,0.0,0.189808027546,0.0,0.00714868805143,0.0,0.0478849950357,0.0,0.0545012227527,0.0,0.0297561010701,0.0,0.0,0.0,0.0,75.0,-0.0,22.86,0.00230154196664,0.0,-0.00383606751517,75.0,-0.0,0.0,-0.0,75.0,570664.8,0.0,0.0,0.0,0.0,0.0,0.0
1402752991626912622,3,-8.86146539784,-0.00591572024346,7.74970213173,-0.122189614607,1.76415523853,0.10862951003,-0.00418434486896,0.0,-0.365770960474,0.0,0.10416926234,0.0,-1.7317940877,0.0,0.199478227082,0.0,0.00715035180951,0.0,0.050890439222,0.0,0.0567731862047,0.0,0.0239474280148,0.0,0.0,0.0,0.0,75.0,-0.0,22.86,0.00230154196664,0.0,-0.00383606751517,75.0,-0.0,0.0,-0.0,75.0,570664.8,0.0,0.0,0.0,0.0,0.0,0.0
1402752991647481924,3,-8.86146539784,-0.00591572024346,7.74970213173,-0.122189614607,1.76415523853,0.10862951003,-0.00418434486896,0.0,-0.365770960474,0.0,0.10416926234,0.0,-1.7317940877,0.0,0.199478227082,0.0,0.00715035180951,0.0,0.050890439222,0.0,0.0567731862047,0.0,0.0239474280148,0.0,0.0,0.0,0.0,75.0,-0.0,22.86,0.00230154196664,0.0,-0.00383606751517,75.0,-0.0,0.0,-0.0,75.0,570664.8,0.0,0.0,0.0,0.0,0.0,0.0
1402752991666716078,3,-8.85710128789,-0.00591572024346,7.73797487782,-0.122189614607,1.74851701879,0.10862951003,-0.000110403341495,0.0,-0.395883030343,0.0,0.107134114112,0.0,-1.72049793282,0.0,0.208596074329,0.0,0.00569816938521,0.0,0.0546965037441,0.0,0.0600487541521,0.0,0.00412152990051,0.0,0.0,0.0,0.0,75.0,-0.0,22.86,0.00230154196664,0.0,-0.00383606751517,75.0,-0.0,0.0,-0.0,75.0,570664.8,0.0,0.0,0.0,0.0,0.0,0.0
1402752991686583564,3,-8.85710128789,-0.00591572024346,7.73797487782,-0.122189614607,1.74851701879,0.10862951003,-0.000110403341495,0.0,-0.395883030343,0.0,0.107134114112,0.0,-1.72049793282,0.0,0.208596074329,0.0,0.00569816938521,0.0,0.0546965037441,0.0,0.0600487541521,0.0,0.00412152990051,0.0,0.0,0.0,0.0,75.0,-0.0,22.86,0.00230154196664,0.0,-0.00383606751517,75.0,-0.0,0.0,-0.0,75.0,570664.8,0.0,0.0,0.0,0.0,0.0,0.0
1402752991706689515,3,-8.85753082605,-0.00591572024346,7.72741446263,-0.122189614607,1.74044234272,0.10862951003,-0.00630412890439,0.0,-0.41387000394,0.0,0.10887401558,0.0,-1.71159600164,0.0,0.226543487893,0.0,0.0059453830221,0.0,0.0462323031445,0.0,0.0616953906316,0.0,0.0116008167218,0.0,0.0,0.0,0.0,75.0,-0.0,22.86,0.00230154196664,0.0,-0.00383606751517,75.0,-0.0,0.0,-0.0,75.0,570664.8,0.0,0.0,0.0,0.0,0.0,0.0
1402752991726733880,3,-8.85753082605,-0.00591572024346,7.72741446263,-0.122189614607,1.74044234272,0.10862951003,-0.00630412890439,0.0,-0.41387000394,0.0,0.10887401558,0.0,-1.71159600164,0.0,0.226543487893,0.0,0.0059453830221,0.0,0.0462323031445,0.0,0.0616953906316,0.0,0.0116008167218,0.0,0.0,0.0,0.0,75.0,-0.0,22.86,0.00230154196664,0.0,-0.00383606751517,75.0,-0.0,0.0,-0.0,75.0,570664.8,0.0,0.0,0.0,0.0,0.0,0.0
1402752991746814087,3,-8.85845488624,-0.00591572024346,7.73573997447,-0.122189614607,1.70649289115,0.10862951003,-0.0112165597868,0.0,-0.414903038515,0.0,0.105105519382,0.0,-1.7082321123,0.0,0.22366120725,0.0,0.00630574267862,0.0,0.0356813268328,0.0,0.0617951021635,0.0,0.00476512166285,0.0,0.0,0.0,0.0,75.0,-0.0,22.86,0.00230154196664,0.0,-0.00383606751517,75.0,-0.0,0.0,-0.0,75.0,570664.8,0.0,0.0,0.0,0.0,0.0,0.0
1402752991767487346,3,-8.85845488624,-0.00591572024346,7.73573997447,-0.122189614607,1.70649289115,0.10862951003,-0.0112165597868,0.0,-0.414903038515,0.0,0.105105519382,0.0,-1.7082321123,0.0,0.22366120725,0.0,0.00630574267862,0.0,0.0356813268328,0.0,0.0617951021635,0.0,0.00476512166285,0.0,0.0,0.0,0.0,75.0,-0.0,22.86,0.00230154196664,0.0,-0.00383606751517,75.0,-0.0,0.0,-0.0,75.0,570664.8,0.0,0.0,0.0,0.0,0.0,0.0
1402752991786842215,3,-8.86356600348,-0.00591572024346,7.73145828672,-0.122189614607,1.688555645,0.10862951003,-0.0305329900134,0.0,-0.423642079799,0.0,0.112218084735,0.0,-1.70169318559,0.0,0.24146267868,0.0,0.0079164695154,0.0,0.0207676609487,0.0,0.0620843669561,0.0,-0.0051635286015,0.0,0.0,0.0,0.0,75.0,-0.0,22.86,0.00230154196664,0.0,-0.00383606751517,75.0,-0.0,0.0,-0.0,75.0,570664.8,0.0,0.0,0.0,0.0,0.0,0.0
1402752991806890870,3,-8.86356600348,-0.00591572024346,7.73145828672,-0.122189614607,1.688555645,0.10862951003,-0.0305329900134,0.0,-0.423642079799,0.0,0.112218084735,0.0,-1.70169318559,0.0,0.24146267868,0.0,0.0079164695154,0.0,0.0207676609487,0.0,0.0620843669561,0.0,-0.0051635286015,0.0,0.0,0.0,0.0,75.0,-0.0,22.86,0.00230154196664,0.0,-0.00383606751517,75.0,-0.0,0.0,-0.0,75.0,570664.8,0.0,0.0,0.0,0.0,0.0,0.0
1402752991826858798,3,-8.86154517979,-0.00591572024346,7.72322800954,-0.122189614607,1.67065646914,0.10862951003,-0.0294535730452,0.0,-0.445204024549,0.0,0.121343141857,0.0,-1.69147715013,0.0,0.244128856382,0.0,0.00806355479963,0.0,0.0221788303719,0.0,0.0632476067025,0.0,-0.016159695526,0.0,0.0,0.0,0.0,75.0,-0.0,22.86,0.00230154196664,0.0,-0.00383606751517,75.0,-0.0,0.0,-0.0,75.0,570664.8,0.0,0.0,0.0,0.0,0.0,0.0
1402752991847427848,3,-8.86154517979,-0.00591572024346,7.72322800954,-0.122189614607,1.67065646914,0.10862951003,-0.0294535730452,0.0,-0.445204024549,0.0,0.121343141857,0.0,-1.69147715013,0.0,0.244128856382,0.0,0.00806355479963,0.0,0.0221788303719,0.0,0.0632476067025,0.0,-0.016159695526,0.0,0.0,0.0,0.0,75.0,-0.0,22.86,0.00230154196664,0.0,-0.00383606751517,75.0,-0.0,0.0,-0.0,75.0,570664.8,0.0,0.0,0.0,0.0,0.0,0.0
1402752991866858873,3,-8.86270787428,-0.00591572024346,7.70471457832,-0.122189614607,1.67564823694,0.10862951003,-0.0288235807142,0.0,-0.462853383163,0.0,0.128349507885,0.0,-1.68143980146,0.0,0.244101114298,0.0,0.00820574322204,0.0,0.00561199890146,0.0,0.0635362227399,0.0,-0.0141472113407,0.0,0.0,0.0,0.0,75.0,-0.0,22.86,0.00230154196664,0.0,-0.00383606751517,75.0,-0.0,0.0,-0.0,75.0,570664.8,0.0,0.0,0.0,0.0,0.0,0.0
1402752991887380847,3,-8.86270787428,-0.00591572024346,7.70471457832,-0.122189614607,1.67564823694,0.10862951003,-0.0288235807142,0.0,-0.462853383163,0.0,0.128349507885,0.0,-1.68143980146,0.0,0.244101114298,0.0,0.00820574322204,0.0,0.00561199890146,0.0,0.0635362227399,0.0,-0.0141472113407,0.0,0.0,0.0,0.0,75.0,-0.0,22.86,0.00230154196664,0.0,-0.00383606751517,75.0,-0.0,0.0,-0.0,75.0,570664.8,0.0,0.0,0.0,0.0,0.0,0.0
1402752991906816927,3,-8.86786015243,-0.00591572024346,7.68943928648,-0.122189614607,1.66226941002,0.10862951003,-0.0407559984669,0.0,-0.490333747231,0.0,0.126900068338,0.0,-1.67215236661,0.0,0.252490774787,0.0,0.00938004184527,0.0,-0.00613952344029,0.0,0.0647428050004,0.0,0.00573836176471,0.0,0.0,0.0,0.0,75.0,-0.0,22.86,0.00230154196664,0.0,-0.00383606751517,75.0,-0.0,0.0,-0.0,75.0,570664.8,0.0,0.0,0.0,0.0,0.0,0.0
1402752991926740558,3,-8.86786015243,-0.00591572024346,7.68943928648,-0.122189614607,1.66226941002,0.10862951003,-0.0407559984669,0.0,-0.490333747231,0.0,0.126900068338,0.0,-1.67215236661,0.0,0.252490774787,0.0,0.00938004184527,0.0,-0.00613952344029,0.0,0.0647428050004,0.0,0.00573836176471,0.0,0.0,0.0,0.0,75.0,-0.0,22.86,0.00230154196664,0.0,-0.00383606751517,75.0,-0.0,0.0,-0.0,75.0,570664.8,0.0,0.0,0.0,0.0,0.0,0.0
1402752991946879519,3,-8.8561782256,-0.00591572024346,7.67848314554,-0.122189614607,1.64919248659,0.10862951003,-0.0191644569504,0.0,-0.497916324339,0.0,0.130319868959,0.0,-1.65770498984,0.0,0.253787500235,0.0,0.00800706950476,0.0,-0.0173706283304,0.0,0.0623867194965,0.0,-0.0115251991297,0.0,0.0,0.0,0.0,75.0,-0.0,22.86,0.00230154196664,0.0,-0.00383606751517,75.0,-0.0,0.0,-0.0,75.0,570664.8,0.0,0.0,0.0,0.0,0.0,0.0
1402752991966890623,3,-8.8561782256,-0.00591572024346,7.67848314554,-0.122189614607,1.64919248659,0.10862951003,-0.0191644569504,0.0,-0.497916324339,0.0,0.130319868959,0.0,-1.65770498984,0.0,0.253787500235,0.0,0.00800706950476,0.0,-0.0173706283304,0.0,0.0623867194965,0.0,-0.0115251991297,0.0,0.0,0.0,0.0,75.0,-0.0,22.86,0.00230154196664,0.0,-0.00383606751517,75.0,-0.0,0.0,-0.0,75.0,570664.8,0.0,0.0,0.0,0.0,0.0,0.0
1402752991987141122,3,-8.86009938327,-0.00591572024346,7.66040579735,-0.122189614607,1.62221997442,0.10862951003,-0.0210774300014,0.0,-0.533057365043,0.0,0.129575297531,0.0,-1.64454315177,0.0,0.255069028339,0.0,0.00857480561888,0.0,-0.0234564030246,0.0,0.0629843442274,0.0,-0.0146326368168,0.0,0.0,0.0,0.0,75.0,-0.0,22.86,0.00230154196664,0.0,-0.00383606751517,75.0,-0.0,0.0,-0.0,75.0,570664.8,0.0,0.0,0.0,0.0,0.0,0.0
1402752992006916131,3,-8.86009938327,-0.00591572024346,7.66040579735,-0.122189614607,1.62221997442,0.10862951003,-0.0210774300014,0.0,-0.533057365043,0.0,0.129575297531,0.0,-1.64454315177,0.0,0.255069028339,0.0,0.00857480561888,0.0,-0.0234564030246,0.0,0.0629843442274,0.0,-0.0146326368168,0.0,0.0,0.0,0.0,75.0,-0.0,22.86,0.00230154196664,0.0,-0.00383606751517,75.0,-0.0,0.0,-0.0,75.0,570664.8,0.0,0.0,0.0,0.0,0.0,0.0
1402752992026760325,3,-8.87112405187,-0.00591572024346,7.65227654084,-0.122189614607,1.60862539347,0.10862951003,-0.0427277362219,0.0,-0.552651703333,0.0,0.131180957337,0.0,-1.64164130659,0.0,0.261114274337,0.0,0.0107934882181,0.0,-0.02126590407,0.0,0.0637361314436,0.0,-0.00988682761464,0.0,0.0,0.0,0.0,75.0,-0.0,22.86,0.00230154196664,0.0,-0.00383606751517,75.0,-0.0,0.0,-0.0,75.0,570664.8,0.0,0.0,0.0,0.0,0.0,0.0
1402752992046874312,3,-8.87112405187,-0.00591572024346,7.65227654084,-0.122189614607,1.60862539347,0.10862951003,-0.0427277362219,0.0,-0.552651703333,0.0,0.131180957337,0.0,-1.64164130659,0.0,0.261114274337,0.0,0.0107934882181,0.0,-0.02126590407,0.0,0.0637361314436,0.0,-0.00988682761464,0.0,0.0,0.0,0.0,75.0,-0.0,22.86,0.00230154196664,0.0,-0.00383606751517,75.0,-0.0,0.0,-0.0,75.0,570664.8,0.0,0.0,0.0,0.0,0.0,0.0
1402752992066677860,3,-8.87272472592,-0.00591572024346,7.62914598019,-0.122189614607,1.61402390089,0.10862951003,-0.0372405729568,0.0,-0.56895262808,0.0,0.123784981948,0.0,-1.63113073497,0.0,0.256529122999,0.0,0.0110610054506,0.0,-0.0298394071681,0.0,0.0626338309971,0.0,0.000304463960723,0.0,0.0,0.0,0.0,75.0,-0.0,22.86,0.00230154196664,0.0,-0.00383606751517,75.0,-0.0,0.0,-0.0,75.0,570664.8,0.0,0.0,0.0,0.0,0.0,0.0
1402752992086699227,3,-8.87272472592,-0.00591572024346,7.62914598019,-0.122189614607,1.61402390089,0.10862951003,-0.0372405729568,0.0,-0.56895262808,0.0,0.123784981948,0.0,-1.63113073497,0.0,0.256529122999,0.0,0.0110610054506,0.0,-0.0298394071681,0.0,0.0626338309971,0.0,0.000304463960723,0.0,0.0,0.0,0.0,75.0,-0.0,22.86,0.00230154196664,0.0,-0.00383606751517,75.0,-0.0,0.0,-0.0,75.0,570664.8,0.0,0.0,0.0,0.0,0.0,0.0
1402752992106838476,3,-8.864376932,-0.00591572024346,7.61670205879,-0.122189614607,1.60336284138,0.10862951003,-0.0161433437136,0.0,-0.57725748907,0.0,0.126219265458,0.0,-1.61907621837,0.0,0.263566235115,0.0,0.0101817614137,0.0,-0.0181841824279,0.0,0.0605292578116,0.0,0.00226553952015,0.0,0.0,0.0,0.0,75.0,-0.0,22.86,0.00230154196664,0.0,-0.00383606751517,75.0,-0.0,0.0,-0.0,75.0,570664.8,0.0,0.0,0.0,0.0,0.0,0.0
1402752992126746182,3,-8.864376932,-0.00591572024346,7.61670205879,-0.122189614607,1.60336284138,0.10862951003,-0.0161433437136,0.0,-0.57725748907,0.0,0.126219265458,0.0,-1.61907621837,0.0,0.263566235115,0.0,0.0101817614137,0.0,-0.0181841824279,0.0,0.0605292578116,0.0,0.00226553952015,0.0,0.0,0.0,0.0,75.0,-0.0,22.86,0.00230154196664,0.0,-0.00383606751517,75.0,-0.0,0.0,-0.0,75.0,570664.8,0.0,0.0,0.0,0.0,0.0,0.0
1402752992146719704,3,-8.87555090973,-0.00591572024346,7.60012809231,-0.122189614607,1.58515713344,0.10862951003,-0.0364207405366,0.0,-0.598610083112,0.0,0.132330858612,0.0,-1.6104163233,0.0,0.259673736559,0.0,0.0127804832669,0.0,-0.0115344509516,0.0,0.0601871456197,0.0,-0.0250738355657,0.0,0.0,0.0,0.0,75.0,-0.0,22.86,0.00230154196664,0.0,-0.00383606751517,75.0,-0.0,0.0,-0.0,75.0,570664.8,0.0,0.0,0.0,0.0,0.0,0.0
1402752992166746576,3,-8.87555090973,-0.00591572024346,7.60012809231,-0.122189614607,1.58515713344,0.10862951003,-0.0364207405366,0.0,-0.598610083112,0.0,0.132330858612,0.0,-1.6104163233,0.0,0.259673736559,0.0,0.0127804832669,0.0,-0.0115344509516,0.0,0.0601871456197,0.0,-0.0250738355657,0.0,0.0,0.0,0.0,75.0,-0.0,22.86,0.00230154196664,0.0,-0.00383606751517,75.0,-0.0,0.0,-0.0,75.0,570664.8,0.0,0.0,0.0,0.0,0.0,0.0
1402752992186694264,3,-8.86987982474,-0.00591572024346,7.58335259958,-0.122189614607,1.57864196266,0.10862951003,-0.0239926531518,0.0,-0.611447810075,0.0,0.130946137739,0.0,-1.59903948341,0.0,0.268298151343,0.0,0.012792991661,0.0,-0.00424059267273,0.0,0.0592525584754,0.0,-0.019691637329,0.0,0.0,0.0,0.0,75.0,-0.0,22.86,0.00230154196664,0.0,-0.00383606751517,75.0,-0.0,0.0,-0.0,75.0,570664.8,0.0,0.0,0.0,0.0,0.0,0.0
1402752992207290115,3,-8.86987982474,-0.00591572024346,7.58335259958,-0.122189614607,1.57864196266,0.10862951003,-0.0239926531518,0.0,-0.611447810075,0.0,0.130946137739,0.0,-1.59903948341,0.0,0.268298151343,0.0,0.012792991661,0.0,-0.00424059267273,0.0,0.0592525584754,0.0,-0.019691637329,0.0,0.0,0.0,0.0,75.0,-0.0,22.86,0.00230154196664,0.0,-0.00383606751517,75.0,-0.0,0.0,-0.0,75.0,570664.8,0.0,0.0,0.0,0.0,0.0,0.0
1402752992226889536,3,-8.86785240694,-0.00591572024346,7.55408010191,-0.122189614607,1.58264684825,0.10862951003,-0.0223049694896,0.0,-0.646865356072,0.0,0.123579139617,0.0,-1.58907595041,0.0,0.269833480951,0.0,0.0136059250415,0.0,0.00779411317908,0.0,0.0615723136582,0.0,-0.035278362373,0.0,0.0,0.0,0.0,75.0,-0.0,22.86,0.00230154196664,0.0,-0.00383606751517,75.0,-0.0,0.0,-0.0,75.0,570664.8,0.0,0.0,0.0,0.0,0.0,0.0
1402752992246934556,3,-8.86785240694,-0.00591572024346,7.55408010191,-0.122189614607,1.58264684825,0.10862951003,-0.0223049694896,0.0,-0.646865356072,0.0,0.123579139617,0.0,-1.58907595041,0.0,0.269833480951,0.0,0.0136059250415,0.0,0.00779411317908,0.0,0.0615723136582,0.0,-0.035278362373,0.0,0.0,0.0,0.0,75.0,-0.0,22.86,0.00230154196664,0.0,-0.00383606751517,75.0,-0.0,0.0,-0.0,75.0,570664.8,0.0,0.0,0.0,0.0,0.0,0.0
1402752992266827451,3,-8.86849499351,-0.00591572024346,7.5272990039,-0.122189614607,1.5875255969,0.10862951003,-0.0137432080029,0.0,-0.660943871379,0.0,0.115835737793,0.0,-1.57801853752,0.0,0.270783586982,0.0,0.0141226122362,0.0,-0.00268803384905,0.0,0.0616232900678,0.0,-0.00829345004345,0.0,0.0,0.0,0.0,75.0,-0.0,22.86,0.00230154196664,0.0,-0.00383606751517,75.0,-0.0,0.0,-0.0,75.0,570664.8,0.0,0.0,0.0,0.0,0.0,0.0
1402752992286779944,3,-8.86849499351,-0.00591572024346,7.5272990039,-0.122189614607,1.5875255969,0.10862951003,-0.0137432080029,0.0,-0.660943871379,0.0,0.115835737793,0.0,-1.57801853752,0.0,0.270783586982,0.0,0.0141226122362,0.0,-0.00268803384905,0.0,0.0616232900678,0.0,-0.00829345004345,0.0,0.0,0.0,0.0,75.0,-0.0,22.86,0.00230154196664,0.0,-0.00383606751517,75.0,-0.0,0.0,-0.0,75.0,570664.8,0.0,0.0,0.0,0.0,0.0,0.0
1402752992306796774,3,-8.87270126544,-0.00591572024346,7.50356960492,-0.122189614607,1.5799811868,0.10862951003,-0.0231773950375,0.0,-0.682848683126,0.0,0.122303410526,0.0,-1.56812387671,0.0,0.271308463496,0.0,0.0159240958071,0.0,-0.000113928035993,0.0,0.0623279099329,0.0,-0.0113042702249,0.0,0.0,0.0,0.0,75.0,-0.0,22.86,0.00230154196664,0.0,-0.00383606751517,75.0,-0.0,0.0,-0.0,75.0,570664.8,0.0,0.0,0.0,0.0,0.0,0.0
1402752992326945139,3,-8.87270126544,-0.00591572024346,7.50356960492,-0.122189614607,1.5799811868,0.10862951003,-0.0231773950375,0.0,-0.682848683126,0.0,0.122303410526,0.0,-1.56812387671,0.0,0.271308463496,0.0,0.0159240958071,0.0,-0.000113928035993,0.0,0.0623279099329,0.0,-0.0113042702249,0.0,0.0,0.0,0.0,75.0,-0.0,22.86,0.00230154196664,0.0,-0.00383606751517,75.0,-0.0,0.0,-0.0,75.0,570664.8,0.0,0.0,0.0,0.0,0.0,0.0
1402752992346838779,3,-8.86726637418,-0.00591572024346,7.47354138548,-0.122189614607,1.56495207193,0.10862951003,-0.00678825386617,0.0,-0.711289391508,0.0,0.121346540652,0.0,-1.55422691267,0.0,0.277723088357,0.0,0.0152907710735,0.0,0.00381566068741,0.0,0.063923420252,0.0,0.0066203612958,0.0,0.0,0.0,0.0,75.0,-0.0,22.86,0.00230154196664,0.0,-0.00383606751517,75.0,-0.0,0.0,-0.0,75.0,570664.8,0.0,0.0,0.0,0.0,0.0,0.0
1402752992366718075,3,-8.86726637418,-0.00591572024346,7.47354138548,-0.122189614607,1.56495207193,0.10862951003,-0.00678825386617,0.0,-0.711289391508,0.0,0.121346540652,0.0,-1.55422691267,0.0,0.277723088357,0.0,0.0152907710735,0.0,0.00381566068741,0.0,0.063923420252,0.0,0.0066203612958,0.0,0.0,0.0,0.0,75.0,-0.0,22.86,0.00230154196664,0.0,-0.00383606751517,75.0,-0.0,0.0,-0.0,75.0,570664.8,0.0,0.0,0.0,0.0,0.0,0.0
1402752992386638177,3,-8.86295923012,-0.00591572024346,7.4707189274,-0.122189614607,1.5359102747,0.10862951003,0.00341184991268,0.0,-0.701205176703,0.0,0.127638160641,0.0,-1.54352115703,0.0,0.268352137779,0.0,0.0146353145275,0.0,0.010272598219,0.0,0.0617498550861,0.0,-0.0110185336241,0.0,0.0,0.0,0.0,75.0,-0.0,22.86,0.00230154196664,0.0,-0.00383606751517,75.0,-0.0,0.0,-0.0,75.0,570664.8,0.0,0.0,0.0,0.0,0.0,0.0
1402752992407327189,3,-8.86282915857,-0.00591572024346,7.45586929341,-0.122189614607,1.53853427622,0.10862951003,0.00595998349126,0.0,-0.708428830453,0.0,0.130971798402,0.0,-1.53784975706,0.0,0.2705387295,0.0,0.0146351313026,0.0,0.0106446895948,0.0,0.0619279628513,0.0,-0.00437957435233,0.0,0.0,0.0,0.0,75.0,-0.0,22.86,0.00230154196664,0.0,-0.00383606751517,75.0,-0.0,0.0,-0.0,75.0,570664.8,0.0,0.0,0.0,0.0,0.0,0.0
1402752992426799698,3,-8.86282915857,-0.00591572024346,7.45586929341,-0.122189614607,1.53853427622,0.10862951003,0.00595998349126,0.0,-0.708428830453,0.0,0.130971798402,0.0,-1.53784975706,0.0,0.2705387295,0.0,0.0146351313026,0.0,0.0106446895948,0.0,0.0619279628513,0.0,-0.00437957435233,0.0,0.0,0.0,0.0,75.0,-0.0,22.86,0.00230154196664,0.0,-0.00383606751517,75.0,-0.0,0.0,-0.0,75.0,570664.8,0.0,0.0,0.0,0.0,0.0,0.0
1402752992446804451,3,-8.86250414402,-0.00591572024346,7.44512215233,-0.122189614607,1.54181845316,0.10862951003,0.00333138742767,0.0,-0.706289824464,0.0,0.131336448627,0.0,-1.53216822155,0.0,0.267747130028,0.0,0.0153332894764,0.0,0.00642381209085,0.0,0.0609460660056,0.0,0.0105699996554,0.0,0.0,0.0,0.0,75.0,-0.0,22.86,0.00230154196664,0.0,-0.00383606751517,75.0,-0.0,0.0,-0.0,75.0,570664.8,0.0,0.0,0.0,0.0,0.0,0.0
1402752992466858123,3,-8.86250414402,-0.00591572024346,7.44512215233,-0.122189614607,1.54181845316,0.10862951003,0.00333138742767,0.0,-0.706289824464,0.0,0.131336448627,0.0,-1.53216822155,0.0,0.267747130028,0.0,0.0153332894764,0.0,0.00642381209085,0.0,0.0609460660056,0.0,0.0105699996554,0.0,0.0,0.0,0.0,75.0,-0.0,22.86,0.00230154196664,0.0,-0.00383606751517,75.0,-0.0,0.0,-0.0,75.0,570664.8,0.0,0.0,0.0,0.0,0.0,0.0
1402752992486816536,3,-8.85339984619,-0.00591572024346,7.416300293,-0.122189614607,1.51392738365,0.10862951003,0.0324081066461,0.0,-0.755141605231,0.0,0.117230142193,0.0,-1.52404856385,0.0,0.263860193374,0.0,0.0122205878671,0.0,0.0100819908986,0.0,0.0666264440376,0.0,0.0229484262058,0.0,0.0,0.0,0.0,75.0,-0.0,22.86,0.00230154196664,0.0,-0.00383606751517,75.0,-0.0,0.0,-0.0,75.0,570664.8,0.0,0.0,0.0,0.0,0.0,0.0
1402752992506845321,3,-8.85339984619,-0.00591572024346,7.416300293,-0.122189614607,1.51392738365,0.10862951003,0.0324081066461,0.0,-0.755141605231,0.0,0.117230142193,0.0,-1.52404856385,0.0,0.263860193374,0.0,0.0122205878671,0.0,0.0100819908986,0.0,0.0666264440376,0.0,0.0229484262058,0.0,0.0,0.0,0.0,75.0,-0.0,22.86,0.00230154196664,0.0,-0.00383606751517,75.0,-0.0,0.0,-0.0,75.0,570664.8,0.0,0.0,0.0,0.0,0.0,0.0
1402752992527148989,3,-8.85195213594,-0.00591572024346,7.38425249279,-0.122189614607,1.51913750633,0.10862951003,0.0365660326213,0.0,-0.768784004402,0.0,0.12470388324,0.0,-1.51310986674,0.0,0.260089315739,0.0,0.0115959926408,0.0,0.00474277780473,0.0,0.0668805553227,0.0,0.0169622352047,0.0,0.0,0.0,0.0,75.0,-0.0,22.86,0.00383600394174,0.0,-0.00383606751517,75.0,-0.0,0.0,-0.0,75.0,570664.8,0.0,0.0,0.0,0.0,0.0,0.0
1402752992546771652,3,-8.85195213594,-0.00591572024346,7.38425249279,-0.122189614607,1.51913750633,0.10862951003,0.0365660326213,0.0,-0.768784004402,0.0,0.12470388324,0.0,-1.51310986674,0.0,0.260089315739,0.0,0.0115959926408,0.0,0.00474277780473,0.0,0.0668805553227,0.0,0.0169622352047,0.0,0.0,0.0,0.0,75.0,-0.0,22.86,0.00230154196664,0.0,-0.00383606751517,75.0,-0.0,0.0,-0.0,75.0,570664.8,0.0,0.0,0.0,0.0,0.0,0.0
1402752992566796814,3,-8.8503572057,-0.00591572024346,7.35244909825,-0.122189614607,1.52427913973,0.10862951003,0.0421163956799,0.0,-0.782069210613,0.0,0.127275208766,0.0,-1.50239391063,0.0,0.26238800281,0.0,0.0107403104023,0.0,0.00600891571684,0.0,0.0670465086861,0.0,0.0132519586523,0.0,0.0,0.0,0.0,75.0,-0.0,22.86,0.00230154196664,0.0,-0.00383606751517,75.0,-0.0,0.0,-0.0,75.0,570664.8,0.0,0.0,0.0,0.0,0.0,0.0
1402752992586682568,3,-8.8503572057,-0.00591572024346,7.35244909825,-0.122189614607,1.52427913973,0.10862951003,0.0421163956799,0.0,-0.782069210613,0.0,0.127275208766,0.0,-1.50239391063,0.0,0.26238800281,0.0,0.0107403104023,0.0,0.00600891571684,0.0,0.0670465086861,0.0,0.0132519586523,0.0,0.0,0.0,0.0,75.0,-0.0,22.86,0.00230154196664,0.0,-0.00383606751517,75.0,-0.0,0.0,-0.0,75.0,570664.8,0.0,0.0,0.0,0.0,0.0,0.0
1402752992607731123,3,-8.85567271697,-0.00591572024346,7.31945637256,-0.122189614607,1.5357615219,0.10862951003,0.0122350765906,0.0,-0.777134904741,0.0,0.1377110713,0.0,-1.48740944415,0.0,0.263494173948,0.0,0.0133266317275,0.0,-0.00615841740091,0.0,0.0638280405967,0.0,0.0209962126158,0.0,0.0,0.0,0.0,75.0,-0.0,22.86,0.00230154196664,0.0,-0.00383606751517,75.0,-0.0,0.0,-0.0,75.0,570664.8,0.0,0.0,0.0,0.0,0.0,0.0
1402752992626934748,3,-8.85567271697,-0.00591572024346,7.31945637256,-0.122189614607,1.5357615219,0.10862951003,0.0122350765906,0.0,-0.777134904741,0.0,0.1377110713,0.0,-1.48740944415,0.0,0.263494173948,0.0,0.0133266317275,0.0,-0.00615841740091,0.0,0.0638280405967,0.0,0.0209962126158,0.0,0.0,0.0,0.0,75.0,-0.0,22.86,0.00230154196664,0.0,-0.00383606751517,75.0,-0.0,0.0,-0.0,75.0,570664.8,0.0,0.0,0.0,0.0,0.0,0.0
1402752992646720532,3,-8.8430119171,-0.00591572024346,7.27994768379,-0.122189614607,1.52052907933,0.10862951003,0.0454670646389,0.0,-0.816503442603,0.0,0.137200586741,0.0,-1.47667651532,0.0,0.25775429248,0.0,0.00996096031021,0.0,-0.00488725823539,0.0,0.0673581428984,0.0,0.0174184450589,0.0,0.0,0.0,0.0,75.0,-0.0,22.86,0.00230154196664,0.0,-0.00383606751517,75.0,-0.0,0.0,-0.0,75.0,570664.8,0.0,0.0,0.0,0.0,0.0,0.0
1402752992666749454,3,-8.8430119171,-0.00591572024346,7.27994768379,-0.122189614607,1.52052907933,0.10862951003,0.0454670646389,0.0,-0.816503442603,0.0,0.137200586741,0.0,-1.47667651532,0.0,0.25775429248,0.0,0.00996096031021,0.0,-0.00488725823539,0.0,0.0673581428984,0.0,0.0174184450589,0.0,0.0,0.0,0.0,75.0,-0.0,22.86,0.00230154196664,0.0,-0.00383606751517,75.0,-0.0,0.0,-0.0,75.0,570664.8,0.0,0.0,0.0,0.0,0.0,0.0
1402752992686777027,3,-8.84210340195,-0.00591572024346,7.26276047091,-0.122189614607,1.52345039516,0.10862951003,0.0480949141487,0.0,-0.822603342334,0.0,0.132845123903,0.0,-1.47134271241,0.0,0.252257789526,0.0,0.00982899246732,0.0,-0.00760968587477,0.0,0.0672581663474,0.0,0.00673656536496,0.0,0.0,0.0,0.0,75.0,-0.0,22.86,0.00230154196664,0.0,-0.00383606751517,75.0,-0.0,0.0,-0.0,75.0,570664.8,0.0,0.0,0.0,0.0,0.0,0.0
1402752992707333318,3,-8.84210340195,-0.00591572024346,7.26276047091,-0.122189614607,1.52345039516,0.10862951003,0.0480949141487,0.0,-0.822603342334,0.0,0.132845123903,0.0,-1.47134271241,0.0,0.252257789526,0.0,0.00982899246732,0.0,-0.00760968587477,0.0,0.0672581663474,0.0,0.00673656536496,0.0,0.0,0.0,0.0,75.0,-0.0,22.86,0.00230154196664,0.0,-0.00383606751517,75.0,-0.0,0.0,-0.0,75.0,570664.8,0.0,0.0,0.0,0.0,0.0,0.0
1402752992726990442,3,-8.84909555752,-0.00591572024346,7.2421301187,-0.122189614607,1.52092197013,0.10862951003,0.0271063666881,0.0,-0.808598418238,0.0,0.128603589891,0.0,-1.45833884881,0.0,0.255804917471,0.0,0.0120241443896,0.0,-0.00878808327216,0.0,0.0635044496382,0.0,0.0100200482598,0.0,0.0,0.0,0.0,75.0,-0.0,22.86,0.00230154196664,0.0,-0.00383606751517,75.0,-0.0,0.0,-0.0,75.0,570664.8,0.0,0.0,0.0,0.0,0.0,0.0
1402752992746793007,3,-8.84909555752,-0.00591572024346,7.2421301187,-0.122189614607,1.52092197013,0.10862951003,0.0271063666881,0.0,-0.808598418238,0.0,0.128603589891,0.0,-1.45833884881,0.0,0.255804917471,0.0,0.0120241443896,0.0,-0.00878808327216,0.0,0.0635044496382,0.0,0.0100200482598,0.0,0.0,0.0,0.0,75.0,-0.0,22.86,0.00230154196664,0.0,-0.00383606751517,75.0,-0.0,0.0,-0.0,75.0,570664.8,0.0,0.0,0.0,0.0,0.0,0.0
1402752992768268932,3,-8.84083219551,-0.00591572024346,7.22217634172,-0.122189614607,1.49787561395,0.10862951003,0.0449567676329,0.0,-0.812721719899,0.0,0.134004894405,0.0,-1.44701117589,0.0,0.261036612115,0.0,0.0106082789309,0.0,-0.00595413720398,0.0,0.0627716807171,0.0,-0.00691789845078,0.0,0.0,0.0,0.0,75.0,-0.0,22.86,0.00230154196664,0.0,-0.00383606751517,75.0,-0.0,0.0,-0.0,75.0,570664.8,0.0,0.0,0.0,0.0,0.0,0.0
1402752992786835627,3,-8.84083219551,-0.00591572024346,7.22217634172,-0.122189614607,1.49787561395,0.10862951003,0.0449567676329,0.0,-0.812721719899,0.0,0.134004894405,0.0,-1.44701117589,0.0,0.261036612115,0.0,0.0106082789309,0.0,-0.00595413720398,0.0,0.0627716807171,0.0,-0.00691789845078,0.0,0.0,0.0,0.0,75.0,-0.0,22.86,0.00230154196664,0.0,-0.00383606751517,75.0,-0.0,0.0,-0.0,75.0,570664.8,0.0,0.0,0.0,0.0,0.0,0.0
1402752992806789533,3,-8.83838819558,-0.00591572024346,7.18836562027,-0.122189614607,1.48050124823,0.10862951003,0.056483052922,0.0,-0.846350403153,0.0,0.135016777643,0.0,-1.43918813781,0.0,0.25593164704,0.0,0.0104433069988,0.0,-0.011745759476,0.0,0.0654972589135,0.0,-0.00242441860194,0.0,0.0,0.0,0.0,75.0,-0.0,22.86,0.00230154196664,0.0,-0.00383606751517,75.0,-0.0,0.0,-0.0,75.0,570664.8,0.0,0.0,0.0,0.0,0.0,0.0
1402752992827473593,3,-8.83838819558,-0.00591572024346,7.18836562027,-0.122189614607,1.48050124823,0.10862951003,0.056483052922,0.0,-0.846350403153,0.0,0.135016777643,0.0,-1.43918813781,0.0,0.25593164704,0.0,0.0104433069988,0.0,-0.011745759476,0.0,0.0654972589135,0.0,-0.00242441860194,0.0,0.0,0.0,0.0,75.0,-0.0,22.86,0.00230154196664,0.0,-0.00383606751517,75.0,-0.0,0.0,-0.0,75.0,570664.8,0.0,0.0,0.0,0.0,0.0,0.0
1402752992846720157,3,-8.83932589553,-0.00591572024346,7.16560741581,-0.122189614607,1.48325794517,0.10862951003,0.050075453906,0.0,-0.829737795689,0.0,0.140064566556,0.0,-1.42605754835,0.0,0.248022438822,0.0,0.0119610490894,0.0,-0.00285628702563,0.0,0.0617712322089,0.0,-0.00799388652973,0.0,0.0,0.0,0.0,75.0,-0.0,22.86,0.00230154196664,0.0,-0.00383606751517,75.0,-0.0,0.0,-0.0,75.0,570664.8,0.0,0.0,0.0,0.0,0.0,0.0
1402752992866722342,3,-8.83932589553,-0.00591572024346,7.16560741581,-0.122189614607,1.48325794517,0.10862951003,0.050075453906,0.0,-0.829737795689,0.0,0.140064566556,0.0,-1.42605754835,0.0,0.248022438822,0.0,0.0119610490894,0.0,-0.00285628702563,0.0,0.0617712322089,0.0,-0.00799388652973,0.0,0.0,0.0,0.0,75.0,-0.0,22.86,0.00230154196664,0.0,-0.00383606751517,75.0,-0.0,0.0,-0.0,75.0,570664.8,0.0,0.0,0.0,0.0,0.0,0.0
1402752992887577387,3,-8.83102988009,-0.00591572024346,7.12312515424,-0.122189614607,1.47715240935,0.10862951003,0.0713481825925,0.0,-0.875845119979,0.0,0.136946912945,0.0,-1.42044086008,0.0,0.250482995,0.0,0.0111679750581,0.0,0.00149320129131,0.0,0.0664468587506,0.0,-0.0131754425744,0.0,0.0,0.0,0.0,75.0,-0.0,22.86,0.00230154196664,0.0,-0.00383606751517,75.0,-0.0,0.0,-0.0,75.0,570664.8,0.0,0.0,0.0,0.0,0.0,0.0
1402752992906641467,3,-8.83102988009,-0.00591572024346,7.12312515424,-0.122189614607,1.47715240935,0.10862951003,0.0713481825925,0.0,-0.875845119979,0.0,0.136946912945,0.0,-1.42044086008,0.0,0.250482995,0.0,0.0111679750581,0.0,0.00149320129131,0.0,0.0664468587506,0.0,-0.0131754425744,0.0,0.0,0.0,0.0,75.0,-0.0,22.86,0.00230154196664,0.0,-0.00383606751517,75.0,-0.0,0.0,-0.0,75.0,570664.8,0.0,0.0,0.0,0.0,0.0,0.0
1402752992926749497,3,-8.8306545583,-0.00591572024346,7.08747040585,-0.122189614607,1.47689214244,0.10862951003,0.0673915684567,0.0,-0.892961363608,0.0,0.130240684529,0.0,-1.41124509868,0.0,0.243624056576,0.0,0.0128212625833,0.0,-0.00475415071722,0.0,0.0669989134576,0.0,-0.0194669733125,0.0,0.0,0.0,0.0,75.0,-0.0,22.86,0.00230154196664,0.0,-0.00383606751517,75.0,-0.0,0.0,-0.0,75.0,570664.8,0.0,0.0,0.0,0.0,0.0,0.0
1402752992948603009,3,-8.8306545583,-0.00591572024346,7.08747040585,-0.122189614607,1.47689214244,0.10862951003,0.0673915684567,0.0,-0.892961363608,0.0,0.130240684529,0.0,-1.41124509868,0.0,0.243624056576,0.0,0.0128212625833,0.0,-0.00475415071722,0.0,0.0669989134576,0.0,-0.0194669733125,0.0,0.0,0.0,0.0,75.0,-0.0,22.86,0.00230154196664,0.0,-0.00383606751517,75.0,-0.0,0.0,-0.0,75.0,570664.8,0.0,0.0,0.0,0.0,0.0,0.0
1402752992967016194,3,-8.82796102045,-0.00591572024346,7.05160655608,-0.122189614607,1.48205188929,0.10862951003,0.0716768205782,0.0,-0.901934443001,0.0,0.127165657775,0.0,-1.40133400613,0.0,0.244701223835,0.0,0.0135526577908,0.0,-0.00755238315909,0.0,0.0665736173173,0.0,-0.0149386140091,0.0,0.0,0.0,0.0,75.0,-0.0,22.86,0.00230154196664,0.0,-0.00383606751517,75.0,-0.0,0.0,-0.0,75.0,570664.8,0.0,0.0,0.0,0.0,0.0,0.0
1402752992987149664,3,-8.82796102045,-0.00591572024346,7.05160655608,-0.122189614607,1.48205188929,0.10862951003,0.0716768205782,0.0,-0.901934443001,0.0,0.127165657775,0.0,-1.40133400613,0.0,0.244701223835,0.0,0.0135526577908,0.0,-0.00755238315909,0.0,0.0665736173173,0.0,-0.0149386140091,0.0,0.0,0.0,0.0,75.0,-0.0,22.86,0.00230154196664,0.0,-0.00383606751517,75.0,-0.0,0.0,-0.0,75.0,570664.8,0.0,0.0,0.0,0.0,0.0,0.0
1402752993006972799,3,-8.82124024867,-0.00591572024346,7.02776641857,-0.122189614607,1.48404974871,0.10862951003,0.0755631685723,0.0,-0.883880487809,0.0,0.132448087434,0.0,-1.38828941346,0.0,0.237508790717,0.0,0.0138989422747,0.0,0.000721045671421,0.0,0.0629426665269,0.0,-0.0185920860906,0.0,0.0,0.0,0.0,75.0,-0.0,22.86,0.00230154196664,0.0,-0.00383606751517,75.0,-0.0,0.0,-0.0,75.0,570664.8,0.0,0.0,0.0,0.0,0.0,0.0
1402752993026701565,3,-8.82124024867,-0.00591572024346,7.02776641857,-0.122189614607,1.48404974871,0.10862951003,0.0755631685723,0.0,-0.883880487809,0.0,0.132448087434,0.0,-1.38828941346,0.0,0.237508790717,0.0,0.0138989422747,0.0,0.000721045671421,0.0,0.0629426665269,0.0,-0.0185920860906,0.0,0.0,0.0,0.0,75.0,-0.0,22.86,0.00230154196664,0.0,-0.00383606751517,75.0,-0.0,0.0,-0.0,75.0,570664.8,0.0,0.0,0.0,0.0,0.0,0.0
1402752993046725039,3,-8.82149694115,-0.00591572024346,6.97225213975,-0.122189614607,1.47627063277,0.10862951003,0.0783016872301,0.0,-0.933105398596,0.0,0.117418875279,0.0,-1.38139376813,0.0,0.234142184049,0.0,0.0153679118972,0.0,-0.00587068529517,0.0,0.0673756140377,0.0,-0.00437776728504,0.0,0.0,0.0,0.0,75.0,-0.0,22.86,0.00230154196664,0.0,-0.00383606751517,75.0,-0.0,0.0,-0.0,75.0,570664.8,0.0,0.0,0.0,0.0,0.0,0.0
1402752993066964764,3,-8.82149694115,-0.00591572024346,6.97225213975,-0.122189614607,1.47627063277,0.10862951003,0.0783016872301,0.0,-0.933105398596,0.0,0.117418875279,0.0,-1.38139376813,0.0,0.234142184049,0.0,0.0153679118972,0.0,-0.00587068529517,0.0,0.0673756140377,0.0,-0.00437776728504,0.0,0.0,0.0,0.0,75.0,-0.0,22.86,0.00230154196664,0.0,-0.00383606751517,75.0,-0.0,0.0,-0.0,75.0,570664.8,0.0,0.0,0.0,0.0,0.0,0.0
1402752993086977961,3,-8.81512920404,-0.00591572024346,6.95935491141,-0.122189614607,1.48250822495,0.10862951003,0.0834388790814,0.0,-0.897390278592,0.0,0.119863389376,0.0,-1.36945082379,0.0,0.22328339653,0.0,0.0149457428111,0.0,-0.0042407812437,0.0,0.0620331456885,0.0,-0.00204681647439,0.0,0.0,0.0,0.0,75.0,-0.0,22.86,0.00230154196664,0.0,-0.00383606751517,75.0,-0.0,0.0,-0.0,75.0,570664.8,0.0,0.0,0.0,0.0,0.0,0.0
1402752993106810944,3,-8.80831479021,-0.00591572024346,6.91539616807,-0.122189614607,1.44993191353,0.10862951003,0.108923245454,0.0,-0.956745686102,0.0,0.110741707586,0.0,-1.3673684088,0.0,0.225527047902,0.0,0.0137960881147,0.0,-0.00607969754629,0.0,0.0688876985686,0.0,-0.00291257087395,0.0,0.0,0.0,0.0,75.0,-0.0,22.86,0.00230154196664,0.0,-0.00383606751517,75.0,-0.0,0.0,-0.0,75.0,570664.8,0.0,0.0,0.0,0.0,0.0,0.0
1402752993126757011,3,-8.80831479021,-0.00591572024346,6.91539616807,-0.122189614607,1.44993191353,0.10862951003,0.108923245454,0.0,-0.956745686102,0.0,0.110741707586,0.0,-1.3673684088,0.0,0.225527047902,0.0,0.0137960881147,0.0,-0.00607969754629,0.0,0.0688876985686,0.0,-0.00291257087395,0.0,0.0,0.0,0.0,75.0,-0.0,22.86,0.00230154196664,0.0,-0.00383606751517,75.0,-0.0,0.0,-0.0,75.0,570664.8,0.0,0.0,0.0,0.0,0.0,0.0
1402752993146807737,3,-8.80716104107,-0.00591572024346,6.90491263123,-0.122189614607,1.45108041927,0.10862951003,0.109843538947,0.0,-0.959542407982,0.0,0.112374562528,0.0,-1.36492617985,0.0,0.222686698471,0.0,0.0138414847632,0.0,-0.00652036921969,0.0,0.0688030789833,0.0,-0.00551581383125,0.0,0.0,0.0,0.0,75.0,-0.0,22.86,0.00230154196664,0.0,-0.00383606751517,75.0,-0.0,0.0,-0.0,75.0,570664.8,0.0,0.0,0.0,0.0,0.0,0.0
1402752993167074903,3,-8.80716104107,-0.00591572024346,6.90491263123,-0.122189614607,1.45108041927,0.10862951003,0.109843538947,0.0,-0.959542407982,0.0,0.112374562528,0.0,-1.36492617985,0.0,0.222686698471,0.0,0.0138414847632,0.0,-0.00652036921969,0.0,0.0688030789833,0.0,-0.00551581383125,0.0,0.0,0.0,0.0,75.0,-0.0,22.86,0.00230154196664,0.0,-0.00383606751517,75.0,-0.0,0.0,-0.0,75.0,570664.8,0.0,0.0,0.0,0.0,0.0,0.0
1402752993187579523,3,-8.80359258514,-0.00591572024346,6.88468880368,-0.122189614607,1.46723363488,0.10862951003,0.10364774904,0.0,-0.933814565321,0.0,0.12108460242,0.0,-1.35376479055,0.0,0.220072348556,0.0,0.0145172471072,0.0,-0.00300207781225,0.0,0.0643037562415,0.0,0.000792636520578,0.0,0.0,0.0,0.0,75.0,-0.0,22.86,0.00230154196664,0.0,-0.00383606751517,75.0,-0.0,0.0,-0.0,75.0,570664.8,0.0,0.0,0.0,0.0,0.0,0.0
1402752993206780585,3,-8.80359258514,-0.00591572024346,6.88468880368,-0.122189614607,1.46723363488,0.10862951003,0.10364774904,0.0,-0.933814565321,0.0,0.12108460242,0.0,-1.35376479055,0.0,0.220072348556,0.0,0.0145172471072,0.0,-0.00300207781225,0.0,0.0643037562415,0.0,0.000792636520578,0.0,0.0,0.0,0.0,75.0,-0.0,22.86,0.00230154196664,0.0,-0.00383606751517,75.0,-0.0,0.0,-0.0,75.0,570664.8,0.0,0.0,0.0,0.0,0.0,0.0
1402752993226784065,3,-8.79926659684,-0.00591572024346,6.84627125285,-0.122189614607,1.47220518635,0.10862951003,0.109830695018,0.0,-0.940403153096,0.0,0.11934403866,0.0,-1.34473721252,0.0,0.219550662957,0.0,0.0144631677626,0.0,-0.00152085654021,0.0,0.0641559824731,0.0,0.00969289550896,0.0,0.0,0.0,0.0,75.0,-0.0,22.86,0.00230154196664,0.0,-0.00383606751517,75.0,-0.0,0.0,-0.0,75.0,570664.8,0.0,0.0,0.0,0.0,0.0,0.0
1402752993246682678,3,-8.79926659684,-0.00591572024346,6.84627125285,-0.122189614607,1.47220518635,0.10862951003,0.109830695018,0.0,-0.940403153096,0.0,0.11934403866,0.0,-1.34473721252,0.0,0.219550662957,0.0,0.0144631677626,0.0,-0.00152085654021,0.0,0.0641559824731,0.0,0.00969289550896,0.0,0.0,0.0,0.0,75.0,-0.0,22.86,0.00230154196664,0.0,-0.00383606751517,75.0,-0.0,0.0,-0.0,75.0,570664.8,0.0,0.0,0.0,0.0,0.0,0.0
1402752993266901902,3,-8.7857045785,-0.00591572024346,6.80984250906,-0.122189614607,1.45304371803,0.10862951003,0.138316420584,0.0,-0.962055783195,0.0,0.120626903033,0.0,-1.33838817483,0.0,0.215588659536,0.0,0.0124471003521,0.0,-0.00193776116367,0.0,0.0665491944713,0.0,0.0109258989924,0.0,0.0,0.0,0.0,75.0,-0.0,22.86,0.00230154196664,0.0,-0.00383606751517,75.0,-0.0,0.0,-0.0,75.0,570664.8,0.0,0.0,0.0,0.0,0.0,0.0
1402752993286951482,3,-8.7857045785,-0.00591572024346,6.80984250906,-0.122189614607,1.45304371803,0.10862951003,0.138316420584,0.0,-0.962055783195,0.0,0.120626903033,0.0,-1.33838817483,0.0,0.215588659536,0.0,0.0124471003521,0.0,-0.00193776116367,0.0,0.0665491944713,0.0,0.0109258989924,0.0,0.0,0.0,0.0,75.0,-0.0,22.86,0.00230154196664,0.0,-0.00383606751517,75.0,-0.0,0.0,-0.0,75.0,570664.8,0.0,0.0,0.0,0.0,0.0,0.0
