rosbagTimestamp,control_method,x_current,x_desired,y_current,y_desired,z_current,z_desired,x_velocity_current,x_velocity_desired,y_velocity_current,y_velocity_desired,z_velocity_current,z_velocity_desired,yaw_current,yaw_desired,yaw_velocity_current,yaw_velocity_desired,roll_current,roll_desired,roll_velocity_current,roll_velocity_desired,pitch_current,pitch_desired,pitch_velocity_current,pitch_velocity_desired,required_force_x,required_force_y,required_moment_z,resultant_force_x,resultant_force_y,resultant_moment_z,current_port_servo_angle,current_port_thruster_force,current_starboard_servo_angle,current_starboard_thruster_force,estimated_port_servo_angle,estimated_port_thruster_force,estimated_starboard_servo_angle,estimated_starboard_thruster_force,cost_value,step,user_defined_1,user_defined_2,user_defined_3,user_defined_4,user_defined_5
1402758959589289225,3,-25.057025797,-7.1377884924,2.7031042345,2.38304939926,31.9911535542,-3.84635974695,-0.0159162701215,0.0,0.00628948388427,0.0,0.0473246539531,0.0,3.08247063008,0.0,0.0054450136422,0.0,0.00522632494158,0.0,-0.0322705701196,0.0,0.0693845501407,0.0,0.00892768156204,0.0,-0.0,-0.0,0.592139422894,-11.5,-66.6839560914,60.0073158146,1.04412874381,0.0,-1.04412880738,0.0,1.0471975512,-50.0,-1.0471975512,27.0,4011214.09283,0.0,0.0,0.0,0.0,0.0,0.0
1402758959608453299,3,-25.0549911376,-7.1377884924,2.7050945804,2.38304939926,31.9990109696,-3.84635974695,-0.00813085789603,0.0,0.0040142712401,0.0,0.0442458819488,0.0,3.08242478852,0.0,-0.00426542247178,0.0,0.00653308462404,0.0,-0.012828208312,0.0,0.0683663890812,0.0,0.00749411358268,0.0,-0.0,-0.0,0.592139422894,-11.5,-66.6839560914,60.0073158146,1.04412874381,0.0,-1.04412880738,0.0,1.0471975512,-50.0,-1.0471975512,27.0,4011214.09283,0.0,0.0,0.0,0.0,0.0,0.0
1402758959628450637,3,-25.0549911376,-7.1377884924,2.7050945804,2.38304939926,31.9990109696,-3.84635974695,-0.00813085789603,0.0,0.0040142712401,0.0,0.0442458819488,0.0,3.08242478852,0.0,-0.00426542247178,0.0,0.00653308462404,0.0,-0.012828208312,0.0,0.0683663890812,0.0,0.00749411358268,0.0,-0.0,-0.0,0.592139422894,-11.5,-66.6839560914,60.0073158146,1.04412874381,0.0,-1.04412880738,0.0,1.0471975512,-50.0,-1.0471975512,27.0,4011214.09283,0.0,0.0,0.0,0.0,0.0,0.0
1402758959648536079,3,-25.0578432401,-7.1377884924,2.70361629622,2.38304939926,32.0020492085,-3.84635974695,-0.0119660467471,0.0,-0.00261788168754,0.0,0.041593133494,0.0,3.08255435097,0.0,-0.000136563137126,0.0,0.00626645371577,0.0,0.000500974185921,0.0,0.0685393375046,0.0,-0.00422835248193,0.0,-0.0,-0.0,0.592139422894,-11.5,-66.6839560914,60.0073158146,1.04412874381,0.0,-1.04412880738,0.0,1.0471975512,-50.0,-1.0471975512,27.0,4011214.09283,0.0,0.0,0.0,0.0,0.0,0.0
1402758959668385760,3,-25.0578432401,-7.1377884924,2.70361629622,2.38304939926,32.0020492085,-3.84635974695,-0.0119660467471,0.0,-0.00261788168754,0.0,0.041593133494,0.0,3.08255435097,0.0,-0.000136563137126,0.0,0.00626645371577,0.0,0.000500974185921,0.0,0.0685393375046,0.0,-0.00422835248193,0.0,-0.0,-0.0,0.592139422894,-11.5,-66.6839560914,60.0073158146,1.04412874381,0.0,-1.04259458383,0.0,1.0471975512,-50.0,-1.0471975512,27.0,4011214.09283,0.0,0.0,0.0,0.0,0.0,0.0
1402758959688274416,3,-25.0557251934,-7.1377884924,2.70298763263,2.38304939926,31.9957478059,-3.84635974695,-0.00559173842971,0.0,-0.00692079240915,0.0,0.0362209678461,0.0,3.08262188598,0.0,-0.00187994271799,0.0,0.00570862188456,0.0,0.0144194556291,0.0,0.0681303694863,0.0,-0.0128102906327,0.0,-0.0,-0.0,0.592139422894,-11.5,-66.6839560914,60.0073158146,1.04412874381,0.0,-1.04412880738,0.0,1.0471975512,-50.0,-1.0471975512,27.0,4011214.09283,0.0,0.0,0.0,0.0,0.0,0.0
1402758959708418760,3,-25.0557251934,-7.1377884924,2.70298763263,2.38304939926,31.9957478059,-3.84635974695,-0.00559173842971,0.0,-0.00692079240915,0.0,0.0362209678461,0.0,3.08262188598,0.0,-0.00187994271799,0.0,0.00570862188456,0.0,0.0144194556291,0.0,0.0681303694863,0.0,-0.0128102906327,0.0,-0.0,-0.0,0.592139422894,-11.5,-66.6839560914,60.0073158146,1.04412874381,0.0,-1.04412880738,0.0,1.0471975512,-50.0,-1.0471975512,27.0,4011214.09283,0.0,0.0,0.0,0.0,0.0,0.0
1402758959729496020,3,-25.0572545056,-7.1377884924,2.7049181733,2.38304939926,32.009884233,-3.84635974695,-0.00633033424557,0.0,-0.00501982285338,0.0,0.0405201056946,0.0,3.08262420733,0.0,-7.6004284563e-05,0.0,0.00496399916373,0.0,0.0349442695643,0.0,0.0687976557519,0.0,-0.0199926357017,0.0,-0.0,-0.0,0.592139422894,-11.5,-66.6839560914,60.0073158146,1.04412874381,0.0,-1.04412880738,0.0,1.0471975512,-50.0,-1.0471975512,27.0,4011214.09283,0.0,0.0,0.0,0.0,0.0,0.0
1402758959748389259,3,-25.0572545056,-7.1377884924,2.7049181733,2.38304939926,32.009884233,-3.84635974695,-0.00633033424557,0.0,-0.00501982285338,0.0,0.0405201056946,0.0,3.08262420733,0.0,-7.6004284563e-05,0.0,0.00496399916373,0.0,0.0349442695643,0.0,0.0687976557519,0.0,-0.0199926357017,0.0,-0.0,-0.0,0.592139422894,-11.5,-66.6839560914,60.0073158146,1.04412874381,0.0,-1.04412880738,0.0,1.0471975512,-50.0,-1.0471975512,27.0,4011214.09283,0.0,0.0,0.0,0.0,0.0,0.0
1402758959768932430,3,-25.0588794706,-7.1377884924,2.70529342235,2.38304939926,31.9977056034,-3.84635974695,-0.00744840605658,0.0,-0.00541842621916,0.0,0.03509444331,0.0,3.08268886519,0.0,-0.00483276781861,0.0,0.00348825687867,0.0,0.0504980493963,0.0,0.0696780579713,0.0,-0.0233582556144,0.0,-0.0,-0.0,0.592139422894,-11.5,-66.6839560914,60.0073158146,1.04412874381,0.0,-1.04412880738,0.0,1.0471975512,-50.0,-1.0471975512,27.0,4011214.09283,0.0,0.0,0.0,0.0,0.0,0.0
1402758959788910946,3,-25.0588794706,-7.1377884924,2.70529342235,2.38304939926,31.9977056034,-3.84635974695,-0.00744840605658,0.0,-0.00541842621916,0.0,0.03509444331,0.0,3.08268886519,0.0,-0.00483276781861,0.0,0.00348825687867,0.0,0.0504980493963,0.0,0.0696780579713,0.0,-0.0233582556144,0.0,-0.0,-0.0,0.592139422894,-11.5,-66.6839560914,60.0073158146,1.04412874381,0.0,-1.04412880738,0.0,1.0471975512,-50.0,-1.0471975512,27.0,4011214.09283,0.0,0.0,0.0,0.0,0.0,0.0
1402758959808549552,3,-25.0650731828,-7.1377884924,2.70361831461,2.38304939926,32.0187523657,-3.84635974695,-0.0152953304767,0.0,-0.00978364475599,0.0,0.0466274325994,0.0,3.08244249142,0.0,-0.00200927180551,0.0,0.000343485738766,0.0,0.0554960929555,0.0,0.0714711756561,0.0,-0.0237502528803,0.0,-0.0,-0.0,0.592139422894,-11.5,-66.6839560914,60.0073158146,1.04412874381,0.0,-1.04412880738,0.0,1.0471975512,-50.0,-1.0471975512,27.0,4011214.09283,0.0,0.0,0.0,0.0,0.0,0.0
1402758959828488700,3,-25.0650731828,-7.1377884924,2.70361831461,2.38304939926,32.0187523657,-3.84635974695,-0.0152953304767,0.0,-0.00978364475599,0.0,0.0466274325994,0.0,3.08244249142,0.0,-0.00200927180551,0.0,0.000343485738766,0.0,0.0554960929555,0.0,0.0714711756561,0.0,-0.0237502528803,0.0,-0.0,-0.0,0.592139422894,-11.5,-66.6839560914,60.0073158146,1.04412874381,0.0,-1.04412880738,0.0,1.0471975512,-50.0,-1.0471975512,27.0,4011214.09283,0.0,0.0,0.0,0.0,0.0,0.0
1402758959848762589,3,-25.0706414064,-7.1377884924,2.70354799339,2.38304939926,32.0042923575,-3.84635974695,-0.0235365776566,0.0,-0.00740199865726,0.0,0.0419096675233,0.0,3.08250451607,0.0,-0.00230931880021,0.0,-0.00094094531152,0.0,0.0594375029392,0.0,0.0730823366496,0.0,-0.027069485651,0.0,-0.0,-0.0,0.592139422894,-11.5,-66.6839560914,60.0073158146,1.04412874381,0.0,-1.04412880738,0.0,1.0471975512,-50.0,-1.0471975512,27.0,4011214.09283,0.0,0.0,0.0,0.0,0.0,0.0
1402758959868541022,3,-25.071340058,-7.1377884924,2.7032485316,2.38304939926,32.0063052547,-3.84635974695,-0.0238065238095,0.0,-0.0038180985345,0.0,0.0482597969062,0.0,3.08259712098,0.0,0.0051030896599,0.0,-0.00287741670648,0.0,0.0413117874719,0.0,0.0741087937008,0.0,-0.0223541486852,0.0,-0.0,-0.0,0.592139422894,-11.5,-66.6839560914,60.0073158146,1.04412874381,0.0,-1.04412880738,0.0,1.0471975512,-50.0,-1.0471975512,27.0,4011214.09283,0.0,0.0,0.0,0.0,0.0,0.0
1402758959888214516,3,-25.071340058,-7.1377884924,2.7032485316,2.38304939926,32.0063052547,-3.84635974695,-0.0238065238095,0.0,-0.0038180985345,0.0,0.0482597969062,0.0,3.08259712098,0.0,0.0051030896599,0.0,-0.00287741670648,0.0,0.0413117874719,0.0,0.0741087937008,0.0,-0.0223541486852,0.0,-0.0,-0.0,0.592139422894,-11.5,-66.6839560914,60.0073158146,1.04412874381,0.0,-1.04412880738,0.0,1.0471975512,-50.0,-1.0471975512,27.0,4011214.09283,0.0,0.0,0.0,0.0,0.0,0.0
1402758959908327721,3,-25.0687348797,-7.1377884924,2.7028976893,2.38304939926,32.0234095211,-3.84635974695,-0.0148467842753,0.0,-0.00786415515134,0.0,0.0554529720895,0.0,3.08250489267,0.0,0.000220744000771,0.0,-0.00382941143784,0.0,0.0433805613293,0.0,0.0733467569282,0.0,-0.023458844548,0.0,-0.0,-0.0,0.592139422894,-11.5,-66.6839560914,60.0073158146,1.04412874381,0.0,-1.04412880738,0.0,1.0471975512,-50.0,-1.0471975512,27.0,4011214.09283,0.0,0.0,0.0,0.0,0.0,0.0
1402758959928921743,3,-25.0687348797,-7.1377884924,2.7028976893,2.38304939926,32.0234095211,-3.84635974695,-0.0148467842753,0.0,-0.00786415515134,0.0,0.0554529720895,0.0,3.08250489267,0.0,0.000220744000771,0.0,-0.00382941143784,0.0,0.0433805613293,0.0,0.0733467569282,0.0,-0.023458844548,0.0,-0.0,-0.0,0.592139422894,-11.5,-66.6839560914,60.0073158146,1.04412874381,0.0,-1.04412880738,0.0,1.0471975512,-50.0,-1.0471975512,27.0,4011214.09283,0.0,0.0,0.0,0.0,0.0,0.0
1402758959948457113,3,-25.0689833186,-7.1377884924,2.70260102505,2.38304939926,32.0254078554,-3.84635974695,-0.0138942248173,0.0,-0.00540341890654,0.0,0.0604461369758,0.0,3.08234907936,0.0,-0.00305230319763,0.0,-0.00483933203973,0.0,0.0260322424331,0.0,0.0738949099819,0.0,-0.0151218224085,0.0,-0.0,-0.0,0.592139422894,-11.5,-66.6839560914,60.0073158146,1.04412874381,0.0,-1.04412880738,0.0,1.0471975512,-50.0,-1.0471975512,27.0,4011214.09283,0.0,0.0,0.0,0.0,0.0,0.0
1402758959968395658,3,-25.0689833186,-7.1377884924,2.70260102505,2.38304939926,32.0254078554,-3.84635974695,-0.0138942248173,0.0,-0.00540341890654,0.0,0.0604461369758,0.0,3.08234907936,0.0,-0.00305230319763,0.0,-0.00483933203973,0.0,0.0260322424331,0.0,0.0738949099819,0.0,-0.0151218224085,0.0,-0.0,-0.0,0.592139422894,-11.5,-66.6839560914,60.0073158146,1.04412874381,0.0,-1.04412880738,0.0,1.0471975512,-50.0,-1.0471975512,27.0,4011214.09283,0.0,0.0,0.0,0.0,0.0,0.0
1402758959990299071,3,-25.0746919108,-7.1377884924,2.6991719134,2.38304939926,32.0195750246,-3.84635974695,-0.0208144319139,0.0,-0.00928253957248,0.0,0.0610161312289,0.0,3.08234548565,0.0,0.00339909090561,0.0,-0.00651491812833,0.0,0.011472713317,0.0,0.0748910026133,0.0,-0.00932013160874,0.0,-0.0,-0.0,0.592139422894,-11.5,-66.6839560914,60.0073158146,1.04412874381,0.0,-1.04412880738,0.0,1.0471975512,-50.0,-1.0471975512,27.0,4011214.09283,0.0,0.0,0.0,0.0,0.0,0.0
1402758960008501500,3,-25.0746919108,-7.1377884924,2.6991719134,2.38304939926,32.0195750246,-3.84635974695,-0.0208144319139,0.0,-0.00928253957248,0.0,0.0610161312289,0.0,3.08234548565,0.0,0.00339909090561,0.0,-0.00651491812833,0.0,0.011472713317,0.0,0.0748910026133,0.0,-0.00932013160874,0.0,-0.0,-0.0,0.592139422894,-11.5,-66.6839560914,60.0073158146,1.04412874381,0.0,-1.04412880738,0.0,1.0471975512,-50.0,-1.0471975512,27.0,4011214.09283,0.0,0.0,0.0,0.0,0.0,0.0
1402758960028732078,3,-25.0755744852,-7.1377884924,2.70265839768,2.38304939926,32.0408703858,-3.84635974695,-0.0150184473536,0.0,0.000462135470553,0.0,0.0711899396724,0.0,3.08240670372,0.0,-0.00191061469618,0.0,-0.0058939353227,0.0,-0.00048904356557,0.0,0.0746576787838,0.0,0.00115339598125,0.0,-0.0,-0.0,0.592139422894,-11.5,-66.6839560914,60.0073158146,1.04412874381,0.0,-1.04412880738,0.0,1.0471975512,-50.0,-1.0471975512,27.0,4011214.09283,0.0,0.0,0.0,0.0,0.0,0.0
1402758960048454092,3,-25.0755744852,-7.1377884924,2.70265839768,2.38304939926,32.0408703858,-3.84635974695,-0.0150184473536,0.0,0.000462135470553,0.0,0.0711899396724,0.0,3.08240670372,0.0,-0.00191061469618,0.0,-0.0058939353227,0.0,-0.00048904356557,0.0,0.0746576787838,0.0,0.00115339598125,0.0,-0.0,-0.0,0.592139422894,-11.5,-66.6839560914,60.0073158146,1.04412874381,0.0,-1.04412880738,0.0,1.0471975512,-50.0,-1.0471975512,27.0,4011214.09283,0.0,0.0,0.0,0.0,0.0,0.0
1402758960069053084,3,-25.0793854093,-7.1377884924,2.70214149671,2.38304939926,32.0409488208,-3.84635974695,-0.0183165839251,0.0,0.00333022018404,0.0,0.072373042637,0.0,3.08247712182,0.0,6.67457910652e-05,0.0,-0.00558792203852,0.0,-0.0184575392536,0.0,0.0748034708666,0.0,0.00562748280805,0.0,-0.0,-0.0,0.592139422894,-11.5,-66.6839560914,60.0073158146,1.04412874381,0.0,-1.04412880738,0.0,1.0471975512,-50.0,-1.0471975512,27.0,4011214.09283,0.0,0.0,0.0,0.0,0.0,0.0
1402758960088554928,3,-25.0793854093,-7.1377884924,2.70214149671,2.38304939926,32.0409488208,-3.84635974695,-0.0183165839251,0.0,0.00333022018404,0.0,0.072373042637,0.0,3.08247712182,0.0,6.67457910652e-05,0.0,-0.00558792203852,0.0,-0.0184575392536,0.0,0.0748034708666,0.0,0.00562748280805,0.0,-0.0,-0.0,0.592139422894,-11.5,-66.6839560914,60.0073158146,1.04412874381,0.0,-1.04412880738,0.0,1.0471975512,-50.0,-1.0471975512,27.0,4011214.09283,0.0,0.0,0.0,0.0,0.0,0.0
1402758960108373970,3,-25.0847199797,-7.1377884924,2.70222198643,2.38304939926,32.0458649991,-3.84635974695,-0.0204242368119,0.0,0.00529706574681,0.0,0.0721897836906,0.0,3.08268411484,0.0,0.000634152470364,0.0,-0.00450810120305,0.0,-0.0183509038536,0.0,0.0743641630693,0.0,0.0232078930343,0.0,-0.0,-0.0,0.592139422894,-11.5,-66.6839560914,60.0073158146,1.04412874381,0.0,-1.04412880738,0.0,1.0471975512,-50.0,-1.0471975512,27.0,4011214.09283,0.0,0.0,0.0,0.0,0.0,0.0
1402758960129007242,3,-25.0847199797,-7.1377884924,2.70222198643,2.38304939926,32.0458649991,-3.84635974695,-0.0204242368119,0.0,0.00529706574681,0.0,0.0721897836906,0.0,3.08268411484,0.0,0.000634152470364,0.0,-0.00450810120305,0.0,-0.0183509038536,0.0,0.0743641630693,0.0,0.0232078930343,0.0,-0.0,-0.0,0.592139422894,-11.5,-66.6839560914,60.0073158146,1.04412874381,0.0,-1.04412880738,0.0,1.0471975512,-50.0,-1.0471975512,27.0,4011214.09283,0.0,0.0,0.0,0.0,0.0,0.0
1402758960148603553,3,-25.0905746315,-7.1377884924,2.70501718737,2.38304939926,32.0601272495,-3.84635974695,-0.0245741436689,0.0,0.0135636864739,0.0,0.0733944232718,0.0,3.08291584099,0.0,-0.00229637184185,0.0,-0.00244281398639,0.0,-0.0289550080938,0.0,0.0736498899405,0.0,0.0298100770978,0.0,-0.0,-0.0,0.592139422894,-11.5,-66.6839560914,60.0073158146,1.04412874381,0.0,-1.04412880738,0.0,1.0471975512,-50.0,-1.0471975512,27.0,4011214.09283,0.0,0.0,0.0,0.0,0.0,0.0
1402758960168384358,3,-25.0905746315,-7.1377884924,2.70501718737,2.38304939926,32.0601272495,-3.84635974695,-0.0245741436689,0.0,0.0135636864739,0.0,0.0733944232718,0.0,3.08291584099,0.0,-0.00229637184185,0.0,-0.00244281398639,0.0,-0.0289550080938,0.0,0.0736498899405,0.0,0.0298100770978,0.0,-0.0,-0.0,0.592139422894,-11.5,-66.6839560914,60.0073158146,1.04412874381,0.0,-1.04412880738,0.0,1.0471975512,-50.0,-1.0471975512,27.0,4011214.09283,0.0,0.0,0.0,0.0,0.0,0.0
1402758960188954262,3,-25.0912552722,-7.1377884924,2.70533051501,2.38304939926,32.0614090615,-3.84635974695,-0.0248026093023,0.0,0.0135345636288,0.0,0.0727523535513,0.0,3.08296376284,0.0,-0.00550383900618,0.0,-0.00191999425768,0.0,-0.0243970857513,0.0,0.0730936180154,0.0,0.029769124417,0.0,-0.0,-0.0,0.592139422894,-11.5,-66.6839560914,60.0073158146,1.04412874381,0.0,-1.04412880738,0.0,1.0471975512,-50.0,-1.0471975512,27.0,4011214.09283,0.0,0.0,0.0,0.0,0.0,0.0
1402758960208454484,3,-25.0912552722,-7.1377884924,2.70533051501,2.38304939926,32.0614090615,-3.84635974695,-0.0248026093023,0.0,0.0135345636288,0.0,0.0727523535513,0.0,3.08296376284,0.0,-0.00550383900618,0.0,-0.00191999425768,0.0,-0.0243970857513,0.0,0.0730936180154,0.0,0.029769124417,0.0,-0.0,-0.0,0.592139422894,-11.5,-66.6839560914,60.0073158146,1.04412874381,0.0,-1.04412880738,0.0,1.0471975512,-50.0,-1.0471975512,27.0,4011214.09283,0.0,0.0,0.0,0.0,0.0,0.0
1402758960229347125,3,-25.0891076483,-7.1377884924,2.70311663974,2.38304939926,32.067050648,-3.84635974695,-0.0134875414072,0.0,0.00521641864363,0.0,0.0687664740652,0.0,3.08288435875,0.0,-0.00615051168242,0.0,-0.00191368484866,0.0,-0.0250399822923,0.0,0.0707192397395,0.0,0.0294785162562,0.0,-0.0,-0.0,0.592139422894,-11.5,-66.6839560914,60.0073158146,1.04412874381,0.0,-1.04412880738,0.0,1.0471975512,-50.0,-1.0471975512,27.0,4011214.09283,0.0,0.0,0.0,0.0,0.0,0.0
1402758960249202904,3,-25.0891076483,-7.1377884924,2.70311663974,2.38304939926,32.067050648,-3.84635974695,-0.0134875414072,0.0,0.00521641864363,0.0,0.0687664740652,0.0,3.08288435875,0.0,-0.00615051168242,0.0,-0.00191368484866,0.0,-0.0250399822923,0.0,0.0707192397395,0.0,0.0294785162562,0.0,-0.0,-0.0,0.592139422894,-11.5,-66.6839560914,60.0073158146,1.04412874381,0.0,-1.04412880738,0.0,1.0471975512,-50.0,-1.0471975512,27.0,4011214.09283,0.0,0.0,0.0,0.0,0.0,0.0
1402758960269137109,3,-25.0941468409,-7.1377884924,2.70588056891,2.38304939926,32.0669628866,-3.84635974695,-0.0191256865207,0.0,0.0110323480391,0.0,0.0613770294695,0.0,3.0831966752,0.0,0.000377796588444,0.0,-7.10928183579e-05,0.0,-0.0215431088878,0.0,0.0702315184612,0.0,0.0271552368754,0.0,-0.0,-0.0,0.592139422894,-11.5,-66.6839560914,60.0073158146,1.04412874381,0.0,-1.04259458383,0.0,1.0471975512,-50.0,-1.0471975512,27.0,4011214.09283,0.0,0.0,0.0,0.0,0.0,0.0
1402758960288459552,3,-25.0941468409,-7.1377884924,2.70588056891,2.38304939926,32.0669628866,-3.84635974695,-0.0191256865207,0.0,0.0110323480391,0.0,0.0613770294695,0.0,3.0831966752,0.0,0.000377796588444,0.0,-7.10928183579e-05,0.0,-0.0215431088878,0.0,0.0702315184612,0.0,0.0271552368754,0.0,-0.0,-0.0,0.592139422894,-11.5,-66.6839560914,60.0073158146,1.04412874381,0.0,-1.04412880738,0.0,1.0471975512,-50.0,-1.0471975512,27.0,4011214.09283,0.0,0.0,0.0,0.0,0.0,0.0
1402758960308392487,3,-25.0949454842,-7.1377884924,2.70631588525,2.38304939926,32.069256428,-3.84635974695,-0.0201644499644,0.0,0.0102090188897,0.0,0.0573203874997,0.0,3.08322740597,0.0,0.00116731685466,0.0,0.000901397543552,0.0,-0.0184537676867,0.0,0.0692639381065,0.0,0.0221084551101,0.0,-0.0,-0.0,0.592139422894,-11.5,-66.6839560914,60.0073158146,1.04412874381,0.0,-1.04412880738,0.0,1.0471975512,-50.0,-1.0471975512,27.0,4011214.09283,0.0,0.0,0.0,0.0,0.0,0.0
1402758960328286524,3,-25.0949454842,-7.1377884924,2.70631588525,2.38304939926,32.069256428,-3.84635974695,-0.0201644499644,0.0,0.0102090188897,0.0,0.0573203874997,0.0,3.08322740597,0.0,0.00116731685466,0.0,0.000901397543552,0.0,-0.0184537676867,0.0,0.0692639381065,0.0,0.0221084551101,0.0,-0.0,-0.0,0.592139422894,-11.5,-66.6839560914,60.0073158146,1.04412874381,0.0,-1.04412880738,0.0,1.0471975512,-50.0,-1.0471975512,27.0,4011214.09283,0.0,0.0,0.0,0.0,0.0,0.0
1402758960349307111,3,-25.0987032822,-7.1377884924,2.70588931919,2.38304939926,32.0849087003,-3.84635974695,-0.0230097115181,0.0,0.00398378110193,0.0,0.0559480624936,0.0,3.08329805778,0.0,-0.00260339795926,0.0,0.00116933854907,0.0,-0.0158516359356,0.0,0.0685600399254,0.0,0.0166407142043,0.0,-0.0,-0.0,0.592139422894,-11.5,-66.6839560914,60.0073158146,1.04412874381,0.0,-1.04412880738,0.0,1.0471975512,-50.0,-1.0471975512,27.0,4011214.09283,0.0,0.0,0.0,0.0,0.0,0.0
1402758960368998229,3,-25.0987032822,-7.1377884924,2.70588931919,2.38304939926,32.0849087003,-3.84635974695,-0.0230097115181,0.0,0.00398378110193,0.0,0.0559480624936,0.0,3.08329805778,0.0,-0.00260339795926,0.0,0.00116933854907,0.0,-0.0158516359356,0.0,0.0685600399254,0.0,0.0166407142043,0.0,-0.0,-0.0,0.592139422894,-11.5,-66.6839560914,60.0073158146,1.04412874381,0.0,-1.04412880738,0.0,1.0471975512,-50.0,-1.0471975512,27.0,4011214.09283,0.0,0.0,0.0,0.0,0.0,0.0
1402758960388491890,3,-25.0946658605,-7.1377884924,2.7082955013,2.38304939926,32.0968010207,-3.84635974695,-0.0121054522554,0.0,0.00298388745612,0.0,0.0534527228195,0.0,3.08327035343,0.0,-0.00208063252378,0.0,0.00182503570675,0.0,-0.00213083935411,0.0,0.0670465052525,0.0,0.0110811189455,0.0,-0.0,-0.0,0.592139422894,-11.5,-66.6839560914,60.0073158146,1.04412874381,0.0,-1.04412880738,0.0,1.0471975512,-50.0,-1.0471975512,27.0,4011214.09283,0.0,0.0,0.0,0.0,0.0,0.0
1402758960408432381,3,-25.0946658605,-7.1377884924,2.7082955013,2.38304939926,32.0968010207,-3.84635974695,-0.0121054522554,0.0,0.00298388745612,0.0,0.0534527228195,0.0,3.08327035343,0.0,-0.00208063252378,0.0,0.00182503570675,0.0,-0.00213083935411,0.0,0.0670465052525,0.0,0.0110811189455,0.0,-0.0,-0.0,0.592139422894,-11.5,-66.6839560914,60.0073158146,1.04412874381,0.0,-1.04412880738,0.0,1.0471975512,-50.0,-1.0471975512,27.0,4011214.09283,0.0,0.0,0.0,0.0,0.0,0.0
1402758960430298824,3,-25.0949666464,-7.1377884924,2.71299402322,2.38304939926,32.0902287681,-3.84635974695,-0.011507971916,0.0,0.0116089689043,0.0,0.0442685027615,0.0,3.08328741948,0.0,-0.00532994996484,0.0,0.00354355518923,0.0,-0.00532748213094,0.0,0.0669447029718,0.0,7.92905733454e-05,0.0,-0.0,-0.0,0.592139422894,-11.5,-66.6839560914,60.0073158146,1.04412874381,0.0,-1.04412880738,0.0,1.0471975512,-50.0,-1.0471975512,27.0,4011214.09283,0.0,0.0,0.0,0.0,0.0,0.0
1402758960448295516,3,-25.0949666464,-7.1377884924,2.71299402322,2.38304939926,32.0902287681,-3.84635974695,-0.011507971916,0.0,0.0116089689043,0.0,0.0442685027615,0.0,3.08328741948,0.0,-0.00532994996484,0.0,0.00354355518923,0.0,-0.00532748213094,0.0,0.0669447029718,0.0,7.92905733454e-05,0.0,-0.0,-0.0,0.592139422894,-11.5,-66.6839560914,60.0073158146,1.04412874381,0.0,-1.04412880738,0.0,1.0471975512,-50.0,-1.0471975512,27.0,4011214.09283,0.0,0.0,0.0,0.0,0.0,0.0
1402758960468381109,3,-25.0983616002,-7.1377884924,2.71305920773,2.38304939926,32.0986068561,-3.84635974695,-0.0173444879089,0.0,0.00683641561022,0.0,0.0425732462659,0.0,3.08331223306,0.0,-0.00630816713131,0.0,0.00333081117723,0.0,0.00505323843262,0.0,0.0676262052398,0.0,-0.0132544233627,0.0,-0.0,-0.0,0.592139422894,-11.5,-66.6839560914,60.0073158146,1.04412874381,0.0,-1.04412880738,0.0,1.0471975512,-50.0,-1.0471975512,27.0,4011214.09283,0.0,0.0,0.0,0.0,0.0,0.0
1402758960489069089,3,-25.0983616002,-7.1377884924,2.71305920773,2.38304939926,32.0986068561,-3.84635974695,-0.0173444879089,0.0,0.00683641561022,0.0,0.0425732462659,0.0,3.08331223306,0.0,-0.00630816713131,0.0,0.00333081117723,0.0,0.00505323843262,0.0,0.0676262052398,0.0,-0.0132544233627,0.0,-0.0,-0.0,0.592139422894,-11.5,-66.6839560914,60.0073158146,1.04412874381,0.0,-1.04412880738,0.0,1.0471975512,-50.0,-1.0471975512,27.0,4011214.09283,0.0,0.0,0.0,0.0,0.0,0.0
1402758960508343761,3,-25.0971010295,-7.1377884924,2.70903633277,2.38304939926,32.1109974435,-3.84635974695,-0.00918761879815,0.0,-0.00870213124911,0.0,0.0439283072124,0.0,3.08320789401,0.0,-0.00465048095591,0.0,0.00140402748281,0.0,0.00185176524518,0.0,0.0669700741762,0.0,-0.0167031576526,0.0,-0.0,-0.0,0.592139422894,-11.5,-66.6839560914,60.0073158146,1.04566320578,0.0,-1.04412880738,0.0,1.0471975512,-50.0,-1.0471975512,27.0,4011214.09283,0.0,0.0,0.0,0.0,0.0,0.0
1402758960528364041,3,-25.0971010295,-7.1377884924,2.70903633277,2.38304939926,32.1109974435,-3.84635974695,-0.00918761879815,0.0,-0.00870213124911,0.0,0.0439283072124,0.0,3.08320789401,0.0,-0.00465048095591,0.0,0.00140402748281,0.0,0.00185176524518,0.0,0.0669700741762,0.0,-0.0167031576526,0.0,-0.0,-0.0,0.592139422894,-11.5,-66.6839560914,60.0073158146,1.04412874381,0.0,-1.04412880738,0.0,1.0471975512,-50.0,-1.0471975512,27.0,4011214.09283,0.0,0.0,0.0,0.0,0.0,0.0
1402758960549136737,3,-25.0972296678,-7.1377884924,2.70848004527,2.38304939926,32.1129443867,-3.84635974695,-0.00852604313362,0.0,-0.0114583758484,0.0,0.0444902084337,0.0,3.08316841528,0.0,-0.00687494909938,0.0,0.00107604584347,0.0,0.0049511585489,0.0,0.0678200762432,0.0,-0.0175494050001,0.0,-0.0,-0.0,0.592139422894,-11.5,-66.6839560914,60.0073158146,1.04412874381,0.0,-1.04412880738,0.0,1.0471975512,-50.0,-1.0471975512,27.0,4011214.09283,0.0,0.0,0.0,0.0,0.0,0.0
1402758960568264552,3,-25.0972296678,-7.1377884924,2.70848004527,2.38304939926,32.1129443867,-3.84635974695,-0.00852604313362,0.0,-0.0114583758484,0.0,0.0444902084337,0.0,3.08316841528,0.0,-0.00687494909938,0.0,0.00107604584347,0.0,0.0049511585489,0.0,0.0678200762432,0.0,-0.0175494050001,0.0,-0.0,-0.0,0.592139422894,-11.5,-66.6839560914,60.0073158146,1.04412874381,0.0,-1.04412880738,0.0,1.0471975512,-50.0,-1.0471975512,27.0,4011214.09283,0.0,0.0,0.0,0.0,0.0,0.0
1402758960588279751,3,-25.097643135,-7.1377884924,2.70797710596,2.38304939926,32.1147641897,-3.84635974695,-0.00884815454324,0.0,-0.0135491269835,0.0,0.0480681364912,0.0,3.08321840057,0.0,-0.0058237859276,0.0,0.000587872141476,0.0,0.00993696725507,0.0,0.0687518257138,0.0,-0.0279044282553,0.0,-0.0,-0.0,0.592139422894,-11.5,-66.6839560914,60.0073158146,1.04412874381,0.0,-1.04412880738,0.0,1.0471975512,-50.0,-1.0471975512,27.0,4011214.09283,0.0,0.0,0.0,0.0,0.0,0.0
1402758960608651731,3,-25.097643135,-7.1377884924,2.70797710596,2.38304939926,32.1147641897,-3.84635974695,-0.00884815454324,0.0,-0.0135491269835,0.0,0.0480681364912,0.0,3.08321840057,0.0,-0.0058237859276,0.0,0.000587872141476,0.0,0.00993696725507,0.0,0.0687518257138,0.0,-0.0279044282553,0.0,-0.0,-0.0,0.592139422894,-11.5,-66.6839560914,60.0073158146,1.04412874381,0.0,-1.04412880738,0.0,1.0471975512,-50.0,-1.0471975512,27.0,4011214.09283,0.0,0.0,0.0,0.0,0.0,0.0
1402758960628343820,3,-25.1011549482,-7.1377884924,2.70899648823,2.38304939926,32.1097751742,-3.84635974695,-0.0125227080904,0.0,-0.00860706455699,0.0,0.0463353466501,0.0,3.08316702427,0.0,-0.000367088888143,0.0,0.000917616035049,0.0,0.00564583268003,0.0,0.070298053755,0.0,-0.02278298046,0.0,-0.0,-0.0,0.592139422894,-11.5,-66.6839560914,60.0073158146,1.04412874381,0.0,-1.04412880738,0.0,1.0471975512,-50.0,-1.0471975512,27.0,4011214.09283,0.0,0.0,0.0,0.0,0.0,0.0
1402758960648556580,3,-25.1011549482,-7.1377884924,2.70899648823,2.38304939926,32.1097751742,-3.84635974695,-0.0125227080904,0.0,-0.00860706455699,0.0,0.0463353466501,0.0,3.08316702427,0.0,-0.000367088888143,0.0,0.000917616035049,0.0,0.00564583268003,0.0,0.070298053755,0.0,-0.02278298046,0.0,-0.0,-0.0,0.592139422894,-11.5,-66.6839560914,60.0073158146,1.04412874381,0.0,-1.04412880738,0.0,1.0471975512,-50.0,-1.0471975512,27.0,4011214.09283,0.0,0.0,0.0,0.0,0.0,0.0
1402758960668915547,3,-25.0964582179,-7.1377884924,2.70695674233,2.38304939926,32.1095973742,-3.84635974695,-0.00036384523845,0.0,-0.013472097455,0.0,0.050018046357,0.0,3.0832255909,0.0,0.00814201845356,0.0,-0.000413040897997,0.0,0.0230033992817,0.0,0.0701443062645,0.0,-0.0267856912604,0.0,-0.0,-0.0,0.592139422894,-11.5,-66.6839560914,60.0073158146,1.04412874381,0.0,-1.04412880738,0.0,1.0471975512,-50.0,-1.0471975512,27.0,4011214.09283,0.0,0.0,0.0,0.0,0.0,0.0
1402758960688877729,3,-25.0964582179,-7.1377884924,2.70695674233,2.38304939926,32.1095973742,-3.84635974695,-0.00036384523845,0.0,-0.013472097455,0.0,0.050018046357,0.0,3.0832255909,0.0,0.00814201845356,0.0,-0.000413040897997,0.0,0.0230033992817,0.0,0.0701443062645,0.0,-0.0267856912604,0.0,-0.0,-0.0,0.592139422894,-11.5,-66.6839560914,60.0073158146,1.04412874381,0.0,-1.04412880738,0.0,1.0471975512,-50.0,-1.0471975512,27.0,4011214.09283,0.0,0.0,0.0,0.0,0.0,0.0
1402758960708561061,3,-25.1054418285,-7.1377884924,2.71051490228,2.38304939926,32.1184720701,-3.84635974695,-0.0169044461301,0.0,0.000516863497,0.0,0.0568573253191,0.0,3.08358716304,0.0,0.00135370997447,0.0,0.000519340659508,0.0,0.00975369133742,0.0,0.0730039358359,0.0,-0.0169327348587,0.0,-0.0,-0.0,0.592139422894,-11.5,-66.6839560914,60.0073158146,1.04412874381,0.0,-1.04412880738,0.0,1.0471975512,-50.0,-1.0471975512,27.0,4011214.09283,0.0,0.0,0.0,0.0,0.0,0.0
1402758960728886192,3,-25.1054418285,-7.1377884924,2.71051490228,2.38304939926,32.1184720701,-3.84635974695,-0.0169044461301,0.0,0.000516863497,0.0,0.0568573253191,0.0,3.08358716304,0.0,0.00135370997447,0.0,0.000519340659508,0.0,0.00975369133742,0.0,0.0730039358359,0.0,-0.0169327348587,0.0,-0.0,-0.0,0.592139422894,-11.5,-66.6839560914,60.0073158146,1.04412874381,0.0,-1.04412880738,0.0,1.0471975512,-50.0,-1.0471975512,27.0,4011214.09283,0.0,0.0,0.0,0.0,0.0,0.0
1402758960748489642,3,-25.103460074,-7.1377884924,2.70395141206,2.38304939926,32.1168442792,-3.84635974695,-0.0102585127965,0.0,-0.0135244473849,0.0,0.0595345248933,0.0,3.08360615329,0.0,0.00524758856528,0.0,-0.00188063724964,0.0,0.0137022893745,0.0,0.0726798414875,0.0,-0.0147358792684,0.0,-0.0,-0.0,0.592139422894,-11.5,-66.6839560914,60.0073158146,1.04412874381,0.0,-1.04412880738,0.0,1.0471975512,-50.0,-1.0471975512,27.0,4011214.09283,0.0,0.0,0.0,0.0,0.0,0.0
1402758960768539749,3,-25.103460074,-7.1377884924,2.70395141206,2.38304939926,32.1168442792,-3.84635974695,-0.0102585127965,0.0,-0.0135244473849,0.0,0.0595345248933,0.0,3.08360615329,0.0,0.00524758856528,0.0,-0.00188063724964,0.0,0.0137022893745,0.0,0.0726798414875,0.0,-0.0147358792684,0.0,-0.0,-0.0,0.592139422894,-11.5,-66.6839560914,60.0073158146,1.04412874381,0.0,-1.04412880738,0.0,1.0471975512,-50.0,-1.0471975512,27.0,4011214.09283,0.0,0.0,0.0,0.0,0.0,0.0
1402758960789082867,3,-25.1090062204,-7.1377884924,2.70909603237,2.38304939926,32.1148345845,-3.84635974695,-0.0191037138548,0.0,0.00570849689686,0.0,0.0603594091008,0.0,3.08406539945,0.0,-0.00125028987385,0.0,-0.000549490523235,0.0,0.009797447691,0.0,0.0741555301345,0.0,-0.00232609857784,0.0,-0.0,-0.0,0.592139422894,-11.5,-66.6839560914,60.0073158146,1.04412874381,0.0,-1.04412880738,0.0,1.0471975512,-50.0,-1.0471975512,27.0,4011214.09283,0.0,0.0,0.0,0.0,0.0,0.0
1402758960808460552,3,-25.1090062204,-7.1377884924,2.70909603237,2.38304939926,32.1148345845,-3.84635974695,-0.0191037138548,0.0,0.00570849689686,0.0,0.0603594091008,0.0,3.08406539945,0.0,-0.00125028987385,0.0,-0.000549490523235,0.0,0.009797447691,0.0,0.0741555301345,0.0,-0.00232609857784,0.0,-0.0,-0.0,0.592139422894,-11.5,-66.6839560914,60.0073158146,1.04412874381,0.0,-1.04412880738,0.0,1.0471975512,-50.0,-1.0471975512,27.0,4011214.09283,0.0,0.0,0.0,0.0,0.0,0.0
1402758960828499259,3,-25.1084105881,-7.1377884924,2.7059603961,2.38304939926,32.1172831787,-3.84635974695,-0.0139645658043,0.0,-0.000236385295086,0.0,0.0620466932666,0.0,3.08395364695,0.0,-0.0074364616725,0.0,-0.00180886553951,0.0,0.00579005764262,0.0,0.0735055399873,0.0,0.00300627028236,0.0,-0.0,-0.0,0.592139422894,-11.5,-66.6839560914,60.0073158146,1.04412874381,0.0,-1.04412880738,0.0,1.0471975512,-50.0,-1.0471975512,27.0,4011214.09283,0.0,0.0,0.0,0.0,0.0,0.0
1402758960849182217,3,-25.1039299798,-7.1377884924,2.70809037854,2.38304939926,32.1284579456,-3.84635974695,-0.00192109401558,0.0,0.00791181568908,0.0,0.0656697744611,0.0,3.08402088984,0.0,0.00568261698804,0.0,-0.00137201495659,0.0,-0.00396565837947,0.0,0.0723308228776,0.0,0.00631245643854,0.0,-0.0,-0.0,0.592139422894,-11.5,-66.6839560914,60.0073158146,1.04412874381,0.0,-1.04412880738,0.0,1.0471975512,-50.0,-1.0471975512,27.0,4011214.09283,0.0,0.0,0.0,0.0,0.0,0.0
1402758960868488293,3,-25.1039299798,-7.1377884924,2.70809037854,2.38304939926,32.1284579456,-3.84635974695,-0.00192109401558,0.0,0.00791181568908,0.0,0.0656697744611,0.0,3.08402088984,0.0,0.00568261698804,0.0,-0.00137201495659,0.0,-0.00396565837947,0.0,0.0723308228776,0.0,0.00631245643854,0.0,-0.0,-0.0,0.592139422894,-11.5,-66.6839560914,60.0073158146,1.04412874381,0.0,-1.04412880738,0.0,1.0471975512,-50.0,-1.0471975512,27.0,4011214.09283,0.0,0.0,0.0,0.0,0.0,0.0
1402758960888645443,3,-25.1039080156,-7.1377884924,2.7082843498,2.38304939926,32.1297036421,-3.84635974695,-0.00123596823447,0.0,0.00898134396635,0.0,0.0662363176042,0.0,3.08413895635,0.0,0.00388363578968,0.0,-0.00138631850547,0.0,0.00041718229184,0.0,0.0721735972021,0.0,0.0108197846408,0.0,-0.0,-0.0,0.592139422894,-11.5,-66.6839560914,60.0073158146,1.04412874381,0.0,-1.04412880738,0.0,1.0471975512,-50.0,-1.0471975512,27.0,4011214.09283,0.0,0.0,0.0,0.0,0.0,0.0
1402758960908395203,3,-25.1039080156,-7.1377884924,2.7082843498,2.38304939926,32.1297036421,-3.84635974695,-0.00123596823447,0.0,0.00898134396635,0.0,0.0662363176042,0.0,3.08413895635,0.0,0.00388363578968,0.0,-0.00138631850547,0.0,0.00041718229184,0.0,0.0721735972021,0.0,0.0108197846408,0.0,-0.0,-0.0,0.592139422894,-11.5,-66.6839560914,60.0073158146,1.04412874381,0.0,-1.04412880738,0.0,1.0471975512,-50.0,-1.0471975512,27.0,4011214.09283,0.0,0.0,0.0,0.0,0.0,0.0
1402758960928358830,3,-25.1061667543,-7.1377884924,2.70637997217,2.38304939926,32.1285021865,-3.84635974695,-0.00237060350886,0.0,0.00731011539428,0.0,0.0629431746995,0.0,3.08424590709,0.0,-0.00179748611969,0.0,-0.00164118030397,0.0,-0.0122154189534,0.0,0.0716345824407,0.0,0.0174151688883,0.0,-0.0,-0.0,0.592139422894,-11.5,-66.6839560914,60.0073158146,1.04412874381,-50.0,-1.04412880738,27.0,1.0471975512,-50.0,-1.0471975512,27.0,4011214.09283,0.0,0.0,0.0,0.0,0.0,0.0
1402758960948218514,3,-25.1061667543,-7.1377884924,2.70637997217,2.38304939926,32.1285021865,-3.84635974695,-0.00237060350886,0.0,0.00731011539428,0.0,0.0629431746995,0.0,3.08424590709,0.0,-0.00179748611969,0.0,-0.00164118030397,0.0,-0.0122154189534,0.0,0.0716345824407,0.0,0.0174151688883,0.0,-0.0,-0.0,0.592139422894,-11.5,-66.6839560914,60.0073158146,1.04412874381,-50.0,-1.04412880738,27.0,1.0471975512,-50.0,-1.0471975512,27.0,4011214.09283,0.0,0.0,0.0,0.0,0.0,0.0
1402758960969020572,3,-25.1137795276,-7.1377884924,2.70880815484,2.38304939926,32.1382572612,-3.84635974695,-0.0146373860323,0.0,0.0166879245607,0.0,0.0628052371578,0.0,3.08478238731,0.0,0.00586108284811,0.0,-0.000253768958633,0.0,-0.0128080382887,0.0,0.0721697981973,0.0,0.022748508074,0.0,-0.0,-0.0,0.592139422894,-11.5,-66.6839560914,60.0073158146,1.04412874381,-50.0,-1.04412880738,27.0,1.0471975512,-50.0,-1.0471975512,27.0,4011214.09283,0.0,0.0,0.0,0.0,0.0,0.0
1402758960988504720,3,-25.1137795276,-7.1377884924,2.70880815484,2.38304939926,32.1382572612,-3.84635974695,-0.0146373860323,0.0,0.0166879245607,0.0,0.0628052371578,0.0,3.08478238731,0.0,0.00586108284811,0.0,-0.000253768958633,0.0,-0.0128080382887,0.0,0.0721697981973,0.0,0.022748508074,0.0,-0.0,-0.0,0.592139422894,-11.5,-66.6839560914,60.0073158146,1.04412874381,-50.0,-1.04412880738,27.0,1.0471975512,-50.0,-1.0471975512,27.0,4011214.09283,0.0,0.0,0.0,0.0,0.0,0.0
1402758961008618031,3,-25.114189648,-7.1377884924,2.70939990961,2.38304939926,32.1408571161,-3.84635974695,-0.0141266633009,0.0,0.0175379016248,0.0,0.0602589766169,0.0,3.08489268944,0.0,-0.00538042707176,0.0,0.000550010054509,0.0,-0.024297331859,0.0,0.0712351757234,0.0,0.0249476494592,0.0,-0.0,-0.0,0.592139422894,-11.5,-66.6839560914,60.0073158146,1.04412874381,-50.0,-1.04412880738,27.0,1.0471975512,-50.0,-1.0471975512,27.0,4011214.09283,0.0,0.0,0.0,0.0,0.0,0.0
1402758961028819532,3,-25.114189648,-7.1377884924,2.70939990961,2.38304939926,32.1408571161,-3.84635974695,-0.0141266633009,0.0,0.0175379016248,0.0,0.0602589766169,0.0,3.08489268944,0.0,-0.00538042707176,0.0,0.000550010054509,0.0,-0.024297331859,0.0,0.0712351757234,0.0,0.0249476494592,0.0,-0.0,-0.0,0.592139422894,-11.5,-66.6839560914,60.0073158146,1.04412874381,-50.0,-1.04259458383,27.0,1.0471975512,-50.0,-1.0471975512,27.0,4011214.09283,0.0,0.0,0.0,0.0,0.0,0.0
1402758961048387307,3,-25.1158943379,-7.1377884924,2.7072859259,2.38304939926,32.1555228775,-3.84635974695,-0.0117589911441,0.0,0.00944322256299,0.0,0.0607519475029,0.0,3.08489703939,0.0,-0.00511716583322,0.0,0.000496062011471,0.0,-0.0227626124358,0.0,0.06986102666,0.0,0.0230907455108,0.0,-0.0,-0.0,0.592139422894,-11.5,-66.6839560914,60.0073158146,1.04412874381,-50.0,-1.04259458383,27.0,1.0471975512,-50.0,-1.0471975512,27.0,4011214.09283,0.0,0.0,0.0,0.0,0.0,0.0
1402758961068473253,3,-25.1158943379,-7.1377884924,2.7072859259,2.38304939926,32.1555228775,-3.84635974695,-0.0117589911441,0.0,0.00944322256299,0.0,0.0607519475029,0.0,3.08489703939,0.0,-0.00511716583322,0.0,0.000496062011471,0.0,-0.0227626124358,0.0,0.06986102666,0.0,0.0230907455108,0.0,-0.0,-0.0,0.592139422894,-11.5,-66.6839560914,60.0073158146,1.04412874381,-50.0,-1.04412880738,27.0,1.0471975512,-50.0,-1.0471975512,27.0,4011214.09283,0.0,0.0,0.0,0.0,0.0,0.0
1402758961088923900,3,-25.1171610405,-7.1377884924,2.70563535756,2.38304939926,32.1408937115,-3.84635974695,-0.0110826148091,0.0,0.00339798339819,0.0,0.048770905405,0.0,3.08484540465,0.0,-0.0012661563578,0.0,0.000961374945385,0.0,-0.0154930853299,0.0,0.0690955570528,0.0,0.0191406090754,0.0,-0.0,-0.0,0.592139422894,-11.5,-66.6839560914,60.0073158146,1.04412874381,-50.0,-1.04412880738,27.0,1.0471975512,-50.0,-1.0471975512,27.0,4011214.09283,0.0,0.0,0.0,0.0,0.0,0.0
1402758961108651881,3,-25.1171610405,-7.1377884924,2.70563535756,2.38304939926,32.1408937115,-3.84635974695,-0.0110826148091,0.0,0.00339798339819,0.0,0.048770905405,0.0,3.08484540465,0.0,-0.0012661563578,0.0,0.000961374945385,0.0,-0.0154930853299,0.0,0.0690955570528,0.0,0.0191406090754,0.0,-0.0,-0.0,0.592139422894,-11.5,-66.6839560914,60.0073158146,1.04412874381,-50.0,-1.04412880738,27.0,1.0471975512,-50.0,-1.0471975512,27.0,4011214.09283,0.0,0.0,0.0,0.0,0.0,0.0
1402758961128373083,3,-25.1179699586,-7.1377884924,2.70817087823,2.38304939926,32.1511113483,-3.84635974695,-0.00323854502957,0.0,-0.000129697182052,0.0,0.0447613688533,0.0,3.08471921466,0.0,-0.0128002997557,0.0,0.00203476056487,0.0,0.0011811542013,0.0,0.0683871827197,0.0,0.00787912647868,0.0,-0.0,-0.0,0.592139422894,-11.5,-66.6839560914,60.0073158146,1.04412874381,-50.0,-1.04412880738,27.0,1.0471975512,-50.0,-1.0471975512,27.0,4011214.09283,0.0,0.0,0.0,0.0,0.0,0.0
1402758961148502483,3,-25.1179699586,-7.1377884924,2.70817087823,2.38304939926,32.1511113483,-3.84635974695,-0.00323854502957,0.0,-0.000129697182052,0.0,0.0447613688533,0.0,3.08471921466,0.0,-0.0128002997557,0.0,0.00203476056487,0.0,0.0011811542013,0.0,0.0683871827197,0.0,0.00787912647868,0.0,-0.0,-0.0,0.592139422894,-11.5,-66.6839560914,60.0073158146,1.04412874381,-50.0,-1.04412880738,27.0,1.0471975512,-50.0,-1.0471975512,27.0,4011214.09283,0.0,0.0,0.0,0.0,0.0,0.0
1402758961168432651,3,-25.1194925192,-7.1377884924,2.71039275622,2.38304939926,32.1576249368,-3.84635974695,0.00352348280949,0.0,-0.00372672086887,0.0,0.0412545820723,0.0,3.08356352581,0.0,-0.0281729920503,0.0,0.00554574389418,0.0,-0.0397914155518,0.0,0.0685821587301,0.0,-0.0114303853697,0.0,-0.0,-0.0,0.592139422894,-11.5,-66.6839560914,60.0073158146,1.04412874381,-50.0,-1.04412880738,27.0,1.0471975512,-50.0,-1.0471975512,27.0,4011214.09283,0.0,0.0,0.0,0.0,0.0,0.0
1402758961188319951,3,-25.1194925192,-7.1377884924,2.71039275622,2.38304939926,32.1576249368,-3.84635974695,0.00352348280949,0.0,-0.00372672086887,0.0,0.0412545820723,0.0,3.08356352581,0.0,-0.0281729920503,0.0,0.00554574389418,0.0,-0.0397914155518,0.0,0.0685821587301,0.0,-0.0114303853697,0.0,-0.0,-0.0,0.592139422894,-11.5,-66.6839560914,60.0073158146,1.04412874381,-50.0,-1.04412880738,27.0,1.0471975512,-50.0,-1.0471975512,27.0,4011214.09283,0.0,0.0,0.0,0.0,0.0,0.0
1402758961208906365,3,-25.1165531669,-7.1377884924,2.71409838066,2.38304939926,32.1606106151,-3.84635974695,0.0155677568069,0.0,0.00132717441437,0.0,0.0362317968394,0.0,3.08330741181,0.0,-0.0275236736607,0.0,0.00717881441559,0.0,-0.0206304787917,0.0,0.0679317577145,0.0,-0.00882311692934,0.0,-0.0,-0.0,0.592139422894,-11.5,-66.6839560914,60.0073158146,1.04412874381,-50.0,-1.04412880738,27.0,1.0471975512,-50.0,-1.0471975512,27.0,4011214.09283,0.0,0.0,0.0,0.0,0.0,0.0
1402758961228341721,3,-25.1165531669,-7.1377884924,2.71409838066,2.38304939926,32.1606106151,-3.84635974695,0.0155677568069,0.0,0.00132717441437,0.0,0.0362317968394,0.0,3.08330741181,0.0,-0.0275236736607,0.0,0.00717881441559,0.0,-0.0206304787917,0.0,0.0679317577145,0.0,-0.00882311692934,0.0,-0.0,-0.0,0.592139422894,-11.5,-66.6839560914,60.0073158146,1.04412874381,-50.0,-1.04412880738,27.0,1.0471975512,-50.0,-1.0471975512,27.0,4011214.09283,0.0,0.0,0.0,0.0,0.0,0.0
1402758961248949411,3,-25.1163919127,-7.1377884924,2.71421262834,2.38304939926,32.1611222784,-3.84635974695,0.0176455303864,0.0,-0.0027271616275,0.0,0.0381631136565,0.0,3.08269824307,0.0,-0.0358874883836,0.0,0.00737307047985,0.0,-0.00827866225431,0.0,0.0683358044908,0.0,-0.0179105035187,0.0,-0.0,-0.0,0.592139422894,-11.5,-66.6839560914,60.0073158146,1.04412874381,-50.0,-1.04412880738,27.0,1.0471975512,-50.0,-1.0471975512,27.0,4011214.09283,0.0,0.0,0.0,0.0,0.0,0.0
1402758961268450338,3,-25.1163919127,-7.1377884924,2.71421262834,2.38304939926,32.1611222784,-3.84635974695,0.0176455303864,0.0,-0.0027271616275,0.0,0.0381631136565,0.0,3.08269824307,0.0,-0.0358874883836,0.0,0.00737307047985,0.0,-0.00827866225431,0.0,0.0683358044908,0.0,-0.0179105035187,0.0,-0.0,-0.0,0.592139422894,-11.5,-66.6839560914,60.0073158146,1.04412874381,-50.0,-1.04412880738,27.0,1.0471975512,-50.0,-1.0471975512,27.0,4011214.09283,0.0,0.0,0.0,0.0,0.0,0.0
1402758961288844192,3,-25.1185728126,-7.1377884924,2.71254924018,2.38304939926,32.1672099495,-3.84635974695,0.0201886584277,0.0,-0.0132339548476,0.0,0.0373949429262,0.0,3.08133451945,0.0,-0.0385777255313,0.0,0.00703634009943,0.0,0.0033045946892,0.0,0.0692872546374,0.0,-0.0240341310561,0.0,-0.0,-0.0,0.592139422894,-11.5,-66.6839560914,60.0073158146,1.04412874381,-50.0,-1.04412880738,27.0,1.0471975512,-50.0,-1.0471975512,27.0,4011214.09283,0.0,0.0,0.0,0.0,0.0,0.0
1402758961308597140,3,-25.1185728126,-7.1377884924,2.71254924018,2.38304939926,32.1672099495,-3.84635974695,0.0201886584277,0.0,-0.0132339548476,0.0,0.0373949429262,0.0,3.08133451945,0.0,-0.0385777255313,0.0,0.00703634009943,0.0,0.0033045946892,0.0,0.0692872546374,0.0,-0.0240341310561,0.0,-0.0,-0.0,0.592139422894,-11.5,-66.6839560914,60.0073158146,1.04412874381,-50.0,-1.04412880738,27.0,1.0471975512,-50.0,-1.0471975512,27.0,4011214.09283,0.0,0.0,0.0,0.0,0.0,0.0
1402758961328299684,3,-25.115289669,-7.1377884924,2.71175294303,2.38304939926,32.1726690492,-3.84635974695,0.0312708747698,0.0,-0.020690518592,0.0,0.0410011255166,0.0,3.07973439659,0.0,-0.0441990886908,0.0,0.00626730772164,0.0,0.0208207064446,0.0,0.0696204958034,0.0,-0.0283486950275,0.0,-0.0,-0.0,0.592139422894,-11.5,-66.6839560914,60.0073158146,1.04412874381,-50.0,-1.04412880738,27.0,1.0471975512,-50.0,-1.0471975512,27.0,4011214.09283,0.0,0.0,0.0,0.0,0.0,0.0
1402758961348981116,3,-25.115289669,-7.1377884924,2.71175294303,2.38304939926,32.1726690492,-3.84635974695,0.0312708747698,0.0,-0.020690518592,0.0,0.0410011255166,0.0,3.07973439659,0.0,-0.0441990886908,0.0,0.00626730772164,0.0,0.0208207064446,0.0,0.0696204958034,0.0,-0.0283486950275,0.0,-0.0,-0.0,0.592139422894,-11.5,-66.6839560914,60.0073158146,1.04412874381,-50.0,-1.04412880738,27.0,1.0471975512,-50.0,-1.0471975512,27.0,4011214.09283,0.0,0.0,0.0,0.0,0.0,0.0
1402758961369054294,3,-25.1192870943,-7.1377884924,2.7101094088,2.38304939926,32.1784149737,-3.84635974695,0.0282051580424,0.0,-0.0277361475412,0.0,0.0459587499247,0.0,3.07759502496,0.0,-0.0481229806235,0.0,0.00483387011728,0.0,0.0323208384149,0.0,0.0714606370975,0.0,-0.030308923682,0.0,-0.0,-0.0,0.592139422894,-11.5,-66.6839560914,60.0073158146,1.04412874381,-50.0,-1.04412880738,27.0,1.0471975512,-50.0,-1.0471975512,27.0,4011214.09283,0.0,0.0,0.0,0.0,0.0,0.0
1402758961388199774,3,-25.1192870943,-7.1377884924,2.7101094088,2.38304939926,32.1784149737,-3.84635974695,0.0282051580424,0.0,-0.0277361475412,0.0,0.0459587499247,0.0,3.07759502496,0.0,-0.0481229806235,0.0,0.00483387011728,0.0,0.0323208384149,0.0,0.0714606370975,0.0,-0.030308923682,0.0,-0.0,-0.0,0.592139422894,-11.5,-66.6839560914,60.0073158146,1.04412874381,-50.0,-1.04412880738,27.0,1.0471975512,-50.0,-1.0471975512,27.0,4011214.09283,0.0,0.0,0.0,0.0,0.0,0.0
1402758961408522013,3,-25.1126088028,-7.1377884924,2.70828452518,2.38304939926,32.1823219439,-3.84635974695,0.0488048132013,0.0,-0.0358275322105,0.0,0.0515341552301,0.0,3.07534917233,0.0,-0.0559979470388,0.0,0.00248556245514,0.0,0.0388816971525,0.0,0.0710087495381,0.0,-0.0205390464383,0.0,-0.0,-0.0,0.592139422894,-11.5,-66.6839560914,60.0073158146,1.04412874381,-50.0,-1.04412880738,27.0,1.0471975512,-50.0,-1.0471975512,27.0,4011214.09283,0.0,0.0,0.0,0.0,0.0,0.0
1402758961429930848,3,-25.1126088028,-7.1377884924,2.70828452518,2.38304939926,32.1823219439,-3.84635974695,0.0488048132013,0.0,-0.0358275322105,0.0,0.0515341552301,0.0,3.07534917233,0.0,-0.0559979470388,0.0,0.00248556245514,0.0,0.0388816971525,0.0,0.0710087495381,0.0,-0.0205390464383,0.0,-0.0,-0.0,0.592139422894,-11.5,-66.6839560914,60.0073158146,1.04412874381,-50.0,-1.04412880738,27.0,1.0471975512,-50.0,-1.0471975512,27.0,4011214.09283,0.0,0.0,0.0,0.0,0.0,0.0
1402758961448332636,3,-25.1210723249,-7.1377884924,2.70535350898,2.38304939926,32.1876481328,-3.84635974695,0.0364407342269,0.0,-0.0414211489518,0.0,0.0595212890126,0.0,3.07159038724,0.0,-0.061933673579,0.0,-0.00010211362195,0.0,0.0408569453403,0.0,0.0735643470943,0.0,-0.0124830375499,0.0,-0.0,-0.0,0.592139422894,-11.5,-66.6839560914,60.0073158146,1.04412874381,-50.0,-1.04412880738,27.0,1.0471975512,-50.0,-1.0471975512,27.0,4011214.09283,0.0,0.0,0.0,0.0,0.0,0.0
1402758961468400336,3,-25.1210723249,-7.1377884924,2.70535350898,2.38304939926,32.1876481328,-3.84635974695,0.0364407342269,0.0,-0.0414211489518,0.0,0.0595212890126,0.0,3.07159038724,0.0,-0.061933673579,0.0,-0.00010211362195,0.0,0.0408569453403,0.0,0.0735643470943,0.0,-0.0124830375499,0.0,-0.0,-0.0,0.592139422894,-11.5,-66.6839560914,60.0073158146,1.04412874381,-50.0,-1.04412880738,27.0,1.0471975512,-50.0,-1.0471975512,27.0,4011214.09283,0.0,0.0,0.0,0.0,0.0,0.0
1402758961488816178,3,-25.1203589495,-7.1377884924,2.70449465211,2.38304939926,32.1888832667,-3.84635974695,0.038191329103,0.0,-0.0418760896217,0.0,0.0642457092942,0.0,3.07026727377,0.0,-0.0659687250403,0.0,-0.00100756218315,0.0,0.0388699516509,0.0,0.0736979053348,0.0,-0.0102296928091,0.0,-0.0,-0.0,0.592139422894,-11.5,-66.6839560914,60.0073158146,1.04412874381,-50.0,-1.04412880738,27.0,1.0471975512,-50.0,-1.0471975512,27.0,4011214.09283,0.0,0.0,0.0,0.0,0.0,0.0
1402758961508531310,3,-25.1203589495,-7.1377884924,2.70449465211,2.38304939926,32.1888832667,-3.84635974695,0.038191329103,0.0,-0.0418760896217,0.0,0.0642457092942,0.0,3.07026727377,0.0,-0.0659687250403,0.0,-0.00100756218315,0.0,0.0388699516509,0.0,0.0736979053348,0.0,-0.0102296928091,0.0,-0.0,-0.0,0.592139422894,-11.5,-66.6839560914,60.0073158146,1.04412874381,-50.0,-1.04412880738,27.0,1.0471975512,-50.0,-1.0471975512,27.0,4011214.09283,0.0,0.0,0.0,0.0,0.0,0.0
1402758961528428889,3,-25.1186665572,-7.1377884924,2.70052074399,2.38304939926,32.186760066,-3.84635974695,0.0474278269449,0.0,-0.0487294338202,0.0,0.068768780191,0.0,3.06741806881,0.0,-0.0675662333803,0.0,-0.00327001150188,0.0,0.0282961687405,0.0,0.0733156901015,0.0,-0.00253172370383,0.0,-0.0,-0.0,0.592139422894,-11.5,-66.6839560914,60.0073158146,1.04412874381,-50.0,-1.04412880738,27.0,1.0471975512,-50.0,-1.0471975512,27.0,4011214.09283,0.0,0.0,0.0,0.0,0.0,0.0
1402758961548967007,3,-25.1186665572,-7.1377884924,2.70052074399,2.38304939926,32.186760066,-3.84635974695,0.0474278269449,0.0,-0.0487294338202,0.0,0.068768780191,0.0,3.06741806881,0.0,-0.0675662333803,0.0,-0.00327001150188,0.0,0.0282961687405,0.0,0.0733156901015,0.0,-0.00253172370383,0.0,-0.0,-0.0,0.592139422894,-11.5,-66.6839560914,60.0073158146,1.04412874381,-50.0,-1.04412880738,27.0,1.0471975512,-50.0,-1.0471975512,27.0,4011214.09283,0.0,0.0,0.0,0.0,0.0,0.0
1402758961568601885,3,-25.116706331,-7.1377884924,2.69862533935,2.38304939926,32.1894436122,-3.84635974695,0.0538853886529,0.0,-0.0489015492961,0.0,0.0756617940869,0.0,3.064520964,0.0,-0.0669510062608,0.0,-0.00402189392376,0.0,0.0144301917862,0.0,0.072952117706,0.0,0.011573767016,0.0,-0.0,-0.0,0.592139422894,-11.5,-66.6839560914,60.0073158146,1.04412874381,-50.0,-1.04412880738,27.0,1.0471975512,-50.0,-1.0471975512,27.0,4011214.09283,0.0,0.0,0.0,0.0,0.0,0.0
1402758961588312044,3,-25.116706331,-7.1377884924,2.69862533935,2.38304939926,32.1894436122,-3.84635974695,0.0538853886529,0.0,-0.0489015492961,0.0,0.0756617940869,0.0,3.064520964,0.0,-0.0669510062608,0.0,-0.00402189392376,0.0,0.0144301917862,0.0,0.072952117706,0.0,0.011573767016,0.0,-0.0,-0.0,0.592139422894,-11.5,-66.6839560914,60.0073158146,1.04412874381,-50.0,-1.04412880738,27.0,1.0471975512,-50.0,-1.0471975512,27.0,4011214.09283,0.0,0.0,0.0,0.0,0.0,0.0
1402758961609002898,3,-25.1160275301,-7.1377884924,2.69731675235,2.38304939926,32.2012001944,-3.84635974695,0.0598304254474,0.0,-0.0488130469887,0.0,0.082901343262,0.0,3.06168128438,0.0,-0.0719673439484,0.0,-0.00402854661719,0.0,-0.000977040814494,0.0,0.0723613676224,0.0,0.0199873468622,0.0,-0.0,-0.0,0.592139422894,-11.5,-66.6839560914,60.0073158146,1.04412874381,-50.0,-1.04412880738,27.0,1.0471975512,-50.0,-1.0471975512,27.0,4011214.09283,0.0,0.0,0.0,0.0,0.0,0.0
1402758961628350836,3,-25.1160275301,-7.1377884924,2.69731675235,2.38304939926,32.2012001944,-3.84635974695,0.0598304254474,0.0,-0.0488130469887,0.0,0.082901343262,0.0,3.06168128438,0.0,-0.0719673439484,0.0,-0.00402854661719,0.0,-0.000977040814494,0.0,0.0723613676224,0.0,0.0199873468622,0.0,-0.0,-0.0,0.592139422894,-11.5,-66.6839560914,60.0073158146,1.04412874381,-50.0,-1.04412880738,27.0,1.0471975512,-50.0,-1.0471975512,27.0,4011214.09283,0.0,0.0,0.0,0.0,0.0,0.0
1402758961648581722,3,-25.1134368115,-7.1377884924,2.69507568984,2.38304939926,32.2050287103,-3.84635974695,0.0649204790191,0.0,-0.0488029553219,0.0,0.086712253047,0.0,3.0585683619,0.0,-0.0783834701747,0.0,-0.00345375053788,0.0,-0.0236861060484,0.0,0.0712760382475,0.0,0.0301725448829,0.0,-0.0,-0.0,0.592139422894,-11.5,-66.6839560914,60.0073158146,1.04412874381,-50.0,-1.04412880738,27.0,1.0471975512,-50.0,-1.0471975512,27.0,4011214.09283,0.0,0.0,0.0,0.0,0.0,0.0
1402758961668979596,3,-25.1134368115,-7.1377884924,2.69507568984,2.38304939926,32.2050287103,-3.84635974695,0.0649204790191,0.0,-0.0488029553219,0.0,0.086712253047,0.0,3.0585683619,0.0,-0.0783834701747,0.0,-0.00345375053788,0.0,-0.0236861060484,0.0,0.0712760382475,0.0,0.0301725448829,0.0,-0.0,-0.0,0.592139422894,-11.5,-66.6839560914,60.0073158146,1.04412874381,-50.0,-1.04412880738,27.0,1.0471975512,-50.0,-1.0471975512,27.0,4011214.09283,0.0,0.0,0.0,0.0,0.0,0.0
1402758961689424766,3,-25.1179856387,-7.1377884924,2.69325019015,2.38304939926,32.2130375954,-3.84635974695,0.0593717367231,0.0,-0.0517352842941,0.0,0.087016594135,0.0,3.05516214846,0.0,-0.0820436985784,0.0,-0.00242793931591,0.0,-0.0262420603632,0.0,0.071155817621,0.0,0.033849757162,0.0,-0.0,-0.0,0.592139422894,-11.5,-66.6839560914,60.0073158146,1.04412874381,-50.0,-1.04412880738,27.0,1.0471975512,-50.0,-1.0471975512,27.0,4011214.09283,0.0,0.0,0.0,0.0,0.0,0.0
1402758961708364127,3,-25.1179856387,-7.1377884924,2.69325019015,2.38304939926,32.2130375954,-3.84635974695,0.0593717367231,0.0,-0.0517352842941,0.0,0.087016594135,0.0,3.05516214846,0.0,-0.0820436985784,0.0,-0.00242793931591,0.0,-0.0262420603632,0.0,0.071155817621,0.0,0.033849757162,0.0,-0.0,-0.0,0.592139422894,-11.5,-66.6839560914,60.0073158146,1.04412874381,-50.0,-1.04412880738,27.0,1.0471975512,-50.0,-1.0471975512,27.0,4011214.09283,0.0,0.0,0.0,0.0,0.0,0.0
1402758961728753065,3,-25.1173316535,-7.1377884924,2.69612059329,2.38304939926,32.227150026,-3.84635974695,0.0629746542034,0.0,-0.0435969144561,0.0,0.0851316119543,0.0,3.05237636847,0.0,-0.0883454728427,0.0,-5.89460741471e-05,0.0,-0.0282184957414,0.0,0.0700335304875,0.0,0.0391302798355,0.0,-0.0,-0.0,0.592139422894,-11.5,-66.6839560914,60.0073158146,1.04412874381,-50.0,-1.04412880738,27.0,1.0471975512,-50.0,-1.0471975512,27.0,4011214.09283,0.0,0.0,0.0,0.0,0.0,0.0
1402758961748217978,3,-25.1173316535,-7.1377884924,2.69612059329,2.38304939926,32.227150026,-3.84635974695,0.0629746542034,0.0,-0.0435969144561,0.0,0.0851316119543,0.0,3.05237636847,0.0,-0.0883454728427,0.0,-5.89460741471e-05,0.0,-0.0282184957414,0.0,0.0700335304875,0.0,0.0391302798355,0.0,-0.0,-0.0,0.592139422894,-11.5,-66.6839560914,60.0073158146,1.04412874381,-50.0,-1.04412880738,27.0,1.0471975512,-50.0,-1.0471975512,27.0,4011214.09283,0.0,0.0,0.0,0.0,0.0,0.0
1402758961768481639,3,-25.1188093866,-7.1377884924,2.69209983304,2.38304939926,32.2427496008,-3.84635974695,0.0651473406705,0.0,-0.0538496376264,0.0,0.0824070243293,0.0,3.04872413011,0.0,-0.0899300378616,0.0,0.000273275247306,0.0,-0.0291859558789,0.0,0.0685844025338,0.0,0.0394183560886,0.0,-0.0,-0.0,0.592139422894,-11.5,-66.6839560914,60.0073158146,1.04412874381,-50.0,-1.04412880738,27.0,1.0471975512,-50.0,-1.0471975512,27.0,4011214.09283,0.0,0.0,0.0,0.0,0.0,0.0
1402758961789193676,3,-25.1188093866,-7.1377884924,2.69209983304,2.38304939926,32.2427496008,-3.84635974695,0.0651473406705,0.0,-0.0538496376264,0.0,0.0824070243293,0.0,3.04872413011,0.0,-0.0899300378616,0.0,0.000273275247306,0.0,-0.0291859558789,0.0,0.0685844025338,0.0,0.0394183560886,0.0,-0.0,-0.0,0.592139422894,-11.5,-66.6839560914,60.0073158146,1.04412874381,-50.0,-1.04412880738,27.0,1.0471975512,-50.0,-1.0471975512,27.0,4011214.09283,0.0,0.0,0.0,0.0,0.0,0.0
1402758961808586062,3,-25.1187459256,-7.1377884924,2.69266672175,2.38304939926,32.2524819275,-3.84635974695,0.0680022699763,0.0,-0.0527925483217,0.0,0.0746681312101,0.0,3.0453301495,0.0,-0.0928844664033,0.0,0.00202027336971,0.0,-0.0258124123734,0.0,0.0673710768878,0.0,0.0329414190899,0.0,-0.0,-0.0,0.592139422894,-11.5,-66.6839560914,60.0073158146,1.04412874381,-50.0,-1.04412880738,27.0,1.0471975512,-50.0,-1.0471975512,27.0,4011214.09283,0.0,0.0,0.0,0.0,0.0,0.0
1402758961828374649,3,-25.1187459256,-7.1377884924,2.69266672175,2.38304939926,32.2524819275,-3.84635974695,0.0680022699763,0.0,-0.0527925483217,0.0,0.0746681312101,0.0,3.0453301495,0.0,-0.0928844664033,0.0,0.00202027336971,0.0,-0.0258124123734,0.0,0.0673710768878,0.0,0.0329414190899,0.0,-0.0,-0.0,0.592139422894,-11.5,-66.6839560914,60.0073158146,1.04412874381,-50.0,-1.04412880738,27.0,1.0471975512,-50.0,-1.0471975512,27.0,4011214.09283,0.0,0.0,0.0,0.0,0.0,0.0
1402758961848881425,3,-25.1265399018,-7.1377884924,2.68843320198,2.38304939926,32.2543827443,-3.84635974695,0.0566734259911,0.0,-0.0644485089926,0.0,0.0646432999605,0.0,3.04121109173,0.0,-0.0947649670023,0.0,0.00194284105741,0.0,-0.003460155366,0.0,0.0674673817978,0.0,0.025814776033,0.0,-0.0,-0.0,0.592139422894,-11.5,-66.6839560914,60.0073158146,1.04412874381,-50.0,-1.04412880738,27.0,1.0471975512,-50.0,-1.0471975512,27.0,4011214.09283,0.0,0.0,0.0,0.0,0.0,0.0
1402758961868452841,3,-25.1265399018,-7.1377884924,2.68843320198,2.38304939926,32.2543827443,-3.84635974695,0.0566734259911,0.0,-0.0644485089926,0.0,0.0646432999605,0.0,3.04121109173,0.0,-0.0947649670023,0.0,0.00194284105741,0.0,-0.003460155366,0.0,0.0674673817978,0.0,0.025814776033,0.0,-0.0,-0.0,0.592139422894,-11.5,-66.6839560914,60.0073158146,1.04412874381,-50.0,-1.04412880738,27.0,1.0471975512,-50.0,-1.0471975512,27.0,4011214.09283,0.0,0.0,0.0,0.0,0.0,0.0
1402758961888399189,3,-25.1207837996,-7.1377884924,2.68943482895,2.38304939926,32.2658318161,-3.84635974695,0.0736964498016,0.0,-0.0620655384097,0.0,0.0565386997257,0.0,3.03804383315,0.0,-0.093766017156,0.0,0.00302214361054,0.0,-0.00402827458519,0.0,0.0654029158261,0.0,0.0210193919388,0.0,-0.0,-0.0,0.592139422894,-11.5,-66.6839560914,60.0073158146,1.04412874381,-50.0,-1.04412880738,27.0,1.0471975512,-50.0,-1.0471975512,27.0,4011214.09283,0.0,0.0,0.0,0.0,0.0,0.0
1402758961908860722,3,-25.1207837996,-7.1377884924,2.68943482895,2.38304939926,32.2658318161,-3.84635974695,0.0736964498016,0.0,-0.0620655384097,0.0,0.0565386997257,0.0,3.03804383315,0.0,-0.093766017156,0.0,0.00302214361054,0.0,-0.00402827458519,0.0,0.0654029158261,0.0,0.0210193919388,0.0,-0.0,-0.0,0.592139422894,-11.5,-66.6839560914,60.0073158146,1.04412874381,-50.0,-1.04412880738,27.0,1.0471975512,-50.0,-1.0471975512,27.0,4011214.09283,0.0,0.0,0.0,0.0,0.0,0.0
1402758961928299947,3,-25.1175482729,-7.1377884924,2.6888517613,2.38304939926,32.283424319,-3.84635974695,0.0828842746169,0.0,-0.0662223041805,0.0,0.0530768781218,0.0,3.03458803778,0.0,-0.0950433892005,0.0,0.00311432563253,0.0,0.022672253831,0.0,0.0643541178035,0.0,-0.0013961052851,0.0,-0.0,-0.0,0.592139422894,-11.5,-66.6839560914,60.0073158146,1.04412874381,-50.0,-1.04412880738,27.0,1.0471975512,-50.0,-1.0471975512,27.0,4011214.09283,0.0,0.0,0.0,0.0,0.0,0.0
1402758961948541658,3,-25.1175482729,-7.1377884924,2.6888517613,2.38304939926,32.283424319,-3.84635974695,0.0828842746169,0.0,-0.0662223041805,0.0,0.0530768781218,0.0,3.03458803778,0.0,-0.0950433892005,0.0,0.00311432563253,0.0,0.022672253831,0.0,0.0643541178035,0.0,-0.0013961052851,0.0,-0.0,-0.0,0.592139422894,-11.5,-66.6839560914,60.0073158146,1.04259428183,-50.0,-1.04412880738,27.0,1.0471975512,-50.0,-1.0471975512,27.0,4011214.09283,0.0,0.0,0.0,0.0,0.0,0.0
1402758961968849109,3,-25.1256485833,-7.1377884924,2.68441037126,2.38304939926,32.2846983592,-3.84635974695,0.0701763449266,0.0,-0.0743750870506,0.0,0.0435595455376,0.0,3.03020710241,0.0,-0.0968527015346,0.0,0.00185734580126,0.0,0.0133703164278,0.0,0.065902431532,0.0,-0.012339253948,0.0,-0.0,-0.0,0.592139422894,-11.5,-66.6839560914,60.0073158146,1.04412874381,-50.0,-1.04412880738,27.0,1.0471975512,-50.0,-1.0471975512,27.0,4011214.09283,0.0,0.0,0.0,0.0,0.0,0.0
1402758961989153616,3,-25.1256485833,-7.1377884924,2.68441037126,2.38304939926,32.2846983592,-3.84635974695,0.0701763449266,0.0,-0.0743750870506,0.0,0.0435595455376,0.0,3.03020710241,0.0,-0.0968527015346,0.0,0.00185734580126,0.0,0.0133703164278,0.0,0.065902431532,0.0,-0.012339253948,0.0,-0.0,-0.0,0.592139422894,-11.5,-66.6839560914,60.0073158146,1.04412874381,-50.0,-1.04412880738,27.0,1.0471975512,-50.0,-1.0471975512,27.0,4011214.09283,0.0,0.0,0.0,0.0,0.0,0.0
1402758962008547828,3,-25.1239890257,-7.1377884924,2.68191657464,2.38304939926,32.3007226209,-3.84635974695,0.0799174771785,0.0,-0.0779533013672,0.0,0.0405566498254,0.0,3.02633121411,0.0,-0.0929376401598,0.0,0.00105360660389,0.0,0.0190820893284,0.0,0.0657407333615,0.0,-0.0131973239389,0.0,-0.0,-0.0,0.592139422894,-11.5,-66.6839560914,60.0073158146,1.04412874381,-50.0,-1.04412880738,27.0,1.0471975512,-50.0,-1.0471975512,27.0,4011214.09283,0.0,0.0,0.0,0.0,0.0,0.0
1402758962029178175,3,-25.1239890257,-7.1377884924,2.68191657464,2.38304939926,32.3007226209,-3.84635974695,0.0799174771785,0.0,-0.0779533013672,0.0,0.0405566498254,0.0,3.02633121411,0.0,-0.0929376401598,0.0,0.00105360660389,0.0,0.0190820893284,0.0,0.0657407333615,0.0,-0.0131973239389,0.0,-0.0,-0.0,0.592139422894,-11.5,-66.6839560914,60.0073158146,1.04412874381,-50.0,-1.04412880738,27.0,1.0471975512,-50.0,-1.0471975512,27.0,4011214.09283,0.0,0.0,0.0,0.0,0.0,0.0
1402758962048408958,3,-25.1205659907,-7.1377884924,2.67877891403,2.38304939926,32.3022423626,-3.84635974695,0.0809754066575,0.0,-0.0822095444681,0.0,0.0421065409046,0.0,3.02224332736,0.0,-0.101806031282,0.0,0.00016675807746,0.0,0.0216226696819,0.0,0.0667174653295,0.0,-0.0308571690309,0.0,-0.0,-0.0,0.592139422894,-11.5,-66.6839560914,60.0073158146,1.04412874381,-50.0,-1.04412880738,27.0,1.0471975512,-50.0,-1.0471975512,27.0,4011214.09283,0.0,0.0,0.0,0.0,0.0,0.0
1402758962068517585,3,-25.1205659907,-7.1377884924,2.67877891403,2.38304939926,32.3022423626,-3.84635974695,0.0809754066575,0.0,-0.0822095444681,0.0,0.0421065409046,0.0,3.02224332736,0.0,-0.101806031282,0.0,0.00016675807746,0.0,0.0216226696819,0.0,0.0667174653295,0.0,-0.0308571690309,0.0,-0.0,-0.0,0.592139422894,-11.5,-66.6839560914,60.0073158146,1.04412874381,-50.0,-1.04412880738,27.0,1.0471975512,-50.0,-1.0471975512,27.0,4011214.09283,0.0,0.0,0.0,0.0,0.0,0.0
1402758962088994373,3,-25.1252174747,-7.1377884924,2.67545049347,2.38304939926,32.3064822615,-3.84635974695,0.0756786515083,0.0,-0.083143929599,0.0,0.0424011680015,0.0,3.01793116516,0.0,-0.101800066483,0.0,-0.000590269640129,0.0,0.00793003419505,0.0,0.0687978896627,0.0,-0.0349740524526,0.0,-0.0,-0.0,0.592139422894,-11.5,-66.6839560914,60.0073158146,1.04412874381,-50.0,-1.04412880738,27.0,1.0471975512,-50.0,-1.0471975512,27.0,4011214.09283,0.0,0.0,0.0,0.0,0.0,0.0
