rosbagTimestamp,control_method,x_current,x_desired,y_current,y_desired,x_velocity_current,x_velocity_desired,y_velocity_current,y_velocity_desired,yaw_current,yaw_desired,required_force_x,required_force_y,required_moment_z,resultant_force_x,resultant_force_y,resultant_moment_z,current_port_servo_angle,current_port_thruster_force,current_starboard_servo_angle,current_starboard_thruster_force,estimated_port_servo_angle,estimated_port_thruster_force,estimated_starboard_servo_angle,estimated_starboard_thruster_force,cost_value,step,user_defined_1,user_defined_2,user_defined_3,user_defined_4,user_defined_5
1402603469631421890,0,7.67815360574,9.88567784727,-28.189397181,10.0438151857,0.0386096393033,0.0,0.169149065177,0.0,1.45542876688,0.0,1011.10499914,2203.10023144,-1.34130416972,-0.0,-0.0,0.0,-0.00383606751517,0.0,-0.00383606751517,0.0,0.0,-0.0,0.0,-0.0,2477942880.39,0.0,0.0,0.0,0.0,0.0,0.0
1402603469649857268,0,7.67815360574,9.88567784727,-28.189397181,10.0438151857,0.0386096393033,0.0,0.169149065177,0.0,1.45542876688,0.0,1011.10499914,2203.10023144,-1.34130416972,-0.0,-0.0,0.0,-0.00383606751517,0.0,-0.00383606751517,0.0,0.0,-0.0,0.0,-0.0,2477942880.39,0.0,0.0,0.0,0.0,0.0,0.0
1402603469669846717,0,7.67812385175,9.88567784727,-28.1885355329,10.0438151857,0.0365782527889,0.0,0.153875686815,0.0,1.45540337963,0.0,1011.10499914,2203.10023144,-1.34130416972,-0.0,-0.0,0.0,-0.00383606751517,0.0,-0.00383606751517,0.0,0.0,-0.0,0.0,-0.0,2477942880.39,0.0,0.0,0.0,0.0,0.0,0.0
1402603469689921183,0,7.67812385175,9.88567784727,-28.1885355329,10.0438151857,0.0365782527889,0.0,0.153875686815,0.0,1.45540337963,0.0,1011.10499914,2203.10023144,-1.34130416972,-0.0,-0.0,0.0,-0.00383606751517,0.0,-0.00383606751517,0.0,0.0,-0.0,0.0,-0.0,2477942880.39,0.0,0.0,0.0,0.0,0.0,0.0
1402603469709916748,0,7.66983460937,9.88567784727,-28.1888038657,10.0438151857,0.0131765077213,0.0,0.137480110129,0.0,1.45534907091,0.0,1011.10499914,2203.10023144,-1.34130416972,-0.0,-0.0,0.0,-0.00383606751517,0.0,-0.00383606751517,0.0,0.0,-0.0,0.0,-0.0,2477942880.39,0.0,0.0,0.0,0.0,0.0,0.0
1402603469730389323,0,7.66983460937,9.88567784727,-28.1888038657,10.0438151857,0.0131765077213,0.0,0.137480110129,0.0,1.45534907091,0.0,1011.10499914,2203.10023144,-1.34130416972,-0.0,-0.0,0.0,-0.00383606751517,0.0,-0.00383606751517,0.0,0.0,-0.0,0.0,-0.0,2477942880.39,0.0,0.0,0.0,0.0,0.0,0.0
1402603469749912580,0,7.66570299268,9.88567784727,-28.1827432973,10.0438151857,0.00366669865962,0.0,0.138490986592,0.0,1.45592109979,0.0,1011.10499914,2203.10023144,-1.34130416972,-0.0,-0.0,0.0,-0.00383606751517,0.0,-0.00383606751517,0.0,0.0,-0.0,0.0,-0.0,2477942880.39,0.0,0.0,0.0,0.0,0.0,0.0
1402603469770323720,0,7.66570299268,9.88567784727,-28.1827432973,10.0438151857,0.00366669865962,0.0,0.138490986592,0.0,1.45592109979,0.0,1011.10499914,2203.10023144,-1.34130416972,-0.0,-0.0,0.0,-0.00383606751517,0.0,-0.00383606751517,0.0,0.0,-0.0,0.0,-0.0,2477942880.39,0.0,0.0,0.0,0.0,0.0,0.0
1402603469789814892,0,7.66568660638,9.88567784727,-28.1784422157,10.0438151857,0.00402178217567,0.0,0.137490974132,0.0,1.45610078902,0.0,1011.10499914,2203.10023144,-1.34130416972,-0.0,-0.0,0.0,-0.00383606751517,0.0,-0.00383606751517,0.0,0.0,-0.0,0.0,-0.0,2477942880.39,0.0,0.0,0.0,0.0,0.0,0.0
1402603469810469149,0,7.67520433677,9.88567784727,-28.1632877367,10.0438151857,0.0228581015657,0.0,0.15372789239,0.0,1.45647262226,0.0,1011.10499914,2203.10023144,-1.34130416972,-0.0,-0.0,0.0,-0.00383606751517,0.0,-0.00383606751517,0.0,0.0,-0.0,0.0,-0.0,2477942880.39,0.0,0.0,0.0,0.0,0.0,0.0
1402603469829897782,0,7.67520433677,9.88567784727,-28.1632877367,10.0438151857,0.0228581015657,0.0,0.15372789239,0.0,1.45647262226,0.0,1011.10499914,2203.10023144,-1.34130416972,-0.0,-0.0,0.0,-0.00230160554007,0.0,-0.00383606751517,0.0,0.0,-0.0,0.0,-0.0,2477942880.39,0.0,0.0,0.0,0.0,0.0,0.0
1402603469850521814,0,7.6697834546,9.88567784727,-28.167213643,10.0438151857,0.0122239353976,0.0,0.146519775582,0.0,1.45654712709,0.0,1011.10499914,2203.10023144,-1.34130416972,-0.0,-0.0,0.0,-0.00383606751517,0.0,-0.00383606751517,0.0,0.0,-0.0,0.0,-0.0,2477942880.39,0.0,0.0,0.0,0.0,0.0,0.0
1402603469869724544,0,7.6697834546,9.88567784727,-28.167213643,10.0438151857,0.0122239353976,0.0,0.146519775582,0.0,1.45654712709,0.0,1011.10499914,2203.10023144,-1.34130416972,-0.0,-0.0,0.0,-0.00383606751517,0.0,-0.00383606751517,0.0,0.0,-0.0,0.0,-0.0,2477942880.39,0.0,0.0,0.0,0.0,0.0,0.0
1402603469890268299,0,7.66990508429,9.88567784727,-28.1630646906,10.0438151857,0.0110769380908,0.0,0.146696486426,0.0,1.45670344196,0.0,1011.10499914,2203.10023144,-1.34130416972,-0.0,-0.0,0.0,-0.00383606751517,0.0,-0.00383606751517,0.0,0.0,-0.0,0.0,-0.0,2477942880.39,0.0,0.0,0.0,0.0,0.0,0.0
1402603469909656190,0,7.66990508429,9.88567784727,-28.1630646906,10.0438151857,0.0110769380908,0.0,0.146696486426,0.0,1.45670344196,0.0,1011.10499914,2203.10023144,-1.34130416972,-0.0,-0.0,0.0,-0.00383606751517,0.0,-0.00383606751517,0.0,0.0,-0.0,0.0,-0.0,2477942880.39,0.0,0.0,0.0,0.0,0.0,0.0
1402603469930288613,0,7.66941826712,9.88567784727,-28.1632869665,10.0438151857,0.0102441634242,0.0,0.134554678179,0.0,1.45695652908,0.0,1011.10499914,2203.10023144,-1.34130416972,-0.0,-0.0,0.0,-0.00383606751517,0.0,-0.00383606751517,0.0,0.0,-0.0,0.0,-0.0,2477942880.39,0.0,0.0,0.0,0.0,0.0,0.0
1402603469950016515,0,7.66941826712,9.88567784727,-28.1632869665,10.0438151857,0.0102441634242,0.0,0.134554678179,0.0,1.45695652908,0.0,1011.10499914,2203.10023144,-1.34130416972,-0.0,-0.0,0.0,-0.00383606751517,0.0,-0.00383606751517,0.0,0.0,-0.0,0.0,-0.0,2477942880.39,0.0,0.0,0.0,0.0,0.0,0.0
1402603469970426512,0,7.67189979731,9.88567784727,-28.1503561663,10.0438151857,0.00888533789169,0.0,0.146295062846,0.0,1.45747447997,0.0,1011.10499914,2203.10023144,-1.34130416972,-0.0,-0.0,0.0,-0.00383606751517,0.0,-0.00383606751517,0.0,0.0,-0.0,0.0,-0.0,2477942880.39,0.0,0.0,0.0,0.0,0.0,0.0
1402603469989781289,0,7.67189979731,9.88567784727,-28.1503561663,10.0438151857,0.00888533789169,0.0,0.146295062846,0.0,1.45747447997,0.0,1011.10499914,2203.10023144,-1.34130416972,-0.0,-0.0,0.0,-0.00383606751517,0.0,-0.00383606751517,0.0,0.0,-0.0,0.0,-0.0,2477942880.39,0.0,0.0,0.0,0.0,0.0,0.0
1402603470010419541,0,7.67647099961,9.88567784727,-28.1411134243,10.0438151857,0.0129698945448,0.0,0.144409872792,0.0,1.45793180503,0.0,1011.10499914,2203.10023144,-1.34130416972,-0.0,-0.0,0.0,-0.00383606751517,0.0,-0.00383606751517,0.0,0.0,-0.0,0.0,-0.0,2477942880.39,0.0,0.0,0.0,0.0,0.0,0.0
1402603470029993608,0,7.67647099961,9.88567784727,-28.1411134243,10.0438151857,0.0129698945448,0.0,0.144409872792,0.0,1.45793180503,0.0,1011.10499914,2203.10023144,-1.34130416972,-0.0,-0.0,0.0,-0.00383606751517,0.0,-0.00383606751517,0.0,0.0,-0.0,0.0,-0.0,2477942880.39,0.0,0.0,0.0,0.0,0.0,0.0
1402603470050665505,0,7.67694270519,9.88567784727,-28.1352111839,10.0438151857,0.0136903043308,0.0,0.143113139354,0.0,1.45833172483,0.0,1011.10499914,2203.10023144,-1.34130416972,-0.0,-0.0,0.0,-0.00383606751517,0.0,-0.00383606751517,0.0,0.0,-0.0,0.0,-0.0,2477942880.39,0.0,0.0,0.0,0.0,0.0,0.0
1402603470069771424,0,7.67694270519,9.88567784727,-28.1352111839,10.0438151857,0.0136903043308,0.0,0.143113139354,0.0,1.45833172483,0.0,1011.10499914,2203.10023144,-1.34130416972,-0.0,-0.0,0.0,-0.00383606751517,0.0,-0.00383606751517,0.0,0.0,-0.0,0.0,-0.0,2477942880.39,0.0,0.0,0.0,0.0,0.0,0.0
1402603470090337876,0,7.68462691948,9.88567784727,-28.129148652,10.0438151857,0.0241309359877,0.0,0.139572168594,0.0,1.45858250573,0.0,1011.10499914,2203.10023144,-1.34130416972,-0.0,-0.0,0.0,-0.00383606751517,0.0,-0.00383606751517,0.0,0.0,-0.0,0.0,-0.0,2477942880.39,0.0,0.0,0.0,0.0,0.0,0.0
1402603470109749712,0,7.68462691948,9.88567784727,-28.129148652,10.0438151857,0.0241309359877,0.0,0.139572168594,0.0,1.45858250573,0.0,1011.10499914,2203.10023144,-1.34130416972,-0.0,-0.0,0.0,-0.00383606751517,0.0,-0.00383606751517,0.0,0.0,-0.0,0.0,-0.0,2477942880.39,0.0,0.0,0.0,0.0,0.0,0.0
1402603470130474955,0,7.6848033817,9.88567784727,-28.1180125413,10.0438151857,0.015602862729,0.0,0.147884454094,0.0,1.45908149157,0.0,1011.10499914,2203.10023144,-1.34130416972,-0.0,-0.0,0.0,-0.00383606751517,0.0,-0.00383606751517,0.0,0.0,-0.0,0.0,-0.0,2477942880.39,0.0,0.0,0.0,0.0,0.0,0.0
1402603470149891372,0,7.6848033817,9.88567784727,-28.1180125413,10.0438151857,0.015602862729,0.0,0.147884454094,0.0,1.45908149157,0.0,1011.10499914,2203.10023144,-1.34130416972,-0.0,-0.0,0.0,-0.00383606751517,0.0,-0.00383606751517,0.0,0.0,-0.0,0.0,-0.0,2477942880.39,0.0,0.0,0.0,0.0,0.0,0.0
1402603470169850185,0,7.68943482805,9.88567784727,-28.1083310781,10.0438151857,0.0186576546601,0.0,0.143537584383,0.0,1.4596311771,0.0,1011.10499914,2203.10023144,-1.34130416972,-0.0,-0.0,0.0,-0.00383606751517,0.0,-0.00383606751517,0.0,0.0,-0.0,0.0,-0.0,2477942880.39,0.0,0.0,0.0,0.0,0.0,0.0
1402603470189807054,0,7.68943482805,9.88567784727,-28.1083310781,10.0438151857,0.0186576546601,0.0,0.143537584383,0.0,1.4596311771,0.0,1011.10499914,2203.10023144,-1.34130416972,-0.0,-0.0,0.0,-0.00383606751517,0.0,-0.00383606751517,0.0,0.0,-0.0,0.0,-0.0,2477942880.39,0.0,0.0,0.0,0.0,0.0,0.0
1402603470209895112,0,7.69419339708,9.88567784727,-28.0935655323,10.0438151857,0.0247370759869,0.0,0.151586213719,0.0,1.46030348668,0.0,1011.10499914,2203.10023144,-1.34130416972,-0.0,-0.0,0.0,-0.00383606751517,0.0,-0.00383606751517,0.0,0.0,-0.0,0.0,-0.0,2477942880.39,0.0,0.0,0.0,0.0,0.0,0.0
1402603470230388003,0,7.69419339708,9.88567784727,-28.0935655323,10.0438151857,0.0247370759869,0.0,0.151586213719,0.0,1.46030348668,0.0,1011.10499914,2203.10023144,-1.34130416972,-0.0,-0.0,0.0,-0.00383606751517,0.0,-0.00383606751517,0.0,0.0,-0.0,0.0,-0.0,2477942880.39,0.0,0.0,0.0,0.0,0.0,0.0
1402603470249781188,0,7.69824749562,9.88567784727,-28.0887624187,10.0438151857,0.0283033169109,0.0,0.148535227925,0.0,1.46047676777,0.0,1011.10499914,2203.10023144,-1.34130416972,-0.0,-0.0,0.0,-0.00383606751517,0.0,-0.00383606751517,0.0,0.0,-0.0,0.0,-0.0,2477942880.39,0.0,0.0,0.0,0.0,0.0,0.0
1402603470270028782,0,7.69824749562,9.88567784727,-28.0887624187,10.0438151857,0.0283033169109,0.0,0.148535227925,0.0,1.46047676777,0.0,1011.10499914,2203.10023144,-1.34130416972,-0.0,-0.0,0.0,-0.00383606751517,0.0,-0.00383606751517,0.0,0.0,-0.0,0.0,-0.0,2477942880.39,0.0,0.0,0.0,0.0,0.0,0.0
1402603470290427856,0,7.69899654411,9.88567784727,-28.0843699573,10.0438151857,0.0293231034086,0.0,0.148803821686,0.0,1.46075756123,0.0,1011.10499914,2203.10023144,-1.34130416972,-0.0,-0.0,0.0,-0.00383606751517,0.0,-0.00383606751517,0.0,0.0,-0.0,0.0,-0.0,2477942880.39,0.0,0.0,0.0,0.0,0.0,0.0
1402603470309961834,0,7.69899654411,9.88567784727,-28.0843699573,10.0438151857,0.0293231034086,0.0,0.148803821686,0.0,1.46075756123,0.0,1011.10499914,2203.10023144,-1.34130416972,-0.0,-0.0,0.0,-0.00383606751517,0.0,-0.00383606751517,0.0,0.0,-0.0,0.0,-0.0,2477942880.39,0.0,0.0,0.0,0.0,0.0,0.0
1402603470330655997,0,7.70489332184,9.88567784727,-28.066477418,10.0438151857,0.0372059863441,0.0,0.168185265729,0.0,1.46109219184,0.0,1011.10499914,2203.10023144,-1.34130416972,-0.0,-0.0,0.0,-0.00383606751517,0.0,-0.00383606751517,0.0,0.0,-0.0,0.0,-0.0,2477942880.39,0.0,0.0,0.0,0.0,0.0,0.0
1402603470350045189,0,7.70489332184,9.88567784727,-28.066477418,10.0438151857,0.0372059863441,0.0,0.168185265729,0.0,1.46109219184,0.0,1011.10499914,2203.10023144,-1.34130416972,-0.0,-0.0,0.0,-0.00383606751517,0.0,-0.00383606751517,0.0,0.0,-0.0,0.0,-0.0,2477942880.39,0.0,0.0,0.0,0.0,0.0,0.0
1402603470370077599,0,7.70610351924,9.88567784727,-28.0609777645,10.0438151857,0.0390099568914,0.0,0.169069920927,0.0,1.46141886763,0.0,1011.10499914,2203.10023144,-1.34130416972,-0.0,-0.0,0.0,-0.00383606751517,0.0,-0.00383606751517,0.0,0.0,-0.0,0.0,-0.0,2477942880.39,0.0,0.0,0.0,0.0,0.0,0.0
1402603470390183130,0,7.70791231871,9.88567784727,-28.0582248446,10.0438151857,0.0432945731123,0.0,0.164035690897,0.0,1.46157246745,0.0,1011.10499914,2203.10023144,-1.34130416972,-0.0,-0.0,0.0,-0.00383606751517,0.0,-0.00383606751517,0.0,0.0,-0.0,0.0,-0.0,2477942880.39,0.0,0.0,0.0,0.0,0.0,0.0
1402603470409986453,0,7.70791231871,9.88567784727,-28.0582248446,10.0438151857,0.0432945731123,0.0,0.164035690897,0.0,1.46157246745,0.0,1011.10499914,2203.10023144,-1.34130416972,-0.0,-0.0,0.0,-0.00383606751517,0.0,-0.00383606751517,0.0,0.0,-0.0,0.0,-0.0,2477942880.39,0.0,0.0,0.0,0.0,0.0,0.0
1402603470429900119,0,7.7085529797,9.88567784727,-28.05484752,10.0438151857,0.0435613350168,0.0,0.164360434766,0.0,1.46170314552,0.0,1011.10499914,2203.10023144,-1.34130416972,-0.0,-0.0,0.0,-0.00383606751517,0.0,-0.00383606751517,0.0,0.0,-0.0,0.0,-0.0,2477942880.39,0.0,0.0,0.0,0.0,0.0,0.0
1402603470450465077,0,7.7085529797,9.88567784727,-28.05484752,10.0438151857,0.0435613350168,0.0,0.164360434766,0.0,1.46170314552,0.0,1011.10499914,2203.10023144,-1.34130416972,-0.0,-0.0,0.0,-0.00383606751517,0.0,-0.00383606751517,0.0,0.0,-0.0,0.0,-0.0,2477942880.39,0.0,0.0,0.0,0.0,0.0,0.0
1402603470469905997,0,7.71113052719,9.88567784727,-28.0436090672,10.0438151857,0.0493847666535,0.0,0.174003502319,0.0,1.46203819552,0.0,1011.10499914,2203.10023144,-1.34130416972,-0.0,-0.0,0.0,-0.00383606751517,0.0,-0.00383606751517,0.0,0.0,-0.0,0.0,-0.0,2477942880.39,0.0,0.0,0.0,0.0,0.0,0.0
1402603470490475653,0,7.71113052719,9.88567784727,-28.0436090672,10.0438151857,0.0493847666535,0.0,0.174003502319,0.0,1.46203819552,0.0,1011.10499914,2203.10023144,-1.34130416972,-0.0,-0.0,0.0,-0.00383606751517,0.0,-0.00383606751517,0.0,0.0,-0.0,0.0,-0.0,2477942880.39,0.0,0.0,0.0,0.0,0.0,0.0
1402603470509802975,0,7.74935221304,9.88567784727,-27.9978055873,10.0438151857,0.135875646524,0.0,0.252268330658,0.0,1.4637490561,0.0,1011.10499914,2203.10023144,-1.34130416972,-0.0,-0.0,0.0,-0.00383606751517,0.0,-0.00383606751517,0.0,0.0,-0.0,0.0,-0.0,2477942880.39,0.0,0.0,0.0,0.0,0.0,0.0
1402603470530508481,0,7.74935221304,9.88567784727,-27.9978055873,10.0438151857,0.135875646524,0.0,0.252268330658,0.0,1.4637490561,0.0,1011.10499914,2203.10023144,-1.34130416972,-0.0,-0.0,0.0,-0.00383606751517,0.0,-0.00383606751517,0.0,0.0,-0.0,0.0,-0.0,2477942880.39,0.0,0.0,0.0,0.0,0.0,0.0
1402603470550192738,0,7.75486573244,9.88567784727,-27.9873449294,10.0438151857,0.141543302519,0.0,0.256328934344,0.0,1.46410216432,0.0,1011.10499914,2203.10023144,-1.34130416972,-0.0,-0.0,0.0,-0.00383606751517,0.0,-0.00383606751517,0.0,0.0,-0.0,0.0,-0.0,2477942880.39,0.0,0.0,0.0,0.0,0.0,0.0
1402603470569856881,0,7.75486573244,9.88567784727,-27.9873449294,10.0438151857,0.141543302519,0.0,0.256328934344,0.0,1.46410216432,0.0,1011.10499914,2203.10023144,-1.34130416972,-0.0,-0.0,0.0,-0.00383606751517,0.0,-0.00383606751517,0.0,0.0,-0.0,0.0,-0.0,2477942880.39,0.0,0.0,0.0,0.0,0.0,0.0
1402603470590404121,0,7.76064278145,9.88567784727,-27.9767872729,10.0438151857,0.144888461029,0.0,0.261342222599,0.0,1.46442883254,0.0,1011.10499914,2203.10023144,-1.34130416972,-0.0,-0.0,0.0,-0.00383606751517,0.0,-0.00383606751517,0.0,0.0,-0.0,0.0,-0.0,2477942880.39,0.0,0.0,0.0,0.0,0.0,0.0
1402603470609754003,0,7.76064278145,9.88567784727,-27.9767872729,10.0438151857,0.144888461029,0.0,0.261342222599,0.0,1.46442883254,0.0,1011.10499914,2203.10023144,-1.34130416972,-0.0,-0.0,0.0,-0.00383606751517,0.0,-0.00383606751517,0.0,0.0,-0.0,0.0,-0.0,2477942880.39,0.0,0.0,0.0,0.0,0.0,0.0
1402603470630801195,0,7.78589558713,9.88567784727,-27.9514843863,10.0438151857,0.197552656296,0.0,0.292408933007,0.0,1.46467341804,0.0,1011.10499914,2203.10023144,-1.34130416972,-0.0,-0.0,0.0,-0.00383606751517,0.0,-0.00383606751517,0.0,0.0,-0.0,0.0,-0.0,2477942880.39,0.0,0.0,0.0,0.0,0.0,0.0
1402603470649874742,0,7.78589558713,9.88567784727,-27.9514843863,10.0438151857,0.197552656296,0.0,0.292408933007,0.0,1.46467341804,0.0,1011.10499914,2203.10023144,-1.34130416972,-0.0,-0.0,0.0,-0.00383606751517,0.0,-0.00383606751517,0.0,0.0,-0.0,0.0,-0.0,2477942880.39,0.0,0.0,0.0,0.0,0.0,0.0
1402603470670471600,0,7.79421484185,9.88567784727,-27.9394548187,10.0438151857,0.205203285713,0.0,0.298295004928,0.0,1.46497169837,0.0,1011.10499914,2203.10023144,-1.34130416972,-0.0,-0.0,0.0,-0.00383606751517,0.0,-0.00383606751517,0.0,0.0,-0.0,0.0,-0.0,2477942880.39,0.0,0.0,0.0,0.0,0.0,0.0
1402603470689945279,0,7.79421484185,9.88567784727,-27.9394548187,10.0438151857,0.205203285713,0.0,0.298295004928,0.0,1.46497169837,0.0,1011.10499914,2203.10023144,-1.34130416972,-0.0,-0.0,0.0,-0.00383606751517,0.0,-0.00383606751517,0.0,0.0,-0.0,0.0,-0.0,2477942880.39,0.0,0.0,0.0,0.0,0.0,0.0
1402603470709845819,0,7.79516909181,9.88567784727,-27.9424083958,10.0438151857,0.186740222108,0.0,0.25596161326,0.0,1.46358114322,0.0,1011.10499914,2203.10023144,-1.34130416972,-0.0,-0.0,0.0,-0.00383606751517,0.0,-0.00383606751517,0.0,0.0,-0.0,0.0,-0.0,2477942880.39,0.0,0.0,0.0,0.0,0.0,0.0
1402603470730448777,0,7.79516909181,9.88567784727,-27.9424083958,10.0438151857,0.186740222108,0.0,0.25596161326,0.0,1.46358114322,0.0,1011.10499914,2203.10023144,-1.34130416972,-0.0,-0.0,0.0,-0.00383606751517,0.0,-0.00383606751517,0.0,0.0,-0.0,0.0,-0.0,2477942880.39,0.0,0.0,0.0,0.0,0.0,0.0
1402603470750004562,0,7.75022516886,9.88567784727,-27.9693604743,10.0438151857,0.0572806073595,0.0,0.161605691252,0.0,1.46395275695,0.0,1011.10499914,2203.10023144,-1.34130416972,-0.0,-0.0,0.0,-0.00383606751517,0.0,-0.00383606751517,0.0,0.0,-0.0,0.0,-0.0,2477942880.39,0.0,0.0,0.0,0.0,0.0,0.0
1402603470770439773,0,7.75022516886,9.88567784727,-27.9693604743,10.0438151857,0.0572806073595,0.0,0.161605691252,0.0,1.46395275695,0.0,1011.10499914,2203.10023144,-1.34130416972,-0.0,-0.0,0.0,-0.00383606751517,0.0,-0.00383606751517,0.0,0.0,-0.0,0.0,-0.0,2477942880.39,0.0,0.0,0.0,0.0,0.0,0.0
1402603470790071704,0,7.74462676531,9.88567784727,-27.9657422534,10.0438151857,0.0309042475925,0.0,0.165499168016,0.0,1.46511910098,0.0,1011.10499914,2203.10023144,-1.34130416972,-0.0,-0.0,0.0,-0.00383606751517,0.0,-0.00383606751517,0.0,0.0,-0.0,0.0,-0.0,2477942880.39,0.0,0.0,0.0,0.0,0.0,0.0
1402603470809875114,0,7.74462676531,9.88567784727,-27.9657422534,10.0438151857,0.0309042475925,0.0,0.165499168016,0.0,1.46511910098,0.0,1011.10499914,2203.10023144,-1.34130416972,-0.0,-0.0,0.0,-0.00383606751517,0.0,-0.00383606751517,0.0,0.0,-0.0,0.0,-0.0,2477942880.39,0.0,0.0,0.0,0.0,0.0,0.0
1402603470830557579,0,7.74500544886,9.88567784727,-27.9625049287,10.0438151857,0.0312758453212,0.0,0.164765394634,0.0,1.4652193509,0.0,1011.10499914,2203.10023144,-1.34130416972,-0.0,-0.0,0.0,-0.00383606751517,0.0,-0.00383606751517,0.0,0.0,-0.0,0.0,-0.0,2477942880.39,0.0,0.0,0.0,0.0,0.0,0.0
1402603470849946232,0,7.74500544886,9.88567784727,-27.9625049287,10.0438151857,0.0312758453212,0.0,0.164765394634,0.0,1.4652193509,0.0,1011.10499914,2203.10023144,-1.34130416972,-0.0,-0.0,0.0,-0.00383606751517,0.0,-0.00383606751517,0.0,0.0,-0.0,0.0,-0.0,2477942880.39,0.0,0.0,0.0,0.0,0.0,0.0
1402603470870494228,0,7.74647556434,9.88567784727,-27.9554736574,10.0438151857,0.0301615900761,0.0,0.164794221986,0.0,1.46551298248,0.0,1011.10499914,2203.10023144,-1.34130416972,-0.0,-0.0,0.0,-0.00383606751517,0.0,-0.00383606751517,0.0,0.0,-0.0,0.0,-0.0,2477942880.39,0.0,0.0,0.0,0.0,0.0,0.0
1402603470889866142,0,7.74647556434,9.88567784727,-27.9554736574,10.0438151857,0.0301615900761,0.0,0.164794221986,0.0,1.46551298248,0.0,1011.10499914,2203.10023144,-1.34130416972,-0.0,-0.0,0.0,-0.00383606751517,0.0,-0.00383606751517,0.0,0.0,-0.0,0.0,-0.0,2477942880.39,0.0,0.0,0.0,0.0,0.0,0.0
1402603470910300643,0,7.74473574406,9.88567784727,-27.9481057007,10.0438151857,0.0108574092959,0.0,0.159616453646,0.0,1.46593767627,0.0,1011.10499914,2203.10023144,-1.34130416972,-0.0,-0.0,0.0,-0.00383606751517,0.0,-0.00383606751517,0.0,0.0,-0.0,0.0,-0.0,2477942880.39,0.0,0.0,0.0,0.0,0.0,0.0
1402603470929834139,0,7.74473574406,9.88567784727,-27.9481057007,10.0438151857,0.0108574092959,0.0,0.159616453646,0.0,1.46593767627,0.0,1011.10499914,2203.10023144,-1.34130416972,-0.0,-0.0,0.0,-0.00383606751517,0.0,-0.00383606751517,0.0,0.0,-0.0,0.0,-0.0,2477942880.39,0.0,0.0,0.0,0.0,0.0,0.0
1402603470950443067,0,7.74511712251,9.88567784727,-27.9415802929,10.0438151857,0.0090605505208,0.0,0.158421662519,0.0,1.46620853697,0.0,1011.10499914,2203.10023144,-1.34130416972,-0.0,-0.0,0.0,-0.00383606751517,0.0,-0.00383606751517,0.0,0.0,-0.0,0.0,-0.0,2477942880.39,0.0,0.0,0.0,0.0,0.0,0.0
1402603470969942880,0,7.74511712251,9.88567784727,-27.9415802929,10.0438151857,0.0090605505208,0.0,0.158421662519,0.0,1.46620853697,0.0,1011.10499914,2203.10023144,-1.34130416972,-0.0,-0.0,0.0,-0.00383606751517,0.0,-0.00383606751517,0.0,0.0,-0.0,0.0,-0.0,2477942880.39,0.0,0.0,0.0,0.0,0.0,0.0
1402603470989964600,0,7.75514339653,9.88567784727,-27.9276380509,10.0438151857,0.013314631513,0.0,0.170436762853,0.0,1.4664720466,0.0,1011.10499914,2203.10023144,-1.34130416972,-0.0,-0.0,0.0,-0.00383606751517,0.0,-0.00383606751517,0.0,0.0,-0.0,0.0,-0.0,2477942880.39,0.0,0.0,0.0,0.0,0.0,0.0
1402603471009962670,0,7.75514339653,9.88567784727,-27.9276380509,10.0438151857,0.013314631513,0.0,0.170436762853,0.0,1.4664720466,0.0,1011.10499914,2203.10023144,-1.34130416972,-0.0,-0.0,0.0,-0.00383606751517,0.0,-0.00383606751517,0.0,0.0,-0.0,0.0,-0.0,2477942880.39,0.0,0.0,0.0,0.0,0.0,0.0
1402603471029827356,0,7.75562430691,9.88567784727,-27.9206673562,10.0438151857,0.0100939561248,0.0,0.169945944413,0.0,1.4667183632,0.0,1011.10499914,2203.10023144,-1.34130416972,-0.0,-0.0,0.0,-0.00383606751517,0.0,-0.00383606751517,0.0,0.0,-0.0,0.0,-0.0,2477942880.39,0.0,0.0,0.0,0.0,0.0,0.0
1402603471050307527,0,7.75562430691,9.88567784727,-27.9206673562,10.0438151857,0.0100939561248,0.0,0.169945944413,0.0,1.4667183632,0.0,1011.10499914,2203.10023144,-1.34130416972,-0.0,-0.0,0.0,-0.00383606751517,0.0,-0.00383606751517,0.0,0.0,-0.0,0.0,-0.0,2477942880.39,0.0,0.0,0.0,0.0,0.0,0.0
1402603471069986146,0,7.76989076989,9.88567784727,-27.9055150812,10.0438151857,0.02153392248,0.0,0.168843680539,0.0,1.46720833637,0.0,1011.10499914,2203.10023144,-1.34130416972,-0.0,-0.0,0.0,-0.00383606751517,0.0,-0.00383606751517,0.0,0.0,-0.0,0.0,-0.0,2477942880.39,0.0,0.0,0.0,0.0,0.0,0.0
1402603471090012872,0,7.76989076989,9.88567784727,-27.9055150812,10.0438151857,0.02153392248,0.0,0.168843680539,0.0,1.46720833637,0.0,1011.10499914,2203.10023144,-1.34130416972,-0.0,-0.0,0.0,-0.00383606751517,0.0,-0.00383606751517,0.0,0.0,-0.0,0.0,-0.0,2477942880.39,0.0,0.0,0.0,0.0,0.0,0.0
1402603471110434288,0,7.77138959979,9.88567784727,-27.8992565607,10.0438151857,0.00822431874275,0.0,0.162167333742,0.0,1.46742246739,0.0,1011.10499914,2203.10023144,-1.34130416972,-0.0,-0.0,0.0,-0.00383606751517,0.0,-0.00383606751517,0.0,0.0,-0.0,0.0,-0.0,2477942880.39,0.0,0.0,0.0,0.0,0.0,0.0
1402603471130390024,0,7.7714018136,9.88567784727,-27.8958992039,10.0438151857,0.00747763350304,0.0,0.162438010353,0.0,1.46761177707,0.0,1011.10499914,2203.10023144,-1.34130416972,-0.0,-0.0,0.0,-0.00383606751517,0.0,-0.00383606751517,0.0,0.0,-0.0,0.0,-0.0,2477942880.39,0.0,0.0,0.0,0.0,0.0,0.0
1402603471149969599,0,7.7714018136,9.88567784727,-27.8958992039,10.0438151857,0.00747763350304,0.0,0.162438010353,0.0,1.46761177707,0.0,1011.10499914,2203.10023144,-1.34130416972,-0.0,-0.0,0.0,-0.00383606751517,0.0,-0.00383606751517,0.0,0.0,-0.0,0.0,-0.0,2477942880.39,0.0,0.0,0.0,0.0,0.0,0.0
1402603471169959375,0,7.7795982028,9.88567784727,-27.8888061052,10.0438151857,0.010166403641,0.0,0.161884918972,0.0,1.4679366051,0.0,1011.10499914,2203.10023144,-1.34130416972,-0.0,-0.0,0.0,-0.00383606751517,0.0,-0.00383606751517,0.0,0.0,-0.0,0.0,-0.0,2477942880.39,0.0,0.0,0.0,0.0,0.0,0.0
1402603471190233435,0,7.7795982028,9.88567784727,-27.8888061052,10.0438151857,0.010166403641,0.0,0.161884918972,0.0,1.4679366051,0.0,1011.10499914,2203.10023144,-1.34130416972,-0.0,-0.0,0.0,-0.00383606751517,0.0,-0.00383606751517,0.0,0.0,-0.0,0.0,-0.0,2477942880.39,0.0,0.0,0.0,0.0,0.0,0.0
1402603471209785234,0,7.77822305487,9.88567784727,-27.8901522622,10.0438151857,-0.00530523896859,0.0,0.143157534944,0.0,1.46832062977,0.0,1011.10499914,2203.10023144,-1.34130416972,-0.0,-0.0,0.0,-0.00383606751517,0.0,-0.00383606751517,0.0,0.0,-0.0,0.0,-0.0,2477942880.39,0.0,0.0,0.0,0.0,0.0,0.0
1402603471230972128,0,7.77822305487,9.88567784727,-27.8901522622,10.0438151857,-0.00530523896859,0.0,0.143157534944,0.0,1.46832062977,0.0,1011.10499914,2203.10023144,-1.34130416972,-0.0,-0.0,0.0,-0.00383606751517,0.0,-0.00383606751517,0.0,0.0,-0.0,0.0,-0.0,2477942880.39,0.0,0.0,0.0,0.0,0.0,0.0
1402603471250126195,0,7.77788552452,9.88567784727,-27.8843005076,10.0438151857,-0.00717937004316,0.0,0.141610094476,0.0,1.46865544738,0.0,1011.10499914,2203.10023144,-1.34130416972,-0.0,-0.0,0.0,-0.00383606751517,0.0,-0.00383606751517,0.0,0.0,-0.0,0.0,-0.0,2477942880.39,0.0,0.0,0.0,0.0,0.0,0.0
1402603471270633427,0,7.77788552452,9.88567784727,-27.8843005076,10.0438151857,-0.00717937004316,0.0,0.141610094476,0.0,1.46865544738,0.0,1011.10499914,2203.10023144,-1.34130416972,-0.0,-0.0,0.0,-0.00383606751517,0.0,-0.00383606751517,0.0,0.0,-0.0,0.0,-0.0,2477942880.39,0.0,0.0,0.0,0.0,0.0,0.0
1402603471290066983,0,7.77768762349,9.88567784727,-27.8784874953,10.0438151857,-0.00729066595147,0.0,0.1393269603,0.0,1.46911659555,0.0,1011.10499914,2203.10023144,-1.34130416972,-0.0,-0.0,0.0,-0.00383606751517,0.0,-0.00383606751517,0.0,0.0,-0.0,0.0,-0.0,2477942880.39,0.0,0.0,0.0,0.0,0.0,0.0
1402603471310619126,0,7.77768762349,9.88567784727,-27.8784874953,10.0438151857,-0.00729066595147,0.0,0.1393269603,0.0,1.46911659555,0.0,1011.10499914,2203.10023144,-1.34130416972,-0.0,-0.0,0.0,-0.00383606751517,0.0,-0.00383606751517,0.0,0.0,-0.0,0.0,-0.0,2477942880.39,0.0,0.0,0.0,0.0,0.0,0.0
1402603471330005245,0,7.74829357284,9.88567784727,-27.8905756753,10.0438151857,-0.0848678971836,0.0,0.101540999786,0.0,1.46947950262,0.0,1011.10499914,2203.10023144,-1.34130416972,-0.0,-0.0,0.0,-0.00383606751517,0.0,-0.00383606751517,0.0,0.0,-0.0,0.0,-0.0,2477942880.39,0.0,0.0,0.0,0.0,0.0,0.0
1402603471351035154,0,7.74829357284,9.88567784727,-27.8905756753,10.0438151857,-0.0848678971836,0.0,0.101540999786,0.0,1.46947950262,0.0,1011.10499914,2203.10023144,-1.34130416972,-0.0,-0.0,0.0,-0.00383606751517,0.0,-0.00383606751517,0.0,0.0,-0.0,0.0,-0.0,2477942880.39,0.0,0.0,0.0,0.0,0.0,0.0
1402603471370354948,0,7.74368251121,9.88567784727,-27.897325812,10.0438151857,-0.101915913491,0.0,0.0726286797092,0.0,1.47069940754,0.0,1011.10499914,2203.10023144,-1.34130416972,-0.0,-0.0,0.0,-0.00383606751517,0.0,-0.00383606751517,0.0,0.0,-0.0,0.0,-0.0,2477942880.39,0.0,0.0,0.0,0.0,0.0,0.0
1402603471390559626,0,7.74368251121,9.88567784727,-27.897325812,10.0438151857,-0.101915913491,0.0,0.0726286797092,0.0,1.47069940754,0.0,1011.10499914,2203.10023144,-1.34130416972,-0.0,-0.0,0.0,-0.00383606751517,0.0,-0.00383606751517,0.0,0.0,-0.0,0.0,-0.0,2477942880.39,0.0,0.0,0.0,0.0,0.0,0.0
1402603471409909940,0,7.75301140677,9.88567784727,-27.8760780603,10.0438151857,-0.0887717904905,0.0,0.0948518137214,0.0,1.47023142717,0.0,1011.10499914,2203.10023144,-1.34130416972,-0.0,-0.0,0.0,-0.00383606751517,0.0,-0.00383606751517,0.0,0.0,-0.0,0.0,-0.0,2477942880.39,0.0,0.0,0.0,0.0,0.0,0.0
1402603471430027352,0,7.75301140677,9.88567784727,-27.8760780603,10.0438151857,-0.0887717904905,0.0,0.0948518137214,0.0,1.47023142717,0.0,1011.10499914,2203.10023144,-1.34130416972,-0.0,-0.0,0.0,-0.00383606751517,0.0,-0.00383606751517,0.0,0.0,-0.0,0.0,-0.0,2477942880.39,0.0,0.0,0.0,0.0,0.0,0.0
1402603471449900520,0,7.75936536138,9.88567784727,-27.8678779447,10.0438151857,-0.0768535205015,0.0,0.0883451128872,0.0,1.47153925876,0.0,1011.10499914,2203.10023144,-1.34130416972,-0.0,-0.0,0.0,-0.00383606751517,0.0,-0.00383606751517,0.0,0.0,-0.0,0.0,-0.0,2477942880.39,0.0,0.0,0.0,0.0,0.0,0.0
1402603471470150643,0,7.75936536138,9.88567784727,-27.8678779447,10.0438151857,-0.0768535205015,0.0,0.0883451128872,0.0,1.47153925876,0.0,1011.10499914,2203.10023144,-1.34130416972,-0.0,-0.0,0.0,-0.00383606751517,0.0,-0.00383606751517,0.0,0.0,-0.0,0.0,-0.0,2477942880.39,0.0,0.0,0.0,0.0,0.0,0.0
1402603471489925215,0,7.76193503084,9.88567784727,-27.857601223,10.0438151857,-0.0812592756182,0.0,0.100409896967,0.0,1.47087382273,0.0,1011.10499914,2203.10023144,-1.34130416972,-0.0,-0.0,0.0,-0.00383606751517,0.0,-0.00383606751517,0.0,0.0,-0.0,0.0,-0.0,2477942880.39,0.0,0.0,0.0,0.0,0.0,0.0
1402603471510298346,0,7.76193503084,9.88567784727,-27.857601223,10.0438151857,-0.0812592756182,0.0,0.100409896967,0.0,1.47087382273,0.0,1011.10499914,2203.10023144,-1.34130416972,-0.0,-0.0,0.0,-0.00383606751517,0.0,-0.00383606751517,0.0,0.0,-0.0,0.0,-0.0,2477942880.39,0.0,0.0,0.0,0.0,0.0,0.0
1402603471529828019,0,7.76030567735,9.88567784727,-27.8555358755,10.0438151857,-0.0804425161236,0.0,0.0990917105399,0.0,1.47109349988,0.0,1011.10499914,2203.10023144,-1.34130416972,-0.0,-0.0,0.0,-0.00383606751517,0.0,-0.00383606751517,0.0,0.0,-0.0,0.0,-0.0,2477942880.39,0.0,0.0,0.0,0.0,0.0,0.0
1402603471549770583,0,7.76030567735,9.88567784727,-27.8555358755,10.0438151857,-0.0804425161236,0.0,0.0990917105399,0.0,1.47109349988,0.0,1011.10499914,2203.10023144,-1.34130416972,-0.0,-0.0,0.0,-0.00383606751517,0.0,-0.00383606751517,0.0,0.0,-0.0,0.0,-0.0,2477942880.39,0.0,0.0,0.0,0.0,0.0,0.0
1402603471570709107,0,7.75668813214,9.88567784727,-27.8514991615,10.0438151857,-0.085898269043,0.0,0.096425860163,0.0,1.47145054449,0.0,1011.10499914,2203.10023144,-1.34130416972,-0.0,-0.0,0.0,-0.00383606751517,0.0,-0.00383606751517,0.0,0.0,-0.0,0.0,-0.0,2477942880.39,0.0,0.0,0.0,0.0,0.0,0.0
1402603471589825455,0,7.75668813214,9.88567784727,-27.8514991615,10.0438151857,-0.085898269043,0.0,0.096425860163,0.0,1.47145054449,0.0,1011.10499914,2203.10023144,-1.34130416972,-0.0,-0.0,0.0,-0.00383606751517,0.0,-0.00383606751517,0.0,0.0,-0.0,0.0,-0.0,2477942880.39,0.0,0.0,0.0,0.0,0.0,0.0
1402603471609869370,0,7.78032475384,9.88567784727,-27.8276093468,10.0438151857,-0.0397804919305,0.0,0.126365932247,0.0,1.47150566758,0.0,1011.10499914,2203.10023144,-1.34130416972,-0.0,-0.0,0.0,-0.00383606751517,0.0,-0.00383606751517,0.0,0.0,-0.0,0.0,-0.0,2477942880.39,0.0,0.0,0.0,0.0,0.0,0.0
1402603471630894043,0,7.78032475384,9.88567784727,-27.8276093468,10.0438151857,-0.0397804919305,0.0,0.126365932247,0.0,1.47150566758,0.0,1011.10499914,2203.10023144,-1.34130416972,-0.0,-0.0,0.0,-0.00383606751517,0.0,-0.00383606751517,0.0,0.0,-0.0,0.0,-0.0,2477942880.39,0.0,0.0,0.0,0.0,0.0,0.0
1402603471649846077,0,7.80020276999,9.88567784727,-27.8107516853,10.0438151857,-0.00376840079663,0.0,0.145981799761,0.0,1.47194215137,0.0,1011.10499914,2203.10023144,-1.34130416972,-0.0,-0.0,0.0,-0.00383606751517,0.0,-0.00383606751517,0.0,0.0,-0.0,0.0,-0.0,2477942880.39,0.0,0.0,0.0,0.0,0.0,0.0
1402603471670551104,0,7.80020276999,9.88567784727,-27.8107516853,10.0438151857,-0.00376840079663,0.0,0.145981799761,0.0,1.47194215137,0.0,1011.10499914,2203.10023144,-1.34130416972,-0.0,-0.0,0.0,-0.00383606751517,0.0,-0.00383606751517,0.0,0.0,-0.0,0.0,-0.0,2477942880.39,0.0,0.0,0.0,0.0,0.0,0.0
1402603471689945614,0,7.78619794679,9.88567784727,-27.8219730372,10.0438151857,-0.0404961521054,0.0,0.109142630565,0.0,1.47276661109,0.0,1011.10499914,2203.10023144,-1.34130416972,-0.0,-0.0,0.0,-0.00383606751517,0.0,-0.00383606751517,0.0,0.0,-0.0,0.0,-0.0,2477942880.39,0.0,0.0,0.0,0.0,0.0,0.0
1402603471710376006,0,7.78619794679,9.88567784727,-27.8219730372,10.0438151857,-0.0404961521054,0.0,0.109142630565,0.0,1.47276661109,0.0,1011.10499914,2203.10023144,-1.34130416972,-0.0,-0.0,0.0,-0.00383606751517,0.0,-0.00383606751517,0.0,0.0,-0.0,0.0,-0.0,2477942880.39,0.0,0.0,0.0,0.0,0.0,0.0
1402603471729960367,0,7.78446703807,9.88567784727,-27.817649582,10.0438151857,-0.0404606004876,0.0,0.107148047487,0.0,1.47304449947,0.0,1011.10499914,2203.10023144,-1.34130416972,-0.0,-0.0,0.0,-0.00383606751517,0.0,-0.00383606751517,0.0,0.0,-0.0,0.0,-0.0,2477942880.39,0.0,0.0,0.0,0.0,0.0,0.0
1402603471750400444,0,7.78446703807,9.88567784727,-27.817649582,10.0438151857,-0.0404606004876,0.0,0.107148047487,0.0,1.47304449947,0.0,1011.10499914,2203.10023144,-1.34130416972,-0.0,-0.0,0.0,-0.00383606751517,0.0,-0.00383606751517,0.0,0.0,-0.0,0.0,-0.0,2477942880.39,0.0,0.0,0.0,0.0,0.0,0.0
1402603471770046159,0,7.74157245852,9.88567784727,-27.8548208421,10.0438151857,-0.132424678047,0.0,0.0176655546032,0.0,1.4749433961,0.0,1011.10499914,2203.10023144,-1.34130416972,-0.0,-0.0,0.0,-0.00383606751517,0.0,-0.00383606751517,0.0,0.0,-0.0,0.0,-0.0,2477942880.39,0.0,0.0,0.0,0.0,0.0,0.0
1402603471789923886,0,7.74157245852,9.88567784727,-27.8548208421,10.0438151857,-0.132424678047,0.0,0.0176655546032,0.0,1.4749433961,0.0,1011.10499914,2203.10023144,-1.34130416972,-0.0,-0.0,0.0,-0.00383606751517,0.0,-0.00383606751517,0.0,0.0,-0.0,0.0,-0.0,2477942880.39,0.0,0.0,0.0,0.0,0.0,0.0
1402603471810340361,0,7.70353401197,9.88567784727,-27.8738822302,10.0438151857,-0.213016130211,0.0,-0.0299963452394,0.0,1.47482548712,0.0,1011.10499914,2203.10023144,-1.34130416972,-0.0,-0.0,0.0,-0.00383606751517,0.0,-0.00383606751517,0.0,0.0,-0.0,0.0,-0.0,2477942880.39,0.0,0.0,0.0,0.0,0.0,0.0
1402603471829881056,0,7.70353401197,9.88567784727,-27.8738822302,10.0438151857,-0.213016130211,0.0,-0.0299963452394,0.0,1.47482548712,0.0,1011.10499914,2203.10023144,-1.34130416972,-0.0,-0.0,0.0,-0.00383606751517,0.0,-0.00383606751517,0.0,0.0,-0.0,0.0,-0.0,2477942880.39,0.0,0.0,0.0,0.0,0.0,0.0
1402603471850070619,0,7.69916936973,9.88567784727,-27.8745774874,10.0438151857,-0.217149303088,0.0,-0.0339264005566,0.0,1.47497191152,0.0,1011.10499914,2203.10023144,-1.34130416972,-0.0,-0.0,0.0,-0.00383606751517,0.0,-0.00383606751517,0.0,0.0,-0.0,0.0,-0.0,2477942880.39,0.0,0.0,0.0,0.0,0.0,0.0
1402603471870555751,0,7.69916936973,9.88567784727,-27.8745774874,10.0438151857,-0.217149303088,0.0,-0.0339264005566,0.0,1.47497191152,0.0,1011.10499914,2203.10023144,-1.34130416972,-0.0,-0.0,0.0,-0.00383606751517,0.0,-0.00383606751517,0.0,0.0,-0.0,0.0,-0.0,2477942880.39,0.0,0.0,0.0,0.0,0.0,0.0
1402603471890030206,0,7.70183181273,9.88567784727,-27.863040634,10.0438151857,-0.208112673625,0.0,-0.015264623447,0.0,1.47428914497,0.0,1011.10499914,2203.10023144,-1.34130416972,-0.0,-0.0,0.0,-0.00383606751517,0.0,-0.00383606751517,0.0,0.0,-0.0,0.0,-0.0,2477942880.39,0.0,0.0,0.0,0.0,0.0,0.0
1402603471909996891,0,7.70183181273,9.88567784727,-27.863040634,10.0438151857,-0.208112673625,0.0,-0.015264623447,0.0,1.47428914497,0.0,1011.10499914,2203.10023144,-1.34130416972,-0.0,-0.0,0.0,-0.00383606751517,0.0,-0.00383606751517,0.0,0.0,-0.0,0.0,-0.0,2477942880.39,0.0,0.0,0.0,0.0,0.0,0.0
1402603471930939441,0,7.69314084481,9.88567784727,-27.8637842394,10.0438151857,-0.215543293529,0.0,-0.0217560742979,0.0,1.47450506091,0.0,1011.10499914,2203.10023144,-1.34130416972,-0.0,-0.0,0.0,-0.00383606751517,0.0,-0.00383606751517,0.0,0.0,-0.0,0.0,-0.0,2477942880.39,0.0,0.0,0.0,0.0,0.0,0.0
1402603471949815051,0,7.69314084481,9.88567784727,-27.8637842394,10.0438151857,-0.215543293529,0.0,-0.0217560742979,0.0,1.47450506091,0.0,1011.10499914,2203.10023144,-1.34130416972,-0.0,-0.0,0.0,-0.00383606751517,0.0,-0.00383606751517,0.0,0.0,-0.0,0.0,-0.0,2477942880.39,0.0,0.0,0.0,0.0,0.0,0.0
1402603471970741188,0,7.71917697919,9.88567784727,-27.8365704193,10.0438151857,-0.156289515463,0.0,0.0243843895843,0.0,1.4745918089,0.0,1011.10499914,2203.10023144,-1.34130416972,-0.0,-0.0,0.0,-0.00383606751517,0.0,-0.00383606751517,0.0,0.0,-0.0,0.0,-0.0,2477942880.39,0.0,0.0,0.0,0.0,0.0,0.0
1402603471989911485,0,7.71917697919,9.88567784727,-27.8365704193,10.0438151857,-0.156289515463,0.0,0.0243843895843,0.0,1.4745918089,0.0,1011.10499914,2203.10023144,-1.34130416972,-0.0,-0.0,0.0,-0.00383606751517,0.0,-0.00383606751517,0.0,0.0,-0.0,0.0,-0.0,2477942880.39,0.0,0.0,0.0,0.0,0.0,0.0
1402603472009971469,0,7.73211464646,9.88567784727,-27.820740525,10.0438151857,-0.124438009645,0.0,0.0508670173828,0.0,1.47441426885,0.0,1011.10499914,2203.10023144,-1.34130416972,-0.0,-0.0,0.0,-0.00383606751517,0.0,-0.00383606751517,0.0,0.0,-0.0,0.0,-0.0,2477942880.39,0.0,0.0,0.0,0.0,0.0,0.0
1402603472029892642,0,7.73211464646,9.88567784727,-27.820740525,10.0438151857,-0.124438009645,0.0,0.0508670173828,0.0,1.47441426885,0.0,1011.10499914,2203.10023144,-1.34130416972,-0.0,-0.0,0.0,-0.00383606751517,0.0,-0.00383606751517,0.0,0.0,-0.0,0.0,-0.0,2477942880.39,0.0,0.0,0.0,0.0,0.0,0.0
1402603472050084091,0,7.7374771706,9.88567784727,-27.8076713006,10.0438151857,-0.107653742855,0.0,0.0667869163581,0.0,1.47455261552,0.0,1011.10499914,2203.10023144,-1.34130416972,-0.0,-0.0,0.0,-0.00383606751517,0.0,-0.00383606751517,0.0,0.0,-0.0,0.0,-0.0,2477942880.39,0.0,0.0,0.0,0.0,0.0,0.0
1402603472069972336,0,7.7374771706,9.88567784727,-27.8076713006,10.0438151857,-0.107653742855,0.0,0.0667869163581,0.0,1.47455261552,0.0,1011.10499914,2203.10023144,-1.34130416972,-0.0,-0.0,0.0,-0.00383606751517,0.0,-0.00383606751517,0.0,0.0,-0.0,0.0,-0.0,2477942880.39,0.0,0.0,0.0,0.0,0.0,0.0
1402603472090002396,0,7.73163048406,9.88567784727,-27.804378479,10.0438151857,-0.110975159356,0.0,0.0652902156783,0.0,1.47484175019,0.0,1011.10499914,2203.10023144,-1.34130416972,-0.0,-0.0,0.0,-0.00383606751517,0.0,-0.00383606751517,0.0,0.0,-0.0,0.0,-0.0,2477942880.39,0.0,0.0,0.0,0.0,0.0,0.0
1402603472109896853,0,7.73163048406,9.88567784727,-27.804378479,10.0438151857,-0.110975159356,0.0,0.0652902156783,0.0,1.47484175019,0.0,1011.10499914,2203.10023144,-1.34130416972,-0.0,-0.0,0.0,-0.00383606751517,0.0,-0.00383606751517,0.0,0.0,-0.0,0.0,-0.0,2477942880.39,0.0,0.0,0.0,0.0,0.0,0.0
1402603472130866507,0,7.72826862995,9.88567784727,-27.8024009479,10.0438151857,-0.113198972814,0.0,0.0639991903975,0.0,1.47512599989,0.0,1011.10499914,2203.10023144,-1.34130416972,-0.0,-0.0,0.0,-0.00383606751517,0.0,-0.00383606751517,0.0,0.0,-0.0,0.0,-0.0,2477942880.39,0.0,0.0,0.0,0.0,0.0,0.0
1402603472149915742,0,7.73072435073,9.88567784727,-27.8045681306,10.0438151857,-0.102469262442,0.0,0.0611002178318,0.0,1.475761498,0.0,1011.10499914,2203.10023144,-1.34130416972,-0.0,-0.0,0.0,-0.00383606751517,0.0,-0.00383606751517,0.0,0.0,-0.0,0.0,-0.0,2477942880.39,0.0,0.0,0.0,0.0,0.0,0.0
1402603472170027350,0,7.73072435073,9.88567784727,-27.8045681306,10.0438151857,-0.102469262442,0.0,0.0611002178318,0.0,1.475761498,0.0,1011.10499914,2203.10023144,-1.34130416972,-0.0,-0.0,0.0,-0.00383606751517,0.0,-0.00383606751517,0.0,0.0,-0.0,0.0,-0.0,2477942880.39,0.0,0.0,0.0,0.0,0.0,0.0
1402603472190601397,0,7.72859435898,9.88567784727,-27.8033939293,10.0438151857,-0.10311835153,0.0,0.0592788781104,0.0,1.475919659,0.0,1011.10499914,2203.10023144,-1.34130416972,-0.0,-0.0,0.0,-0.00383606751517,0.0,-0.00383606751517,0.0,0.0,-0.0,0.0,-0.0,2477942880.39,0.0,0.0,0.0,0.0,0.0,0.0
1402603472210092127,0,7.72859435898,9.88567784727,-27.8033939293,10.0438151857,-0.10311835153,0.0,0.0592788781104,0.0,1.475919659,0.0,1011.10499914,2203.10023144,-1.34130416972,-0.0,-0.0,0.0,-0.00383606751517,0.0,-0.00383606751517,0.0,0.0,-0.0,0.0,-0.0,2477942880.39,0.0,0.0,0.0,0.0,0.0,0.0
1402603472229871469,0,7.72432908659,9.88567784727,-27.8007712806,10.0438151857,-0.104675195985,0.0,0.0581219289854,0.0,1.47620587833,0.0,1011.10499914,2203.10023144,-1.34130416972,-0.0,-0.0,0.0,-0.00383606751517,0.0,-0.00383606751517,0.0,0.0,-0.0,0.0,-0.0,2477942880.39,0.0,0.0,0.0,0.0,0.0,0.0
1402603472249872549,0,7.72432908659,9.88567784727,-27.8007712806,10.0438151857,-0.104675195985,0.0,0.0581219289854,0.0,1.47620587833,0.0,1011.10499914,2203.10023144,-1.34130416972,-0.0,-0.0,0.0,-0.00383606751517,0.0,-0.00383606751517,0.0,0.0,-0.0,0.0,-0.0,2477942880.39,0.0,0.0,0.0,0.0,0.0,0.0
1402603472270586224,0,7.72500376999,9.88567784727,-27.7984538473,10.0438151857,-0.0984842145719,0.0,0.0549089683317,0.0,1.47668330159,0.0,1011.10499914,2203.10023144,-1.34130416972,-0.0,-0.0,0.0,-0.00383606751517,0.0,-0.00383606751517,0.0,0.0,-0.0,0.0,-0.0,2477942880.39,0.0,0.0,0.0,0.0,0.0,0.0
1402603472290105671,0,7.72500376999,9.88567784727,-27.7984538473,10.0438151857,-0.0984842145719,0.0,0.0549089683317,0.0,1.47668330159,0.0,1011.10499914,2203.10023144,-1.34130416972,-0.0,-0.0,0.0,-0.00383606751517,0.0,-0.00383606751517,0.0,0.0,-0.0,0.0,-0.0,2477942880.39,0.0,0.0,0.0,0.0,0.0,0.0
1402603472310083289,0,7.7292543555,9.88567784727,-27.7817240871,10.0438151857,-0.0876012091018,0.0,0.0808631709294,0.0,1.47650417052,0.0,1011.10499914,2203.10023144,-1.34130416972,-0.0,-0.0,0.0,-0.00383606751517,0.0,-0.00383606751517,0.0,0.0,-0.0,0.0,-0.0,2477942880.39,0.0,0.0,0.0,0.0,0.0,0.0
1402603472329857540,0,7.7292543555,9.88567784727,-27.7817240871,10.0438151857,-0.0876012091018,0.0,0.0808631709294,0.0,1.47650417052,0.0,1011.10499914,2203.10023144,-1.34130416972,-0.0,-0.0,0.0,-0.00383606751517,0.0,-0.00383606751517,0.0,0.0,-0.0,0.0,-0.0,2477942880.39,0.0,0.0,0.0,0.0,0.0,0.0
1402603472349889095,0,7.75491175972,9.88567784727,-27.7497644542,10.0438151857,-0.0322882015708,0.0,0.132142405888,0.0,1.47696114152,0.0,1011.10499914,2203.10023144,-1.34130416972,-0.0,-0.0,0.0,-0.00383606751517,0.0,-0.00383606751517,0.0,0.0,-0.0,0.0,-0.0,2477942880.39,0.0,0.0,0.0,0.0,0.0,0.0
1402603472371244949,0,7.75491175972,9.88567784727,-27.7497644542,10.0438151857,-0.0322882015708,0.0,0.132142405888,0.0,1.47696114152,0.0,1011.10499914,2203.10023144,-1.34130416972,-0.0,-0.0,0.0,-0.00383606751517,0.0,-0.00383606751517,0.0,0.0,-0.0,0.0,-0.0,2477942880.39,0.0,0.0,0.0,0.0,0.0,0.0
1402603472390006473,0,7.75364958267,9.88567784727,-27.7444308215,10.0438151857,-0.0315971431823,0.0,0.133675090123,0.0,1.47716722722,0.0,1011.10499914,2203.10023144,-1.34130416972,-0.0,-0.0,0.0,-0.00383606751517,0.0,-0.00383606751517,0.0,0.0,-0.0,0.0,-0.0,2477942880.39,0.0,0.0,0.0,0.0,0.0,0.0
1402603472410199012,0,7.75364958267,9.88567784727,-27.7444308215,10.0438151857,-0.0315971431823,0.0,0.133675090123,0.0,1.47716722722,0.0,1011.10499914,2203.10023144,-1.34130416972,-0.0,-0.0,0.0,-0.00383606751517,0.0,-0.00383606751517,0.0,0.0,-0.0,0.0,-0.0,2477942880.39,0.0,0.0,0.0,0.0,0.0,0.0
1402603472430495310,0,7.78792471908,9.88567784727,-27.7072742748,10.0438151857,0.0384881475131,0.0,0.190319988793,0.0,1.47765606377,0.0,1011.10499914,2203.10023144,-1.34130416972,-0.0,-0.0,0.0,-0.00383606751517,0.0,-0.00383606751517,0.0,0.0,-0.0,0.0,-0.0,2477942880.39,0.0,0.0,0.0,0.0,0.0,0.0
1402603472450079326,0,7.78792471908,9.88567784727,-27.7072742748,10.0438151857,0.0384881475131,0.0,0.190319988793,0.0,1.47765606377,0.0,1011.10499914,2203.10023144,-1.34130416972,-0.0,-0.0,0.0,-0.00383606751517,0.0,-0.00383606751517,0.0,0.0,-0.0,0.0,-0.0,2477942880.39,0.0,0.0,0.0,0.0,0.0,0.0
1402603472469878295,0,7.82439646275,9.88567784727,-27.6724831808,10.0438151857,0.109470931746,0.0,0.24003052889,0.0,1.47861510953,0.0,1011.10499914,2203.10023144,-1.34130416972,-0.0,-0.0,0.0,-0.00383606751517,0.0,-0.00383606751517,0.0,0.0,-0.0,0.0,-0.0,2477942880.39,0.0,0.0,0.0,0.0,0.0,0.0
1402603472490987967,0,7.82439646275,9.88567784727,-27.6724831808,10.0438151857,0.109470931746,0.0,0.24003052889,0.0,1.47861510953,0.0,1011.10499914,2203.10023144,-1.34130416972,-0.0,-0.0,0.0,-0.00383606751517,0.0,-0.00383606751517,0.0,0.0,-0.0,0.0,-0.0,2477942880.39,0.0,0.0,0.0,0.0,0.0,0.0
1402603472510114855,0,7.82609795793,9.88567784727,-27.6713220629,10.0438151857,0.104666951948,0.0,0.217258245838,0.0,1.47810863588,0.0,1011.10499914,2203.10023144,-1.34130416972,-0.0,-0.0,0.0,-0.00383606751517,0.0,-0.00383606751517,0.0,0.0,-0.0,0.0,-0.0,2477942880.39,0.0,0.0,0.0,0.0,0.0,0.0
1402603472530644955,0,7.82609795793,9.88567784727,-27.6713220629,10.0438151857,0.104666951948,0.0,0.217258245838,0.0,1.47810863588,0.0,1011.10499914,2203.10023144,-1.34130416972,-0.0,-0.0,0.0,-0.00383606751517,0.0,-0.00383606751517,0.0,0.0,-0.0,0.0,-0.0,2477942880.39,0.0,0.0,0.0,0.0,0.0,0.0
1402603472550097766,0,7.83193841168,9.88567784727,-27.6600087102,10.0438151857,0.113432230787,0.0,0.222191252264,0.0,1.47840005639,0.0,1011.10499914,2203.10023144,-1.34130416972,-0.0,-0.0,0.0,-0.00383606751517,0.0,-0.00383606751517,0.0,0.0,-0.0,0.0,-0.0,2477942880.39,0.0,0.0,0.0,0.0,0.0,0.0
1402603472570615274,0,7.83193841168,9.88567784727,-27.6600087102,10.0438151857,0.113432230787,0.0,0.222191252264,0.0,1.47840005639,0.0,1011.10499914,2203.10023144,-1.34130416972,-0.0,-0.0,0.0,-0.00383606751517,0.0,-0.00383606751517,0.0,0.0,-0.0,0.0,-0.0,2477942880.39,0.0,0.0,0.0,0.0,0.0,0.0
1402603472589923918,0,7.83399654304,9.88567784727,-27.6556367545,10.0438151857,0.117813309686,0.0,0.223752048228,0.0,1.4785483445,0.0,1011.10499914,2203.10023144,-1.34130416972,-0.0,-0.0,0.0,-0.00383606751517,0.0,-0.00383606751517,0.0,0.0,-0.0,0.0,-0.0,2477942880.39,0.0,0.0,0.0,0.0,0.0,0.0
1402603472610611925,0,7.83399654304,9.88567784727,-27.6556367545,10.0438151857,0.117813309686,0.0,0.223752048228,0.0,1.4785483445,0.0,1011.10499914,2203.10023144,-1.34130416972,-0.0,-0.0,0.0,-0.00383606751517,0.0,-0.00383606751517,0.0,0.0,-0.0,0.0,-0.0,2477942880.39,0.0,0.0,0.0,0.0,0.0,0.0
1402603472630041554,0,7.82171949963,9.88567784727,-27.662488352,10.0438151857,0.0840689053572,0.0,0.193604360735,0.0,1.47803198637,0.0,1011.10499914,2203.10023144,-1.34130416972,-0.0,-0.0,0.0,-0.00383606751517,0.0,-0.00383606751517,0.0,0.0,-0.0,0.0,-0.0,2477942880.39,0.0,0.0,0.0,0.0,0.0,0.0
1402603472650684969,0,7.82171949963,9.88567784727,-27.662488352,10.0438151857,0.0840689053572,0.0,0.193604360735,0.0,1.47803198637,0.0,1011.10499914,2203.10023144,-1.34130416972,-0.0,-0.0,0.0,-0.00383606751517,0.0,-0.00383606751517,0.0,0.0,-0.0,0.0,-0.0,2477942880.39,0.0,0.0,0.0,0.0,0.0,0.0
1402603472670057447,0,7.81223624248,9.88567784727,-27.6572195877,10.0438151857,0.0526739462413,0.0,0.187343767331,0.0,1.47865838783,0.0,1011.10499914,2203.10023144,-1.34130416972,-0.0,-0.0,0.0,-0.00383606751517,0.0,-0.00383606751517,0.0,0.0,-0.0,0.0,-0.0,2477942880.39,0.0,0.0,0.0,0.0,0.0,0.0
1402603472689881437,0,7.81223624248,9.88567784727,-27.6572195877,10.0438151857,0.0526739462413,0.0,0.187343767331,0.0,1.47865838783,0.0,1011.10499914,2203.10023144,-1.34130416972,-0.0,-0.0,0.0,-0.00383606751517,0.0,-0.00383606751517,0.0,0.0,-0.0,0.0,-0.0,2477942880.39,0.0,0.0,0.0,0.0,0.0,0.0
1402603472710708921,0,7.8182329012,9.88567784727,-27.6480251521,10.0438151857,0.0607311756813,0.0,0.185489912536,0.0,1.47858979755,0.0,1011.10499914,2203.10023144,-1.34130416972,-0.0,-0.0,0.0,-0.00383606751517,0.0,-0.00383606751517,0.0,0.0,-0.0,0.0,-0.0,2477942880.39,0.0,0.0,0.0,0.0,0.0,0.0
1402603472730682498,0,7.8182329012,9.88567784727,-27.6480251521,10.0438151857,0.0607311756813,0.0,0.185489912536,0.0,1.47858979755,0.0,1011.10499914,2203.10023144,-1.34130416972,-0.0,-0.0,0.0,-0.00383606751517,0.0,-0.00383606751517,0.0,0.0,-0.0,0.0,-0.0,2477942880.39,0.0,0.0,0.0,0.0,0.0,0.0
1402603472750398088,0,7.82825390073,9.88567784727,-27.6341279188,10.0438151857,0.077936050444,0.0,0.193770736478,0.0,1.47872357137,0.0,1011.10499914,2203.10023144,-1.34130416972,-0.0,-0.0,0.0,-0.00383606751517,0.0,-0.00383606751517,0.0,0.0,-0.0,0.0,-0.0,2477942880.39,0.0,0.0,0.0,0.0,0.0,0.0
1402603472770134530,0,7.82825390073,9.88567784727,-27.6341279188,10.0438151857,0.077936050444,0.0,0.193770736478,0.0,1.47872357137,0.0,1011.10499914,2203.10023144,-1.34130416972,-0.0,-0.0,0.0,-0.00383606751517,0.0,-0.00383606751517,0.0,0.0,-0.0,0.0,-0.0,2477942880.39,0.0,0.0,0.0,0.0,0.0,0.0
1402603472790447725,0,7.82919430339,9.88567784727,-27.6261248572,10.0438151857,0.0749376889325,0.0,0.191582620359,0.0,1.4788342771,0.0,1011.10499914,2203.10023144,-1.34130416972,-0.0,-0.0,0.0,-0.00383606751517,0.0,-0.00383606751517,0.0,0.0,-0.0,0.0,-0.0,2477942880.39,0.0,0.0,0.0,0.0,0.0,0.0
1402603472809888433,0,7.82919430339,9.88567784727,-27.6261248572,10.0438151857,0.0749376889325,0.0,0.191582620359,0.0,1.4788342771,0.0,1011.10499914,2203.10023144,-1.34130416972,-0.0,-0.0,0.0,-0.00383606751517,0.0,-0.00383606751517,0.0,0.0,-0.0,0.0,-0.0,2477942880.39,0.0,0.0,0.0,0.0,0.0,0.0
1402603472830662482,0,7.83488008745,9.88567784727,-27.6186251824,10.0438151857,0.0845842959791,0.0,0.192646053343,0.0,1.47883723784,0.0,1011.10499914,2203.10023144,-1.34130416972,-0.0,-0.0,0.0,-0.00383606751517,0.0,-0.00383606751517,0.0,0.0,-0.0,0.0,-0.0,2477942880.39,0.0,0.0,0.0,0.0,0.0,0.0
1402603472849905418,0,7.83488008745,9.88567784727,-27.6186251824,10.0438151857,0.0845842959791,0.0,0.192646053343,0.0,1.47883723784,0.0,1011.10499914,2203.10023144,-1.34130416972,-0.0,-0.0,0.0,-0.00383606751517,0.0,-0.00383606751517,0.0,0.0,-0.0,0.0,-0.0,2477942880.39,0.0,0.0,0.0,0.0,0.0,0.0
1402603472870150387,0,7.83911434722,9.88567784727,-27.6086628789,10.0438151857,0.0900721096651,0.0,0.195444193854,0.0,1.47918762034,0.0,1011.10499914,2203.10023144,-1.34130416972,-0.0,-0.0,0.0,-0.00383606751517,0.0,-0.00383606751517,0.0,0.0,-0.0,0.0,-0.0,2477942880.39,0.0,0.0,0.0,0.0,0.0,0.0
1402603472890828812,0,7.83911434722,9.88567784727,-27.6086628789,10.0438151857,0.0900721096651,0.0,0.195444193854,0.0,1.47918762034,0.0,1011.10499914,2203.10023144,-1.34130416972,-0.0,-0.0,0.0,-0.00383606751517,0.0,-0.00383606751517,0.0,0.0,-0.0,0.0,-0.0,2477942880.39,0.0,0.0,0.0,0.0,0.0,0.0
1402603472910254660,0,7.8419772232,9.88567784727,-27.6025368736,10.0438151857,0.0943132764691,0.0,0.197430856254,0.0,1.47931706914,0.0,1011.10499914,2203.10023144,-1.34130416972,-0.0,-0.0,0.0,-0.00383606751517,0.0,-0.00383606751517,0.0,0.0,-0.0,0.0,-0.0,2477942880.39,0.0,0.0,0.0,0.0,0.0,0.0
1402603472931352890,0,7.84394509025,9.88567784727,-27.5982648246,10.0438151857,0.0957755306317,0.0,0.198441151018,0.0,1.47943418522,0.0,1011.10499914,2203.10023144,-1.34130416972,-0.0,-0.0,0.0,-0.00383606751517,0.0,-0.00383606751517,0.0,0.0,-0.0,0.0,-0.0,2477942880.39,0.0,0.0,0.0,0.0,0.0,0.0
1402603472950001766,0,7.84394509025,9.88567784727,-27.5982648246,10.0438151857,0.0957755306317,0.0,0.198441151018,0.0,1.47943418522,0.0,1011.10499914,2203.10023144,-1.34130416972,-0.0,-0.0,0.0,-0.00383606751517,0.0,-0.00383606751517,0.0,0.0,-0.0,0.0,-0.0,2477942880.39,0.0,0.0,0.0,0.0,0.0,0.0
1402603472970543268,0,7.84590397195,9.88567784727,-27.5993102542,10.0438151857,0.0948290657653,0.0,0.182680357688,0.0,1.47853009816,0.0,1011.10499914,2203.10023144,-1.34130416972,-0.0,-0.0,0.0,-0.00383606751517,0.0,-0.00383606751517,0.0,0.0,-0.0,0.0,-0.0,2477942880.39,0.0,0.0,0.0,0.0,0.0,0.0
1402603472990230544,0,7.84590397195,9.88567784727,-27.5993102542,10.0438151857,0.0948290657653,0.0,0.182680357688,0.0,1.47853009816,0.0,1011.10499914,2203.10023144,-1.34130416972,-0.0,-0.0,0.0,-0.00383606751517,0.0,-0.00383606751517,0.0,0.0,-0.0,0.0,-0.0,2477942880.39,0.0,0.0,0.0,0.0,0.0,0.0
1402603473010549186,0,7.83933819917,9.88567784727,-27.5923958624,10.0438151857,0.0694144926889,0.0,0.178413480866,0.0,1.47943522899,0.0,1011.10499914,2203.10023144,-1.34130416972,-0.0,-0.0,0.0,-0.00383606751517,0.0,-0.00383606751517,0.0,0.0,-0.0,0.0,-0.0,2477942880.39,0.0,0.0,0.0,0.0,0.0,0.0
1402603473029901810,0,7.83933819917,9.88567784727,-27.5923958624,10.0438151857,0.0694144926889,0.0,0.178413480866,0.0,1.47943522899,0.0,1011.10499914,2203.10023144,-1.34130416972,-0.0,-0.0,0.0,-0.00383606751517,0.0,-0.00383606751517,0.0,0.0,-0.0,0.0,-0.0,2477942880.39,0.0,0.0,0.0,0.0,0.0,0.0
1402603473049985363,0,7.8422410358,9.88567784727,-27.5849894402,10.0438151857,0.0722445041419,0.0,0.179306656955,0.0,1.47960799594,0.0,1011.10499914,2203.10023144,-1.34130416972,-0.0,-0.0,0.0,-0.00383606751517,0.0,-0.00383606751517,0.0,0.0,-0.0,0.0,-0.0,2477942880.39,0.0,0.0,0.0,0.0,0.0,0.0
1402603473069917636,0,7.8422410358,9.88567784727,-27.5849894402,10.0438151857,0.0722445041419,0.0,0.179306656955,0.0,1.47960799594,0.0,1011.10499914,2203.10023144,-1.34130416972,-0.0,-0.0,0.0,-0.00383606751517,0.0,-0.00383606751517,0.0,0.0,-0.0,0.0,-0.0,2477942880.39,0.0,0.0,0.0,0.0,0.0,0.0
1402603473089868840,0,7.84844789531,9.88567784727,-27.5784616551,10.0438151857,0.0760679989639,0.0,0.16886774788,0.0,1.47895671962,0.0,1011.10499914,2203.10023144,-1.34130416972,-0.0,-0.0,0.0,-0.00383606751517,0.0,-0.00383606751517,0.0,0.0,-0.0,0.0,-0.0,2477942880.39,0.0,0.0,0.0,0.0,0.0,0.0
1402603473110555171,0,7.84844789531,9.88567784727,-27.5784616551,10.0438151857,0.0760679989639,0.0,0.16886774788,0.0,1.47895671962,0.0,1011.10499914,2203.10023144,-1.34130416972,-0.0,-0.0,0.0,-0.00383606751517,0.0,-0.00383606751517,0.0,0.0,-0.0,0.0,-0.0,2477942880.39,0.0,0.0,0.0,0.0,0.0,0.0
1402603473129760401,0,7.85339178861,9.88567784727,-27.5667962442,10.0438151857,0.0774310034153,0.0,0.172354687951,0.0,1.47948016386,0.0,1011.10499914,2203.10023144,-1.34130416972,-0.0,-0.0,0.0,-0.00383606751517,0.0,-0.00383606751517,0.0,0.0,-0.0,0.0,-0.0,2477942880.39,0.0,0.0,0.0,0.0,0.0,0.0
1402603473149887050,0,7.85339178861,9.88567784727,-27.5667962442,10.0438151857,0.0774310034153,0.0,0.172354687951,0.0,1.47948016386,0.0,1011.10499914,2203.10023144,-1.34130416972,-0.0,-0.0,0.0,-0.00383606751517,0.0,-0.00383606751517,0.0,0.0,-0.0,0.0,-0.0,2477942880.39,0.0,0.0,0.0,0.0,0.0,0.0
1402603473169943669,0,7.85768148537,9.88567784727,-27.5578763978,10.0438151857,0.0815860793104,0.0,0.173425167703,0.0,1.47957648908,0.0,1011.10499914,2203.10023144,-1.34130416972,-0.0,-0.0,0.0,-0.00383606751517,0.0,-0.00383606751517,0.0,0.0,-0.0,0.0,-0.0,2477942880.39,0.0,0.0,0.0,0.0,0.0,0.0
1402603473190014571,0,7.85768148537,9.88567784727,-27.5578763978,10.0438151857,0.0815860793104,0.0,0.173425167703,0.0,1.47957648908,0.0,1011.10499914,2203.10023144,-1.34130416972,-0.0,-0.0,0.0,-0.00383606751517,0.0,-0.00383606751517,0.0,0.0,-0.0,0.0,-0.0,2477942880.39,0.0,0.0,0.0,0.0,0.0,0.0
1402603473209959626,0,7.8591701894,9.88567784727,-27.5476899587,10.0438151857,0.0703217584089,0.0,0.170395919851,0.0,1.48004626727,0.0,1011.10499914,2203.10023144,-1.34130416972,-0.0,-0.0,0.0,-0.00383606751517,0.0,-0.00383606751517,0.0,0.0,-0.0,0.0,-0.0,2477942880.39,0.0,0.0,0.0,0.0,0.0,0.0
1402603473230421202,0,7.8591701894,9.88567784727,-27.5476899587,10.0438151857,0.0703217584089,0.0,0.170395919851,0.0,1.48004626727,0.0,1011.10499914,2203.10023144,-1.34130416972,-0.0,-0.0,0.0,-0.00383606751517,0.0,-0.00383606751517,0.0,0.0,-0.0,0.0,-0.0,2477942880.39,0.0,0.0,0.0,0.0,0.0,0.0
1402603473249990886,0,7.86967749848,9.88567784727,-27.539132924,10.0438151857,0.0812273220095,0.0,0.16821562267,0.0,1.47976149364,0.0,1011.10499914,2203.10023144,-1.34130416972,-0.0,-0.0,0.0,-0.00383606751517,0.0,-0.00383606751517,0.0,0.0,-0.0,0.0,-0.0,2477942880.39,0.0,0.0,0.0,0.0,0.0,0.0
1402603473270056056,0,7.86967749848,9.88567784727,-27.539132924,10.0438151857,0.0812273220095,0.0,0.16821562267,0.0,1.47976149364,0.0,1011.10499914,2203.10023144,-1.34130416972,-0.0,-0.0,0.0,-0.00383606751517,0.0,-0.00383606751517,0.0,0.0,-0.0,0.0,-0.0,2477942880.39,0.0,0.0,0.0,0.0,0.0,0.0
1402603473289994041,0,7.87300551209,9.88567784727,-27.5320743555,10.0438151857,0.0848127225484,0.0,0.167774256642,0.0,1.47993642514,0.0,1011.10499914,2203.10023144,-1.34130416972,-0.0,-0.0,0.0,-0.00383606751517,0.0,-0.00383606751517,0.0,0.0,-0.0,0.0,-0.0,2477942880.39,0.0,0.0,0.0,0.0,0.0,0.0
1402603473309974825,0,7.87300551209,9.88567784727,-27.5320743555,10.0438151857,0.0848127225484,0.0,0.167774256642,0.0,1.47993642514,0.0,1011.10499914,2203.10023144,-1.34130416972,-0.0,-0.0,0.0,-0.00383606751517,0.0,-0.00383606751517,0.0,0.0,-0.0,0.0,-0.0,2477942880.39,0.0,0.0,0.0,0.0,0.0,0.0
1402603473329864533,0,7.87699491446,9.88567784727,-27.5100426108,10.0438151857,0.0787224934114,0.0,0.195127666016,0.0,1.48152787193,0.0,1011.10499914,2203.10023144,-1.34130416972,-0.0,-0.0,0.0,-0.00383606751517,0.0,-0.00383606751517,0.0,0.0,-0.0,0.0,-0.0,2477942880.39,0.0,0.0,0.0,0.0,0.0,0.0
1402603473350294608,0,7.87699491446,9.88567784727,-27.5100426108,10.0438151857,0.0787224934114,0.0,0.195127666016,0.0,1.48152787193,0.0,1011.10499914,2203.10023144,-1.34130416972,-0.0,-0.0,0.0,-0.00383606751517,0.0,-0.00383606751517,0.0,0.0,-0.0,0.0,-0.0,2477942880.39,0.0,0.0,0.0,0.0,0.0,0.0
1402603473370038531,0,7.88757867493,9.88567784727,-27.4992309169,10.0438151857,0.092050440999,0.0,0.197322050787,0.0,1.48169559169,0.0,1011.10499914,2203.10023144,-1.34130416972,-0.0,-0.0,0.0,-0.00383606751517,0.0,-0.00383606751517,0.0,0.0,-0.0,0.0,-0.0,2477942880.39,0.0,0.0,0.0,0.0,0.0,0.0
1402603473390531734,0,7.88757867493,9.88567784727,-27.4992309169,10.0438151857,0.092050440999,0.0,0.197322050787,0.0,1.48169559169,0.0,1011.10499914,2203.10023144,-1.34130416972,-0.0,-0.0,0.0,-0.00383606751517,0.0,-0.00383606751517,0.0,0.0,-0.0,0.0,-0.0,2477942880.39,0.0,0.0,0.0,0.0,0.0,0.0
1402603473409967190,0,7.89619489283,9.88567784727,-27.4874330937,10.0438151857,0.0984103945101,0.0,0.195665210291,0.0,1.48184210493,0.0,1011.10499914,2203.10023144,-1.34130416972,-0.0,-0.0,0.0,-0.00383606751517,0.0,-0.00383606751517,0.0,0.0,-0.0,0.0,-0.0,2477942880.39,0.0,0.0,0.0,0.0,0.0,0.0
1402603473430501645,0,7.89619489283,9.88567784727,-27.4874330937,10.0438151857,0.0984103945101,0.0,0.195665210291,0.0,1.48184210493,0.0,1011.10499914,2203.10023144,-1.34130416972,-0.0,-0.0,0.0,-0.00383606751517,0.0,-0.00383606751517,0.0,0.0,-0.0,0.0,-0.0,2477942880.39,0.0,0.0,0.0,0.0,0.0,0.0
1402603473449917384,0,7.89236816015,9.88567784727,-27.4780922206,10.0438151857,0.0768677415012,0.0,0.194149573816,0.0,1.48230991596,0.0,1011.10499914,2203.10023144,-1.34130416972,-0.0,-0.0,0.0,-0.00383606751517,0.0,-0.00383606751517,0.0,0.0,-0.0,0.0,-0.0,2477942880.39,0.0,0.0,0.0,0.0,0.0,0.0
1402603473470454170,0,7.89236816015,9.88567784727,-27.4780922206,10.0438151857,0.0768677415012,0.0,0.194149573816,0.0,1.48230991596,0.0,1011.10499914,2203.10023144,-1.34130416972,-0.0,-0.0,0.0,-0.00383606751517,0.0,-0.00383606751517,0.0,0.0,-0.0,0.0,-0.0,2477942880.39,0.0,0.0,0.0,0.0,0.0,0.0
1402603473490017252,0,7.89382670072,9.88567784727,-27.4741315157,10.0438151857,0.0787423905774,0.0,0.1945371513,0.0,1.48247094407,0.0,1011.10499914,2203.10023144,-1.34130416972,-0.0,-0.0,0.0,-0.00383606751517,0.0,-0.00383606751517,0.0,0.0,-0.0,0.0,-0.0,2477942880.39,0.0,0.0,0.0,0.0,0.0,0.0
1402603473510154749,0,7.89382670072,9.88567784727,-27.4741315157,10.0438151857,0.0787423905774,0.0,0.1945371513,0.0,1.48247094407,0.0,1011.10499914,2203.10023144,-1.34130416972,-0.0,-0.0,0.0,-0.00383606751517,0.0,-0.00383606751517,0.0,0.0,-0.0,0.0,-0.0,2477942880.39,0.0,0.0,0.0,0.0,0.0,0.0
1402603473529726350,0,7.88398149641,9.88567784727,-27.4837194937,10.0438151857,0.0509029578742,0.0,0.160178982207,0.0,1.48222678342,0.0,1011.10499914,2203.10023144,-1.34130416972,-0.0,-0.0,0.0,-0.00383606751517,0.0,-0.00383606751517,0.0,0.0,-0.0,0.0,-0.0,2477942880.39,0.0,0.0,0.0,0.0,0.0,0.0
1402603473549732959,0,7.88398149641,9.88567784727,-27.4837194937,10.0438151857,0.0509029578742,0.0,0.160178982207,0.0,1.48222678342,0.0,1011.10499914,2203.10023144,-1.34130416972,-0.0,-0.0,0.0,-0.00383606751517,0.0,-0.00383606751517,0.0,0.0,-0.0,0.0,-0.0,2477942880.39,0.0,0.0,0.0,0.0,0.0,0.0
1402603473570599834,0,7.88633507612,9.88567784727,-27.4771664728,10.0438151857,0.0529942673149,0.0,0.159243479306,0.0,1.48247601844,0.0,1011.10499914,2203.10023144,-1.34130416972,-0.0,-0.0,0.0,-0.00383606751517,0.0,-0.00383606751517,0.0,0.0,-0.0,0.0,-0.0,2477942880.39,0.0,0.0,0.0,0.0,0.0,0.0
1402603473590707087,0,7.88633507612,9.88567784727,-27.4771664728,10.0438151857,0.0529942673149,0.0,0.159243479306,0.0,1.48247601844,0.0,1011.10499914,2203.10023144,-1.34130416972,-0.0,-0.0,0.0,-0.00383606751517,0.0,-0.00383606751517,0.0,0.0,-0.0,0.0,-0.0,2477942880.39,0.0,0.0,0.0,0.0,0.0,0.0
1402603473610438561,0,7.89151488493,9.88567784727,-27.4642977607,10.0438151857,0.0618609385603,0.0,0.177653289024,0.0,1.48277071652,0.0,1011.10499914,2203.10023144,-1.34130416972,-0.0,-0.0,0.0,-0.00383606751517,0.0,-0.00383606751517,0.0,0.0,-0.0,0.0,-0.0,2477942880.39,0.0,0.0,0.0,0.0,0.0,0.0
1402603473629862338,0,7.89151488493,9.88567784727,-27.4642977607,10.0438151857,0.0618609385603,0.0,0.177653289024,0.0,1.48277071652,0.0,1011.10499914,2203.10023144,-1.34130416972,-0.0,-0.0,0.0,-0.00383606751517,0.0,-0.00383606751517,0.0,0.0,-0.0,0.0,-0.0,2477942880.39,0.0,0.0,0.0,0.0,0.0,0.0
1402603473650520638,0,7.89388105283,9.88567784727,-27.4572611514,10.0438151857,0.0614130357198,0.0,0.177935082299,0.0,1.48290943874,0.0,1011.10499914,2203.10023144,-1.34130416972,-0.0,-0.0,0.0,-0.00383606751517,0.0,-0.00383606751517,0.0,0.0,-0.0,0.0,-0.0,2477942880.39,0.0,0.0,0.0,0.0,0.0,0.0
