rosbagTimestamp,control_method,x_current,x_desired,y_current,y_desired,z_current,z_desired,x_velocity_current,x_velocity_desired,y_velocity_current,y_velocity_desired,z_velocity_current,z_velocity_desired,yaw_current,yaw_desired,yaw_velocity_current,yaw_velocity_desired,roll_current,roll_desired,roll_velocity_current,roll_velocity_desired,pitch_current,pitch_desired,pitch_velocity_current,pitch_velocity_desired,friction_force_forward,friction_force_lateral,friction_force_rotational,required_force_x,required_force_y,required_moment_z,resultant_force_x,resultant_force_y,resultant_moment_z,current_port_servo_angle,current_port_thruster_force,current_starboard_servo_angle,current_starboard_thruster_force,estimated_port_servo_angle,estimated_port_thruster_force,estimated_starboard_servo_angle,estimated_starboard_thruster_force,cost_value,step,user_defined_1,user_defined_2,user_defined_3,user_defined_4,user_defined_5
1403021022589229331,3,-11.9886593299,-9.56012115774,22.5277060064,12.5835788608,12.4117071135,0.0,0.0348749900627,0.0,0.00877022048152,0.0,-0.0354013986084,0.0,-2.25172272358,0.0,0.0208442139937,0.0,-0.00821514130314,0.0,2.85746214971e-05,0.0,0.0553449585554,-0.0,-0.005151093052,0.0,-0.10700186062,0.0437585392707,0.0280524429678,6.66778516031,11.6412490179,-1.03086430711,0.10700186062,-0.0437585392707,-0.0280524429678,0.00383600394174,0.0,0.00230154196664,0.0,-0.0,25.0,-0.0,-25.0,152794.455376,0.0,0.0,0.0,0.0,0.0,0.0
1403021022608756085,3,-11.979602004,-9.56012115774,22.5364936862,12.5835788608,12.3844809189,0.0,0.0209608255699,0.0,0.0103420357098,0.0,-0.0398440629437,0.0,-2.25120493954,0.0,0.0250850785308,0.0,-0.00686333955316,0.0,-0.00433343900072,0.0,0.0563610481742,-0.0,-0.0177511061097,0.0,-0.0758585991768,0.0201357932478,0.0346732342989,6.66778516031,11.6412490179,-1.03086430711,0.0758585991768,-0.0201357932478,-0.0346732342989,0.00383600394174,0.0,0.00230154196664,0.0,-0.0,25.0,-0.0,-25.0,152716.894077,0.0,0.0,0.0,0.0,0.0,0.0
1403021022628899355,3,-11.9789984291,-9.56012115774,22.5367936423,12.5835788608,12.3832162765,0.0,0.0221026871461,0.0,0.0100995116748,0.0,-0.0405510483759,0.0,-2.25044914464,0.0,0.0244038346172,0.0,-0.00656583751287,0.0,0.00182611033674,0.0,0.0565316768171,-0.0,-0.00361843138175,0.0,-0.0777487906324,0.0222343067888,0.032613468286,6.66778516031,11.6412490179,-1.03086430711,0.0777487906324,-0.0222343067888,-0.032613468286,0.00383600394174,0.0,0.00230154196664,0.0,-0.0,25.0,-0.0,-25.0,152730.963678,0.0,0.0,0.0,0.0,0.0,0.0
1403021022648789998,3,-11.9787638241,-9.56012115774,22.5368575302,12.5835788608,12.3828806946,0.0,0.0217998400402,0.0,0.0100065842435,0.0,-0.0404928054341,0.0,-2.25022224592,0.0,0.019455020634,0.0,-0.00647889453863,0.0,-0.000719792606861,0.0,0.0565916805121,-0.0,-0.0105879230725,0.0,-0.0766964789998,0.0218815999097,0.0265812485345,6.66778516031,11.6412490179,-1.03086430711,0.0766964789998,-0.0218815999097,-0.0265812485345,0.00383600394174,0.0,0.00230154196664,0.0,-0.0,25.0,-0.0,-25.0,152739.825137,0.0,0.0,0.0,0.0,0.0,0.0
1403021022668636174,3,-11.9667417351,-9.56012115774,22.5397595265,12.5835788608,12.377504129,0.0,0.0315328467785,0.0,0.00878768687674,0.0,-0.0388887892445,0.0,-2.24978703256,0.0,0.0124561396589,0.0,-0.00726335766622,0.0,-0.00171726750606,0.0,0.0562284908946,-0.0,-0.0105431753675,0.0,-0.0976417718813,0.0386254627125,0.0173122436384,6.66778516031,11.6412490179,-1.03086430711,0.0976417718813,-0.0386254627125,-0.0173122436384,0.00383600394174,0.0,0.00230154196664,0.0,-0.0,25.0,-0.0,-25.0,152806.769906,0.0,0.0,0.0,0.0,0.0,0.0
1403021022688791554,3,-11.966297635,-9.56012115774,22.5398803065,12.5835788608,12.3770539942,0.0,0.0311961066191,0.0,0.00952695325463,0.0,-0.0395139360781,0.0,-2.24956754355,0.0,0.0187151847283,0.0,-0.00717675763355,0.0,-0.00428630720686,0.0,0.0562423193067,-0.0,-0.00764326714348,0.0,-0.0989296407519,0.0371870100564,0.02555138781,6.66778516031,11.6412490179,-1.03086430711,0.0989296407519,-0.0371870100564,-0.02555138781,0.00383600394174,0.0,0.00230154196664,0.0,-0.0,25.0,-0.0,-25.0,152773.192481,0.0,0.0,0.0,0.0,0.0,0.0
1403021022708720520,3,-11.9537679586,-9.56012115774,22.5470422212,12.5835788608,12.350590021,0.0,0.0242477064312,0.0,0.00413932666958,0.0,-0.0419650373244,0.0,-2.24870805577,0.0,0.0145462119713,0.0,-0.00671512479283,0.0,-0.00221601554525,0.0,0.057473562946,-0.0,-0.0103094476173,0.0,-0.0640557280994,0.0331563517593,0.0201077384965,6.66778516031,11.6412490179,-1.03086430711,0.0640557280994,-0.0331563517593,-0.0201077384965,0.00383600394174,0.0,0.00230154196664,0.0,-0.0,25.0,-0.0,-25.0,152961.305995,0.0,0.0,0.0,0.0,0.0,0.0
1403021022728874218,3,-11.9535739778,-9.56012115774,22.5471520169,12.5835788608,12.3500687175,0.0,0.0244162027962,0.0,0.00394288235011,0.0,-0.0416616254127,0.0,-2.24853205173,0.0,0.0144499421253,0.0,-0.00664166492154,0.0,-0.0013252918442,0.0,0.0575146049534,-0.0,-0.00832069112579,0.0,-0.0639180145896,0.0336613486374,0.0198134896896,6.66778516031,11.6412490179,-1.03086430711,0.0639180145896,-0.0336613486374,-0.0198134896896,0.00383600394174,0.0,0.00230154196664,0.0,-0.0,25.0,-0.0,-25.0,152968.40855,0.0,0.0,0.0,0.0,0.0,0.0
1403021022748788260,3,-11.9535739778,-9.56012115774,22.5471520169,12.5835788608,12.3500687175,0.0,0.0244162027962,0.0,0.00394288235011,0.0,-0.0416616254127,0.0,-2.24853205173,0.0,0.0144499421253,0.0,-0.00664166492154,0.0,-0.0013252918442,0.0,0.0575146049534,-0.0,-0.00832069112579,0.0,-0.0639180145896,0.0336613486374,0.0198134896896,6.66778516031,11.6412490179,-1.03086430711,0.0639180145896,-0.0336613486374,-0.0198134896896,0.00383600394174,0.0,0.00230154196664,0.0,-0.0,25.0,-0.0,-25.0,152968.40855,0.0,0.0,0.0,0.0,0.0,0.0
1403021022768589562,3,-11.9532265317,-9.56012115774,22.5470442594,12.5835788608,12.3498320245,0.0,0.0242391893785,0.0,0.00386052268243,0.0,-0.0418539176498,0.0,-2.24834763329,0.0,0.0138332031065,0.0,-0.00655172003682,0.0,-0.000139818632094,0.0,0.0575839777644,-0.0,-0.0103652196005,0.0,-0.0631515278464,0.0334903090829,0.0190778585408,6.66778516031,11.6412490179,-1.03086430711,0.0631515278464,-0.0334903090829,-0.0190778585408,0.00383600394174,0.0,0.00230154196664,0.0,-0.0,25.0,-0.0,-25.0,152972.217795,0.0,0.0,0.0,0.0,0.0,0.0
1403021022788518520,3,-11.9532265317,-9.56012115774,22.5470442594,12.5835788608,12.3498320245,0.0,0.0242391893785,0.0,0.00386052268243,0.0,-0.0418539176498,0.0,-2.24834763329,0.0,0.0138332031065,0.0,-0.00655172003682,0.0,-0.000139818632094,0.0,0.0575839777644,-0.0,-0.0103652196005,0.0,-0.0631515278464,0.0334903090829,0.0190778585408,6.66778516031,11.6412490179,-1.03086430711,0.0631515278464,-0.0334903090829,-0.0190778585408,0.00383600394174,25.0,0.00230154196664,-25.0,-0.0,25.0,-0.0,-25.0,152972.217795,0.0,0.0,0.0,0.0,0.0,0.0
1403021022808645585,3,-11.9284289224,-9.56012115774,22.5559529021,12.5835788608,12.3272044845,0.0,0.0376800938793,0.0,0.00242341748863,0.0,-0.0396857167856,0.0,-2.24738830705,0.0,0.0130389469473,0.0,-0.00758250295466,0.0,0.00320245457192,0.0,0.0572962871125,-0.0,-0.00375485136004,0.0,-0.0926814838855,0.0563457517364,0.0174595181552,6.66778516031,11.6412490179,-1.03086430711,0.0926814838855,-0.0563457517364,-0.0174595181552,0.00383600394174,25.0,0.00230154196664,-25.0,-0.0,25.0,-0.0,-25.0,153046.350508,0.0,0.0,0.0,0.0,0.0,0.0
1403021022828613788,3,-11.9284289224,-9.56012115774,22.5559529021,12.5835788608,12.3272044845,0.0,0.0376800938793,0.0,0.00242341748863,0.0,-0.0396857167856,0.0,-2.24738830705,0.0,0.0130389469473,0.0,-0.00758250295466,0.0,0.00320245457192,0.0,0.0572962871125,-0.0,-0.00375485136004,0.0,-0.0926814838855,0.0563457517364,0.0174595181552,6.66778516031,11.6412490179,-1.03086430711,0.0926814838855,-0.0563457517364,-0.0174595181552,0.00383600394174,25.0,0.00230154196664,-25.0,-0.0,25.0,-0.0,-25.0,153046.350508,0.0,0.0,0.0,0.0,0.0,0.0
1403021022848901421,3,-11.9267930444,-9.56012115774,22.5560591021,12.5835788608,12.3254993783,0.0,0.0384408668832,0.0,0.00166773780883,0.0,-0.039264358119,0.0,-2.24669605037,0.0,0.00996921670229,0.0,-0.00755470951474,0.0,0.00342997606711,0.0,0.0575495840889,-0.0,-0.0055540571942,0.0,-0.0922081547474,0.0585048342515,0.013487101089,6.66778516031,11.6412490179,-1.03086430711,0.0922081547474,-0.0585048342515,-0.013487101089,0.00383600394174,25.0,0.00230154196664,-25.0,-0.0,25.0,-0.0,-25.0,153078.754768,0.0,0.0,0.0,0.0,0.0,0.0
1403021022868555949,3,-11.9267930444,-9.56012115774,22.5560591021,12.5835788608,12.3254993783,0.0,0.0384408668832,0.0,0.00166773780883,0.0,-0.039264358119,0.0,-2.24669605037,0.0,0.00996921670229,0.0,-0.00755470951474,0.0,0.00342997606711,0.0,0.0575495840889,-0.0,-0.0055540571942,0.0,-0.0922081547474,0.0585048342515,0.013487101089,6.66778516031,11.6412490179,-1.03086430711,0.0922081547474,-0.0585048342515,-0.013487101089,0.00383600394174,25.0,0.00230154196664,-25.0,-0.0,25.0,-0.0,-25.0,153078.754768,0.0,0.0,0.0,0.0,0.0,0.0
1403021022888600845,3,-11.925333503,-9.56012115774,22.5561754112,12.5835788608,12.3237589274,0.0,0.0388256487518,0.0,0.00162264539955,0.0,-0.0387520252965,0.0,-2.24572123996,0.0,0.0128054771738,0.0,-0.00757002920981,0.0,0.000883342246931,0.0,0.0577164986396,-0.0,-0.00258676882729,0.0,-0.0930025592546,0.0592051075823,0.0171653131732,6.66778516031,11.6412490179,-1.03086430711,0.0930025592546,-0.0592051075823,-0.0171653131732,0.00383600394174,25.0,0.00230154196664,-25.0,-0.0,25.0,-0.0,-25.0,153077.989322,0.0,0.0,0.0,0.0,0.0,0.0
1403021022908508673,3,-11.925333503,-9.56012115774,22.5561754112,12.5835788608,12.3237589274,0.0,0.0388256487518,0.0,0.00162264539955,0.0,-0.0387520252965,0.0,-2.24572123996,0.0,0.0128054771738,0.0,-0.00757002920981,0.0,0.000883342246931,0.0,0.0577164986396,-0.0,-0.00258676882729,0.0,-0.0930025592546,0.0592051075823,0.0171653131732,6.66778516031,11.6412490179,-1.03086430711,0.0930025592546,-0.0592051075823,-0.0171653131732,0.00383600394174,25.0,0.00230154196664,-25.0,-0.0,25.0,-0.0,-25.0,153077.989322,0.0,0.0,0.0,0.0,0.0,0.0
1403021022928725615,3,-11.9091206066,-9.56012115774,22.5703676128,12.5835788608,12.2867200929,0.0,0.0215727054089,0.0,0.00661621816911,0.0,-0.0395405879789,0.0,-2.2448147843,0.0,0.0150335427069,0.0,-0.00584208322477,0.0,0.000445652016043,0.0,0.0583995384471,-0.0,0.00466724144553,0.0,-0.0652677818018,0.0259250812871,0.0196665978425,6.66778516031,11.6412490179,-1.03086430711,0.0652677818018,-0.0259250812871,-0.0196665978425,0.00383600394174,25.0,0.00230154196664,-25.0,-0.0,25.0,-0.0,-25.0,152869.354001,0.0,0.0,0.0,0.0,0.0,0.0
1403021022948633331,3,-11.9091206066,-9.56012115774,22.5703676128,12.5835788608,12.2867200929,0.0,0.0215727054089,0.0,0.00661621816911,0.0,-0.0395405879789,0.0,-2.2448147843,0.0,0.0150335427069,0.0,-0.00584208322477,0.0,0.000445652016043,0.0,0.0583995384471,-0.0,0.00466724144553,0.0,-0.0652677818018,0.0259250812871,0.0196665978425,6.66778516031,11.6412490179,-1.03086430711,0.0652677818018,-0.0259250812871,-0.0196665978425,0.00383600394174,25.0,0.00230154196664,-25.0,-0.0,25.0,-0.0,-25.0,152869.354001,0.0,0.0,0.0,0.0,0.0,0.0
1403021022968643645,3,-11.9089542059,-9.56012115774,22.5703530385,12.5835788608,12.2863956326,0.0,0.0207949938752,0.0,0.00633313279117,0.0,-0.0388724686783,0.0,-2.24468317438,0.0,0.00935185758155,0.0,-0.00582426901074,0.0,0.00335490734714,0.0,0.0584600313226,-0.0,-0.00473624906686,0.0,-0.0625904084635,0.0250582136373,0.0126044858602,6.66778516031,11.6412490179,-1.03086430711,0.0625904084635,-0.0250582136373,-0.0126044858602,0.00383600394174,25.0,0.00230154196664,-25.0,-0.0,25.0,-0.0,-25.0,152884.087597,0.0,0.0,0.0,0.0,0.0,0.0
1403021022988605342,3,-11.9089542059,-9.56012115774,22.5703530385,12.5835788608,12.2863956326,0.0,0.0207949938752,0.0,0.00633313279117,0.0,-0.0388724686783,0.0,-2.24468317438,0.0,0.00935185758155,0.0,-0.00582426901074,0.0,0.00335490734714,0.0,0.0584600313226,-0.0,-0.00473624906686,0.0,-0.0625904084635,0.0250582136373,0.0126044858602,6.66778516031,11.6412490179,-1.03086430711,0.0625904084635,-0.0250582136373,-0.0126044858602,0.00383600394174,25.0,0.00230154196664,-25.0,-0.0,25.0,-0.0,-25.0,152884.087597,0.0,0.0,0.0,0.0,0.0,0.0
1403021023008605496,3,-11.9050871422,-9.56012115774,22.5727416112,12.5835788608,12.2888913485,0.0,0.0165541271492,0.0,0.0114690776191,0.0,-0.033263672468,0.0,-2.24397614771,0.0,0.00536177978179,0.0,-0.00575405929444,0.0,0.00665177608496,0.0,0.0579641089741,-0.0,0.00652605835975,0.0,-0.0693988250284,0.011978911904,0.00642520408885,6.66778516031,11.6412490179,-1.03086430711,0.0693988250284,-0.011978911904,-0.00642520408885,0.00383600394174,25.0,0.00230154196664,-25.0,-0.0,25.0,-0.0,-25.0,152692.949445,0.0,0.0,0.0,0.0,0.0,0.0
1403021023028542486,3,-11.9050871422,-9.56012115774,22.5727416112,12.5835788608,12.2888913485,0.0,0.0165541271492,0.0,0.0114690776191,0.0,-0.033263672468,0.0,-2.24397614771,0.0,0.00536177978179,0.0,-0.00575405929444,0.0,0.00665177608496,0.0,0.0579641089741,-0.0,0.00652605835975,0.0,-0.0693988250284,0.011978911904,0.00642520408885,6.66778516031,11.6412490179,-1.03086430711,0.0693988250284,-0.011978911904,-0.00642520408885,0.00383600394174,25.0,0.00230154196664,-25.0,-0.0,25.0,-0.0,-25.0,152692.949445,0.0,0.0,0.0,0.0,0.0,0.0
1403021023048548833,3,-11.8921421333,-9.56012115774,22.5808820424,12.5835788608,12.2623782455,0.0,0.0149763093851,0.0,0.0102176176208,0.0,-0.0370089893926,0.0,-2.24376665978,0.0,-0.00233865654156,0.0,-0.00623296620684,0.0,-0.00158132750227,0.0,0.0581964601094,-0.0,0.00814348774893,0.0,-0.0606703805362,0.0111575646763,-0.00357941550089,6.66778516031,11.6412490179,-1.03086430711,0.0606703805362,-0.0111575646763,0.00357941550089,0.00383600394174,25.0,0.00230154196664,-25.0,-0.0,25.0,-0.0,-25.0,152751.309347,0.0,0.0,0.0,0.0,0.0,0.0
1403021023069201575,3,-11.8921421333,-9.56012115774,22.5808820424,12.5835788608,12.2623782455,0.0,0.0149763093851,0.0,0.0102176176208,0.0,-0.0370089893926,0.0,-2.24376665978,0.0,-0.00233865654156,0.0,-0.00623296620684,0.0,-0.00158132750227,0.0,0.0581964601094,-0.0,0.00814348774893,0.0,-0.0606703805362,0.0111575646763,-0.00357941550089,6.66778516031,11.6412490179,-1.03086430711,0.0606703805362,-0.0111575646763,0.00357941550089,0.00383600394174,25.0,0.00230154196664,-25.0,-0.0,25.0,-0.0,-25.0,152751.309347,0.0,0.0,0.0,0.0,0.0,0.0
1403021023088595807,3,-11.8827318728,-9.56012115774,22.580746341,12.5835788608,12.2536997325,0.0,0.0171504458351,0.0,3.91664747569e-06,0.0,-0.0349654772713,0.0,-2.24392005499,0.0,0.00311203214988,0.0,-0.00783141879128,0.0,-0.00253348009994,0.0,0.0586906744465,-0.0,0.0155714094835,0.0,-0.0346024529419,0.0273699446048,0.00318846231033,6.66778516031,11.6412490179,-1.03086430711,0.0346024529419,-0.0273699446048,-0.00318846231033,0.00383600394174,25.0,0.00230154196664,-25.0,-0.0,25.0,-0.0,-25.0,153105.949482,0.0,0.0,0.0,0.0,0.0,0.0
1403021023108817625,3,-11.8827318728,-9.56012115774,22.580746341,12.5835788608,12.2536997325,0.0,0.0171504458351,0.0,3.91664747569e-06,0.0,-0.0349654772713,0.0,-2.24392005499,0.0,0.00311203214988,0.0,-0.00783141879128,0.0,-0.00253348009994,0.0,0.0586906744465,-0.0,0.0155714094835,0.0,-0.0346024529419,0.0273699446048,0.00318846231033,6.66778516031,11.6412490179,-1.03086430711,0.0346024529419,-0.0273699446048,-0.00318846231033,0.00383600394174,25.0,0.00230154196664,-25.0,-0.0,25.0,-0.0,-25.0,153105.949482,0.0,0.0,0.0,0.0,0.0,0.0
1403021023128758849,3,-11.8663209175,-9.56012115774,22.5945427489,12.5835788608,12.2307404144,0.0,0.0243828259058,0.0,0.0171450221803,0.0,-0.0358466087038,0.0,-2.2438492007,0.0,0.00359363727747,0.0,-0.00760556407385,0.0,0.00263850623846,0.0,0.0564723898774,-0.0,0.00929701162934,0.0,-0.106089359136,0.0173238238645,0.00407127970795,6.66778516031,11.6412490179,-1.03086430711,0.106089359136,-0.0173238238645,-0.00407127970795,0.00383600394174,25.0,0.00230154196664,-25.0,-0.0,25.0,-0.0,-25.0,152516.238207,0.0,0.0,0.0,0.0,0.0,0.0
1403021023148552992,3,-11.8661164802,-9.56012115774,22.5948685328,12.5835788608,12.2300560027,0.0,0.0251357540817,0.0,0.016976079418,0.0,-0.0371475152529,0.0,-2.2438615223,0.0,-0.0038103283935,0.0,-0.00767472597633,0.0,0.000216023062219,0.0,0.0564192843588,-0.0,0.00865090387788,0.0,-0.107145182412,0.0187365335028,-0.00563912620385,6.66778516031,11.6412490179,-1.03086430711,0.107145182412,-0.0187365335028,0.00563912620385,0.00383600394174,25.0,0.00230154196664,-25.0,-0.0,25.0,-0.0,-25.0,152535.799673,0.0,0.0,0.0,0.0,0.0,0.0
1403021023168544650,3,-11.8661164802,-9.56012115774,22.5948685328,12.5835788608,12.2300560027,0.0,0.0251357540817,0.0,0.016976079418,0.0,-0.0371475152529,0.0,-2.2438615223,0.0,-0.0038103283935,0.0,-0.00767472597633,0.0,0.000216023062219,0.0,0.0564192843588,-0.0,0.00865090387788,0.0,-0.107145182412,0.0187365335028,-0.00563912620385,6.66778516031,11.6412490179,-1.03086430711,0.107145182412,-0.0187365335028,0.00563912620385,0.00383600394174,25.0,0.00230154196664,-25.0,-0.0,25.0,-0.0,-25.0,152535.799673,0.0,0.0,0.0,0.0,0.0,0.0
1403021023188579165,3,-11.8624127233,-9.56012115774,22.5952637792,12.5835788608,12.2251261332,0.0,0.0166876918062,0.0,0.0109140207447,0.0,-0.0341089000525,0.0,-2.24395293712,0.0,0.000214877452284,0.0,-0.0076108045895,0.0,0.00308334099417,0.0,0.0573374157185,-0.0,0.00989488016147,0.0,-0.0678931240637,0.0130204392742,-0.000489642354205,6.66778516031,11.6412490179,-1.03086430711,0.0678931240637,-0.0130204392742,0.000489642354205,0.00383600394174,25.0,0.00230154196664,-25.0,-0.0,25.0,-0.0,-25.0,152722.13122,0.0,0.0,0.0,0.0,0.0,0.0
1403021023208560959,3,-11.8624127233,-9.56012115774,22.5952637792,12.5835788608,12.2251261332,0.0,0.0166876918062,0.0,0.0109140207447,0.0,-0.0341089000525,0.0,-2.24395293712,0.0,0.000214877452284,0.0,-0.0076108045895,0.0,0.00308334099417,0.0,0.0573374157185,-0.0,0.00989488016147,0.0,-0.0678931240637,0.0130204392742,-0.000489642354205,6.66778516031,11.6412490179,-1.03086430711,0.0678931240637,-0.0130204392742,0.000489642354205,0.00383600394174,25.0,0.00230154196664,-25.0,-0.0,25.0,-0.0,-25.0,152722.13122,0.0,0.0,0.0,0.0,0.0,0.0
1403021023228692184,3,-11.8485918851,-9.56012115774,22.6027868031,12.5835788608,12.2037753864,0.0,0.0182797121072,0.0,0.0113782351019,0.0,-0.0347250437848,0.0,-2.24419553865,0.0,-0.00859373171685,0.0,-0.00843673961197,0.0,-0.000242932165139,0.0,0.0566498910659,-0.0,0.00158413668036,0.0,-0.0732585966883,0.0149905942625,-0.0115241449488,6.66778516031,11.6412490179,-1.03086430711,0.0732585966883,-0.0149905942625,0.0115241449488,0.00383600394174,25.0,0.00230154196664,-25.0,-0.0,25.0,-0.0,-25.0,152721.13809,0.0,0.0,0.0,0.0,0.0,0.0
1403021023248552548,3,-11.8485918851,-9.56012115774,22.6027868031,12.5835788608,12.2037753864,0.0,0.0182797121072,0.0,0.0113782351019,0.0,-0.0347250437848,0.0,-2.24419553865,0.0,-0.00859373171685,0.0,-0.00843673961197,0.0,-0.000242932165139,0.0,0.0566498910659,-0.0,0.00158413668036,0.0,-0.0732585966883,0.0149905942625,-0.0115241449488,6.66778516031,11.6412490179,-1.03086430711,0.0732585966883,-0.0149905942625,0.0115241449488,0.00383600394174,25.0,0.00230154196664,-25.0,-0.0,25.0,-0.0,-25.0,152721.13809,0.0,0.0,0.0,0.0,0.0,0.0
1403021023268604757,3,-11.848562616,-9.56012115774,22.6013297603,12.5835788608,12.2023559768,0.0,0.00495494666833,0.0,0.00321167957702,0.0,-0.030704361357,0.0,-2.24460930387,0.0,-0.0116394554994,0.0,-0.0083014415103,0.0,0.00473217961647,0.0,0.0577926947508,-0.0,0.0172458890631,0.0,-0.0153325595675,0.00425025053306,-0.0168206919507,6.66778516031,11.6412490179,-1.03086430711,0.0153325595675,-0.00425025053306,0.0168206919507,0.00383600394174,25.0,0.00230154196664,-25.0,-0.0,25.0,-0.0,-25.0,152985.211337,0.0,0.0,0.0,0.0,0.0,0.0
1403021023288568292,3,-11.848562616,-9.56012115774,22.6013297603,12.5835788608,12.2023559768,0.0,0.00495494666833,0.0,0.00321167957702,0.0,-0.030704361357,0.0,-2.24460930387,0.0,-0.0116394554994,0.0,-0.0083014415103,0.0,0.00473217961647,0.0,0.0577926947508,-0.0,0.0172458890631,0.0,-0.0153325595675,0.00425025053306,-0.0168206919507,6.66778516031,11.6412490179,-1.03086430711,0.0153325595675,-0.00425025053306,0.0168206919507,0.00383600394174,25.0,0.00230154196664,-25.0,-0.0,25.0,-0.0,-25.0,152985.211337,0.0,0.0,0.0,0.0,0.0,0.0
1403021023308614820,3,-11.8303075854,-9.56012115774,22.6078851142,12.5835788608,12.1862943894,0.0,0.0216061860537,0.0,0.00535855252743,0.0,-0.0312824598493,0.0,-2.24514367337,0.0,-0.0140260268824,0.0,-0.0101184217081,0.0,-0.00321181953831,0.0,0.0563597972738,-0.0,0.00293196524079,0.0,-0.0636388664556,0.0277129943404,-0.0187333068543,6.66778516031,11.6412490179,-1.03086430711,0.0636388664556,-0.0277129943404,0.0187333068543,0.00383600394174,25.0,0.00230154196664,-25.0,-0.0,25.0,-0.0,-25.0,152940.538932,0.0,0.0,0.0,0.0,0.0,0.0
1403021023328717572,3,-11.8303075854,-9.56012115774,22.6078851142,12.5835788608,12.1862943894,0.0,0.0216061860537,0.0,0.00535855252743,0.0,-0.0312824598493,0.0,-2.24514367337,0.0,-0.0140260268824,0.0,-0.0101184217081,0.0,-0.00321181953831,0.0,0.0563597972738,-0.0,0.00293196524079,0.0,-0.0636388664556,0.0277129943404,-0.0187333068543,6.66778516031,11.6412490179,-1.03086430711,0.0636388664556,-0.0277129943404,0.0187333068543,0.00383600394174,25.0,0.00230154196664,-25.0,-0.0,25.0,-0.0,-25.0,152940.538932,0.0,0.0,0.0,0.0,0.0,0.0
1403021023348606583,3,-11.829536424,-9.56012115774,22.6081619363,12.5835788608,12.1848939978,0.0,0.0204592638439,0.0,0.00579521251375,0.0,-0.0319419572659,0.0,-2.24575881507,0.0,-0.018102193284,0.0,-0.0100160706882,0.0,-0.00753443805602,0.0,0.0561075685917,-0.0,0.0034248854249,0.0,-0.0620583263122,0.0253609049661,-0.0240298707838,6.66778516031,11.6412490179,-1.03086430711,0.0620583263122,-0.0253609049661,0.0240298707838,0.00383600394174,25.0,0.00230154196664,-25.0,-0.0,25.0,-0.0,-25.0,152929.107912,0.0,0.0,0.0,0.0,0.0,0.0
1403021023368573610,3,-11.829536424,-9.56012115774,22.6081619363,12.5835788608,12.1848939978,0.0,0.0204592638439,0.0,0.00579521251375,0.0,-0.0319419572659,0.0,-2.24575881507,0.0,-0.018102193284,0.0,-0.0100160706882,0.0,-0.00753443805602,0.0,0.0561075685917,-0.0,0.0034248854249,0.0,-0.0620583263122,0.0253609049661,-0.0240298707838,6.66778516031,11.6412490179,-1.03086430711,0.0620583263122,-0.0253609049661,0.0240298707838,0.00383600394174,25.0,0.00230154196664,-25.0,-0.0,25.0,-0.0,-25.0,152929.107912,0.0,0.0,0.0,0.0,0.0,0.0
1403021023388640601,3,-11.8232931063,-9.56012115774,22.6118542534,12.5835788608,12.1798131727,0.0,0.0205894987033,0.0,0.00983548282472,0.0,-0.0319103259758,0.0,-2.2465472257,0.0,-0.026439579251,0.0,-0.00969769982018,0.0,-0.00909753392075,0.0,0.0554309744368,-0.0,0.00795702198999,0.0,-0.0750822135654,0.0204646412581,-0.0353586324603,6.66778516031,11.6412490179,-1.03086430711,0.0750822135654,-0.0204646412581,0.0353586324603,0.00383600394174,25.0,0.00230154196664,-25.0,-0.0,25.0,-0.0,-25.0,152798.064484,0.0,0.0,0.0,0.0,0.0,0.0
1403021023408693146,3,-11.8232931063,-9.56012115774,22.6118542534,12.5835788608,12.1798131727,0.0,0.0205894987033,0.0,0.00983548282472,0.0,-0.0319103259758,0.0,-2.2465472257,0.0,-0.026439579251,0.0,-0.00969769982018,0.0,-0.00909753392075,0.0,0.0554309744368,-0.0,0.00795702198999,0.0,-0.0750822135654,0.0204646412581,-0.0353586324603,6.66778516031,11.6412490179,-1.03086430711,0.0750822135654,-0.0204646412581,0.0353586324603,0.00383600394174,25.0,0.00230154196664,-25.0,-0.0,25.0,-0.0,-25.0,152798.064484,0.0,0.0,0.0,0.0,0.0,0.0
1403021023428618593,3,-11.81976797,-9.56012115774,22.6128864019,12.5835788608,12.1673523329,0.0,0.00908157853582,0.0,0.00195489589602,0.0,-0.0333197273691,0.0,-2.2476233357,0.0,-0.0203000844229,0.0,-0.00958135240116,0.0,-0.00238501150304,0.0,0.0564042368845,-0.0,0.00316233199051,0.0,-0.0213631442876,0.0123552757725,-0.0271194571789,6.66778516031,11.6412490179,-1.03086430711,0.0213631442876,-0.0123552757725,0.0271194571789,0.00383600394174,25.0,0.00230154196664,-25.0,-0.0,25.0,-0.0,-25.0,153050.374147,0.0,0.0,0.0,0.0,0.0,0.0
1403021023448618926,3,-11.81976797,-9.56012115774,22.6128864019,12.5835788608,12.1673523329,0.0,0.00908157853582,0.0,0.00195489589602,0.0,-0.0333197273691,0.0,-2.2476233357,0.0,-0.0203000844229,0.0,-0.00958135240116,0.0,-0.00238501150304,0.0,0.0564042368845,-0.0,0.00316233199051,0.0,-0.0213631442876,0.0123552757725,-0.0271194571789,6.66778516031,11.6412490179,-1.03086430711,0.0213631442876,-0.0123552757725,0.0271194571789,0.00383600394174,25.0,0.00230154196664,-25.0,-0.0,25.0,-0.0,-25.0,153050.374147,0.0,0.0,0.0,0.0,0.0,0.0
1403021023468555730,3,-11.819555137,-9.56012115774,22.6128636081,12.5835788608,12.167075413,0.0,0.0081784287097,0.0,0.00270558072102,0.0,-0.0339178640583,0.0,-2.2478310671,0.0,-0.0242852540778,0.0,-0.00946819819885,0.0,-0.0122504640086,0.0,0.0563371675452,-0.0,-0.004658333855,0.0,-0.0213192843654,0.0100076245985,-0.0315332746827,6.66778516031,11.6412490179,-1.03086430711,0.0213192843654,-0.0100076245985,0.0315332746827,0.00383600394174,25.0,0.00230154196664,-25.0,-0.0,25.0,-0.0,-25.0,153027.989306,0.0,0.0,0.0,0.0,0.0,0.0
1403021023488593836,3,-11.819555137,-9.56012115774,22.6128636081,12.5835788608,12.167075413,0.0,0.0081784287097,0.0,0.00270558072102,0.0,-0.0339178640583,0.0,-2.2478310671,0.0,-0.0242852540778,0.0,-0.00946819819885,0.0,-0.0122504640086,0.0,0.0563371675452,-0.0,-0.004658333855,0.0,-0.0213192843654,0.0100076245985,-0.0315332746827,6.66778516031,11.6412490179,-1.03086430711,0.0213192843654,-0.0100076245985,0.0315332746827,0.00383600394174,25.0,0.00230154196664,-25.0,-0.0,25.0,-0.0,-25.0,153027.989306,0.0,0.0,0.0,0.0,0.0,0.0
1403021023508609268,3,-11.811754388,-9.56012115774,22.6127426926,12.5835788608,12.1709055758,0.0,0.0180534422408,0.0,0.00565380104036,0.0,-0.0329007588771,0.0,-2.24936292261,0.0,-0.0337742093589,0.0,-0.0095459182921,0.0,-0.0108804259744,0.0,0.0549679587626,-0.0,-0.0075363155747,0.0,-0.0557108049911,0.0216534350475,-0.0440390371418,6.66778516031,11.6412490179,-1.03086430711,0.0557108049911,-0.0216534350475,0.0440390371418,0.00383600394174,25.0,0.00230154196664,-25.0,-0.0,25.0,-0.0,-25.0,152949.119053,0.0,0.0,0.0,0.0,0.0,0.0
1403021023528748666,3,-11.811754388,-9.56012115774,22.6127426926,12.5835788608,12.1709055758,0.0,0.0180534422408,0.0,0.00565380104036,0.0,-0.0329007588771,0.0,-2.24936292261,0.0,-0.0337742093589,0.0,-0.0095459182921,0.0,-0.0108804259744,0.0,0.0549679587626,-0.0,-0.0075363155747,0.0,-0.0557108049911,0.0216534350475,-0.0440390371418,6.66778516031,11.6412490179,-1.03086430711,0.0557108049911,-0.0216534350475,0.0440390371418,0.00383600394174,25.0,0.00230154196664,-25.0,-0.0,25.0,-0.0,-25.0,152949.119053,0.0,0.0,0.0,0.0,0.0,0.0
1403021023548923754,3,-11.8111555841,-9.56012115774,22.612972664,12.5835788608,12.1694969533,0.0,0.0177347386015,0.0,0.00508310174914,0.0,-0.033532517926,0.0,-2.25043125242,0.0,-0.0317180533713,0.0,-0.00919744578959,0.0,-0.00650798256865,0.0,0.0548969870104,-0.0,-0.00865280624902,0.0,-0.0530553542102,0.0218289197705,-0.041390718431,6.66778516031,11.6412490179,-1.03086430711,0.0530553542102,-0.0218289197705,0.041390718431,0.00383600394174,25.0,0.00230154196664,-25.0,-0.0,25.0,-0.0,-25.0,152965.884114,0.0,0.0,0.0,0.0,0.0,0.0
1403021023568545496,3,-11.8111555841,-9.56012115774,22.612972664,12.5835788608,12.1694969533,0.0,0.0177347386015,0.0,0.00508310174914,0.0,-0.033532517926,0.0,-2.25043125242,0.0,-0.0317180533713,0.0,-0.00919744578959,0.0,-0.00650798256865,0.0,0.0548969870104,-0.0,-0.00865280624902,0.0,-0.0530553542102,0.0218289197705,-0.041390718431,6.66778516031,11.6412490179,-1.03086430711,0.0530553542102,-0.0218289197705,0.041390718431,0.00383600394174,25.0,0.00230154196664,-25.0,-0.0,25.0,-0.0,-25.0,152965.884114,0.0,0.0,0.0,0.0,0.0,0.0
1403021023588682025,3,-11.806766188,-9.56012115774,22.6152973368,12.5835788608,12.1699207936,0.0,0.0217028583703,0.0,0.0116696022702,0.0,-0.0330042294238,0.0,-2.25152523411,0.0,-0.0328185644246,0.0,-0.00829623897016,0.0,-0.00116719877542,0.0,0.0540512078759,-0.0,0.00215133895969,0.0,-0.0836892397887,0.0196089782014,-0.0437446970342,6.66778516031,11.6412490179,-1.03086430711,0.0836892397887,-0.0196089782014,0.0437446970342,0.00383600394174,25.0,0.00230154196664,-25.0,-0.0,25.0,-0.0,-25.0,152740.356404,0.0,0.0,0.0,0.0,0.0,0.0
1403021023608543427,3,-11.806766188,-9.56012115774,22.6152973368,12.5835788608,12.1699207936,0.0,0.0217028583703,0.0,0.0116696022702,0.0,-0.0330042294238,0.0,-2.25152523411,0.0,-0.0328185644246,0.0,-0.00829623897016,0.0,-0.00116719877542,0.0,0.0540512078759,-0.0,0.00215133895969,0.0,-0.0836892397887,0.0196089782014,-0.0437446970342,6.66778516031,11.6412490179,-1.03086430711,0.0836892397887,-0.0196089782014,0.0437446970342,0.00383600394174,25.0,0.00230154196664,-25.0,-0.0,25.0,-0.0,-25.0,152740.356404,0.0,0.0,0.0,0.0,0.0,0.0
1403021023628716679,3,-11.8103275015,-9.56012115774,22.6094514246,12.5835788608,12.168391313,0.0,0.00723230870334,0.0,-0.00468821573367,0.0,-0.0323513833236,0.0,-2.25306722201,0.0,-0.0379002803451,0.0,-0.00816127646187,0.0,0.00172732140907,0.0,0.0563535581257,-0.0,-0.00842313491696,0.0,0.00362352116977,0.0176664743811,-0.0499240511284,6.66778516031,11.6412490179,-1.03086430711,-0.00362352116977,-0.0176664743811,0.0499240511284,0.00383600394174,25.0,0.00230154196664,-25.0,-0.0,25.0,-0.0,-25.0,153303.053863,0.0,0.0,0.0,0.0,0.0,0.0
1403021023648635362,3,-11.8103275015,-9.56012115774,22.6094514246,12.5835788608,12.168391313,0.0,0.00723230870334,0.0,-0.00468821573367,0.0,-0.0323513833236,0.0,-2.25306722201,0.0,-0.0379002803451,0.0,-0.00816127646187,0.0,0.00172732140907,0.0,0.0563535581257,-0.0,-0.00842313491696,0.0,0.00362352116977,0.0176664743811,-0.0499240511284,6.66778516031,11.6412490179,-1.03086430711,-0.00362352116977,-0.0176664743811,0.0499240511284,0.00383600394174,25.0,0.00230154196664,-25.0,-0.0,25.0,-0.0,-25.0,153303.053863,0.0,0.0,0.0,0.0,0.0,0.0
1403021023668824324,3,-11.807695158,-9.56012115774,22.6096408197,12.5835788608,12.163596698,0.0,0.00541611715468,0.0,-0.0053391676139,0.0,-0.0353989661438,0.0,-2.25442601529,0.0,-0.0371811997792,0.0,-0.00756563258945,0.0,0.00185119526683,0.0,0.0565557947171,-0.0,-0.00515391269584,0.0,0.0109167452135,0.0156763499122,-0.0491883758586,6.66778516031,11.6412490179,-1.03086430711,-0.0109167452135,-0.0156763499122,0.0491883758586,0.00383600394174,25.0,0.00230154196664,-25.0,-0.0,25.0,-0.0,-25.0,153327.740986,0.0,0.0,0.0,0.0,0.0,0.0
1403021023688545668,3,-11.807695158,-9.56012115774,22.6096408197,12.5835788608,12.163596698,0.0,0.00541611715468,0.0,-0.0053391676139,0.0,-0.0353989661438,0.0,-2.25442601529,0.0,-0.0371811997792,0.0,-0.00756563258945,0.0,0.00185119526683,0.0,0.0565557947171,-0.0,-0.00515391269584,0.0,0.0109167452135,0.0156763499122,-0.0491883758586,6.66778516031,11.6412490179,-1.03086430711,-0.0109167452135,-0.0156763499122,0.0491883758586,0.00383600394174,25.0,0.00230154196664,-25.0,-0.0,25.0,-0.0,-25.0,153327.740986,0.0,0.0,0.0,0.0,0.0,0.0
1403021023708581963,3,-11.8053570622,-9.56012115774,22.6094242401,12.5835788608,12.175659653,0.0,0.0122893531916,0.0,0.00599153124526,0.0,-0.0320297600093,0.0,-2.25582634368,0.0,-0.039891161023,0.0,-0.00684409832443,0.0,-0.0036286327744,0.0,0.054933804642,-0.0,-0.00785527379573,0.0,-0.0426576575544,0.0118989402974,-0.0524250949626,6.66778516031,11.6412490179,-1.03086430711,0.0426576575544,-0.0118989402974,0.0524250949626,0.00383600394174,25.0,0.00230154196664,-25.0,-0.0,25.0,-0.0,-25.0,152930.843846,0.0,0.0,0.0,0.0,0.0,0.0
1403021023728743400,3,-11.8053570622,-9.56012115774,22.6094242401,12.5835788608,12.175659653,0.0,0.0122893531916,0.0,0.00599153124526,0.0,-0.0320297600093,0.0,-2.25582634368,0.0,-0.039891161023,0.0,-0.00684409832443,0.0,-0.0036286327744,0.0,0.054933804642,-0.0,-0.00785527379573,0.0,-0.0426576575544,0.0118989402974,-0.0524250949626,6.66778516031,11.6412490179,-1.03086430711,0.0426576575544,-0.0118989402974,0.0524250949626,0.00383600394174,25.0,0.00230154196664,-25.0,-0.0,25.0,-0.0,-25.0,152930.843846,0.0,0.0,0.0,0.0,0.0,0.0
1403021023748664728,3,-11.804848331,-9.56012115774,22.6097602779,12.5835788608,12.1741386656,0.0,0.0133114040919,0.0,0.00593521107451,0.0,-0.0332034876356,0.0,-2.25739143401,0.0,-0.0415309000992,0.0,-0.00680324233627,0.0,0.00125833480904,0.0,0.0550355658885,-0.0,0.00599168851906,0.0,-0.0448362571376,0.0135261109799,-0.0556618742505,6.66778516031,11.6412490179,-1.03086430711,0.0448362571376,-0.0135261109799,0.0556618742505,0.00383600394174,25.0,0.00230154196664,-25.0,-0.0,25.0,-0.0,-25.0,152938.887311,0.0,0.0,0.0,0.0,0.0,0.0
1403021023768631949,3,-11.8055935269,-9.56012115774,22.6081764645,12.5835788608,12.1644478147,0.0,-0.000834777095314,0.0,-0.00460017763891,0.0,-0.0354343099774,0.0,-2.25795046034,0.0,-0.0424435354232,0.0,-0.00653895766248,0.0,0.00457605200111,0.0,0.0569728814091,-0.0,-0.00600141274264,0.0,0.0244691041146,0.00500500681933,-0.0562503911608,6.66778516031,11.6412490179,-1.03086430711,-0.0244691041146,-0.00500500681933,0.0562503911608,0.00383600394174,25.0,0.00230154196664,-25.0,-0.0,25.0,-0.0,-25.0,153301.659158,0.0,0.0,0.0,0.0,0.0,0.0
1403021023788742734,3,-11.8056532707,-9.56012115774,22.608187014,12.5835788608,12.1639724479,0.0,-0.00124601106269,0.0,-0.00380581582462,0.0,-0.0365661299619,0.0,-2.25833046412,0.0,-0.0411249536471,0.0,-0.00649421065249,0.0,-0.00141750477189,0.0,0.0569904075887,-0.0,-0.00461507718104,0.0,0.0233140471767,0.00337606806995,-0.0543377278704,6.66778516031,11.6412490179,-1.03086430711,-0.0233140471767,-0.00337606806995,0.0543377278704,0.00383600394174,25.0,0.00230154196664,-25.0,-0.0,25.0,-0.0,-25.0,153272.882727,0.0,0.0,0.0,0.0,0.0,0.0
1403021023808667418,3,-11.8056532707,-9.56012115774,22.608187014,12.5835788608,12.1639724479,0.0,-0.00124601106269,0.0,-0.00380581582462,0.0,-0.0365661299619,0.0,-2.25833046412,0.0,-0.0411249536471,0.0,-0.00649421065249,0.0,-0.00141750477189,0.0,0.0569904075887,-0.0,-0.00461507718104,0.0,0.0233140471767,0.00337606806995,-0.0543377278704,6.66778516031,11.6412490179,-1.03086430711,-0.0233140471767,-0.00337606806995,0.0543377278704,0.00383600394174,25.0,0.00230154196664,-25.0,-0.0,25.0,-0.0,-25.0,153272.882727,0.0,0.0,0.0,0.0,0.0,0.0
1403021023828590969,3,-11.8007852047,-9.56012115774,22.60912209,12.5835788608,12.1634979477,0.0,0.00461828182133,0.0,-0.000352277842735,0.0,-0.0359754542086,0.0,-2.26007858559,0.0,-0.0439919428562,0.0,-0.00669038776142,0.0,0.0041297275518,0.0,0.0564568568232,-0.0,-0.00112484836424,0.0,-0.00253539104926,0.00805841848108,-0.0586043800955,6.66778516031,11.6412490179,-1.03086430711,0.00253539104926,-0.00805841848108,0.0586043800955,0.00383600394174,25.0,0.00230154196664,-25.0,-0.0,25.0,-0.0,-25.0,153159.430127,0.0,0.0,0.0,0.0,0.0,0.0
1403021023848638061,3,-11.8008983189,-9.56012115774,22.6089684039,12.5835788608,12.1630301579,0.0,0.00377921296859,0.0,-0.000327984213176,0.0,-0.0361012253467,0.0,-2.26085192641,0.0,-0.0435245819642,0.0,-0.00668970245749,0.0,0.00133382733283,0.0,0.0565202116318,-0.0,-0.00573684869933,0.0,-0.000442087434667,0.00673044014118,-0.0575744746594,6.66778516031,11.6412490179,-1.03086430711,0.000442087434667,-0.00673044014118,0.0575744746594,0.00383600394174,25.0,0.00230154196664,-25.0,-0.0,25.0,-0.0,-25.0,153156.794044,0.0,0.0,0.0,0.0,0.0,0.0
1403021023868557816,3,-11.8007028754,-9.56012115774,22.6090153057,12.5835788608,12.1617344936,0.0,0.00431982189774,0.0,-0.00174467574604,0.0,-0.0359962207387,0.0,-2.26230667446,0.0,-0.051218024815,0.0,-0.00674366713358,0.0,0.00633660080028,0.0,0.056672334604,-0.0,-0.000982434744175,0.0,0.00253231436091,0.00936572701659,-0.0683147609675,6.66778516031,11.6412490179,-1.03086430711,-0.00253231436091,-0.00936572701659,0.0683147609675,0.00383600394174,25.0,0.00230154196664,-25.0,-0.0,25.0,-0.0,-25.0,153219.076885,0.0,0.0,0.0,0.0,0.0,0.0
1403021023888633595,3,-11.8005727025,-9.56012115774,22.6091519135,12.5835788608,12.1610503377,0.0,0.00443390220898,0.0,-0.0015236484658,0.0,-0.0367798577277,0.0,-2.26281588527,0.0,-0.0485324017563,0.0,-0.00682325360584,0.0,0.0056292802886,0.0,0.0566861417912,-0.0,0.00471914701195,0.0,0.00172906632041,0.00927448806036,-0.065077950133,6.66778516031,11.6412490179,-1.03086430711,-0.00172906632041,-0.00927448806036,0.065077950133,0.00383600394174,25.0,0.00230154196664,-25.0,-0.0,25.0,-0.0,-25.0,153209.103707,0.0,0.0,0.0,0.0,0.0,0.0
1403021023908548935,3,-11.8014212796,-9.56012115774,22.6076613616,12.5835788608,12.1661274229,0.0,-0.00195228956424,0.0,0.000166233832499,0.0,-0.0330192064966,0.0,-2.2642516653,0.0,-0.0472512390635,0.0,-0.00654662842013,0.0,0.00428188233326,0.0,0.0568641212981,-0.0,0.00460215905424,0.0,0.0120267304451,-0.00278443545128,-0.0633123780837,6.66778516031,11.6412490179,-1.03086430711,-0.0120267304451,0.00278443545128,0.0633123780837,0.00383600394174,25.0,0.00230154196664,-25.0,-0.0,25.0,-0.0,-25.0,153135.483676,0.0,0.0,0.0,0.0,0.0,0.0
1403021023928722447,3,-11.8014329849,-9.56012115774,22.6076504544,12.5835788608,12.1658411413,0.0,-0.00248250857907,0.0,0.00031009776825,0.0,-0.0327051473395,0.0,-2.26470028119,0.0,-0.0472050720285,0.0,-0.00662045438727,0.0,0.0069407535643,0.0,0.0568922210428,-0.0,0.00382734326401,0.0,0.0128772362355,-0.00378210572641,-0.0633123718293,6.66778516031,11.6412490179,-1.03086430711,-0.0128772362355,0.00378210572641,0.0633123718293,0.00383600394174,25.0,0.00230154196664,-25.0,-0.0,25.0,-0.0,-25.0,153129.554397,0.0,0.0,0.0,0.0,0.0,0.0
1403021023948571406,3,-11.7961779869,-9.56012115774,22.6110722753,12.5835788608,12.1558815945,0.0,-0.00279305304821,0.0,0.00113635703288,0.0,-0.0344960535695,0.0,-2.26625726338,0.0,-0.0540308766188,0.0,-0.00681675308846,0.0,0.0164051179251,0.0,0.0569851569763,-0.0,0.0121417729126,0.0,0.0115673189401,-0.00527604112202,-0.0733170030227,6.66778516031,11.6412490179,-1.03086430711,-0.0115673189401,0.00527604112202,0.0733170030227,0.00383600394174,25.0,0.00230154196664,-25.0,-0.0,25.0,-0.0,-25.0,153114.416512,0.0,0.0,0.0,0.0,0.0,0.0
1403021023968638345,3,-11.7962450905,-9.56012115774,22.6110645605,12.5835788608,12.1555475985,0.0,-0.00362206868275,0.0,0.000986981559988,0.0,-0.0333153067769,0.0,-2.26681979412,0.0,-0.0581398238461,0.0,-0.00696116078479,0.0,0.0173298198229,0.0,0.0570896988676,-0.0,0.00432702054744,0.0,0.0139068620039,-0.00636279476741,-0.0783193306773,6.66778516031,11.6412490179,-1.03086430711,-0.0139068620039,0.00636279476741,0.0783193306773,0.00383600394174,25.0,0.00230154196664,-25.0,-0.0,25.0,-0.0,-25.0,153122.937024,0.0,0.0,0.0,0.0,0.0,0.0
1403021023988597483,3,-11.7963052292,-9.56012115774,22.611025073,12.5835788608,12.1552918979,0.0,-0.00423020908934,0.0,0.00153231560897,0.0,-0.0346785650027,0.0,-2.26740756795,0.0,-0.0552958161936,0.0,-0.00708657511143,0.0,0.0120069489715,0.0,0.0571563343533,-0.0,0.0048145545992,0.0,0.0141237461927,-0.00796598850897,-0.0743468828988,6.66778516031,11.6412490179,-1.03086430711,-0.0141237461927,0.00796598850897,0.0743468828988,0.00383600394174,25.0,0.00230154196664,-25.0,-0.0,25.0,-0.0,-25.0,153101.336226,0.0,0.0,0.0,0.0,0.0,0.0
1403021024008700271,3,-11.7941677126,-9.56012115774,22.6058069186,12.5835788608,12.1645730189,0.0,0.00192315702607,0.0,-0.00559113976396,0.0,-0.0317127418956,0.0,-2.26976979185,0.0,-0.056831033297,0.0,-0.0087220148748,0.0,0.0116062407375,0.0,0.057386887312,-0.0,0.00772168633521,0.0,0.0194958756958,0.0106882547107,-0.0765537645148,6.66778516031,11.6412490179,-1.03086430711,-0.0194958756958,-0.0106882547107,0.0765537645148,0.00383600394174,25.0,0.00230154196664,-25.0,-0.0,25.0,-0.0,-25.0,153356.872322,0.0,0.0,0.0,0.0,0.0,0.0
1403021024028631099,3,-11.7941677126,-9.56012115774,22.6058069186,12.5835788608,12.1645730189,0.0,0.00192315702607,0.0,-0.00559113976396,0.0,-0.0317127418956,0.0,-2.26976979185,0.0,-0.056831033297,0.0,-0.0087220148748,0.0,0.0116062407375,0.0,0.057386887312,-0.0,0.00772168633521,0.0,0.0194958756958,0.0106882547107,-0.0765537645148,6.66778516031,11.6412490179,-1.03086430711,-0.0194958756958,-0.0106882547107,0.0765537645148,0.00383600394174,25.0,0.00230154196664,-25.0,-0.0,25.0,-0.0,-25.0,153356.872322,0.0,0.0,0.0,0.0,0.0,0.0
1403021024048644362,3,-11.790676111,-9.56012115774,22.6064123007,12.5835788608,12.1641800414,0.0,0.00388471921161,0.0,-0.00445209031865,0.0,-0.0316702766777,0.0,-2.27032755955,0.0,-0.0555394311506,0.0,-0.0089760516691,0.0,0.017366474078,0.0,0.0571536606228,-0.0,0.0102759703762,0.0,0.0108950264384,0.012243990848,-0.0752295945176,6.66778516031,11.6412490179,-1.03086430711,-0.0108950264384,-0.012243990848,0.0752295945176,0.00383600394174,25.0,0.00230154196664,-25.0,-0.0,25.0,-0.0,-25.0,153316.05603,0.0,0.0,0.0,0.0,0.0,0.0
1403021024068564344,3,-11.790676111,-9.56012115774,22.6064123007,12.5835788608,12.1641800414,0.0,0.00388471921161,0.0,-0.00445209031865,0.0,-0.0316702766777,0.0,-2.27032755955,0.0,-0.0555394311506,0.0,-0.0089760516691,0.0,0.017366474078,0.0,0.0571536606228,-0.0,0.0102759703762,0.0,0.0108950264384,0.012243990848,-0.0752295945176,6.66778516031,11.6412490179,-1.03086430711,-0.0108950264384,-0.012243990848,0.0752295945176,0.00383600394174,25.0,0.00230154196664,-25.0,-0.0,25.0,-0.0,-25.0,153316.05603,0.0,0.0,0.0,0.0,0.0,0.0
1403021024088592079,3,-11.7892512646,-9.56012115774,22.6101450258,12.5835788608,12.1514174047,0.0,-0.00766344277389,0.0,0.000220814463388,0.0,-0.0349114867327,0.0,-2.27387034296,0.0,-0.0597520146122,0.0,-0.00845631269115,0.0,0.00785617408351,0.0,0.057599572459,-0.0,0.00458979609634,0.0,0.027240861028,-0.0113925563168,-0.0800847459177,6.66778516031,11.6412490179,-1.03086430711,-0.027240861028,0.0113925563168,0.0800847459177,0.00383600394174,25.0,0.00230154196664,-25.0,-0.0,25.0,-0.0,-25.0,153155.571271,0.0,0.0,0.0,0.0,0.0,0.0
1403021024108547481,3,-11.7892512646,-9.56012115774,22.6101450258,12.5835788608,12.1514174047,0.0,-0.00766344277389,0.0,0.000220814463388,0.0,-0.0349114867327,0.0,-2.27387034296,0.0,-0.0597520146122,0.0,-0.00845631269115,0.0,0.00785617408351,0.0,0.057599572459,-0.0,0.00458979609634,0.0,0.027240861028,-0.0113925563168,-0.0800847459177,6.66778516031,11.6412490179,-1.03086430711,-0.027240861028,0.0113925563168,0.0800847459177,0.00383600394174,25.0,0.00230154196664,-25.0,-0.0,25.0,-0.0,-25.0,153155.571271,0.0,0.0,0.0,0.0,0.0,0.0
1403021024128767696,3,-11.7827786234,-9.56012115774,22.6067551146,12.5835788608,12.1524818413,0.0,0.00575169208236,0.0,-0.00861667669904,0.0,-0.0345922023853,0.0,-2.27642682544,0.0,-0.0605389166177,0.0,-0.0108262344425,0.0,0.00942172356333,0.0,0.0575990106335,-0.0,0.00577663471419,0.0,0.0193321112958,0.0206755331346,-0.0812617418859,6.66778516031,11.6412490179,-1.03086430711,-0.0193321112958,-0.0206755331346,0.0812617418859,0.00383600394174,25.0,0.00230154196664,-25.0,-0.0,25.0,-0.0,-25.0,153477.422993,0.0,0.0,0.0,0.0,0.0,0.0
1403021024148681054,3,-11.7827786234,-9.56012115774,22.6067551146,12.5835788608,12.1524818413,0.0,0.00575169208236,0.0,-0.00861667669904,0.0,-0.0345922023853,0.0,-2.27642682544,0.0,-0.0605389166177,0.0,-0.0108262344425,0.0,0.00942172356333,0.0,0.0575990106335,-0.0,0.00577663471419,0.0,0.0193321112958,0.0206755331346,-0.0812617418859,6.66778516031,11.6412490179,-1.03086430711,-0.0193321112958,-0.0206755331346,0.0812617418859,0.00383600394174,25.0,0.00230154196664,-25.0,-0.0,25.0,-0.0,-25.0,153477.422993,0.0,0.0,0.0,0.0,0.0,0.0
1403021024168616696,3,-11.7888093115,-9.56012115774,22.6025163803,12.5835788608,12.1636784177,0.0,-0.00425186673054,0.0,-0.00848284293683,0.0,-0.0305064285612,0.0,-2.27887504467,0.0,-0.0620806676371,0.0,-0.0101714193673,0.0,0.0116666944368,0.0,0.0581246781812,-0.0,0.00662534188244,0.0,0.0439689871029,0.00518293151823,-0.0834686103389,6.66778516031,11.6412490179,-1.03086430711,-0.0439689871029,-0.00518293151823,0.0834686103389,0.00383600394174,25.0,0.00230154196664,-25.0,-0.0,25.0,-0.0,-25.0,153464.379369,0.0,0.0,0.0,0.0,0.0,0.0
1403021024188573624,3,-11.7888093115,-9.56012115774,22.6025163803,12.5835788608,12.1636784177,0.0,-0.00425186673054,0.0,-0.00848284293683,0.0,-0.0305064285612,0.0,-2.27887504467,0.0,-0.0620806676371,0.0,-0.0101714193673,0.0,0.0116666944368,0.0,0.0581246781812,-0.0,0.00662534188244,0.0,0.0439689871029,0.00518293151823,-0.0834686103389,6.66778516031,11.6412490179,-1.03086430711,-0.0439689871029,-0.00518293151823,0.0834686103389,0.00383600394174,25.0,0.00230154196664,-25.0,-0.0,25.0,-0.0,-25.0,153464.379369,0.0,0.0,0.0,0.0,0.0,0.0
1403021024209168852,3,-11.7843928376,-9.56012115774,22.6058515062,12.5835788608,12.1581499278,0.0,-0.00219564170939,0.0,-0.00102293658269,0.0,-0.0296268756785,0.0,-2.28214054994,0.0,-0.0664992379863,0.0,-0.0101011716753,0.0,0.00308139913194,0.0,0.0572726029758,-0.0,-0.0101210645166,0.0,0.0156611648412,-0.00139558894416,-0.0878823967656,6.66778516031,11.6412490179,-1.03086430711,-0.0156611648412,0.00139558894416,0.0878823967656,0.00383600394174,25.0,0.00230154196664,-25.0,-0.0,25.0,-0.0,-25.0,153203.118408,0.0,0.0,0.0,0.0,0.0,0.0
1403021024228605353,3,-11.7843928376,-9.56012115774,22.6058515062,12.5835788608,12.1581499278,0.0,-0.00219564170939,0.0,-0.00102293658269,0.0,-0.0296268756785,0.0,-2.28214054994,0.0,-0.0664992379863,0.0,-0.0101011716753,0.0,0.00308139913194,0.0,0.0572726029758,-0.0,-0.0101210645166,0.0,0.0156611648412,-0.00139558894416,-0.0878823967656,6.66778516031,11.6412490179,-1.03086430711,-0.0156611648412,0.00139558894416,0.0878823967656,0.00383600394174,25.0,0.00230154196664,-25.0,-0.0,25.0,-0.0,-25.0,153203.118408,0.0,0.0,0.0,0.0,0.0,0.0
1403021024248642076,3,-11.784379293,-9.56012115774,22.6056690186,12.5835788608,12.1581499422,0.0,-0.00119114834192,0.0,-0.00143330035089,0.0,-0.0296246941212,0.0,-2.28279385351,0.0,-0.0678875180851,0.0,-0.0101394174096,0.0,0.0048233002738,0.0,0.0573025672365,-0.0,0.000896854962941,0.0,0.0142823436571,0.000666938757886,-0.0905306848487,6.66778516031,11.6412490179,-1.03086430711,-0.0142823436571,-0.000666938757886,0.0905306848487,0.00383600394174,25.0,0.00230154196664,-25.0,-0.0,25.0,-0.0,-25.0,153220.879999,0.0,0.0,0.0,0.0,0.0,0.0
1403021024268545087,3,-11.784379293,-9.56012115774,22.6056690186,12.5835788608,12.1581499422,0.0,-0.00119114834192,0.0,-0.00143330035089,0.0,-0.0296246941212,0.0,-2.28279385351,0.0,-0.0678875180851,0.0,-0.0101394174096,0.0,0.0048233002738,0.0,0.0573025672365,-0.0,0.000896854962941,0.0,0.0142823436571,0.000666938757886,-0.0905306848487,6.66778516031,11.6412490179,-1.03086430711,-0.0142823436571,-0.000666938757886,0.0905306848487,0.00383600394174,25.0,0.00230154196664,-25.0,-0.0,25.0,-0.0,-25.0,153220.879999,0.0,0.0,0.0,0.0,0.0,0.0
1403021024288585570,3,-11.7787492424,-9.56012115774,22.609289619,12.5835788608,12.1465150967,0.0,-0.000704408664952,0.0,-0.00022800246859,0.0,-0.030750546126,0.0,-2.28674789124,0.0,-0.0696831231712,0.0,-0.00997007963559,0.0,0.00263631684527,0.0,0.0573805702202,-0.0,-0.00719053195783,0.0,0.0096262741315,-0.000152152726977,-0.0922961725747,6.66778516031,11.6412490179,-1.03086430711,-0.0096262741315,0.000152152726977,0.0922961725747,0.00383600394174,25.0,0.00230154196664,-25.0,-0.0,25.0,-0.0,-25.0,153182.224576,0.0,0.0,0.0,0.0,0.0,0.0
1403021024308582703,3,-11.7787492424,-9.56012115774,22.609289619,12.5835788608,12.1465150967,0.0,-0.000704408664952,0.0,-0.00022800246859,0.0,-0.030750546126,0.0,-2.28674789124,0.0,-0.0696831231712,0.0,-0.00997007963559,0.0,0.00263631684527,0.0,0.0573805702202,-0.0,-0.00719053195783,0.0,0.0096262741315,-0.000152152726977,-0.0922961725747,6.66778516031,11.6412490179,-1.03086430711,-0.0096262741315,0.000152152726977,0.0922961725747,0.00383600394174,25.0,0.00230154196664,-25.0,-0.0,25.0,-0.0,-25.0,153182.224576,0.0,0.0,0.0,0.0,0.0,0.0
1403021024328796720,3,-11.7784935181,-9.56012115774,22.6086628613,12.5835788608,12.1460917719,0.0,-0.00407813734932,0.0,-0.0024149465195,0.0,-0.0285571625329,0.0,-2.28940709074,0.0,-0.0676259718304,0.0,-0.00994848969131,0.0,0.0052774123215,0.0,0.05776550603,-0.0,-0.000828126878307,0.0,0.0246574286419,-0.00239747123339,-0.0900892293411,6.66778516031,11.6412490179,-1.03086430711,-0.0246574286419,0.00239747123339,0.0900892293411,0.00383600394174,25.0,0.00230154196664,-25.0,-0.0,25.0,-0.0,-25.0,153254.094981,0.0,0.0,0.0,0.0,0.0,0.0
1403021024348813111,3,-11.7784935181,-9.56012115774,22.6086628613,12.5835788608,12.1460917719,0.0,-0.00407813734932,0.0,-0.0024149465195,0.0,-0.0285571625329,0.0,-2.28940709074,0.0,-0.0676259718304,0.0,-0.00994848969131,0.0,0.0052774123215,0.0,0.05776550603,-0.0,-0.000828126878307,0.0,0.0246574286419,-0.00239747123339,-0.0900892293411,6.66778516031,11.6412490179,-1.03086430711,-0.0246574286419,0.00239747123339,0.0900892293411,0.00383600394174,25.0,0.00230154196664,-25.0,-0.0,25.0,-0.0,-25.0,153254.094981,0.0,0.0,0.0,0.0,0.0,0.0
1403021024368566938,3,-11.7802178654,-9.56012115774,22.6066565178,12.5835788608,12.1559163848,0.0,-0.0043831396897,0.0,0.000963200774279,0.0,-0.0252273320351,0.0,-2.29212810478,0.0,-0.0694315081971,0.0,-0.00950188113936,0.0,-0.00689968097458,0.0,0.0572773203932,-0.0,-0.00300632569647,0.0,0.0145028844431,-0.00737838902885,-0.0918547275398,6.66778516031,11.6412490179,-1.03086430711,-0.0145028844431,0.00737838902885,0.0918547275398,0.00383600394174,25.0,0.00230154196664,-25.0,-0.0,25.0,-0.0,-25.0,153130.208676,0.0,0.0,0.0,0.0,0.0,0.0
1403021024388668334,3,-11.7802178654,-9.56012115774,22.6066565178,12.5835788608,12.1559163848,0.0,-0.0043831396897,0.0,0.000963200774279,0.0,-0.0252273320351,0.0,-2.29212810478,0.0,-0.0694315081971,0.0,-0.00950188113936,0.0,-0.00689968097458,0.0,0.0572773203932,-0.0,-0.00300632569647,0.0,0.0145028844431,-0.00737838902885,-0.0918547275398,6.66778516031,11.6412490179,-1.03086430711,-0.0145028844431,0.00737838902885,0.0918547275398,0.00383600394174,25.0,0.00230154196664,-25.0,-0.0,25.0,-0.0,-25.0,153130.208676,0.0,0.0,0.0,0.0,0.0,0.0
1403021024408626323,3,-11.7857882469,-9.56012115774,22.6007948462,12.5835788608,12.1651945425,0.0,-0.0117016209939,0.0,-0.00597200717894,0.0,-0.021871567746,0.0,-2.29485184146,0.0,-0.069491038511,0.0,-0.00932171447212,0.0,-0.00966020781798,0.0,0.0581792910538,-0.0,-0.00445340709996,0.0,0.0540104027914,-0.00922568073923,-0.0917075670148,6.66778516031,11.6412490179,-1.03086430711,-0.0540104027914,0.00922568073923,0.0917075670148,0.00383600394174,25.0,0.00230154196664,-25.0,-0.0,25.0,-0.0,-25.0,153373.33506,0.0,0.0,0.0,0.0,0.0,0.0
1403021024428529138,3,-11.7857882469,-9.56012115774,22.6007948462,12.5835788608,12.1651945425,0.0,-0.0117016209939,0.0,-0.00597200717894,0.0,-0.021871567746,0.0,-2.29485184146,0.0,-0.069491038511,0.0,-0.00932171447212,0.0,-0.00966020781798,0.0,0.0581792910538,-0.0,-0.00445340709996,0.0,0.0540104027914,-0.00922568073923,-0.0917075670148,6.66778516031,11.6412490179,-1.03086430711,-0.0540104027914,0.00922568073923,0.0917075670148,0.00383600394174,25.0,0.00230154196664,-25.0,-0.0,25.0,-0.0,-25.0,153373.33506,0.0,0.0,0.0,0.0,0.0,0.0
1403021024449459536,3,-11.7895709285,-9.56012115774,22.6016859603,12.5835788608,12.1685787129,0.0,-0.0174371386527,0.0,0.00188988900148,0.0,-0.0212747349665,0.0,-2.29785748782,0.0,-0.0774578452381,0.0,-0.0078177622522,0.0,-0.00979413798698,0.0,0.0575893573585,-0.0,-0.00212820024833,0.0,0.0456498200826,-0.0282441843886,-0.102447839384,6.66778516031,11.6412490179,-1.03086430711,-0.0456498200826,0.0282441843886,0.102447839384,0.00383600394174,25.0,0.00230154196664,-25.0,-0.0,25.0,-0.0,-25.0,153108.24346,0.0,0.0,0.0,0.0,0.0,0.0
1403021024468820794,3,-11.7895709285,-9.56012115774,22.6016859603,12.5835788608,12.1685787129,0.0,-0.0174371386527,0.0,0.00188988900148,0.0,-0.0212747349665,0.0,-2.29785748782,0.0,-0.0774578452381,0.0,-0.0078177622522,0.0,-0.00979413798698,0.0,0.0575893573585,-0.0,-0.00212820024833,0.0,0.0456498200826,-0.0282441843886,-0.102447839384,6.66778516031,11.6412490179,-1.03086430711,-0.0456498200826,0.0282441843886,0.102447839384,0.00383600394174,25.0,0.00230154196664,-25.0,-0.0,25.0,-0.0,-25.0,153108.24346,0.0,0.0,0.0,0.0,0.0,0.0
1403021024488778495,3,-11.7901711605,-9.56012115774,22.6018600968,12.5835788608,12.1674986151,0.0,-0.0187054172747,0.0,0.00124853137983,0.0,-0.0202508692239,0.0,-2.30083865901,0.0,-0.0798878046424,0.0,-0.00751255398715,0.0,-0.00588186246476,0.0,0.0575115477647,-0.0,-0.00468403384434,0.0,0.0508635855398,-0.0292472050784,-0.105684618592,6.66778516031,11.6412490179,-1.03086430711,-0.0508635855398,0.0292472050784,0.105684618592,0.00383600394174,25.0,0.00230154196664,-25.0,-0.0,25.0,-0.0,-25.0,153135.285266,0.0,0.0,0.0,0.0,0.0,0.0
1403021024508704811,3,-11.7845462311,-9.56012115774,22.603777823,12.5835788608,12.1694836317,0.0,-0.00639219761859,0.0,0.00654129820308,0.0,-0.0200345518834,0.0,-2.30160608443,0.0,-0.0784445283571,0.0,-0.00807420885202,0.0,-0.00449725929114,0.0,0.0562011632788,-0.0,0.00586070431499,0.0,0.00209752375306,-0.0179278199096,-0.104507593399,6.66778516031,11.6412490179,-1.03086430711,-0.00209752375306,0.0179278199096,0.104507593399,0.00383600394174,25.0,0.00230154196664,-25.0,-0.0,25.0,-0.0,-25.0,152939.000022,0.0,0.0,0.0,0.0,0.0,0.0
1403021024528758171,3,-11.7845462311,-9.56012115774,22.603777823,12.5835788608,12.1694836317,0.0,-0.00639219761859,0.0,0.00654129820308,0.0,-0.0200345518834,0.0,-2.30160608443,0.0,-0.0784445283571,0.0,-0.00807420885202,0.0,-0.00449725929114,0.0,0.0562011632788,-0.0,0.00586070431499,0.0,0.00209752375306,-0.0179278199096,-0.104507593399,6.66778516031,11.6412490179,-1.03086430711,-0.00209752375306,0.0179278199096,0.104507593399,0.00383600394174,25.0,0.00230154196664,-25.0,-0.0,25.0,-0.0,-25.0,152939.000022,0.0,0.0,0.0,0.0,0.0,0.0
1403021024548678894,3,-11.7843894636,-9.56012115774,22.6039302835,12.5835788608,12.16912642,0.0,-0.00609423671992,0.0,0.00610416239854,0.0,-0.0201461043788,0.0,-2.30239272833,0.0,-0.0812965466042,0.0,-0.00809483478059,0.0,-0.00255807542942,0.0,0.0561475292339,-0.0,0.00508047679098,0.0,0.0026534059014,-0.0168987914342,-0.108332901276,6.66778516031,11.6412490179,-1.03086430711,-0.0026534059014,0.0168987914342,0.108332901276,0.00383600394174,25.0,0.00230154196664,-25.0,-0.0,25.0,-0.0,-25.0,152959.019566,0.0,0.0,0.0,0.0,0.0,0.0
1403021024568642381,3,-11.7843894636,-9.56012115774,22.6039302835,12.5835788608,12.16912642,0.0,-0.00609423671992,0.0,0.00610416239854,0.0,-0.0201461043788,0.0,-2.30239272833,0.0,-0.0812965466042,0.0,-0.00809483478059,0.0,-0.00255807542942,0.0,0.0561475292339,-0.0,0.00508047679098,0.0,0.0026534059014,-0.0168987914342,-0.108332901276,6.66778516031,11.6412490179,-1.03086430711,-0.0026534059014,0.0168987914342,0.108332901276,0.00383600394174,25.0,0.00230154196664,-25.0,-0.0,25.0,-0.0,-25.0,152959.019566,0.0,0.0,0.0,0.0,0.0,0.0
1403021024588693715,3,-11.782839438,-9.56012115774,22.6052050979,12.5835788608,12.1640146489,0.0,-0.0089677075079,0.0,0.00435967051206,0.0,-0.0202414954729,0.0,-2.30724875454,0.0,-0.0825733623659,0.0,-0.00807573657198,0.0,-0.00307109519006,0.0,0.0561387090908,-0.0,0.00418307532915,0.0,0.0157581855776,-0.0188195221408,-0.109951266636,6.66778516031,11.6412490179,-1.03086430711,-0.0157581855776,0.0188195221408,0.109951266636,0.00383600394174,25.0,0.00230154196664,-25.0,-0.0,25.0,-0.0,-25.0,153026.039607,0.0,0.0,0.0,0.0,0.0,0.0
1403021024608618985,3,-11.782839438,-9.56012115774,22.6052050979,12.5835788608,12.1640146489,0.0,-0.0089677075079,0.0,0.00435967051206,0.0,-0.0202414954729,0.0,-2.30724875454,0.0,-0.0825733623659,0.0,-0.00807573657198,0.0,-0.00307109519006,0.0,0.0561387090908,-0.0,0.00418307532915,0.0,0.0157581855776,-0.0188195221408,-0.109951266636,6.66778516031,11.6412490179,-1.03086430711,-0.0157581855776,0.0188195221408,0.109951266636,0.00383600394174,25.0,0.00230154196664,-25.0,-0.0,25.0,-0.0,-25.0,153026.039607,0.0,0.0,0.0,0.0,0.0,0.0
1403021024628685117,3,-11.7788914136,-9.56012115774,22.6061890553,12.5835788608,12.1602833274,0.0,-0.00255659555279,0.0,0.00253256218235,0.0,-0.0216269834137,0.0,-2.31058629771,0.0,-0.0850868725478,0.0,-0.00875899124495,0.0,-0.00567051035029,0.0,0.0556506395002,-0.0,0.00177141607208,0.0,0.00424254521805,-0.00681253242719,-0.113040928306,6.66778516031,11.6412490179,-1.03086430711,-0.00424254521805,0.00681253242719,0.113040928306,0.00383600394174,25.0,0.00230154196664,-25.0,-0.0,25.0,-0.0,-25.0,153092.292613,0.0,0.0,0.0,0.0,0.0,0.0
1403021024648686845,3,-11.7788914136,-9.56012115774,22.6061890553,12.5835788608,12.1602833274,0.0,-0.00255659555279,0.0,0.00253256218235,0.0,-0.0216269834137,0.0,-2.31058629771,0.0,-0.0850868725478,0.0,-0.00875899124495,0.0,-0.00567051035029,0.0,0.0556506395002,-0.0,0.00177141607208,0.0,0.00424254521805,-0.00681253242719,-0.113040928306,6.66778516031,11.6412490179,-1.03086430711,-0.00424254521805,0.00681253242719,0.113040928306,0.00383600394174,25.0,0.00230154196664,-25.0,-0.0,25.0,-0.0,-25.0,153092.292613,0.0,0.0,0.0,0.0,0.0,0.0
1403021024668619920,3,-11.7901266163,-9.56012115774,22.5954547417,12.5835788608,12.1928523648,0.0,-0.00519408153132,0.0,0.00106567240507,0.0,-0.0144822061054,0.0,-2.31388252034,0.0,-0.0869033265237,0.0,-0.00844809532388,0.0,-0.00986018785764,0.0,0.0553457922566,-0.0,-0.00116366034206,0.0,0.0141596142758,-0.00884957839137,-0.115100688099,6.66778516031,11.6412490179,-1.03086430711,-0.0141596142758,0.00884957839137,0.115100688099,0.00383600394174,25.0,0.00230154196664,-25.0,-0.0,25.0,-0.0,-25.0,153137.16923,0.0,0.0,0.0,0.0,0.0,0.0
1403021024688536419,3,-11.7901266163,-9.56012115774,22.5954547417,12.5835788608,12.1928523648,0.0,-0.00519408153132,0.0,0.00106567240507,0.0,-0.0144822061054,0.0,-2.31388252034,0.0,-0.0869033265237,0.0,-0.00844809532388,0.0,-0.00986018785764,0.0,0.0553457922566,-0.0,-0.00116366034206,0.0,0.0141596142758,-0.00884957839137,-0.115100688099,6.66778516031,11.6412490179,-1.03086430711,-0.0141596142758,0.00884957839137,0.115100688099,0.00383600394174,25.0,0.00230154196664,-25.0,-0.0,25.0,-0.0,-25.0,153137.16923,0.0,0.0,0.0,0.0,0.0,0.0
1403021024708639841,3,-11.7835754199,-9.56012115774,22.5996702342,12.5835788608,12.1807097645,0.0,0.00101806725142,0.0,0.00155598210813,0.0,-0.0187019015121,0.0,-2.31739221478,0.0,-0.0900243782062,0.0,-0.00884054664582,0.0,-0.00937261046976,0.0,0.0545986782568,-0.0,-0.00701522371999,0.0,-0.0032549182423,-0.000286972808619,-0.118925989011,6.66778516031,11.6412490179,-1.03086430711,0.0032549182423,0.000286972808619,0.118925989011,0.00383600394174,25.0,0.00230154196664,-25.0,-0.0,25.0,-0.0,-25.0,153124.989204,0.0,0.0,0.0,0.0,0.0,0.0
1403021024728668463,3,-11.7835754199,-9.56012115774,22.5996702342,12.5835788608,12.1807097645,0.0,0.00101806725142,0.0,0.00155598210813,0.0,-0.0187019015121,0.0,-2.31739221478,0.0,-0.0900243782062,0.0,-0.00884054664582,0.0,-0.00937261046976,0.0,0.0545986782568,-0.0,-0.00701522371999,0.0,-0.0032549182423,-0.000286972808619,-0.118925989011,6.66778516031,11.6412490179,-1.03086430711,0.0032549182423,0.000286972808619,0.118925989011,0.00383600394174,25.0,0.00230154196664,-25.0,-0.0,25.0,-0.0,-25.0,153124.989204,0.0,0.0,0.0,0.0,0.0,0.0
1403021024748736943,3,-11.7833790218,-9.56012115774,22.5998317418,12.5835788608,12.1796976855,0.0,0.00246586886442,0.0,0.00105054877431,0.0,-0.0202208008829,0.0,-2.32088860097,0.0,-0.0843562859243,0.0,-0.00872579985091,0.0,0.00218345746703,0.0,0.0544676533608,-0.0,0.00990945084007,0.0,-0.00540352034911,0.00253045798844,-0.112893738831,6.66778516031,11.6412490179,-1.03086430711,0.00540352034911,-0.00253045798844,0.112893738831,0.00383600394174,25.0,0.00230154196664,-25.0,-0.0,25.0,-0.0,-25.0,153136.556034,0.0,0.0,0.0,0.0,0.0,0.0
1403021024768681710,3,-11.7833790218,-9.56012115774,22.5998317418,12.5835788608,12.1796976855,0.0,0.00246586886442,0.0,0.00105054877431,0.0,-0.0202208008829,0.0,-2.32088860097,0.0,-0.0843562859243,0.0,-0.00872579985091,0.0,0.00218345746703,0.0,0.0544676533608,-0.0,0.00990945084007,0.0,-0.00540352034911,0.00253045798844,-0.112893738831,6.66778516031,11.6412490179,-1.03086430711,0.00540352034911,-0.00253045798844,0.112893738831,0.00383600394174,25.0,0.00230154196664,-25.0,-0.0,25.0,-0.0,-25.0,153136.556034,0.0,0.0,0.0,0.0,0.0,0.0
