rosbagTimestamp,control_method,x_current,x_desired,y_current,y_desired,z_current,z_desired,x_velocity_current,x_velocity_desired,y_velocity_current,y_velocity_desired,z_velocity_current,z_velocity_desired,yaw_current,yaw_desired,yaw_velocity_current,yaw_velocity_desired,roll_current,roll_desired,roll_velocity_current,roll_velocity_desired,pitch_current,pitch_desired,pitch_velocity_current,pitch_velocity_desired,required_force_x,required_force_y,required_moment_z,resultant_force_x,resultant_force_y,resultant_moment_z,current_port_servo_angle,current_port_thruster_force,current_starboard_servo_angle,current_starboard_thruster_force,estimated_port_servo_angle,estimated_port_thruster_force,estimated_starboard_servo_angle,estimated_starboard_thruster_force,cost_value,step,user_defined_1,user_defined_2,user_defined_3,user_defined_4,user_defined_5
1402759861332577467,3,-7.88268909294,-7.1377884924,1.1040863916,2.38304939926,19.461070707,-3.84635974695,-0.0310329642205,0.0,-0.0152704475658,0.0,0.051675162004,0.0,-3.02076104168,0.0,0.00529346686071,0.0,0.00031647823872,0.0,-0.00771914148153,0.0,0.0716753142493,0.0,-0.00476270931398,0.0,-0.0,-0.0,0.592139422894,-2.0,-39.8371685741,35.8485263308,1.04412874381,0.0,-1.05026641687,0.0,1.0471975512,-25.0,-1.0471975512,21.0,1420536.4089,0.0,0.0,0.0,0.0,0.0,0.0
1402759861351583371,3,-7.87421644039,-7.1377884924,1.10695937976,2.38304939926,19.454745,-3.84635974695,-0.0355105103189,0.0,-0.017007569578,0.0,0.0541438775493,0.0,-3.02051658679,0.0,0.000797761168697,0.0,0.0005394030855,0.0,-0.00724155435573,0.0,0.0720409672927,0.0,-0.00326142254046,0.0,-0.0,-0.0,0.592139422894,-2.0,-39.8371685741,35.8485263308,1.04259428183,0.0,-1.05026641687,0.0,1.0471975512,-25.0,-1.0471975512,21.0,1420536.4089,0.0,0.0,0.0,0.0,0.0,0.0
1402759861371515412,3,-7.87421644039,-7.1377884924,1.10695937976,2.38304939926,19.454745,-3.84635974695,-0.0355105103189,0.0,-0.017007569578,0.0,0.0541438775493,0.0,-3.02051658679,0.0,0.000797761168697,0.0,0.0005394030855,0.0,-0.00724155435573,0.0,0.0720409672927,0.0,-0.00326142254046,0.0,-0.0,-0.0,0.592139422894,-2.0,-39.8371685741,35.8485263308,1.04259428183,0.0,-1.05026641687,0.0,1.0471975512,-25.0,-1.0471975512,21.0,1420536.4089,0.0,0.0,0.0,0.0,0.0,0.0
1402759861391747219,3,-7.87560630805,-7.1377884924,1.10632653834,2.38304939926,19.4567298736,-3.84635974695,-0.0353610151578,0.0,-0.0176481872269,0.0,0.0553421831743,0.0,-3.02048334255,0.0,-0.00236063719653,0.0,0.000750567732365,0.0,-0.00722609645679,0.0,0.0719322321789,0.0,0.00308004281575,0.0,-0.0,-0.0,0.592139422894,-2.0,-39.8371685741,35.8485263308,1.04412874381,0.0,-1.05026641687,0.0,1.0471975512,-25.0,-1.0471975512,21.0,1420536.4089,0.0,0.0,0.0,0.0,0.0,0.0
1402759861411586617,3,-7.87560630805,-7.1377884924,1.10632653834,2.38304939926,19.4567298736,-3.84635974695,-0.0353610151578,0.0,-0.0176481872269,0.0,0.0553421831743,0.0,-3.02048334255,0.0,-0.00236063719653,0.0,0.000750567732365,0.0,-0.00722609645679,0.0,0.0719322321789,0.0,0.00308004281575,0.0,-0.0,-0.0,0.592139422894,-2.0,-39.8371685741,35.8485263308,1.04259428183,-25.0,-1.05026641687,21.0,1.0471975512,-25.0,-1.0471975512,21.0,1420536.4089,0.0,0.0,0.0,0.0,0.0,0.0
1402759861431391402,3,-7.85272882485,-7.1377884924,1.11594368887,2.38304939926,19.4333471165,-3.84635974695,-0.0262180850854,0.0,-0.0115819781899,0.0,0.0516458253524,0.0,-3.02018867915,0.0,0.00300934909778,0.0,0.00144719915712,0.0,-0.00743656184708,0.0,0.0711740523554,0.0,-0.00294939070938,0.0,-0.0,-0.0,0.592139422894,-2.0,-39.8371685741,35.8485263308,1.04259428183,-25.0,-1.05026641687,21.0,1.0471975512,-25.0,-1.0471975512,21.0,1420536.4089,0.0,0.0,0.0,0.0,0.0,0.0
1402759861452081352,3,-7.85272882485,-7.1377884924,1.11594368887,2.38304939926,19.4333471165,-3.84635974695,-0.0262180850854,0.0,-0.0115819781899,0.0,0.0516458253524,0.0,-3.02018867915,0.0,0.00300934909778,0.0,0.00144719915712,0.0,-0.00743656184708,0.0,0.0711740523554,0.0,-0.00294939070938,0.0,-0.0,-0.0,0.592139422894,-2.0,-39.8371685741,35.8485263308,1.04259428183,-25.0,-1.05026641687,21.0,1.0471975512,-25.0,-1.0471975512,21.0,1420536.4089,0.0,0.0,0.0,0.0,0.0,0.0
1402759861473400319,3,-7.84665799704,-7.1377884924,1.11550751055,2.38304939926,19.4381512824,-3.84635974695,-0.0301981234352,0.0,-0.0187833159828,0.0,0.0579582269317,0.0,-3.02000384427,0.0,0.00308346596431,0.0,0.00109291897229,0.0,-0.00897683585657,0.0,0.0712886864081,0.0,0.00687398683155,0.0,-0.0,-0.0,0.592139422894,-2.0,-39.8371685741,35.8485263308,1.04259428183,-25.0,-1.05026641687,21.0,1.0471975512,-25.0,-1.0471975512,21.0,1420536.4089,0.0,0.0,0.0,0.0,0.0,0.0
1402759861491519441,3,-7.84665799704,-7.1377884924,1.11550751055,2.38304939926,19.4381512824,-3.84635974695,-0.0301981234352,0.0,-0.0187833159828,0.0,0.0579582269317,0.0,-3.02000384427,0.0,0.00308346596431,0.0,0.00109291897229,0.0,-0.00897683585657,0.0,0.0712886864081,0.0,0.00687398683155,0.0,-0.0,-0.0,0.592139422894,-2.0,-39.8371685741,35.8485263308,1.04259428183,-25.0,-1.05026641687,21.0,1.0471975512,-25.0,-1.0471975512,21.0,1420536.4089,0.0,0.0,0.0,0.0,0.0,0.0
1402759861512319551,3,-7.8264418197,-7.1377884924,1.12399545281,2.38304939926,19.4215049874,-3.84635974695,-0.020858108228,0.0,-0.0140908762847,0.0,0.0559790124885,0.0,-3.01980675728,0.0,0.00298445248953,0.0,0.0017638953441,0.0,-0.00100126226996,0.0,0.0702704185987,0.0,0.00740480891565,0.0,-0.0,-0.0,0.592139422894,-2.0,-39.8371685741,35.8485263308,1.04412874381,-25.0,-1.05026641687,21.0,1.0471975512,-25.0,-1.0471975512,21.0,1420536.4089,0.0,0.0,0.0,0.0,0.0,0.0
1402759861531483286,3,-7.8264418197,-7.1377884924,1.12399545281,2.38304939926,19.4215049874,-3.84635974695,-0.020858108228,0.0,-0.0140908762847,0.0,0.0559790124885,0.0,-3.01980675728,0.0,0.00298445248953,0.0,0.0017638953441,0.0,-0.00100126226996,0.0,0.0702704185987,0.0,0.00740480891565,0.0,-0.0,-0.0,0.592139422894,-2.0,-39.8371685741,35.8485263308,1.04259428183,-25.0,-1.05026641687,21.0,1.0471975512,-25.0,-1.0471975512,21.0,1420536.4089,0.0,0.0,0.0,0.0,0.0,0.0
1402759861551546137,3,-7.82728395828,-7.1377884924,1.12346296613,2.38304939926,19.4237621862,-3.84635974695,-0.0211604937445,0.0,-0.0131172379274,0.0,0.0574893456387,0.0,-3.01969722962,0.0,0.00667115848531,0.0,0.00175086380243,0.0,-0.00320938375838,0.0,0.0700822161876,0.0,0.00235632785304,0.0,-0.0,-0.0,0.592139422894,-2.0,-39.8371685741,35.8485263308,1.04412874381,-25.0,-1.05026641687,21.0,1.0471975512,-25.0,-1.0471975512,21.0,1420536.4089,0.0,0.0,0.0,0.0,0.0,0.0
1402759861571940858,3,-7.82728395828,-7.1377884924,1.12346296613,2.38304939926,19.4237621862,-3.84635974695,-0.0211604937445,0.0,-0.0131172379274,0.0,0.0574893456387,0.0,-3.01969722962,0.0,0.00667115848531,0.0,0.00175086380243,0.0,-0.00320938375838,0.0,0.0700822161876,0.0,0.00235632785304,0.0,-0.0,-0.0,0.592139422894,-2.0,-39.8371685741,35.8485263308,1.04412874381,-25.0,-1.04719749291,21.0,1.0471975512,-25.0,-1.0471975512,21.0,1420536.4089,0.0,0.0,0.0,0.0,0.0,0.0
1402759861591536570,3,-7.81753063524,-7.1377884924,1.12487376704,2.38304939926,19.4096193822,-3.84635974695,-0.0237917513049,0.0,-0.0218559797045,0.0,0.0546689508918,0.0,-3.01968320025,0.0,0.000546940811307,0.0,0.000923079120566,0.0,-0.00494655131166,0.0,0.0704380930412,0.0,-0.000872271191353,0.0,-0.0,-0.0,0.592139422894,-2.0,-39.8371685741,35.8485263308,1.04259428183,-25.0,-1.04566326936,21.0,1.0471975512,-25.0,-1.0471975512,21.0,1420536.4089,0.0,0.0,0.0,0.0,0.0,0.0
1402759861611281386,3,-7.81753063524,-7.1377884924,1.12487376704,2.38304939926,19.4096193822,-3.84635974695,-0.0237917513049,0.0,-0.0218559797045,0.0,0.0546689508918,0.0,-3.01968320025,0.0,0.000546940811307,0.0,0.000923079120566,0.0,-0.00494655131166,0.0,0.0704380930412,0.0,-0.000872271191353,0.0,-0.0,-0.0,0.592139422894,-2.0,-39.8371685741,35.8485263308,1.04412874381,-25.0,-1.04412880738,21.0,1.0471975512,-25.0,-1.0471975512,21.0,1420536.4089,0.0,0.0,0.0,0.0,0.0,0.0
1402759861631533344,3,-7.8184029643,-7.1377884924,1.1239279375,2.38304939926,19.4117883959,-3.84635974695,-0.0217529451244,0.0,-0.0232990498472,0.0,0.055270319624,0.0,-3.01986783244,0.0,-0.00993230981735,0.0,0.00122477145873,0.0,-0.0135045529429,0.0,0.0704587903697,0.0,-0.00415551105938,0.0,-0.0,-0.0,0.592139422894,-2.0,-39.8371685741,35.8485263308,1.04412874381,-25.0,-1.04259458383,21.0,1.0471975512,-25.0,-1.0471975512,21.0,1420536.4089,0.0,0.0,0.0,0.0,0.0,0.0
1402759861651554949,3,-7.8184029643,-7.1377884924,1.1239279375,2.38304939926,19.4117883959,-3.84635974695,-0.0217529451244,0.0,-0.0232990498472,0.0,0.055270319624,0.0,-3.01986783244,0.0,-0.00993230981735,0.0,0.00122477145873,0.0,-0.0135045529429,0.0,0.0704587903697,0.0,-0.00415551105938,0.0,-0.0,-0.0,0.592139422894,-2.0,-39.8371685741,35.8485263308,1.04259428183,-25.0,-1.04412880738,21.0,1.0471975512,-25.0,-1.0471975512,21.0,1420536.4089,0.0,0.0,0.0,0.0,0.0,0.0
1402759861671707124,3,-7.81685850106,-7.1377884924,1.1275253181,2.38304939926,19.4076965639,-3.84635974695,-0.0339083574315,0.0,-0.0184215301095,0.0,0.0561943076961,0.0,-3.0200504171,0.0,-0.0124791262955,0.0,0.00248947939997,0.0,-0.00422606635049,0.0,0.0716037838955,0.0,-0.00181524310153,0.0,-0.0,-0.0,0.592139422894,-2.0,-39.8371685741,35.8485263308,1.04412874381,-25.0,-1.04412880738,21.0,1.0471975512,-25.0,-1.0471975512,21.0,1420536.4089,0.0,0.0,0.0,0.0,0.0,0.0
1402759861692044328,3,-7.81685850106,-7.1377884924,1.1275253181,2.38304939926,19.4076965639,-3.84635974695,-0.0339083574315,0.0,-0.0184215301095,0.0,0.0561943076961,0.0,-3.0200504171,0.0,-0.0124791262955,0.0,0.00248947939997,0.0,-0.00422606635049,0.0,0.0716037838955,0.0,-0.00181524310153,0.0,-0.0,-0.0,0.592139422894,-2.0,-39.8371685741,35.8485263308,1.04259428183,-25.0,-1.04412880738,21.0,1.0471975512,-25.0,-1.0471975512,21.0,1420536.4089,0.0,0.0,0.0,0.0,0.0,0.0
1402759861711429982,3,-7.79867613141,-7.1377884924,1.13651568428,2.38304939926,19.398345488,-3.84635974695,-0.0220277291415,0.0,-0.00655963480158,0.0,0.0558223457638,0.0,-3.02002837378,0.0,-0.0100971697978,0.0,0.00390209557329,0.0,-0.00209055124528,0.0,0.0706362732497,0.0,0.000217368689228,0.0,-0.0,-0.0,0.592139422894,-2.0,-39.8371685741,35.8485263308,1.04259428183,-25.0,-1.04412880738,21.0,1.0471975512,-25.0,-1.0471975512,21.0,1420536.4089,0.0,0.0,0.0,0.0,0.0,0.0
1402759861731461552,3,-7.79867613141,-7.1377884924,1.13651568428,2.38304939926,19.398345488,-3.84635974695,-0.0220277291415,0.0,-0.00655963480158,0.0,0.0558223457638,0.0,-3.02002837378,0.0,-0.0100971697978,0.0,0.00390209557329,0.0,-0.00209055124528,0.0,0.0706362732497,0.0,0.000217368689228,0.0,-0.0,-0.0,0.592139422894,-2.0,-39.8371685741,35.8485263308,1.04412874381,-25.0,-1.04412880738,21.0,1.0471975512,-25.0,-1.0471975512,21.0,1420536.4089,0.0,0.0,0.0,0.0,0.0,0.0
1402759861751678794,3,-7.77366332493,-7.1377884924,1.14205812231,2.38304939926,19.3658698685,-3.84635974695,-0.0253582209546,0.0,-0.0182265146812,0.0,0.0483933547169,0.0,-3.02052596931,0.0,-0.0129419574786,0.0,0.00257026812266,0.0,-0.0109737307998,0.0,0.0712451845636,0.0,0.000702829515288,0.0,-0.0,-0.0,0.592139422894,-2.0,-39.8371685741,35.8485263308,1.04259428183,-25.0,-1.04412880738,21.0,1.0471975512,-25.0,-1.0471975512,21.0,1420536.4089,0.0,0.0,0.0,0.0,0.0,0.0
1402759861771415117,3,-7.77366332493,-7.1377884924,1.14205812231,2.38304939926,19.3658698685,-3.84635974695,-0.0253582209546,0.0,-0.0182265146812,0.0,0.0483933547169,0.0,-3.02052596931,0.0,-0.0129419574786,0.0,0.00257026812266,0.0,-0.0109737307998,0.0,0.0712451845636,0.0,0.000702829515288,0.0,-0.0,-0.0,0.592139422894,-2.0,-39.8371685741,35.8485263308,1.04412874381,-25.0,-1.04412880738,21.0,1.0471975512,-25.0,-1.0471975512,21.0,1420536.4089,0.0,0.0,0.0,0.0,0.0,0.0
1402759861791434194,3,-7.76803770098,-7.1377884924,1.14250218349,2.38304939926,19.3559075693,-3.84635974695,-0.0332815856207,0.0,-0.0252973746562,0.0,0.0482599188726,0.0,-3.02092944081,0.0,-0.0075293238349,0.0,0.00214096327272,0.0,0.00317650906304,0.0,0.0721192763624,0.0,-0.00323643388377,0.0,-0.0,-0.0,0.592139422894,-2.0,-39.8371685741,35.8485263308,1.04259428183,-25.0,-1.04412880738,21.0,1.0471975512,-25.0,-1.0471975512,21.0,1420536.4089,0.0,0.0,0.0,0.0,0.0,0.0
1402759861812000710,3,-7.76803770098,-7.1377884924,1.14250218349,2.38304939926,19.3559075693,-3.84635974695,-0.0332815856207,0.0,-0.0252973746562,0.0,0.0482599188726,0.0,-3.02092944081,0.0,-0.0075293238349,0.0,0.00214096327272,0.0,0.00317650906304,0.0,0.0721192763624,0.0,-0.00323643388377,0.0,-0.0,-0.0,0.592139422894,-2.0,-39.8371685741,35.8485263308,1.04412874381,-25.0,-1.04412880738,21.0,1.0471975512,-25.0,-1.0471975512,21.0,1420536.4089,0.0,0.0,0.0,0.0,0.0,0.0
1402759861831459401,3,-7.76947303808,-7.1377884924,1.14143592778,2.38304939926,19.3577888897,-3.84635974695,-0.0327640807751,0.0,-0.0267357633634,0.0,0.0485606687361,0.0,-3.02154626548,0.0,-0.0202462171203,0.0,0.00223359707403,0.0,-0.00102572405875,0.0,0.0722486925934,0.0,-0.00510857882794,0.0,-0.0,-0.0,0.592139422894,-2.0,-39.8371685741,35.8485263308,1.04259428183,-25.0,-1.04412880738,21.0,1.0471975512,-25.0,-1.0471975512,21.0,1420536.4089,0.0,0.0,0.0,0.0,0.0,0.0
1402759861852000325,3,-7.76947303808,-7.1377884924,1.14143592778,2.38304939926,19.3577888897,-3.84635974695,-0.0327640807751,0.0,-0.0267357633634,0.0,0.0485606687361,0.0,-3.02154626548,0.0,-0.0202462171203,0.0,0.00223359707403,0.0,-0.00102572405875,0.0,0.0722486925934,0.0,-0.00510857882794,0.0,-0.0,-0.0,0.592139422894,-2.0,-39.8371685741,35.8485263308,1.04412874381,-25.0,-1.04412880738,21.0,1.0471975512,-25.0,-1.0471975512,21.0,1420536.4089,0.0,0.0,0.0,0.0,0.0,0.0
1402759861872239915,3,-7.75819260754,-7.1377884924,1.14603403738,2.38304939926,19.3584741557,-3.84635974695,-0.0257195781952,0.0,-0.0206886056007,0.0,0.0528800547204,0.0,-3.02199434223,0.0,-0.0171692570311,0.0,0.00274372372834,0.0,0.00349278285226,0.0,0.0718173127941,0.0,-0.00846093083309,0.0,-0.0,-0.0,0.592139422894,-2.0,-39.8371685741,35.8485263308,1.04259428183,-25.0,-1.04412880738,21.0,1.0471975512,-25.0,-1.0471975512,21.0,1420536.4089,0.0,0.0,0.0,0.0,0.0,0.0
1402759861891446687,3,-7.75819260754,-7.1377884924,1.14603403738,2.38304939926,19.3584741557,-3.84635974695,-0.0257195781952,0.0,-0.0206886056007,0.0,0.0528800547204,0.0,-3.02199434223,0.0,-0.0171692570311,0.0,0.00274372372834,0.0,0.00349278285226,0.0,0.0718173127941,0.0,-0.00846093083309,0.0,-0.0,-0.0,0.592139422894,-2.0,-39.8371685741,35.8485263308,1.04259428183,-25.0,-1.04412880738,21.0,1.0471975512,-25.0,-1.0471975512,21.0,1420536.4089,0.0,0.0,0.0,0.0,0.0,0.0
1402759861911801608,3,-7.74890185488,-7.1377884924,1.14660567202,2.38304939926,19.3517620137,-3.84635974695,-0.0240672148587,0.0,-0.0292420590676,0.0,0.0531958357691,0.0,-3.02277427381,0.0,-0.0160069107416,0.0,0.00148950716616,0.0,0.0161044245469,0.0,0.0719215748302,0.0,-0.0018184304632,0.0,-0.0,-0.0,0.592139422894,-2.0,-39.8371685741,35.8485263308,1.04412874381,-25.0,-1.04412880738,21.0,1.0471975512,-25.0,-1.0471975512,21.0,1420536.4089,0.0,0.0,0.0,0.0,0.0,0.0
1402759861932303432,3,-7.74890185488,-7.1377884924,1.14660567202,2.38304939926,19.3517620137,-3.84635974695,-0.0240672148587,0.0,-0.0292420590676,0.0,0.0531958357691,0.0,-3.02277427381,0.0,-0.0160069107416,0.0,0.00148950716616,0.0,0.0161044245469,0.0,0.0719215748302,0.0,-0.0018184304632,0.0,-0.0,-0.0,0.592139422894,-2.0,-39.8371685741,35.8485263308,1.04259428183,-25.0,-1.04412880738,21.0,1.0471975512,-25.0,-1.0471975512,21.0,1420536.4089,0.0,0.0,0.0,0.0,0.0,0.0
1402759861951585127,3,-7.73479380648,-7.1377884924,1.15646780159,2.38304939926,19.3382939684,-3.84635974695,-0.0214738597489,0.0,-0.0152679582526,0.0,0.0515081305608,0.0,-3.02335740599,0.0,-0.0237280456312,0.0,0.00290703685003,0.0,0.00426016588517,0.0,0.0718772938425,0.0,-0.00350156344584,0.0,-0.0,-0.0,0.592139422894,-2.0,-39.8371685741,35.8485263308,1.04259428183,-25.0,-1.04412880738,21.0,1.0471975512,-25.0,-1.0471975512,21.0,1420536.4089,0.0,0.0,0.0,0.0,0.0,0.0
1402759861971799863,3,-7.73479380648,-7.1377884924,1.15646780159,2.38304939926,19.3382939684,-3.84635974695,-0.0214738597489,0.0,-0.0152679582526,0.0,0.0515081305608,0.0,-3.02335740599,0.0,-0.0237280456312,0.0,0.00290703685003,0.0,0.00426016588517,0.0,0.0718772938425,0.0,-0.00350156344584,0.0,-0.0,-0.0,0.592139422894,-2.0,-39.8371685741,35.8485263308,1.04412874381,-25.0,-1.04412880738,21.0,1.0471975512,-25.0,-1.0471975512,21.0,1420536.4089,0.0,0.0,0.0,0.0,0.0,0.0
1402759861991751809,3,-7.73564320757,-7.1377884924,1.15599597616,2.38304939926,19.3401621097,-3.84635974695,-0.0202115225796,0.0,-0.0155385887879,0.0,0.0518379015179,0.0,-3.02407395771,0.0,-0.0166966822545,0.0,0.00248364334473,0.0,0.00915396139898,0.0,0.0719551375019,0.0,0.00266096183813,0.0,-0.0,-0.0,0.592139422894,-2.0,-39.8371685741,35.8485263308,1.04412874381,-25.0,-1.04566326936,21.0,1.0471975512,-25.0,-1.0471975512,21.0,1420536.4089,0.0,0.0,0.0,0.0,0.0,0.0
1402759862011704129,3,-7.73564320757,-7.1377884924,1.15599597616,2.38304939926,19.3401621097,-3.84635974695,-0.0202115225796,0.0,-0.0155385887879,0.0,0.0518379015179,0.0,-3.02407395771,0.0,-0.0166966822545,0.0,0.00248364334473,0.0,0.00915396139898,0.0,0.0719551375019,0.0,0.00266096183813,0.0,-0.0,-0.0,0.592139422894,-2.0,-39.8371685741,35.8485263308,1.04412874381,-25.0,-1.04412880738,21.0,1.0471975512,-25.0,-1.0471975512,21.0,1420536.4089,0.0,0.0,0.0,0.0,0.0,0.0
1402759862031508343,3,-7.72406421613,-7.1377884924,1.1549288942,2.38304939926,19.3305457924,-3.84635974695,-0.0176913172874,0.0,-0.0307262862916,0.0,0.053158556755,0.0,-3.02521997935,0.0,-0.0237474274845,0.0,0.000313458510776,0.0,0.0123184266473,0.0,0.0719396256445,0.0,-0.0076195406599,0.0,-0.0,-0.0,0.592139422894,-2.0,-39.8371685741,35.8485263308,1.04412874381,-25.0,-1.04412880738,21.0,1.0471975512,-25.0,-1.0471975512,21.0,1420536.4089,0.0,0.0,0.0,0.0,0.0,0.0
1402759862052001361,3,-7.72406421613,-7.1377884924,1.1549288942,2.38304939926,19.3305457924,-3.84635974695,-0.0176913172874,0.0,-0.0307262862916,0.0,0.053158556755,0.0,-3.02521997935,0.0,-0.0237474274845,0.0,0.000313458510776,0.0,0.0123184266473,0.0,0.0719396256445,0.0,-0.0076195406599,0.0,-0.0,-0.0,0.592139422894,-2.0,-39.8371685741,35.8485263308,1.04259428183,-25.0,-1.04412880738,21.0,1.0471975512,-25.0,-1.0471975512,21.0,1420536.4089,0.0,0.0,0.0,0.0,0.0,0.0
1402759862071624849,3,-7.71343818656,-7.1377884924,1.15434987583,2.38304939926,19.3102522657,-3.84635974695,-0.0208074586039,0.0,-0.0466324921795,0.0,0.0470243123659,0.0,-3.02654830517,0.0,-0.0259610727372,0.0,-0.00190259330906,0.0,0.0105358980048,0.0,0.0725338829841,0.0,0.00633830113891,0.0,-0.0,-0.0,0.592139422894,-2.0,-39.8371685741,35.8485263308,1.04412874381,-25.0,-1.04566326936,21.0,1.0471975512,-25.0,-1.0471975512,21.0,1420536.4089,0.0,0.0,0.0,0.0,0.0,0.0
1402759862091468645,3,-7.71343818656,-7.1377884924,1.15434987583,2.38304939926,19.3102522657,-3.84635974695,-0.0208074586039,0.0,-0.0466324921795,0.0,0.0470243123659,0.0,-3.02654830517,0.0,-0.0259610727372,0.0,-0.00190259330906,0.0,0.0105358980048,0.0,0.0725338829841,0.0,0.00633830113891,0.0,-0.0,-0.0,0.592139422894,-2.0,-39.8371685741,35.8485263308,1.04259428183,-25.0,-1.04412880738,21.0,1.0471975512,-25.0,-1.0471975512,21.0,1420536.4089,0.0,0.0,0.0,0.0,0.0,0.0
1402759862111689732,3,-7.692673871,-7.1377884924,1.16779437803,2.38304939926,19.296829185,-3.84635974695,-0.00834600682258,0.0,-0.0264095622351,0.0,0.0464447449949,0.0,-3.02722231567,0.0,-0.0311691028818,0.0,0.000115910780312,0.0,0.00957719852054,0.0,0.0714318238578,0.0,0.00316414031643,0.0,-0.0,-0.0,0.592139422894,-2.0,-39.8371685741,35.8485263308,1.04412874381,-25.0,-1.04566326936,21.0,1.0471975512,-25.0,-1.0471975512,21.0,1420536.4089,0.0,0.0,0.0,0.0,0.0,0.0
1402759862131473162,3,-7.692673871,-7.1377884924,1.16779437803,2.38304939926,19.296829185,-3.84635974695,-0.00834600682258,0.0,-0.0264095622351,0.0,0.0464447449949,0.0,-3.02722231567,0.0,-0.0311691028818,0.0,0.000115910780312,0.0,0.00957719852054,0.0,0.0714318238578,0.0,0.00316414031643,0.0,-0.0,-0.0,0.592139422894,-2.0,-39.8371685741,35.8485263308,1.04259428183,-25.0,-1.04412880738,21.0,1.0471975512,-25.0,-1.0471975512,21.0,1420536.4089,0.0,0.0,0.0,0.0,0.0,0.0
1402759862152100596,3,-7.68324557574,-7.1377884924,1.16724013778,2.38304939926,19.2936253123,-3.84635974695,-0.0089885079526,0.0,-0.0359401693108,0.0,0.0498142445884,0.0,-3.0288028386,0.0,-0.0297935355613,0.0,-0.00127385731178,0.0,0.0131891943638,0.0,0.071624829636,0.0,0.00393405409462,0.0,-0.0,-0.0,0.592139422894,-2.0,-39.8371685741,35.8485263308,1.04259428183,-25.0,-1.04412880738,21.0,1.0471975512,-25.0,-1.0471975512,21.0,1420536.4089,0.0,0.0,0.0,0.0,0.0,0.0
1402759862172222311,3,-7.68324557574,-7.1377884924,1.16724013778,2.38304939926,19.2936253123,-3.84635974695,-0.0089885079526,0.0,-0.0359401693108,0.0,0.0498142445884,0.0,-3.0288028386,0.0,-0.0297935355613,0.0,-0.00127385731178,0.0,0.0131891943638,0.0,0.071624829636,0.0,0.00393405409462,0.0,-0.0,-0.0,0.592139422894,-2.0,-39.8371685741,35.8485263308,1.04412874381,-25.0,-1.04412880738,21.0,1.0471975512,-25.0,-1.0471975512,21.0,1420536.4089,0.0,0.0,0.0,0.0,0.0,0.0
1402759862191502427,3,-7.68349171508,-7.1377884924,1.16620258529,2.38304939926,19.2950420547,-3.84635974695,-0.0085723397345,0.0,-0.0362840443649,0.0,0.0509357968378,0.0,-3.02958579353,0.0,-0.0285268486346,0.0,-0.00164909530013,0.0,0.00762031163509,0.0,0.0715419280569,0.0,0.00408385219299,0.0,-0.0,-0.0,0.592139422894,-2.0,-39.8371685741,35.8485263308,1.04259428183,-25.0,-1.04566326936,21.0,1.0471975512,-25.0,-1.0471975512,21.0,1420536.4089,0.0,0.0,0.0,0.0,0.0,0.0
1402759862211528667,3,-7.67957213675,-7.1377884924,1.168225711,2.38304939926,19.2904611301,-3.84635974695,-0.0227629973342,0.0,-0.037488464088,0.0,0.0526825866639,0.0,-3.03074353747,0.0,-0.0326829559107,0.0,-0.00166246006983,0.0,0.00513156919687,0.0,0.0726340581835,0.0,0.00447114610722,0.0,-0.0,-0.0,0.592139422894,-2.0,-39.8371685741,35.8485263308,1.04412874381,-25.0,-1.04412880738,21.0,1.0471975512,-25.0,-1.0471975512,21.0,1420536.4089,0.0,0.0,0.0,0.0,0.0,0.0
1402759862232344575,3,-7.67957213675,-7.1377884924,1.168225711,2.38304939926,19.2904611301,-3.84635974695,-0.0227629973342,0.0,-0.037488464088,0.0,0.0526825866639,0.0,-3.03074353747,0.0,-0.0326829559107,0.0,-0.00166246006983,0.0,0.00513156919687,0.0,0.0726340581835,0.0,0.00447114610722,0.0,-0.0,-0.0,0.592139422894,-2.0,-39.8371685741,35.8485263308,1.04412874381,-25.0,-1.04412880738,21.0,1.0471975512,-25.0,-1.0471975512,21.0,1420536.4089,0.0,0.0,0.0,0.0,0.0,0.0
1402759862251723644,3,-7.66473951848,-7.1377884924,1.17758430457,2.38304939926,19.2785166479,-3.84635974695,-0.0230478760244,0.0,-0.0264144558911,0.0,0.052585768984,0.0,-3.03083169668,0.0,-0.0279702287954,0.0,-0.000387186393359,0.0,0.00945465667513,0.0,0.0726407271915,0.0,0.00157350479367,0.0,-0.0,-0.0,0.592139422894,-2.0,-39.8371685741,35.8485263308,1.04412874381,-25.0,-1.04566326936,21.0,1.0471975512,-25.0,-1.0471975512,21.0,1420536.4089,0.0,0.0,0.0,0.0,0.0,0.0
1402759862271597775,3,-7.66473951848,-7.1377884924,1.17758430457,2.38304939926,19.2785166479,-3.84635974695,-0.0230478760244,0.0,-0.0264144558911,0.0,0.052585768984,0.0,-3.03083169668,0.0,-0.0279702287954,0.0,-0.000387186393359,0.0,0.00945465667513,0.0,0.0726407271915,0.0,0.00157350479367,0.0,-0.0,-0.0,0.592139422894,-2.0,-39.8371685741,35.8485263308,1.04412874381,-25.0,-1.04412880738,21.0,1.0471975512,-25.0,-1.0471975512,21.0,1420536.4089,0.0,0.0,0.0,0.0,0.0,0.0
1402759862292051940,3,-7.66531099167,-7.1377884924,1.17669106856,2.38304939926,19.2802919393,-3.84635974695,-0.0226069056329,0.0,-0.0276124499167,0.0,0.0533570872965,0.0,-3.03190563345,0.0,-0.0377684180981,0.0,-0.000686832104176,0.0,0.00859422875332,0.0,0.0725045070531,0.0,0.00270601206419,0.0,-0.0,-0.0,0.592139422894,-2.0,-39.8371685741,35.8485263308,1.04259428183,-25.0,-1.04566326936,21.0,1.0471975512,-25.0,-1.0471975512,21.0,1420536.4089,0.0,0.0,0.0,0.0,0.0,0.0
1402759862311592794,3,-7.66531099167,-7.1377884924,1.17669106856,2.38304939926,19.2802919393,-3.84635974695,-0.0226069056329,0.0,-0.0276124499167,0.0,0.0533570872965,0.0,-3.03190563345,0.0,-0.0377684180981,0.0,-0.000686832104176,0.0,0.00859422875332,0.0,0.0725045070531,0.0,0.00270601206419,0.0,-0.0,-0.0,0.592139422894,-2.0,-39.8371685741,35.8485263308,1.04259428183,-25.0,-1.04566326936,21.0,1.0471975512,-25.0,-1.0471975512,21.0,1420536.4089,0.0,0.0,0.0,0.0,0.0,0.0
1402759862331569681,3,-7.64729123036,-7.1377884924,1.17706987063,2.38304939926,19.266446181,-3.84635974695,-0.0181960949694,0.0,-0.0409055152762,0.0,0.0516047938323,0.0,-3.03334683852,0.0,-0.0337075528765,0.0,-0.0028667770927,0.0,0.00051507229124,0.0,0.072094224571,0.0,0.00144149802291,0.0,-0.0,-0.0,0.592139422894,-2.0,-39.8371685741,35.8485263308,1.04412874381,-25.0,-1.04566326936,21.0,1.0471975512,-25.0,-1.0471975512,21.0,1420536.4089,0.0,0.0,0.0,0.0,0.0,0.0
1402759862351444038,3,-7.64729123036,-7.1377884924,1.17706987063,2.38304939926,19.266446181,-3.84635974695,-0.0181960949694,0.0,-0.0409055152762,0.0,0.0516047938323,0.0,-3.03334683852,0.0,-0.0337075528765,0.0,-0.0028667770927,0.0,0.00051507229124,0.0,0.072094224571,0.0,0.00144149802291,0.0,-0.0,-0.0,0.592139422894,-2.0,-39.8371685741,35.8485263308,1.04259428183,-25.0,-1.04566326936,21.0,1.0471975512,-25.0,-1.0471975512,21.0,1420536.4089,0.0,0.0,0.0,0.0,0.0,0.0
1402759862371970638,3,-7.63453229534,-7.1377884924,1.18277956003,2.38304939926,19.2617727385,-3.84635974695,-0.016763425905,0.0,-0.0351475310203,0.0,0.0527259035836,0.0,-3.0347119079,0.0,-0.0398351515098,0.0,-0.00219155996458,0.0,0.00670302953538,0.0,0.0718801068752,0.0,0.00909435414776,0.0,-0.0,-0.0,0.592139422894,-2.0,-39.8371685741,35.8485263308,1.04259428183,-25.0,-1.04412880738,21.0,1.0471975512,-25.0,-1.0471975512,21.0,1420536.4089,0.0,0.0,0.0,0.0,0.0,0.0
1402759862391450412,3,-7.63453229534,-7.1377884924,1.18277956003,2.38304939926,19.2617727385,-3.84635974695,-0.016763425905,0.0,-0.0351475310203,0.0,0.0527259035836,0.0,-3.0347119079,0.0,-0.0398351515098,0.0,-0.00219155996458,0.0,0.00670302953538,0.0,0.0718801068752,0.0,0.00909435414776,0.0,-0.0,-0.0,0.592139422894,-2.0,-39.8371685741,35.8485263308,1.04259428183,-25.0,-1.04412880738,21.0,1.0471975512,-25.0,-1.0471975512,21.0,1420536.4089,0.0,0.0,0.0,0.0,0.0,0.0
1402759862411448383,3,-7.61589570974,-7.1377884924,1.18683224442,2.38304939926,19.2542401505,-3.84635974695,-0.00287532298218,0.0,-0.0341590633156,0.0,0.0535447477027,0.0,-3.03608312395,0.0,-0.0370527319476,0.0,-0.00238659919005,0.0,-0.00135942680869,0.0,0.0704048251304,0.0,0.000899535565227,0.0,-0.0,-0.0,0.592139422894,-2.0,-39.8371685741,35.8485263308,1.04259428183,-25.0,-1.04566326936,21.0,1.0471975512,-25.0,-1.0471975512,21.0,1420536.4089,0.0,0.0,0.0,0.0,0.0,0.0
1402759862432038633,3,-7.61589570974,-7.1377884924,1.18683224442,2.38304939926,19.2542401505,-3.84635974695,-0.00287532298218,0.0,-0.0341590633156,0.0,0.0535447477027,0.0,-3.03608312395,0.0,-0.0370527319476,0.0,-0.00238659919005,0.0,-0.00135942680869,0.0,0.0704048251304,0.0,0.000899535565227,0.0,-0.0,-0.0,0.592139422894,-2.0,-39.8371685741,35.8485263308,1.04259428183,-25.0,-1.04566326936,21.0,1.0471975512,-25.0,-1.0471975512,21.0,1420536.4089,0.0,0.0,0.0,0.0,0.0,0.0
1402759862451510105,3,-7.61605619688,-7.1377884924,1.18561407527,2.38304939926,19.2560899125,-3.84635974695,-0.00201429429736,0.0,-0.0340494166819,0.0,0.0541013687332,0.0,-3.03746798764,0.0,-0.0343784563109,0.0,-0.00225036903291,0.0,-0.00547913859821,0.0,0.0703306809722,0.0,-0.00198410785061,0.0,-0.0,-0.0,0.592139422894,-2.0,-39.8371685741,35.8485263308,1.04259428183,-25.0,-1.04566326936,21.0,1.0471975512,-25.0,-1.0471975512,21.0,1420536.4089,0.0,0.0,0.0,0.0,0.0,0.0
1402759862472414971,3,-7.61605619688,-7.1377884924,1.18561407527,2.38304939926,19.2560899125,-3.84635974695,-0.00201429429736,0.0,-0.0340494166819,0.0,0.0541013687332,0.0,-3.03746798764,0.0,-0.0343784563109,0.0,-0.00225036903291,0.0,-0.00547913859821,0.0,0.0703306809722,0.0,-0.00198410785061,0.0,-0.0,-0.0,0.592139422894,-2.0,-39.8371685741,35.8485263308,1.04412874381,-25.0,-1.04412880738,21.0,1.0471975512,-25.0,-1.0471975512,21.0,1420536.4089,0.0,0.0,0.0,0.0,0.0,0.0
1402759862492188860,3,-7.6100425579,-7.1377884924,1.18579163303,2.38304939926,19.2484593156,-3.84635974695,-0.0107384703883,0.0,-0.0394876519823,0.0,0.0534343936214,0.0,-3.03902926902,0.0,-0.0320205887005,0.0,-0.00256907564634,0.0,-0.00310372409375,0.0,0.0712079184884,0.0,-0.00372425819891,0.0,-0.0,-0.0,0.592139422894,-2.0,-39.8371685741,35.8485263308,1.04412874381,-25.0,-1.04566326936,21.0,1.0471975512,-25.0,-1.0471975512,21.0,1420536.4089,0.0,0.0,0.0,0.0,0.0,0.0
1402759862511455229,3,-7.6100425579,-7.1377884924,1.18579163303,2.38304939926,19.2484593156,-3.84635974695,-0.0107384703883,0.0,-0.0394876519823,0.0,0.0534343936214,0.0,-3.03902926902,0.0,-0.0320205887005,0.0,-0.00256907564634,0.0,-0.00310372409375,0.0,0.0712079184884,0.0,-0.00372425819891,0.0,-0.0,-0.0,0.592139422894,-2.0,-39.8371685741,35.8485263308,1.04259428183,-25.0,-1.04412880738,21.0,1.0471975512,-25.0,-1.0471975512,21.0,1420536.4089,0.0,0.0,0.0,0.0,0.0,0.0
1402759862531467884,3,-7.60199006283,-7.1377884924,1.18694963266,2.38304939926,19.2445235336,-3.84635974695,-0.0108389869162,0.0,-0.0416015210495,0.0,0.0544361417383,0.0,-3.04053035463,0.0,-0.0368129316224,0.0,-0.00233283248634,0.0,-0.00551189988041,0.0,0.0713293529679,0.0,-0.000740497829213,0.0,-0.0,-0.0,0.592139422894,-2.0,-39.8371685741,35.8485263308,1.04412874381,-25.0,-1.04412880738,21.0,1.0471975512,-25.0,-1.0471975512,21.0,1420536.4089,0.0,0.0,0.0,0.0,0.0,0.0
1402759862551351574,3,-7.60199006283,-7.1377884924,1.18694963266,2.38304939926,19.2445235336,-3.84635974695,-0.0108389869162,0.0,-0.0416015210495,0.0,0.0544361417383,0.0,-3.04053035463,0.0,-0.0368129316224,0.0,-0.00233283248634,0.0,-0.00551189988041,0.0,0.0713293529679,0.0,-0.000740497829213,0.0,-0.0,-0.0,0.592139422894,-2.0,-39.8371685741,35.8485263308,1.04259428183,-25.0,-1.04566326936,21.0,1.0471975512,-25.0,-1.0471975512,21.0,1420536.4089,0.0,0.0,0.0,0.0,0.0,0.0
1402759862572287079,3,-7.60257982972,-7.1377884924,1.18525188891,2.38304939926,19.246638297,-3.84635974695,-0.0101764230465,0.0,-0.0430154526511,0.0,0.0548110697016,0.0,-3.04208334691,0.0,-0.0437236318048,0.0,-0.0018928371531,0.0,-0.0152285449493,0.0,0.0712396231326,0.0,-0.00326017263095,0.0,-0.0,-0.0,0.592139422894,-2.0,-39.8371685741,35.8485263308,1.04412874381,-25.0,-1.04412880738,21.0,1.0471975512,-25.0,-1.0471975512,21.0,1420536.4089,0.0,0.0,0.0,0.0,0.0,0.0
1402759862591513499,3,-7.60257982972,-7.1377884924,1.18525188891,2.38304939926,19.246638297,-3.84635974695,-0.0101764230465,0.0,-0.0430154526511,0.0,0.0548110697016,0.0,-3.04208334691,0.0,-0.0437236318048,0.0,-0.0018928371531,0.0,-0.0152285449493,0.0,0.0712396231326,0.0,-0.00326017263095,0.0,-0.0,-0.0,0.592139422894,-2.0,-39.8371685741,35.8485263308,1.04412874381,-25.0,-1.04566326936,21.0,1.0471975512,-25.0,-1.0471975512,21.0,1420536.4089,0.0,0.0,0.0,0.0,0.0,0.0
1402759862611497649,3,-7.58882472527,-7.1377884924,1.1905655467,2.38304939926,19.2356195934,-3.84635974695,-0.00472069618594,0.0,-0.0376023996391,0.0,0.0528154992968,0.0,-3.04355798117,0.0,-0.0419465617449,0.0,-0.000603835451832,0.0,-0.012363844992,0.0,0.0709753915171,0.0,-0.0010138112684,0.0,-0.0,-0.0,0.592139422894,-2.0,-39.8371685741,35.8485263308,1.04259428183,-25.0,-1.04566326936,21.0,1.0471975512,-25.0,-1.0471975512,21.0,1420536.4089,0.0,0.0,0.0,0.0,0.0,0.0
1402759862631985550,3,-7.58882472527,-7.1377884924,1.1905655467,2.38304939926,19.2356195934,-3.84635974695,-0.00472069618594,0.0,-0.0376023996391,0.0,0.0528154992968,0.0,-3.04355798117,0.0,-0.0419465617449,0.0,-0.000603835451832,0.0,-0.012363844992,0.0,0.0709753915171,0.0,-0.0010138112684,0.0,-0.0,-0.0,0.592139422894,-2.0,-39.8371685741,35.8485263308,1.04259428183,-25.0,-1.04412880738,21.0,1.0471975512,-25.0,-1.0471975512,21.0,1420536.4089,0.0,0.0,0.0,0.0,0.0,0.0
1402759862651524111,3,-7.5869894976,-7.1377884924,1.19361627903,2.38304939926,19.2289088125,-3.84635974695,-0.0174464548085,0.0,-0.0320285551725,0.0,0.0527963356694,0.0,-3.04523160772,0.0,-0.0443348556706,0.0,0.00110758928012,0.0,-0.0145323516782,0.0,0.0722932714972,0.0,-0.000387910504582,0.0,-0.0,-0.0,0.592139422894,-2.0,-39.8371685741,35.8485263308,1.04259428183,-25.0,-1.04566326936,21.0,1.0471975512,-25.0,-1.0471975512,21.0,1420536.4089,0.0,0.0,0.0,0.0,0.0,0.0
1402759862671479932,3,-7.5869894976,-7.1377884924,1.19361627903,2.38304939926,19.2289088125,-3.84635974695,-0.0174464548085,0.0,-0.0320285551725,0.0,0.0527963356694,0.0,-3.04523160772,0.0,-0.0443348556706,0.0,0.00110758928012,0.0,-0.0145323516782,0.0,0.0722932714972,0.0,-0.000387910504582,0.0,-0.0,-0.0,0.592139422894,-2.0,-39.8371685741,35.8485263308,1.04412874381,-25.0,-1.04566326936,21.0,1.0471975512,-25.0,-1.0471975512,21.0,1420536.4089,0.0,0.0,0.0,0.0,0.0,0.0
1402759862692050702,3,-7.57711460686,-7.1377884924,1.19552949532,2.38304939926,19.2266625239,-3.84635974695,-0.00902962273744,0.0,-0.0292545547348,0.0,0.0551614685367,0.0,-3.04691773804,0.0,-0.0444755650873,0.0,0.00186124949498,0.0,-0.0224914311309,0.0,0.0715481172573,0.0,-0.00581056793711,0.0,-0.0,-0.0,0.592139422894,-2.0,-39.8371685741,35.8485263308,1.04259428183,-25.0,-1.04566326936,21.0,1.0471975512,-25.0,-1.0471975512,21.0,1420536.4089,0.0,0.0,0.0,0.0,0.0,0.0
1402759862711555944,3,-7.57711460686,-7.1377884924,1.19552949532,2.38304939926,19.2266625239,-3.84635974695,-0.00902962273744,0.0,-0.0292545547348,0.0,0.0551614685367,0.0,-3.04691773804,0.0,-0.0444755650873,0.0,0.00186124949498,0.0,-0.0224914311309,0.0,0.0715481172573,0.0,-0.00581056793711,0.0,-0.0,-0.0,0.592139422894,-2.0,-39.8371685741,35.8485263308,1.04259428183,-25.0,-1.04412880738,21.0,1.0471975512,-25.0,-1.0471975512,21.0,1420536.4089,0.0,0.0,0.0,0.0,0.0,0.0
1402759862731451336,3,-7.57139934792,-7.1377884924,1.19431017452,2.38304939926,19.223023158,-3.84635974695,-0.0106416313932,0.0,-0.0367944128254,0.0,0.0559363117858,0.0,-3.04877628821,0.0,-0.0477911479134,0.0,0.00180175217564,0.0,-0.016499970952,0.0,0.0717764151757,0.0,-0.000666403556192,0.0,-0.0,-0.0,0.592139422894,-2.0,-39.8371685741,35.8485263308,1.04412874381,-25.0,-1.04566326936,21.0,1.0471975512,-25.0,-1.0471975512,21.0,1420536.4089,0.0,0.0,0.0,0.0,0.0,0.0
1402759862751430049,3,-7.57139934792,-7.1377884924,1.19431017452,2.38304939926,19.223023158,-3.84635974695,-0.0106416313932,0.0,-0.0367944128254,0.0,0.0559363117858,0.0,-3.04877628821,0.0,-0.0477911479134,0.0,0.00180175217564,0.0,-0.016499970952,0.0,0.0717764151757,0.0,-0.000666403556192,0.0,-0.0,-0.0,0.592139422894,-2.0,-39.8371685741,35.8485263308,1.04259428183,-25.0,-1.04566326936,21.0,1.0471975512,-25.0,-1.0471975512,21.0,1420536.4089,0.0,0.0,0.0,0.0,0.0,0.0
1402759862772026949,3,-7.55803688075,-7.1377884924,1.19903079952,2.38304939926,19.2081539936,-3.84635974695,-0.0057386386651,0.0,-0.0339190032992,0.0,0.0528159041529,0.0,-3.05058395063,0.0,-0.050450725756,0.0,0.00267345657628,0.0,-0.0213587132163,0.0,0.0715862870588,0.0,0.00220041703252,0.0,-0.0,-0.0,0.592139422894,-2.0,-39.8371685741,35.8485263308,1.04259428183,-25.0,-1.04412880738,21.0,1.0471975512,-25.0,-1.0471975512,21.0,1420536.4089,0.0,0.0,0.0,0.0,0.0,0.0
1402759862791446672,3,-7.55803688075,-7.1377884924,1.19903079952,2.38304939926,19.2081539936,-3.84635974695,-0.0057386386651,0.0,-0.0339190032992,0.0,0.0528159041529,0.0,-3.05058395063,0.0,-0.050450725756,0.0,0.00267345657628,0.0,-0.0213587132163,0.0,0.0715862870588,0.0,0.00220041703252,0.0,-0.0,-0.0,0.592139422894,-2.0,-39.8371685741,35.8485263308,1.04259428183,-25.0,-1.04412880738,21.0,1.0471975512,-25.0,-1.0471975512,21.0,1420536.4089,0.0,0.0,0.0,0.0,0.0,0.0
1402759862811432731,3,-7.55824444594,-7.1377884924,1.19744717277,2.38304939926,19.2106681122,-3.84635974695,-0.00608888516246,0.0,-0.0354960170255,0.0,0.0546128806475,0.0,-3.0524230487,0.0,-0.0470694641578,0.0,0.00319124235253,0.0,-0.0124895383483,0.0,0.0716491063849,0.0,-0.00385927800513,0.0,-0.0,-0.0,0.592139422894,-2.0,-39.8371685741,35.8485263308,1.04259428183,-25.0,-1.04566326936,21.0,1.0471975512,-25.0,-1.0471975512,21.0,1420536.4089,0.0,0.0,0.0,0.0,0.0,0.0
1402759862832116290,3,-7.55824444594,-7.1377884924,1.19744717277,2.38304939926,19.2106681122,-3.84635974695,-0.00608888516246,0.0,-0.0354960170255,0.0,0.0546128806475,0.0,-3.0524230487,0.0,-0.0470694641578,0.0,0.00319124235253,0.0,-0.0124895383483,0.0,0.0716491063849,0.0,-0.00385927800513,0.0,-0.0,-0.0,0.592139422894,-2.0,-39.8371685741,35.8485263308,1.04412874381,-25.0,-1.04566326936,21.0,1.0471975512,-25.0,-1.0471975512,21.0,1420536.4089,0.0,0.0,0.0,0.0,0.0,0.0
1402759862851527745,3,-7.54890559421,-7.1377884924,1.19677086941,2.38304939926,19.2055801875,-3.84635974695,-0.000532828562603,0.0,-0.0419372872664,0.0,0.0550489679346,0.0,-3.05435147024,0.0,-0.048383253001,0.0,0.00256023189821,0.0,-0.00793661315781,0.0,0.0712397511038,0.0,0.000801642008674,0.0,-0.0,-0.0,0.592139422894,-2.0,-39.8371685741,35.8485263308,1.04259428183,-25.0,-1.04566326936,21.0,1.0471975512,-25.0,-1.0471975512,21.0,1420536.4089,0.0,0.0,0.0,0.0,0.0,0.0
1402759862871461047,3,-7.54890559421,-7.1377884924,1.19677086941,2.38304939926,19.2055801875,-3.84635974695,-0.000532828562603,0.0,-0.0419372872664,0.0,0.0550489679346,0.0,-3.05435147024,0.0,-0.048383253001,0.0,0.00256023189821,0.0,-0.00793661315781,0.0,0.0712397511038,0.0,0.000801642008674,0.0,-0.0,-0.0,0.592139422894,-2.0,-39.8371685741,35.8485263308,1.04259428183,-25.0,-1.04566326936,21.0,1.0471975512,-25.0,-1.0471975512,21.0,1420536.4089,0.0,0.0,0.0,0.0,0.0,0.0
1402759862892095433,3,-7.54482594924,-7.1377884924,1.19345928825,2.38304939926,19.2007178788,-3.84635974695,-0.00694271465293,0.0,-0.0550484093754,0.0,0.0557085548446,0.0,-3.05639347301,0.0,-0.0505650485468,0.0,0.00130142724095,0.0,0.00493681859382,0.0,0.0718550696398,0.0,0.000643115334404,0.0,-0.0,-0.0,0.592139422894,-2.0,-39.8371685741,35.8485263308,1.04259428183,-25.0,-1.04412880738,21.0,1.0471975512,-25.0,-1.0471975512,21.0,1420536.4089,0.0,0.0,0.0,0.0,0.0,0.0
1402759862911921872,3,-7.54482594924,-7.1377884924,1.19345928825,2.38304939926,19.2007178788,-3.84635974695,-0.00694271465293,0.0,-0.0550484093754,0.0,0.0557085548446,0.0,-3.05639347301,0.0,-0.0505650485468,0.0,0.00130142724095,0.0,0.00493681859382,0.0,0.0718550696398,0.0,0.000643115334404,0.0,-0.0,-0.0,0.592139422894,-2.0,-39.8371685741,35.8485263308,1.04259428183,-25.0,-1.04412880738,21.0,1.0471975512,-25.0,-1.0471975512,21.0,1420536.4089,0.0,0.0,0.0,0.0,0.0,0.0
1402759862931514821,3,-7.53506803461,-7.1377884924,1.20249373723,2.38304939926,19.1934412012,-3.84635974695,-0.00730171804242,0.0,-0.0361223620129,0.0,0.0553384666862,0.0,-3.0581869794,0.0,-0.0523273796838,0.0,0.00360610140637,0.0,0.00500719579346,0.0,0.0719793145667,0.0,0.0027328109045,0.0,-0.0,-0.0,0.592139422894,-2.0,-39.8371685741,35.8485263308,1.04259428183,-25.0,-1.04566326936,21.0,1.0471975512,-25.0,-1.0471975512,21.0,1420536.4089,0.0,0.0,0.0,0.0,0.0,0.0
1402759862952054555,3,-7.53506803461,-7.1377884924,1.20249373723,2.38304939926,19.1934412012,-3.84635974695,-0.00730171804242,0.0,-0.0361223620129,0.0,0.0553384666862,0.0,-3.0581869794,0.0,-0.0523273796838,0.0,0.00360610140637,0.0,0.00500719579346,0.0,0.0719793145667,0.0,0.0027328109045,0.0,-0.0,-0.0,0.592139422894,-2.0,-39.8371685741,35.8485263308,1.04259428183,-25.0,-1.04566326936,21.0,1.0471975512,-25.0,-1.0471975512,21.0,1420536.4089,0.0,0.0,0.0,0.0,0.0,0.0
1402759862971536722,3,-7.53292917079,-7.1377884924,1.19903671489,2.38304939926,19.1854873078,-3.84635974695,-0.0155577574316,0.0,-0.0498097905348,0.0,0.0541599145838,0.0,-3.06040899323,0.0,-0.049569224798,0.0,0.00178267548983,0.0,0.0155451240021,0.0,0.0727291180053,0.0,0.00101869455533,0.0,-0.0,-0.0,0.592139422894,-2.0,-39.8371685741,35.8485263308,1.04259428183,-25.0,-1.04412880738,21.0,1.0471975512,-25.0,-1.0471975512,21.0,1420536.4089,0.0,0.0,0.0,0.0,0.0,0.0
1402759862991407966,3,-7.53292917079,-7.1377884924,1.19903671489,2.38304939926,19.1854873078,-3.84635974695,-0.0155577574316,0.0,-0.0498097905348,0.0,0.0541599145838,0.0,-3.06040899323,0.0,-0.049569224798,0.0,0.00178267548983,0.0,0.0155451240021,0.0,0.0727291180053,0.0,0.00101869455533,0.0,-0.0,-0.0,0.592139422894,-2.0,-39.8371685741,35.8485263308,1.04259428183,-25.0,-1.04566326936,21.0,1.0471975512,-25.0,-1.0471975512,21.0,1420536.4089,0.0,0.0,0.0,0.0,0.0,0.0
1402759863011945181,3,-7.53351033082,-7.1377884924,1.1968866875,2.38304939926,19.1879360017,-3.84635974695,-0.0155648379025,0.0,-0.0497872587481,0.0,0.0545302703918,0.0,-3.06235239823,0.0,-0.0470685276588,0.0,0.00107983796275,0.0,0.010246000497,0.0,0.0727274548278,0.0,0.00248982869882,0.0,-0.0,-0.0,0.592139422894,-2.0,-39.8371685741,35.8485263308,1.04412874381,-25.0,-1.04566326936,21.0,1.0471975512,-25.0,-1.0471975512,21.0,1420536.4089,0.0,0.0,0.0,0.0,0.0,0.0
1402759863031489914,3,-7.53351033082,-7.1377884924,1.1968866875,2.38304939926,19.1879360017,-3.84635974695,-0.0155648379025,0.0,-0.0497872587481,0.0,0.0545302703918,0.0,-3.06235239823,0.0,-0.0470685276588,0.0,0.00107983796275,0.0,0.010246000497,0.0,0.0727274548278,0.0,0.00248982869882,0.0,-0.0,-0.0,0.592139422894,-2.0,-39.8371685741,35.8485263308,1.04259428183,-25.0,-1.04412880738,21.0,1.0471975512,-25.0,-1.0471975512,21.0,1420536.4089,0.0,0.0,0.0,0.0,0.0,0.0
1402759863051359681,3,-7.52210836187,-7.1377884924,1.20038568839,2.38304939926,19.1776072085,-3.84635974695,-0.00984964351729,0.0,-0.0483072808927,0.0,0.0535246511874,0.0,-3.06438359022,0.0,-0.0492140458059,0.0,0.000755893836849,0.0,0.0222150335119,0.0,0.0722779624262,0.0,-0.00113402133039,0.0,-0.0,-0.0,0.592139422894,-2.0,-39.8371685741,35.8485263308,1.04259428183,-25.0,-1.04412880738,21.0,1.0471975512,-25.0,-1.0471975512,21.0,1420536.4089,0.0,0.0,0.0,0.0,0.0,0.0
1402759863071413740,3,-7.52210836187,-7.1377884924,1.20038568839,2.38304939926,19.1776072085,-3.84635974695,-0.00984964351729,0.0,-0.0483072808927,0.0,0.0535246511874,0.0,-3.06438359022,0.0,-0.0492140458059,0.0,0.000755893836849,0.0,0.0222150335119,0.0,0.0722779624262,0.0,-0.00113402133039,0.0,-0.0,-0.0,0.592139422894,-2.0,-39.8371685741,35.8485263308,1.04259428183,-25.0,-1.04566326936,21.0,1.0471975512,-25.0,-1.0471975512,21.0,1420536.4089,0.0,0.0,0.0,0.0,0.0,0.0
1402759863092001130,3,-7.50815971641,-7.1377884924,1.20302361909,2.38304939926,19.1758527777,-3.84635974695,0.00484423050957,0.0,-0.0459455133769,0.0,0.0552616070551,0.0,-3.06653186723,0.0,-0.0534386152524,0.0,0.000127644657289,0.0,0.0237816807393,0.0,0.07101159309,0.0,0.000296900356618,0.0,-0.0,-0.0,0.592139422894,-2.0,-39.8371685741,35.8485263308,1.04259428183,-25.0,-1.04566326936,21.0,1.0471975512,-25.0,-1.0471975512,21.0,1420536.4089,0.0,0.0,0.0,0.0,0.0,0.0
1402759863111734983,3,-7.50815971641,-7.1377884924,1.20302361909,2.38304939926,19.1758527777,-3.84635974695,0.00484423050957,0.0,-0.0459455133769,0.0,0.0552616070551,0.0,-3.06653186723,0.0,-0.0534386152524,0.0,0.000127644657289,0.0,0.0237816807393,0.0,0.07101159309,0.0,0.000296900356618,0.0,-0.0,-0.0,0.592139422894,-2.0,-39.8371685741,35.8485263308,1.04412874381,-25.0,-1.04412880738,21.0,1.0471975512,-25.0,-1.0471975512,21.0,1420536.4089,0.0,0.0,0.0,0.0,0.0,0.0
1402759863131824012,3,-7.50271309229,-7.1377884924,1.19885465924,2.38304939926,19.1678759989,-3.84635974695,0.00616263629438,0.0,-0.0572965482748,0.0,0.0542614291807,0.0,-3.06858500406,0.0,-0.0467084670617,0.0,-0.00223324611739,0.0,0.0124850819333,0.0,0.0709463007213,0.0,0.000864084038381,0.0,-0.0,-0.0,0.592139422894,-2.0,-39.8371685741,35.8485263308,1.04412874381,-25.0,-1.04566326936,21.0,1.0471975512,-25.0,-1.0471975512,21.0,1420536.4089,0.0,0.0,0.0,0.0,0.0,0.0
1402759863152021283,3,-7.50271309229,-7.1377884924,1.19885465924,2.38304939926,19.1678759989,-3.84635974695,0.00616263629438,0.0,-0.0572965482748,0.0,0.0542614291807,0.0,-3.06858500406,0.0,-0.0467084670617,0.0,-0.00223324611739,0.0,0.0124850819333,0.0,0.0709463007213,0.0,0.000864084038381,0.0,-0.0,-0.0,0.592139422894,-2.0,-39.8371685741,35.8485263308,1.04259428183,-25.0,-1.04566326936,21.0,1.0471975512,-25.0,-1.0471975512,21.0,1420536.4089,0.0,0.0,0.0,0.0,0.0,0.0
1402759863171899985,3,-7.49673226497,-7.1377884924,1.207391582,2.38304939926,19.1494898076,-3.84635974695,0.00218738756892,0.0,-0.0398800635571,0.0,0.0501307418355,0.0,-3.0706003875,0.0,-0.0500785884359,0.0,-0.000288613529688,0.0,0.0136643632866,0.0,0.0714904831718,0.0,-0.00415168355435,0.0,-0.0,-0.0,0.592139422894,-2.0,-39.8371685741,35.8485263308,1.04259428183,-25.0,-1.04412880738,21.0,1.0471975512,-25.0,-1.0471975512,21.0,1420536.4089,0.0,0.0,0.0,0.0,0.0,0.0
1402759863191617832,3,-7.49673226497,-7.1377884924,1.207391582,2.38304939926,19.1494898076,-3.84635974695,0.00218738756892,0.0,-0.0398800635571,0.0,0.0501307418355,0.0,-3.0706003875,0.0,-0.0500785884359,0.0,-0.000288613529688,0.0,0.0136643632866,0.0,0.0714904831718,0.0,-0.00415168355435,0.0,-0.0,-0.0,0.592139422894,-2.0,-39.8371685741,35.8485263308,1.04259428183,-25.0,-1.04412880738,21.0,1.0471975512,-25.0,-1.0471975512,21.0,1420536.4089,0.0,0.0,0.0,0.0,0.0,0.0
1402759863211996416,3,-7.50037117308,-7.1377884924,1.19874340584,2.38304939926,19.1473030545,-3.84635974695,-0.00460722106382,0.0,-0.0612691295413,0.0,0.0515105878975,0.0,-3.07293898777,0.0,-0.0569341681358,0.0,-0.00329657805858,0.0,0.00588041033375,0.0,0.0721758005343,0.0,-0.00122275654384,0.0,-0.0,-0.0,0.592139422894,-2.0,-39.8371685741,35.8485263308,1.04259428183,-25.0,-1.04566326936,21.0,1.0471975512,-25.0,-1.0471975512,21.0,1420536.4089,0.0,0.0,0.0,0.0,0.0,0.0
1402759863231845730,3,-7.50037117308,-7.1377884924,1.19874340584,2.38304939926,19.1473030545,-3.84635974695,-0.00460722106382,0.0,-0.0612691295413,0.0,0.0515105878975,0.0,-3.07293898777,0.0,-0.0569341681358,0.0,-0.00329657805858,0.0,0.00588041033375,0.0,0.0721758005343,0.0,-0.00122275654384,0.0,-0.0,-0.0,0.592139422894,-2.0,-39.8371685741,35.8485263308,1.04259428183,-25.0,-1.04412880738,21.0,1.0471975512,-25.0,-1.0471975512,21.0,1420536.4089,0.0,0.0,0.0,0.0,0.0,0.0
1402759863251498131,3,-7.50061240602,-7.1377884924,1.19633193518,2.38304939926,19.1491370153,-3.84635974695,-0.0039227440657,0.0,-0.0623532892531,0.0,0.0508429255848,0.0,-3.07510372894,0.0,-0.0541152155619,0.0,-0.00370793826176,0.0,0.00915881598964,0.0,0.072178904788,0.0,0.00309272525007,0.0,-0.0,-0.0,0.592139422894,-2.0,-39.8371685741,35.8485263308,1.04412874381,-25.0,-1.04566326936,21.0,1.0471975512,-25.0,-1.0471975512,21.0,1420536.4089,0.0,0.0,0.0,0.0,0.0,0.0
1402759863272427025,3,-7.50061240602,-7.1377884924,1.19633193518,2.38304939926,19.1491370153,-3.84635974695,-0.0039227440657,0.0,-0.0623532892531,0.0,0.0508429255848,0.0,-3.07510372894,0.0,-0.0541152155619,0.0,-0.00370793826176,0.0,0.00915881598964,0.0,0.072178904788,0.0,0.00309272525007,0.0,-0.0,-0.0,0.592139422894,-2.0,-39.8371685741,35.8485263308,1.04259428183,-25.0,-1.04412880738,21.0,1.0471975512,-25.0,-1.0471975512,21.0,1420536.4089,0.0,0.0,0.0,0.0,0.0,0.0
1402759863291698814,3,-7.49032587122,-7.1377884924,1.20201471961,2.38304939926,19.1443463044,-3.84635974695,0.00862944224153,0.0,-0.0483015849557,0.0,0.0525416832669,0.0,-3.07707131787,0.0,-0.0532814837615,0.0,-0.00228470088263,0.0,0.00253622657135,0.0,0.0711084550837,0.0,0.000794709349517,0.0,-0.0,-0.0,0.592139422894,-2.0,-39.8371685741,35.8485263308,1.04259428183,-25.0,-1.04566326936,21.0,1.0471975512,-25.0,-1.0471975512,21.0,1420536.4089,0.0,0.0,0.0,0.0,0.0,0.0
1402759863311566751,3,-7.49032587122,-7.1377884924,1.20201471961,2.38304939926,19.1443463044,-3.84635974695,0.00862944224153,0.0,-0.0483015849557,0.0,0.0525416832669,0.0,-3.07707131787,0.0,-0.0532814837615,0.0,-0.00228470088263,0.0,0.00253622657135,0.0,0.0711084550837,0.0,0.000794709349517,0.0,-0.0,-0.0,0.592139422894,-2.0,-39.8371685741,35.8485263308,1.04412874381,-25.0,-1.04566326936,21.0,1.0471975512,-25.0,-1.0471975512,21.0,1420536.4089,0.0,0.0,0.0,0.0,0.0,0.0
1402759863331993271,3,-7.4848474577,-7.1377884924,1.19835969831,2.38304939926,19.1266193371,-3.84635974695,0.0104317860858,0.0,-0.0627430471231,0.0,0.0484776576899,0.0,-3.07923289806,0.0,-0.0531034322283,0.0,-0.00396273741181,0.0,-0.0105309664068,0.0,0.0710350800385,0.0,0.000169110603512,0.0,-0.0,-0.0,0.592139422894,-2.0,-39.8371685741,35.8485263308,1.04259428183,-25.0,-1.04566326936,21.0,1.0471975512,-25.0,-1.0471975512,21.0,1420536.4089,0.0,0.0,0.0,0.0,0.0,0.0
1402759863351527169,3,-7.4848474577,-7.1377884924,1.19835969831,2.38304939926,19.1266193371,-3.84635974695,0.0104317860858,0.0,-0.0627430471231,0.0,0.0484776576899,0.0,-3.07923289806,0.0,-0.0531034322283,0.0,-0.00396273741181,0.0,-0.0105309664068,0.0,0.0710350800385,0.0,0.000169110603512,0.0,-0.0,-0.0,0.592139422894,-2.0,-39.8371685741,35.8485263308,1.04259428183,-25.0,-1.04566326936,21.0,1.0471975512,-25.0,-1.0471975512,21.0,1420536.4089,0.0,0.0,0.0,0.0,0.0,0.0
1402759863371871743,3,-7.48601744818,-7.1377884924,1.19655468902,2.38304939926,19.1218604323,-3.84635974695,0.00252640286165,0.0,-0.0650443233768,0.0,0.0490710299448,0.0,-3.08145734009,0.0,-0.0504824464753,0.0,-0.00353032470182,0.0,0.00131776249992,0.0,0.071796609295,0.0,0.00176208269081,0.0,-0.0,-0.0,0.592139422894,-2.0,-39.8371685741,35.8485263308,1.04259428183,-25.0,-1.04566326936,21.0,1.0471975512,-25.0,-1.0471975512,21.0,1420536.4089,0.0,0.0,0.0,0.0,0.0,0.0
1402759863391623259,3,-7.48601744818,-7.1377884924,1.19655468902,2.38304939926,19.1218604323,-3.84635974695,0.00252640286165,0.0,-0.0650443233768,0.0,0.0490710299448,0.0,-3.08145734009,0.0,-0.0504824464753,0.0,-0.00353032470182,0.0,0.00131776249992,0.0,0.071796609295,0.0,0.00176208269081,0.0,-0.0,-0.0,0.592139422894,-2.0,-39.8371685741,35.8485263308,1.04259428183,-25.0,-1.04412880738,21.0,1.0471975512,-25.0,-1.0471975512,21.0,1420536.4089,0.0,0.0,0.0,0.0,0.0,0.0
1402759863412084896,3,-7.48580214214,-7.1377884924,1.19390468926,2.38304939926,19.1238435193,-3.84635974695,0.00247317630857,0.0,-0.0666302857993,0.0,0.0486929717975,0.0,-3.0836817653,0.0,-0.055615306118,0.0,-0.00315457201317,0.0,-0.00828473110966,0.0,0.0718234280332,0.0,-0.000241046368414,0.0,-0.0,-0.0,0.592139422894,-2.0,-39.8371685741,35.8485263308,1.04259428183,-25.0,-1.04566326936,21.0,1.0471975512,-25.0,-1.0471975512,21.0,1420536.4089,0.0,0.0,0.0,0.0,0.0,0.0
1402759863431528348,3,-7.48580214214,-7.1377884924,1.19390468926,2.38304939926,19.1238435193,-3.84635974695,0.00247317630857,0.0,-0.0666302857993,0.0,0.0486929717975,0.0,-3.0836817653,0.0,-0.055615306118,0.0,-0.00315457201317,0.0,-0.00828473110966,0.0,0.0718234280332,0.0,-0.000241046368414,0.0,-0.0,-0.0,0.592139422894,-2.0,-39.8371685741,35.8485263308,1.04259428183,-25.0,-1.04412880738,21.0,1.0471975512,-25.0,-1.0471975512,21.0,1420536.4089,0.0,0.0,0.0,0.0,0.0,0.0
1402759863451480491,3,-7.47429902563,-7.1377884924,1.19653676547,2.38304939926,19.1088286199,-3.84635974695,0.0108830895178,0.0,-0.0652744237144,0.0,0.0469886419885,0.0,-3.08602265179,0.0,-0.0585298761618,0.0,-0.00271667010698,0.0,-0.0145068662895,0.0,0.0711737676318,0.0,-0.00689036648033,0.0,-0.0,-0.0,0.592139422894,-2.0,-39.8371685741,35.8485263308,1.04259428183,-25.0,-1.04412880738,21.0,1.0471975512,-25.0,-1.0471975512,21.0,1420536.4089,0.0,0.0,0.0,0.0,0.0,0.0
1402759863473124908,3,-7.47429902563,-7.1377884924,1.19653676547,2.38304939926,19.1088286199,-3.84635974695,0.0108830895178,0.0,-0.0652744237144,0.0,0.0469886419885,0.0,-3.08602265179,0.0,-0.0585298761618,0.0,-0.00271667010698,0.0,-0.0145068662895,0.0,0.0711737676318,0.0,-0.00689036648033,0.0,-0.0,-0.0,0.592139422894,-2.0,-39.8371685741,35.8485263308,1.04259428183,-25.0,-1.04566326936,21.0,1.0471975512,-25.0,-1.0471975512,21.0,1420536.4089,0.0,0.0,0.0,0.0,0.0,0.0
1402759863491686745,3,-7.46635517536,-7.1377884924,1.19426931308,2.38304939926,19.0998455026,-3.84635974695,0.0189661594565,0.0,-0.0741125322264,0.0,0.0449074200582,0.0,-3.0884281965,0.0,-0.0586037682366,0.0,-0.00328578947272,0.0,0.000475765787718,0.0,0.0705371030344,0.0,0.00448676920856,0.0,-0.0,-0.0,0.592139422894,-2.0,-39.8371685741,35.8485263308,1.04259428183,-25.0,-1.04566326936,21.0,1.0471975512,-25.0,-1.0471975512,21.0,1420536.4089,0.0,0.0,0.0,0.0,0.0,0.0
1402759863511461165,3,-7.46635517536,-7.1377884924,1.19426931308,2.38304939926,19.0998455026,-3.84635974695,0.0189661594565,0.0,-0.0741125322264,0.0,0.0449074200582,0.0,-3.0884281965,0.0,-0.0586037682366,0.0,-0.00328578947272,0.0,0.000475765787718,0.0,0.0705371030344,0.0,0.00448676920856,0.0,-0.0,-0.0,0.592139422894,-2.0,-39.8371685741,35.8485263308,1.04412874381,-25.0,-1.04566326936,21.0,1.0471975512,-25.0,-1.0471975512,21.0,1420536.4089,0.0,0.0,0.0,0.0,0.0,0.0
1402759863532352390,3,-7.45834095189,-7.1377884924,1.20029811504,2.38304939926,19.0877430279,-3.84635974695,0.0172267437925,0.0,-0.0613878224135,0.0,0.0439134546085,0.0,-3.09064842933,0.0,-0.0605160973113,0.0,-0.00116673091238,0.0,-0.00135408891821,0.0,0.0707909286416,0.0,0.00438034479237,0.0,-0.0,-0.0,0.592139422894,-2.0,-39.8371685741,35.8485263308,1.04259428183,-25.0,-1.04412880738,21.0,1.0471975512,-25.0,-1.0471975512,21.0,1420536.4089,0.0,0.0,0.0,0.0,0.0,0.0
1402759863551470302,3,-7.45834095189,-7.1377884924,1.20029811504,2.38304939926,19.0877430279,-3.84635974695,0.0172267437925,0.0,-0.0613878224135,0.0,0.0439134546085,0.0,-3.09064842933,0.0,-0.0605160973113,0.0,-0.00116673091238,0.0,-0.00135408891821,0.0,0.0707909286416,0.0,0.00438034479237,0.0,-0.0,-0.0,0.592139422894,-2.0,-39.8371685741,35.8485263308,1.04259428183,-25.0,-1.04566326936,21.0,1.0471975512,-25.0,-1.0471975512,21.0,1420536.4089,0.0,0.0,0.0,0.0,0.0,0.0
1402759863571564336,3,-7.45767505488,-7.1377884924,1.19796251444,2.38304939926,19.0893655508,-3.84635974695,0.0174025222478,0.0,-0.0617284714603,0.0,0.0456289312615,0.0,-3.0928554408,0.0,-0.0545644355285,0.0,-0.00100400131328,0.0,-0.00294167221849,0.0,0.0708450417167,0.0,-0.00101830520246,0.0,-0.0,-0.0,0.592139422894,-2.0,-39.8371685741,35.8485263308,1.04259428183,-25.0,-1.04412880738,21.0,1.0471975512,-25.0,-1.0471975512,21.0,1420536.4089,0.0,0.0,0.0,0.0,0.0,0.0
1402759863592949605,3,-7.45767505488,-7.1377884924,1.19796251444,2.38304939926,19.0893655508,-3.84635974695,0.0174025222478,0.0,-0.0617284714603,0.0,0.0456289312615,0.0,-3.0928554408,0.0,-0.0545644355285,0.0,-0.00100400131328,0.0,-0.00294167221849,0.0,0.0708450417167,0.0,-0.00101830520246,0.0,-0.0,-0.0,0.592139422894,-2.0,-39.8371685741,35.8485263308,1.04259428183,-25.0,-1.04566326936,21.0,1.0471975512,-25.0,-1.0471975512,21.0,1420536.4089,0.0,0.0,0.0,0.0,0.0,0.0
1402759863611517551,3,-7.44814528386,-7.1377884924,1.19516088993,2.38304939926,19.0864818062,-3.84635974695,0.0240314447403,0.0,-0.0724146078181,0.0,0.0487069407108,0.0,-3.09534268059,0.0,-0.0608816753446,0.0,-0.00190188854502,0.0,0.00172211118089,0.0,0.0702205570422,0.0,-0.0019498312548,0.0,-0.0,-0.0,0.592139422894,-2.0,-39.8371685741,35.8485263308,1.04259428183,-25.0,-1.04412880738,21.0,1.0471975512,-25.0,-1.0471975512,21.0,1420536.4089,0.0,0.0,0.0,0.0,0.0,0.0
1402759863631500407,3,-7.44814528386,-7.1377884924,1.19516088993,2.38304939926,19.0864818062,-3.84635974695,0.0240314447403,0.0,-0.0724146078181,0.0,0.0487069407108,0.0,-3.09534268059,0.0,-0.0608816753446,0.0,-0.00190188854502,0.0,0.00172211118089,0.0,0.0702205570422,0.0,-0.0019498312548,0.0,-0.0,-0.0,0.592139422894,-2.0,-39.8371685741,35.8485263308,1.04412874381,-25.0,-1.04412880738,21.0,1.0471975512,-25.0,-1.0471975512,21.0,1420536.4089,0.0,0.0,0.0,0.0,0.0,0.0
1402759863652027348,3,-7.44680311384,-7.1377884924,1.19640214994,2.38304939926,19.0788068182,-3.84635974695,0.0127726619244,0.0,-0.066265354366,0.0,0.0502073959363,0.0,-3.09761778613,0.0,-0.0615958195915,0.0,-0.000516283353943,0.0,-0.0111881462232,0.0,0.0714118067777,0.0,-0.00559126824546,0.0,-0.0,-0.0,0.592139422894,-2.0,-39.8371685741,35.8485263308,1.04412874381,-25.0,-1.04566326936,21.0,1.0471975512,-25.0,-1.0471975512,21.0,1420536.4089,0.0,0.0,0.0,0.0,0.0,0.0
1402759863671506077,3,-7.44680311384,-7.1377884924,1.19640214994,2.38304939926,19.0788068182,-3.84635974695,0.0127726619244,0.0,-0.066265354366,0.0,0.0502073959363,0.0,-3.09761778613,0.0,-0.0615958195915,0.0,-0.000516283353943,0.0,-0.0111881462232,0.0,0.0714118067777,0.0,-0.00559126824546,0.0,-0.0,-0.0,0.592139422894,-2.0,-39.8371685741,35.8485263308,1.04259428183,-25.0,-1.04412880738,21.0,1.0471975512,-25.0,-1.0471975512,21.0,1420536.4089,0.0,0.0,0.0,0.0,0.0,0.0
1402759863691597016,3,-7.43868294469,-7.1377884924,1.19729906464,2.38304939926,19.0724742081,-3.84635974695,0.0170411207538,0.0,-0.0638773206213,0.0,0.0518597144354,0.0,-3.1000304048,0.0,-0.05873386522,0.0,-3.17422436568e-05,0.0,-0.00850913781464,0.0,0.0711040680552,0.0,-0.00371305703757,0.0,-0.0,-0.0,0.592139422894,-2.0,-39.8371685741,35.8485263308,1.04259428183,-25.0,-1.04566326936,21.0,1.0471975512,-25.0,-1.0471975512,21.0,1420536.4089,0.0,0.0,0.0,0.0,0.0,0.0
1402759863711473060,3,-7.43868294469,-7.1377884924,1.19729906464,2.38304939926,19.0724742081,-3.84635974695,0.0170411207538,0.0,-0.0638773206213,0.0,0.0518597144354,0.0,-3.1000304048,0.0,-0.05873386522,0.0,-3.17422436568e-05,0.0,-0.00850913781464,0.0,0.0711040680552,0.0,-0.00371305703757,0.0,-0.0,-0.0,0.592139422894,-2.0,-39.8371685741,35.8485263308,1.04259428183,-25.0,-1.04566326936,21.0,1.0471975512,-25.0,-1.0471975512,21.0,1420536.4089,0.0,0.0,0.0,0.0,0.0,0.0
1402759863731936573,3,-7.43237056705,-7.1377884924,1.19847517509,2.38304939926,19.0595901371,-3.84635974695,0.0136250194564,0.0,-0.0636512691256,0.0,0.0513072306314,0.0,-3.10220605416,0.0,-0.058438526537,0.0,0.000480477073233,0.0,-0.0104600414719,0.0,0.0716903687485,0.0,-0.00468493218518,0.0,-0.0,-0.0,0.592139422894,-2.0,-39.8371685741,35.8485263308,1.04259428183,-25.0,-1.04566326936,21.0,1.0471975512,-25.0,-1.0471975512,21.0,1420536.4089,0.0,0.0,0.0,0.0,0.0,0.0
1402759863751470972,3,-7.43237056705,-7.1377884924,1.19847517509,2.38304939926,19.0595901371,-3.84635974695,0.0136250194564,0.0,-0.0636512691256,0.0,0.0513072306314,0.0,-3.10220605416,0.0,-0.058438526537,0.0,0.000480477073233,0.0,-0.0104600414719,0.0,0.0716903687485,0.0,-0.00468493218518,0.0,-0.0,-0.0,0.592139422894,-2.0,-39.8371685741,35.8485263308,1.04412874381,-25.0,-1.04566326936,21.0,1.0471975512,-25.0,-1.0471975512,21.0,1420536.4089,0.0,0.0,0.0,0.0,0.0,0.0
1402759863771620461,3,-7.42565910998,-7.1377884924,1.1962566454,2.38304939926,19.0539589471,-3.84635974695,0.0134566730457,0.0,-0.0706822457233,0.0,0.0528000031488,0.0,-3.10471061228,0.0,-0.0600648058179,0.0,6.98247805061e-05,0.0,-0.0115821514359,0.0,0.0719374665905,0.0,-0.0010289246253,0.0,-0.0,-0.0,0.592139422894,-2.0,-39.8371685741,35.8485263308,1.04259428183,-25.0,-1.04566326936,21.0,1.0471975512,-25.0,-1.0471975512,21.0,1420536.4089,0.0,0.0,0.0,0.0,0.0,0.0
1402759863792247968,3,-7.42565910998,-7.1377884924,1.1962566454,2.38304939926,19.0539589471,-3.84635974695,0.0134566730457,0.0,-0.0706822457233,0.0,0.0528000031488,0.0,-3.10471061228,0.0,-0.0600648058179,0.0,6.98247805061e-05,0.0,-0.0115821514359,0.0,0.0719374665905,0.0,-0.0010289246253,0.0,-0.0,-0.0,0.592139422894,-2.0,-39.8371685741,35.8485263308,1.04259428183,-25.0,-1.04412880738,21.0,1.0471975512,-25.0,-1.0471975512,21.0,1420536.4089,0.0,0.0,0.0,0.0,0.0,0.0
1402759863811928528,3,-7.41334026863,-7.1377884924,1.19989636603,2.38304939926,19.0421387758,-3.84635974695,0.0208339370924,0.0,-0.0652114196515,0.0,0.0517876084353,0.0,-3.10703338407,0.0,-0.0604206449077,0.0,0.00109052203246,0.0,-0.00739831486348,0.0,0.0714736879736,0.0,-0.000365722458184,0.0,-0.0,-0.0,0.592139422894,-2.0,-39.8371685741,35.8485263308,1.04412874381,-25.0,-1.04412880738,21.0,1.0471975512,-25.0,-1.0471975512,21.0,1420536.4089,0.0,0.0,0.0,0.0,0.0,0.0
1402759863831444515,3,-7.41334026863,-7.1377884924,1.19989636603,2.38304939926,19.0421387758,-3.84635974695,0.0208339370924,0.0,-0.0652114196515,0.0,0.0517876084353,0.0,-3.10703338407,0.0,-0.0604206449077,0.0,0.00109052203246,0.0,-0.00739831486348,0.0,0.0714736879736,0.0,-0.000365722458184,0.0,-0.0,-0.0,0.592139422894,-2.0,-39.8371685741,35.8485263308,1.04259428183,-25.0,-1.04566326936,21.0,1.0471975512,-25.0,-1.0471975512,21.0,1420536.4089,0.0,0.0,0.0,0.0,0.0,0.0
