rosbagTimestamp,control_method,x_current,x_desired,y_current,y_desired,z_current,z_desired,x_velocity_current,x_velocity_desired,y_velocity_current,y_velocity_desired,z_velocity_current,z_velocity_desired,yaw_current,yaw_desired,yaw_velocity_current,yaw_velocity_desired,roll_current,roll_desired,roll_velocity_current,roll_velocity_desired,pitch_current,pitch_desired,pitch_velocity_current,pitch_velocity_desired,required_force_x,required_force_y,required_moment_z,resultant_force_x,resultant_force_y,resultant_moment_z,current_port_servo_angle,current_port_thruster_force,current_starboard_servo_angle,current_starboard_thruster_force,estimated_port_servo_angle,estimated_port_thruster_force,estimated_starboard_servo_angle,estimated_starboard_thruster_force,cost_value,step,user_defined_1,user_defined_2,user_defined_3,user_defined_4,user_defined_5
1402756900121574426,3,-12.5257715856,-7.1377884924,14.1946998167,2.38304939926,29.7145996801,-3.84635974695,-0.198809319687,0.0,0.271107708261,0.0,0.902537821922,0.0,-2.50320938315,0.0,-0.00681605972297,0.0,0.00172941367537,0.0,0.000443526243186,0.0,0.071419520404,0.0,0.00722877203981,0.0,0.0,0.0,0.0,-14.1421356237,-127.279220614,130.932134245,0.772547809285,0.0,-0.784822614985,0.0,0.785398163397,-100.0,-0.785398163397,80.0,16763611.889,0.0,0.0,0.0,0.0,0.0,0.0
1402756900141854337,3,-12.5336774224,-7.1377884924,14.2055714481,2.38304939926,29.7505887969,-3.84635974695,-0.19988934044,0.0,0.272344078164,0.0,0.901749792885,0.0,-2.50326900027,0.0,-0.00252465725606,0.0,0.00158149854813,0.0,-0.00289572011532,0.0,0.0711160610889,0.0,0.00861168045106,0.0,0.0,0.0,0.0,-14.1421356237,-127.279220614,130.932134245,0.772547809285,0.0,-0.784822614985,0.0,0.785398163397,-100.0,-0.785398163397,80.0,16763611.889,0.0,0.0,0.0,0.0,0.0,0.0
1402756900161070318,3,-12.5336774224,-7.1377884924,14.2055714481,2.38304939926,29.7505887969,-3.84635974695,-0.19988934044,0.0,0.272344078164,0.0,0.901749792885,0.0,-2.50326900027,0.0,-0.00252465725606,0.0,0.00158149854813,0.0,-0.00289572011532,0.0,0.0711160610889,0.0,0.00861168045106,0.0,0.0,0.0,0.0,-14.1421356237,-127.279220614,130.932134245,0.772547809285,0.0,-0.783288391429,0.0,0.785398163397,-100.0,-0.785398163397,80.0,16763611.889,0.0,0.0,0.0,0.0,0.0,0.0
1402756900181185262,3,-12.5359517417,-7.1377884924,14.2169551875,2.38304939926,29.7757611613,-3.84635974695,-0.193067161247,0.0,0.283419728282,0.0,0.900986850505,0.0,-2.503465582,0.0,-0.00850829040727,0.0,0.00206022729893,0.0,0.00288662986557,0.0,0.0694194300306,0.0,0.00875676165899,0.0,0.0,0.0,0.0,-14.1421356237,-127.279220614,130.932134245,0.772547809285,0.0,-0.784822614985,0.0,0.785398163397,-100.0,-0.785398163397,80.0,16763611.889,0.0,0.0,0.0,0.0,0.0,0.0
1402756900201173217,3,-12.5359517417,-7.1377884924,14.2169551875,2.38304939926,29.7757611613,-3.84635974695,-0.193067161247,0.0,0.283419728282,0.0,0.900986850505,0.0,-2.503465582,0.0,-0.00850829040727,0.0,0.00206022729893,0.0,0.00288662986557,0.0,0.0694194300306,0.0,0.00875676165899,0.0,0.0,0.0,0.0,-14.1421356237,-127.279220614,130.932134245,0.772547809285,0.0,-0.784822614985,0.0,0.785398163397,-100.0,-0.785398163397,80.0,16763611.889,0.0,0.0,0.0,0.0,0.0,0.0
1402756900221856803,3,-12.5391600766,-7.1377884924,14.2114944691,2.38304939926,29.7841671193,-3.84635974695,-0.20015924502,0.0,0.266041809696,0.0,0.897999181602,0.0,-2.50366304882,0.0,0.000462042512392,0.0,0.000719137664985,0.0,0.00533598102939,0.0,0.0713178392985,0.0,0.00756848175122,0.0,0.0,0.0,0.0,-14.1421356237,-127.279220614,130.932134245,0.772547809285,0.0,-0.784822614985,0.0,0.785398163397,-100.0,-0.785398163397,80.0,16763611.889,0.0,0.0,0.0,0.0,0.0,0.0
1402756900241127311,3,-12.5391600766,-7.1377884924,14.2114944691,2.38304939926,29.7841671193,-3.84635974695,-0.20015924502,0.0,0.266041809696,0.0,0.897999181602,0.0,-2.50366304882,0.0,0.000462042512392,0.0,0.000719137664985,0.0,0.00533598102939,0.0,0.0713178392985,0.0,0.00756848175122,0.0,0.0,0.0,0.0,-14.1421356237,-127.279220614,130.932134245,0.772547809285,0.0,-0.784822614985,0.0,0.785398163397,-100.0,-0.785398163397,80.0,16763611.889,0.0,0.0,0.0,0.0,0.0,0.0
1402756900261187963,3,-12.5390744736,-7.1377884924,14.2114127171,2.38304939926,29.7870557672,-3.84635974695,-0.200345800136,0.0,0.265984382615,0.0,0.895542703384,0.0,-2.50365470005,0.0,0.00333711077015,0.0,0.000604389575605,0.0,0.00559659062233,0.0,0.0712603143719,0.0,0.00185217428594,0.0,0.0,0.0,0.0,-14.1421356237,-127.279220614,130.932134245,0.772547809285,0.0,-0.784822614985,0.0,0.785398163397,-100.0,-0.785398163397,80.0,16763611.889,0.0,0.0,0.0,0.0,0.0,0.0
1402756900281758622,3,-12.5390744736,-7.1377884924,14.2114127171,2.38304939926,29.7870557672,-3.84635974695,-0.200345800136,0.0,0.265984382615,0.0,0.895542703384,0.0,-2.50365470005,0.0,0.00333711077015,0.0,0.000604389575605,0.0,0.00559659062233,0.0,0.0712603143719,0.0,0.00185217428594,0.0,0.0,0.0,0.0,-14.1421356237,-127.279220614,130.932134245,0.772547809285,0.0,-0.783288391429,0.0,0.785398163397,-100.0,-0.785398163397,80.0,16763611.889,0.0,0.0,0.0,0.0,0.0,0.0
1402756900302048626,3,-12.540981794,-7.1377884924,14.2101909984,2.38304939926,29.7824949096,-3.84635974695,-0.206710628419,0.0,0.266587480015,0.0,0.892996719364,0.0,-2.50354686285,0.0,0.0026907515439,0.0,0.000963716646507,0.0,0.00782639619251,0.0,0.0717296826517,0.0,-0.000893177265096,0.0,0.0,0.0,0.0,-14.1421356237,-127.279220614,130.932134245,0.772547809285,0.0,-0.784822614985,0.0,0.785398163397,-100.0,-0.785398163397,80.0,16763611.889,0.0,0.0,0.0,0.0,0.0,0.0
1402756900321108292,3,-12.540981794,-7.1377884924,14.2101909984,2.38304939926,29.7824949096,-3.84635974695,-0.206710628419,0.0,0.266587480015,0.0,0.892996719364,0.0,-2.50354686285,0.0,0.0026907515439,0.0,0.000963716646507,0.0,0.00782639619251,0.0,0.0717296826517,0.0,-0.000893177265096,0.0,0.0,0.0,0.0,-14.1421356237,-127.279220614,130.932134245,0.772547809285,0.0,-0.784822614985,0.0,0.785398163397,-100.0,-0.785398163397,80.0,16763611.889,0.0,0.0,0.0,0.0,0.0,0.0
1402756900341588804,3,-12.5349070374,-7.1377884924,14.2052999664,2.38304939926,29.772006212,-3.84635974695,-0.199502362445,0.0,0.265656826577,0.0,0.890972826069,0.0,-2.50365562039,0.0,0.000202484830482,0.0,0.000524031438619,0.0,0.00327355514159,0.0,0.0712879093518,0.0,-0.0115582457577,0.0,0.0,0.0,0.0,-14.1421356237,-127.279220614,130.932134245,0.772547809285,0.0,-0.784822614985,0.0,0.785398163397,-100.0,-0.785398163397,80.0,16763611.889,0.0,0.0,0.0,0.0,0.0,0.0
1402756900361105692,3,-12.5349070374,-7.1377884924,14.2052999664,2.38304939926,29.772006212,-3.84635974695,-0.199502362445,0.0,0.265656826577,0.0,0.890972826069,0.0,-2.50365562039,0.0,0.000202484830482,0.0,0.000524031438619,0.0,0.00327355514159,0.0,0.0712879093518,0.0,-0.0115582457577,0.0,0.0,0.0,0.0,-14.1421356237,-127.279220614,130.932134245,0.771013585729,0.0,-0.784822614985,0.0,0.785398163397,-100.0,-0.785398163397,80.0,16763611.889,0.0,0.0,0.0,0.0,0.0,0.0
1402756900381244319,3,-12.5360481461,-7.1377884924,14.2017664343,2.38304939926,29.7709593186,-3.84635974695,-0.20340251854,0.0,0.260003900078,0.0,0.889082989624,0.0,-2.50357685296,0.0,0.00191476576772,0.0,0.00040630734978,0.0,0.00611743654408,0.0,0.0725812242106,0.0,-0.0115119003557,0.0,0.0,0.0,0.0,-14.1421356237,-127.279220614,130.932134245,0.772547809285,0.0,-0.784822614985,0.0,0.785398163397,-100.0,-0.785398163397,80.0,16763611.889,0.0,0.0,0.0,0.0,0.0,0.0
1402756900401767867,3,-12.5360481461,-7.1377884924,14.2017664343,2.38304939926,29.7709593186,-3.84635974695,-0.20340251854,0.0,0.260003900078,0.0,0.889082989624,0.0,-2.50357685296,0.0,0.00191476576772,0.0,0.00040630734978,0.0,0.00611743654408,0.0,0.0725812242106,0.0,-0.0115119003557,0.0,0.0,0.0,0.0,-14.1421356237,-127.279220614,130.932134245,0.772547809285,0.0,-0.784822614985,0.0,0.785398163397,-100.0,-0.785398163397,80.0,16763611.889,0.0,0.0,0.0,0.0,0.0,0.0
1402756900421346924,3,-12.540842763,-7.1377884924,14.2081095044,2.38304939926,29.7755564428,-3.84635974695,-0.207541413414,0.0,0.271840299443,0.0,0.886834776163,0.0,-2.50351977275,0.0,-0.000448067066856,0.0,0.00192591776861,0.0,0.0052727440908,0.0,0.072440604224,0.0,-0.00636538665782,0.0,0.0,0.0,0.0,-14.1421356237,-127.279220614,130.932134245,0.772547809285,0.0,-0.783288391429,0.0,0.785398163397,-100.0,-0.785398163397,80.0,16763611.889,0.0,0.0,0.0,0.0,0.0,0.0
1402756900441049555,3,-12.540842763,-7.1377884924,14.2081095044,2.38304939926,29.7755564428,-3.84635974695,-0.207541413414,0.0,0.271840299443,0.0,0.886834776163,0.0,-2.50351977275,0.0,-0.000448067066856,0.0,0.00192591776861,0.0,0.0052727440908,0.0,0.072440604224,0.0,-0.00636538665782,0.0,0.0,0.0,0.0,-14.1421356237,-127.279220614,130.932134245,0.772547809285,0.0,-0.783288391429,0.0,0.785398163397,-100.0,-0.785398163397,80.0,16763611.889,0.0,0.0,0.0,0.0,0.0,0.0
1402756900461585787,3,-12.5448241974,-7.1377884924,14.2135707514,2.38304939926,29.7932425179,-3.84635974695,-0.207996544487,0.0,0.271887371803,0.0,0.887664136752,0.0,-2.50356234489,0.0,-0.00518058964272,0.0,0.00197814340463,0.0,0.00249945202723,0.0,0.072668287866,0.0,-0.00967015567603,0.0,0.0,0.0,0.0,-14.1421356237,-127.279220614,130.932134245,0.771013585729,0.0,-0.784822614985,0.0,0.785398163397,-100.0,-0.785398163397,80.0,16763611.889,0.0,0.0,0.0,0.0,0.0,0.0
1402756900481039318,3,-12.5448241974,-7.1377884924,14.2135707514,2.38304939926,29.7932425179,-3.84635974695,-0.207996544487,0.0,0.271887371803,0.0,0.887664136752,0.0,-2.50356234489,0.0,-0.00518058964272,0.0,0.00197814340463,0.0,0.00249945202723,0.0,0.072668287866,0.0,-0.00967015567603,0.0,0.0,0.0,0.0,-14.1421356237,-127.279220614,130.932134245,0.771013585729,0.0,-0.783288391429,0.0,0.785398163397,-100.0,-0.785398163397,80.0,16763611.889,0.0,0.0,0.0,0.0,0.0,0.0
1402756900501171632,3,-12.5439280883,-7.1377884924,14.2040537844,2.38304939926,29.7774177858,-3.84635974695,-0.213287394103,0.0,0.261142979659,0.0,0.885558779477,0.0,-2.50369435351,0.0,-0.00406626768459,0.0,0.00136082095477,0.0,0.00658657886158,0.0,0.0743140838008,0.0,-0.00471044191474,0.0,0.0,0.0,0.0,-14.1421356237,-127.279220614,130.932134245,0.772547809285,0.0,-0.784822614985,0.0,0.785398163397,-100.0,-0.785398163397,80.0,16763611.889,0.0,0.0,0.0,0.0,0.0,0.0
1402756900521807249,3,-12.5439280883,-7.1377884924,14.2040537844,2.38304939926,29.7774177858,-3.84635974695,-0.213287394103,0.0,0.261142979659,0.0,0.885558779477,0.0,-2.50369435351,0.0,-0.00406626768459,0.0,0.00136082095477,0.0,0.00658657886158,0.0,0.0743140838008,0.0,-0.00471044191474,0.0,0.0,0.0,0.0,-14.1421356237,-127.279220614,130.932134245,0.772547809285,0.0,-0.784822614985,0.0,0.785398163397,-100.0,-0.785398163397,80.0,16763611.889,0.0,0.0,0.0,0.0,0.0,0.0
1402756900541138617,3,-12.5528871904,-7.1377884924,14.2149087694,2.38304939926,29.8147737159,-3.84635974695,-0.214501919679,0.0,0.261305208335,0.0,0.887770435665,0.0,-2.50369368454,0.0,-0.00257009683628,0.0,0.00128511745697,0.0,0.00783496584083,0.0,0.0746309883976,0.0,-7.06170533862e-05,0.0,0.0,0.0,0.0,-14.1421356237,-127.279220614,130.932134245,0.771013585729,0.0,-0.784822614985,0.0,0.785398163397,-100.0,-0.785398163397,80.0,16763611.889,0.0,0.0,0.0,0.0,0.0,0.0
1402756900561222457,3,-12.5528871904,-7.1377884924,14.2149087694,2.38304939926,29.8147737159,-3.84635974695,-0.214501919679,0.0,0.261305208335,0.0,0.887770435665,0.0,-2.50369368454,0.0,-0.00257009683628,0.0,0.00128511745697,0.0,0.00783496584083,0.0,0.0746309883976,0.0,-7.06170533862e-05,0.0,0.0,0.0,0.0,-14.1421356237,-127.279220614,130.932134245,0.772547809285,0.0,-0.784822614985,0.0,0.785398163397,-100.0,-0.785398163397,80.0,16763611.889,0.0,0.0,0.0,0.0,0.0,0.0
1402756900581665603,3,-12.5405513108,-7.1377884924,14.2093575365,2.38304939926,29.8068801149,-3.84635974695,-0.192933770451,0.0,0.259638312026,0.0,0.886895330499,0.0,-2.50403051369,0.0,-0.00754676162684,0.0,0.000187712317818,0.0,0.00835448184348,0.0,0.0729060186673,0.0,0.00485081099515,0.0,0.0,0.0,0.0,-14.1421356237,-127.279220614,130.932134245,0.772547809285,0.0,-0.783288391429,0.0,0.785398163397,-100.0,-0.785398163397,80.0,16763611.889,0.0,0.0,0.0,0.0,0.0,0.0
1402756900601128713,3,-12.5405513108,-7.1377884924,14.2093575365,2.38304939926,29.8068801149,-3.84635974695,-0.192933770451,0.0,0.259638312026,0.0,0.886895330499,0.0,-2.50403051369,0.0,-0.00754676162684,0.0,0.000187712317818,0.0,0.00835448184348,0.0,0.0729060186673,0.0,0.00485081099515,0.0,0.0,0.0,0.0,-14.1421356237,-127.279220614,130.932134245,0.772547809285,0.0,-0.783288391429,0.0,0.785398163397,-100.0,-0.785398163397,80.0,16763611.889,0.0,0.0,0.0,0.0,0.0,0.0
1402756900621142328,3,-12.545614501,-7.1377884924,14.2144588075,2.38304939926,29.8322598243,-3.84635974695,-0.196632142912,0.0,0.258494801209,0.0,0.889027806945,0.0,-2.50426652946,0.0,-0.00605077698027,0.0,-0.000138710108709,0.0,0.00382252639489,0.0,0.0733152998714,0.0,0.00204517821871,0.0,0.0,0.0,0.0,-14.1421356237,-127.279220614,130.932134245,0.772547809285,0.0,-0.783288391429,0.0,0.785398163397,-100.0,-0.785398163397,80.0,16763611.889,0.0,0.0,0.0,0.0,0.0,0.0
1402756900641499533,3,-12.545614501,-7.1377884924,14.2144588075,2.38304939926,29.8322598243,-3.84635974695,-0.196632142912,0.0,0.258494801209,0.0,0.889027806945,0.0,-2.50426652946,0.0,-0.00605077698027,0.0,-0.000138710108709,0.0,0.00382252639489,0.0,0.0733152998714,0.0,0.00204517821871,0.0,0.0,0.0,0.0,-14.1421356237,-127.279220614,130.932134245,0.772547809285,0.0,-0.784822614985,0.0,0.785398163397,-100.0,-0.785398163397,80.0,16763611.889,0.0,0.0,0.0,0.0,0.0,0.0
1402756900661008527,3,-12.5528048902,-7.1377884924,14.2115307175,2.38304939926,29.8464179142,-3.84635974695,-0.207978483283,0.0,0.244421520272,0.0,0.889679420062,0.0,-2.50455074678,0.0,-0.00488898046089,0.0,-0.000760054417152,0.0,-0.00274804993606,0.0,0.0752201132597,0.0,0.00446682681453,0.0,0.0,0.0,0.0,-14.1421356237,-127.279220614,130.932134245,0.772547809285,-100.0,-0.784822614985,80.0,0.785398163397,-100.0,-0.785398163397,80.0,16763611.889,0.0,0.0,0.0,0.0,0.0,0.0
1402756900681162179,3,-12.5528048902,-7.1377884924,14.2115307175,2.38304939926,29.8464179142,-3.84635974695,-0.207978483283,0.0,0.244421520272,0.0,0.889679420062,0.0,-2.50455074678,0.0,-0.00488898046089,0.0,-0.000760054417152,0.0,-0.00274804993606,0.0,0.0752201132597,0.0,0.00446682681453,0.0,0.0,0.0,0.0,-14.1421356237,-127.279220614,130.932134245,0.772547809285,-100.0,-0.784822614985,80.0,0.785398163397,-100.0,-0.785398163397,80.0,16763611.889,0.0,0.0,0.0,0.0,0.0,0.0
1402756900701674139,3,-12.5385239752,-7.1377884924,14.1988015934,2.38304939926,29.7973432608,-3.84635974695,-0.196937524857,0.0,0.252995451016,0.0,0.886059048404,0.0,-2.50464477555,0.0,0.00171021781646,0.0,-0.000536444663621,0.0,-0.00349407500692,0.0,0.0733210133299,0.0,0.00445902859207,0.0,0.0,0.0,0.0,-14.1421356237,-127.279220614,130.932134245,0.772547809285,-100.0,-0.783288391429,80.0,0.785398163397,-100.0,-0.785398163397,80.0,16763611.889,0.0,0.0,0.0,0.0,0.0,0.0
1402756900721050169,3,-12.5424358979,-7.1377884924,14.2038634979,2.38304939926,29.8150205743,-3.84635974695,-0.197066603412,0.0,0.251886294221,0.0,0.887922845886,0.0,-2.50471168439,0.0,-0.00434295904536,0.0,-0.000561117583861,0.0,0.000234665411551,0.0,0.0732757495416,0.0,0.000352375119029,0.0,0.0,0.0,0.0,-14.1421356237,-127.279220614,130.932134245,0.772547809285,-100.0,-0.783288391429,80.0,0.785398163397,-100.0,-0.785398163397,80.0,16763611.889,0.0,0.0,0.0,0.0,0.0,0.0
1402756900741195521,3,-12.5424358979,-7.1377884924,14.2038634979,2.38304939926,29.8150205743,-3.84635974695,-0.197066603412,0.0,0.251886294221,0.0,0.887922845886,0.0,-2.50471168439,0.0,-0.00434295904536,0.0,-0.000561117583861,0.0,0.000234665411551,0.0,0.0732757495416,0.0,0.000352375119029,0.0,0.0,0.0,0.0,-14.1421356237,-127.279220614,130.932134245,0.772547809285,-100.0,-0.781754167872,80.0,0.785398163397,-100.0,-0.785398163397,80.0,16763611.889,0.0,0.0,0.0,0.0,0.0,0.0
1402756900761606092,3,-12.5363147578,-7.1377884924,14.1961537699,2.38304939926,29.7773401093,-3.84635974695,-0.199169700143,0.0,0.262668953771,0.0,0.884928419277,0.0,-2.50466351856,0.0,0.00103209947077,0.0,0.000357411086666,0.0,-0.00337457813252,0.0,0.0725624267453,0.0,0.0118304658523,0.0,0.0,0.0,0.0,-14.1421356237,-127.279220614,130.932134245,0.772547809285,-100.0,-0.781754167872,80.0,0.785398163397,-100.0,-0.785398163397,80.0,16763611.889,0.0,0.0,0.0,0.0,0.0,0.0
1402756900781168164,3,-12.5363147578,-7.1377884924,14.1961537699,2.38304939926,29.7773401093,-3.84635974695,-0.199169700143,0.0,0.262668953771,0.0,0.884928419277,0.0,-2.50466351856,0.0,0.00103209947077,0.0,0.000357411086666,0.0,-0.00337457813252,0.0,0.0725624267453,0.0,0.0118304658523,0.0,0.0,0.0,0.0,-14.1421356237,-127.279220614,130.932134245,0.772547809285,-100.0,-0.781754167872,80.0,0.785398163397,-100.0,-0.785398163397,80.0,16763611.889,0.0,0.0,0.0,0.0,0.0,0.0
1402756900801223001,3,-12.5300578591,-7.1377884924,14.1886986989,2.38304939926,29.7526185444,-3.84635974695,-0.197249549515,0.0,0.265108174692,0.0,0.882492563464,0.0,-2.50471156889,0.0,-0.000332489227795,0.0,0.000264342273871,0.0,-0.00492031001275,0.0,0.0717698003771,0.0,0.0105490706888,0.0,0.0,0.0,0.0,-14.1421356237,-127.279220614,130.932134245,0.77408227126,-100.0,-0.783288391429,80.0,0.785398163397,-100.0,-0.785398163397,80.0,16763611.889,0.0,0.0,0.0,0.0,0.0,0.0
1402756900821186035,3,-12.5300578591,-7.1377884924,14.1886986989,2.38304939926,29.7526185444,-3.84635974695,-0.197249549515,0.0,0.265108174692,0.0,0.882492563464,0.0,-2.50471156889,0.0,-0.000332489227795,0.0,0.000264342273871,0.0,-0.00492031001275,0.0,0.0717698003771,0.0,0.0105490706888,0.0,0.0,0.0,0.0,-14.1421356237,-127.279220614,130.932134245,0.772547809285,-100.0,-0.783288391429,80.0,0.785398163397,-100.0,-0.785398163397,80.0,16763611.889,0.0,0.0,0.0,0.0,0.0,0.0
1402756900841950456,3,-12.5381956822,-7.1377884924,14.1995747369,2.38304939926,29.7886257356,-3.84635974695,-0.193387831685,0.0,0.265011787953,0.0,0.881545211185,0.0,-2.50483590271,0.0,-0.000825846553277,0.0,8.69428424445e-05,0.0,0.00327931545274,0.0,0.07142130298,0.0,0.0112551083467,0.0,0.0,0.0,0.0,-14.1421356237,-127.279220614,130.932134245,0.772547809285,-100.0,-0.781754167872,80.0,0.785398163397,-100.0,-0.785398163397,80.0,16763611.889,0.0,0.0,0.0,0.0,0.0,0.0
1402756900861003587,3,-12.5381956822,-7.1377884924,14.1995747369,2.38304939926,29.7886257356,-3.84635974695,-0.193387831685,0.0,0.265011787953,0.0,0.881545211185,0.0,-2.50483590271,0.0,-0.000825846553277,0.0,8.69428424445e-05,0.0,0.00327931545274,0.0,0.07142130298,0.0,0.0112551083467,0.0,0.0,0.0,0.0,-14.1421356237,-127.279220614,130.932134245,0.772547809285,-100.0,-0.781754167872,80.0,0.785398163397,-100.0,-0.785398163397,80.0,16763611.889,0.0,0.0,0.0,0.0,0.0,0.0
1402756900881234496,3,-12.5249026915,-7.1377884924,14.1716909327,2.38304939926,29.7172910182,-3.84635974695,-0.196829451536,0.0,0.236028775702,0.0,0.867090219233,0.0,-2.50556818236,0.0,-0.0373727416167,0.0,-0.00221467418023,0.0,-0.103618123129,0.0,0.0723815435606,0.0,-0.065821631043,0.0,0.0,0.0,0.0,-14.1421356237,-127.279220614,130.932134245,0.772547809285,-100.0,-0.781754167872,80.0,0.785398163397,-100.0,-0.785398163397,80.0,16763611.889,0.0,0.0,0.0,0.0,0.0,0.0
1402756900901108810,3,-12.5249026915,-7.1377884924,14.1716909327,2.38304939926,29.7172910182,-3.84635974695,-0.196829451536,0.0,0.236028775702,0.0,0.867090219233,0.0,-2.50556818236,0.0,-0.0373727416167,0.0,-0.00221467418023,0.0,-0.103618123129,0.0,0.0723815435606,0.0,-0.065821631043,0.0,0.0,0.0,0.0,-14.1421356237,-127.279220614,130.932134245,0.772547809285,-100.0,-0.783288391429,80.0,0.785398163397,-100.0,-0.785398163397,80.0,16763611.889,0.0,0.0,0.0,0.0,0.0,0.0
1402756900922184606,3,-12.5237619022,-7.1377884924,14.1684050313,2.38304939926,29.6965136116,-3.84635974695,-0.188211782258,0.0,0.228582912589,0.0,0.874629472112,0.0,-2.50622742303,0.0,-0.0329294859546,0.0,0.00177274688761,0.0,-0.00855631552541,0.0,0.0716946754904,0.0,-0.0251397607964,0.0,0.0,0.0,0.0,-14.1421356237,-127.279220614,130.932134245,0.772547809285,-100.0,-0.781754167872,80.0,0.785398163397,-100.0,-0.785398163397,80.0,16763611.889,0.0,0.0,0.0,0.0,0.0,0.0
1402756900941012551,3,-12.5237619022,-7.1377884924,14.1684050313,2.38304939926,29.6965136116,-3.84635974695,-0.188211782258,0.0,0.228582912589,0.0,0.874629472112,0.0,-2.50622742303,0.0,-0.0329294859546,0.0,0.00177274688761,0.0,-0.00855631552541,0.0,0.0716946754904,0.0,-0.0251397607964,0.0,0.0,0.0,0.0,-14.1421356237,-127.279220614,130.932134245,0.772547809285,-100.0,-0.781754167872,80.0,0.785398163397,-100.0,-0.785398163397,80.0,16763611.889,0.0,0.0,0.0,0.0,0.0,0.0
1402756900961036397,3,-12.5158451658,-7.1377884924,14.1583681524,2.38304939926,29.6604716787,-3.84635974695,-0.180664631833,0.0,0.228993414371,0.0,0.863537909154,0.0,-2.50698766477,0.0,-0.0518769529982,0.0,0.00742440979932,0.0,-0.124419541776,0.0,0.0704327718695,0.0,-0.0872733662499,0.0,0.0,0.0,0.0,-14.1421356237,-127.279220614,130.932134245,0.772547809285,-100.0,-0.781754167872,80.0,0.785398163397,-100.0,-0.785398163397,80.0,16763611.889,0.0,0.0,0.0,0.0,0.0,0.0
1402756900981597549,3,-12.5158451658,-7.1377884924,14.1583681524,2.38304939926,29.6604716787,-3.84635974695,-0.180664631833,0.0,0.228993414371,0.0,0.863537909154,0.0,-2.50698766477,0.0,-0.0518769529982,0.0,0.00742440979932,0.0,-0.124419541776,0.0,0.0704327718695,0.0,-0.0872733662499,0.0,0.0,0.0,0.0,-14.1421356237,-127.279220614,130.932134245,0.772547809285,-100.0,-0.781754167872,80.0,0.785398163397,-100.0,-0.785398163397,80.0,16763611.889,0.0,0.0,0.0,0.0,0.0,0.0
1402756901000943488,3,-12.5014302172,-7.1377884924,14.1390456719,2.38304939926,29.6085833441,-3.84635974695,-0.164095770771,0.0,0.210293099398,0.0,0.867682704922,0.0,-2.50892565223,0.0,-0.0744566350584,0.0,0.0121009157629,0.0,-0.138714212699,0.0,0.0692859719799,0.0,-0.0775538824839,0.0,0.0,0.0,0.0,-14.1421356237,-127.279220614,130.932134245,0.771013585729,-100.0,-0.781754167872,80.0,0.785398163397,-100.0,-0.785398163397,80.0,16763611.889,0.0,0.0,0.0,0.0,0.0,0.0
1402756901021071875,3,-12.5014302172,-7.1377884924,14.1390456719,2.38304939926,29.6085833441,-3.84635974695,-0.164095770771,0.0,0.210293099398,0.0,0.867682704922,0.0,-2.50892565223,0.0,-0.0744566350584,0.0,0.0121009157629,0.0,-0.138714212699,0.0,0.0692859719799,0.0,-0.0775538824839,0.0,0.0,0.0,0.0,-14.1421356237,-127.279220614,130.932134245,0.772547809285,-100.0,-0.783288391429,80.0,0.785398163397,-100.0,-0.785398163397,80.0,16763611.889,0.0,0.0,0.0,0.0,0.0,0.0
1402756901041509708,3,-12.5077912581,-7.1377884924,14.1471547864,2.38304939926,29.6433472001,-3.84635974695,-0.155187348838,0.0,0.197857885683,0.0,0.868806033562,0.0,-2.51178799393,0.0,-0.0851947536159,0.0,0.0177064655492,0.0,-0.109985538695,0.0,0.0684541878075,0.0,-0.0405337062115,0.0,0.0,0.0,0.0,-14.1421356237,-127.279220614,130.932134245,0.772547809285,-100.0,-0.783288391429,80.0,0.785398163397,-100.0,-0.785398163397,80.0,16763611.889,0.0,0.0,0.0,0.0,0.0,0.0
1402756901060993658,3,-12.5077912581,-7.1377884924,14.1471547864,2.38304939926,29.6433472001,-3.84635974695,-0.155187348838,0.0,0.197857885683,0.0,0.868806033562,0.0,-2.51178799393,0.0,-0.0851947536159,0.0,0.0177064655492,0.0,-0.109985538695,0.0,0.0684541878075,0.0,-0.0405337062115,0.0,0.0,0.0,0.0,-14.1421356237,-127.279220614,130.932134245,0.771013585729,-100.0,-0.781754167872,80.0,0.785398163397,-100.0,-0.785398163397,80.0,16763611.889,0.0,0.0,0.0,0.0,0.0,0.0
1402756901081063433,3,-12.5039688946,-7.1377884924,14.1328677141,2.38304939926,29.6215820706,-3.84635974695,-0.15496922024,0.0,0.17267616396,0.0,0.865556911181,0.0,-2.51762594386,0.0,-0.0947422131455,0.0,0.021993901513,0.0,-0.0904055430306,0.0,0.068974919625,0.0,-0.0285082286052,0.0,0.0,0.0,0.0,-14.1421356237,-127.279220614,130.932134245,0.771013585729,-100.0,-0.781754167872,80.0,0.785398163397,-100.0,-0.785398163397,80.0,16763611.889,0.0,0.0,0.0,0.0,0.0,0.0
1402756901101523617,3,-12.5039688946,-7.1377884924,14.1328677141,2.38304939926,29.6215820706,-3.84635974695,-0.15496922024,0.0,0.17267616396,0.0,0.865556911181,0.0,-2.51762594386,0.0,-0.0947422131455,0.0,0.021993901513,0.0,-0.0904055430306,0.0,0.068974919625,0.0,-0.0285082286052,0.0,0.0,0.0,0.0,-14.1421356237,-127.279220614,130.932134245,0.771013585729,-100.0,-0.781754167872,80.0,0.785398163397,-100.0,-0.785398163397,80.0,16763611.889,0.0,0.0,0.0,0.0,0.0,0.0
1402756901121067614,3,-12.4862113488,-7.1377884924,14.1104864049,2.38304939926,29.5544879317,-3.84635974695,-0.143336780507,0.0,0.16151627061,0.0,0.865679462625,0.0,-2.51994422095,0.0,-0.103318623826,0.0,0.025640568303,0.0,-0.0642827598983,0.0,0.067155361731,0.0,-0.0371496394398,0.0,0.0,0.0,0.0,-14.1421356237,-127.279220614,130.932134245,0.771013585729,-100.0,-0.781754167872,80.0,0.785398163397,-100.0,-0.785398163397,80.0,16763611.889,0.0,0.0,0.0,0.0,0.0,0.0
1402756901141173646,3,-12.4862113488,-7.1377884924,14.1104864049,2.38304939926,29.5544879317,-3.84635974695,-0.143336780507,0.0,0.16151627061,0.0,0.865679462625,0.0,-2.51994422095,0.0,-0.103318623826,0.0,0.025640568303,0.0,-0.0642827598983,0.0,0.067155361731,0.0,-0.0371496394398,0.0,0.0,0.0,0.0,-14.1421356237,-127.279220614,130.932134245,0.771013585729,-100.0,-0.783288391429,80.0,0.785398163397,-100.0,-0.785398163397,80.0,16763611.889,0.0,0.0,0.0,0.0,0.0,0.0
1402756901161599316,3,-12.4891969693,-7.1377884924,14.1102143939,2.38304939926,29.5575496694,-3.84635974695,-0.143691317763,0.0,0.157025758805,0.0,0.86388734008,0.0,-2.52453379498,0.0,-0.117459161655,0.0,0.0284568043595,0.0,-0.0267323331122,0.0,0.0669811186439,0.0,-0.00710692626344,0.0,0.0,0.0,0.0,-14.1421356237,-127.279220614,130.932134245,0.771013585729,-100.0,-0.783288391429,80.0,0.785398163397,-100.0,-0.785398163397,80.0,16763611.889,0.0,0.0,0.0,0.0,0.0,0.0
1402756901180979520,3,-12.4891969693,-7.1377884924,14.1102143939,2.38304939926,29.5575496694,-3.84635974695,-0.143691317763,0.0,0.157025758805,0.0,0.86388734008,0.0,-2.52453379498,0.0,-0.117459161655,0.0,0.0284568043595,0.0,-0.0267323331122,0.0,0.0669811186439,0.0,-0.00710692626344,0.0,0.0,0.0,0.0,-14.1421356237,-127.279220614,130.932134245,0.771013585729,-100.0,-0.781754167872,80.0,0.785398163397,-100.0,-0.785398163397,80.0,16763611.889,0.0,0.0,0.0,0.0,0.0,0.0
1402756901201088678,3,-12.4734274003,-7.1377884924,14.0803222723,2.38304939926,29.506749381,-3.84635974695,-0.12601848706,0.0,0.115919336967,0.0,0.856867852448,0.0,-2.53328424348,0.0,-0.129135886171,0.0,0.0264079343118,0.0,0.00548415350819,0.0,0.0678371015924,0.0,0.0120714360276,0.0,0.0,0.0,0.0,-14.1421356237,-127.279220614,130.932134245,0.771013585729,-100.0,-0.781754167872,80.0,0.785398163397,-100.0,-0.785398163397,80.0,16763611.889,0.0,0.0,0.0,0.0,0.0,0.0
1402756901221037326,3,-12.4734274003,-7.1377884924,14.0803222723,2.38304939926,29.506749381,-3.84635974695,-0.12601848706,0.0,0.115919336967,0.0,0.856867852448,0.0,-2.53328424348,0.0,-0.129135886171,0.0,0.0264079343118,0.0,0.00548415350819,0.0,0.0678371015924,0.0,0.0120714360276,0.0,0.0,0.0,0.0,-14.1421356237,-127.279220614,130.932134245,0.771013585729,-100.0,-0.783288391429,80.0,0.785398163397,-100.0,-0.785398163397,80.0,16763611.889,0.0,0.0,0.0,0.0,0.0,0.0
1402756901242230409,3,-12.4624280861,-7.1377884924,14.0626137786,2.38304939926,29.472350859,-3.84635974695,-0.112191528612,0.0,0.101190432275,0.0,0.849114040016,0.0,-2.53933336077,0.0,-0.122124181577,0.0,0.024931861546,0.0,0.0483875991821,0.0,0.0674952716771,0.0,0.0256155816144,0.0,0.0,0.0,0.0,-14.1421356237,-127.279220614,130.932134245,0.771013585729,-100.0,-0.783288391429,80.0,0.785398163397,-100.0,-0.785398163397,80.0,16763611.889,0.0,0.0,0.0,0.0,0.0,0.0
1402756901261163283,3,-12.4624280861,-7.1377884924,14.0626137786,2.38304939926,29.472350859,-3.84635974695,-0.112191528612,0.0,0.101190432275,0.0,0.849114040016,0.0,-2.53933336077,0.0,-0.122124181577,0.0,0.024931861546,0.0,0.0483875991821,0.0,0.0674952716771,0.0,0.0256155816144,0.0,0.0,0.0,0.0,-14.1421356237,-127.279220614,130.932134245,0.771013585729,-100.0,-0.781754167872,80.0,0.785398163397,-100.0,-0.785398163397,80.0,16763611.889,0.0,0.0,0.0,0.0,0.0,0.0
1402756901281042567,3,-12.4645788095,-7.1377884924,14.0646207548,2.38304939926,29.4902952475,-3.84635974695,-0.107722015383,0.0,0.0960919958977,0.0,0.854504831855,0.0,-2.54201991751,0.0,-0.125525174315,0.0,0.0237578617666,0.0,0.0443818266042,0.0,0.0674995664236,0.0,0.0306778596898,0.0,0.0,0.0,0.0,-14.1421356237,-127.279220614,130.932134245,0.771013585729,-100.0,-0.783288391429,80.0,0.785398163397,-100.0,-0.785398163397,80.0,16763611.889,0.0,0.0,0.0,0.0,0.0,0.0
1402756901301726885,3,-12.4645788095,-7.1377884924,14.0646207548,2.38304939926,29.4902952475,-3.84635974695,-0.107722015383,0.0,0.0960919958977,0.0,0.854504831855,0.0,-2.54201991751,0.0,-0.125525174315,0.0,0.0237578617666,0.0,0.0443818266042,0.0,0.0674995664236,0.0,0.0306778596898,0.0,0.0,0.0,0.0,-14.1421356237,-127.279220614,130.932134245,0.771013585729,-100.0,-0.781754167872,80.0,0.785398163397,-100.0,-0.785398163397,80.0,16763611.889,0.0,0.0,0.0,0.0,0.0,0.0
1402756901321088762,3,-12.4443321805,-7.1377884924,14.0304234411,2.38304939926,29.417307326,-3.84635974695,-0.0945025522498,0.0,0.069219567654,0.0,0.844693748838,0.0,-2.54864629525,0.0,-0.128040348761,0.0,0.0201684561816,0.0,0.0636063413725,0.0,0.0682020311341,0.0,0.0315473939012,0.0,0.0,0.0,0.0,-14.1421356237,-127.279220614,130.932134245,0.771013585729,-100.0,-0.781754167872,80.0,0.785398163397,-100.0,-0.785398163397,80.0,16763611.889,0.0,0.0,0.0,0.0,0.0,0.0
1402756901342450324,3,-12.4443321805,-7.1377884924,14.0304234411,2.38304939926,29.417307326,-3.84635974695,-0.0945025522498,0.0,0.069219567654,0.0,0.844693748838,0.0,-2.54864629525,0.0,-0.128040348761,0.0,0.0201684561816,0.0,0.0636063413725,0.0,0.0682020311341,0.0,0.0315473939012,0.0,0.0,0.0,0.0,-14.1421356237,-127.279220614,130.932134245,0.771013585729,-100.0,-0.781754167872,80.0,0.785398163397,-100.0,-0.785398163397,80.0,16763611.889,0.0,0.0,0.0,0.0,0.0,0.0
1402756901361041875,3,-12.4336430675,-7.1377884924,14.0107058576,2.38304939926,29.3626920531,-3.84635974695,-0.0938416647074,0.0,0.0679205601914,0.0,0.841611756234,0.0,-2.55366139915,0.0,-0.13693400182,0.0,0.01902885206,0.0,0.0491480400092,0.0,0.0683367558602,0.0,0.0241447041557,0.0,0.0,0.0,0.0,-14.1421356237,-127.279220614,130.932134245,0.771013585729,-100.0,-0.781754167872,80.0,0.785398163397,-100.0,-0.785398163397,80.0,16763611.889,0.0,0.0,0.0,0.0,0.0,0.0
1402756901380988626,3,-12.4336430675,-7.1377884924,14.0107058576,2.38304939926,29.3626920531,-3.84635974695,-0.0938416647074,0.0,0.0679205601914,0.0,0.841611756234,0.0,-2.55366139915,0.0,-0.13693400182,0.0,0.01902885206,0.0,0.0491480400092,0.0,0.0683367558602,0.0,0.0241447041557,0.0,0.0,0.0,0.0,-14.1421356237,-127.279220614,130.932134245,0.771013585729,-100.0,-0.781754167872,80.0,0.785398163397,-100.0,-0.785398163397,80.0,16763611.889,0.0,0.0,0.0,0.0,0.0,0.0
1402756901401044066,3,-12.4276360331,-7.1377884924,13.9994961463,2.38304939926,29.3474871314,-3.84635974695,-0.0930084888062,0.0,0.0669222565325,0.0,0.846494073131,0.0,-2.5588272512,0.0,-0.128706222893,0.0,0.0170745667182,0.0,0.0527882618332,0.0,0.0686632845025,0.0,0.0198237965079,0.0,0.0,0.0,0.0,-14.1421356237,-127.279220614,130.932134245,0.771013585729,-100.0,-0.781754167872,80.0,0.785398163397,-100.0,-0.785398163397,80.0,16763611.889,0.0,0.0,0.0,0.0,0.0,0.0
1402756901420965566,3,-12.4276360331,-7.1377884924,13.9994961463,2.38304939926,29.3474871314,-3.84635974695,-0.0930084888062,0.0,0.0669222565325,0.0,0.846494073131,0.0,-2.5588272512,0.0,-0.128706222893,0.0,0.0170745667182,0.0,0.0527882618332,0.0,0.0686632845025,0.0,0.0198237965079,0.0,0.0,0.0,0.0,-14.1421356237,-127.279220614,130.932134245,0.771013585729,-100.0,-0.781754167872,80.0,0.785398163397,-100.0,-0.785398163397,80.0,16763611.889,0.0,0.0,0.0,0.0,0.0,0.0
1402756901442265311,3,-12.4313344198,-7.1377884924,14.0021308709,2.38304939926,29.3821097718,-3.84635974695,-0.0819329356961,0.0,0.0591642027803,0.0,0.842085913765,0.0,-2.56411258792,0.0,-0.121138370716,0.0,0.0146694895064,0.0,0.0487867874257,0.0,0.0687913568562,0.0,0.0368863889876,0.0,0.0,0.0,0.0,-14.1421356237,-127.279220614,130.932134245,0.769479123754,-100.0,-0.781754167872,80.0,0.785398163397,-100.0,-0.785398163397,80.0,16763611.889,0.0,0.0,0.0,0.0,0.0,0.0
1402756901460899984,3,-12.4313344198,-7.1377884924,14.0021308709,2.38304939926,29.3821097718,-3.84635974695,-0.0819329356961,0.0,0.0591642027803,0.0,0.842085913765,0.0,-2.56411258792,0.0,-0.121138370716,0.0,0.0146694895064,0.0,0.0487867874257,0.0,0.0687913568562,0.0,0.0368863889876,0.0,0.0,0.0,0.0,-14.1421356237,-127.279220614,130.932134245,0.769479123754,-100.0,-0.781754167872,80.0,0.785398163397,-100.0,-0.785398163397,80.0,16763611.889,0.0,0.0,0.0,0.0,0.0,0.0
1402756901480890362,3,-12.4011870602,-7.1377884924,13.961235753,2.38304939926,29.3009387692,-3.84635974695,-0.056847579289,0.0,0.0336041881982,0.0,0.833529410217,0.0,-2.5692800289,0.0,-0.12504912783,0.0,0.0105274167813,0.0,0.0327606506712,0.0,0.0683848675216,0.0,0.0284776760829,0.0,0.0,0.0,0.0,-14.1421356237,-127.279220614,130.932134245,0.769479123754,-100.0,-0.783288391429,80.0,0.785398163397,-100.0,-0.785398163397,80.0,16763611.889,0.0,0.0,0.0,0.0,0.0,0.0
1402756901501448589,3,-12.4011870602,-7.1377884924,13.961235753,2.38304939926,29.3009387692,-3.84635974695,-0.056847579289,0.0,0.0336041881982,0.0,0.833529410217,0.0,-2.5692800289,0.0,-0.12504912783,0.0,0.0105274167813,0.0,0.0327606506712,0.0,0.0683848675216,0.0,0.0284776760829,0.0,0.0,0.0,0.0,-14.1421356237,-127.279220614,130.932134245,0.769479123754,-100.0,-0.781754167872,80.0,0.785398163397,-100.0,-0.785398163397,80.0,16763611.889,0.0,0.0,0.0,0.0,0.0,0.0
1402756901520897441,3,-12.393130244,-7.1377884924,13.9385961465,2.38304939926,29.2410185577,-3.84635974695,-0.0689353316543,0.0,0.0350640483614,0.0,0.834843609384,0.0,-2.57506845155,0.0,-0.125944588575,0.0,0.0104169568769,0.0,0.0406229809492,0.0,0.0694547122029,0.0,0.0248072835749,0.0,0.0,0.0,0.0,-14.1421356237,-127.279220614,130.932134245,0.769479123754,-100.0,-0.781754167872,80.0,0.785398163397,-100.0,-0.785398163397,80.0,16763611.889,0.0,0.0,0.0,0.0,0.0,0.0
1402756901541492280,3,-12.393130244,-7.1377884924,13.9385961465,2.38304939926,29.2410185577,-3.84635974695,-0.0689353316543,0.0,0.0350640483614,0.0,0.834843609384,0.0,-2.57506845155,0.0,-0.125944588575,0.0,0.0104169568769,0.0,0.0406229809492,0.0,0.0694547122029,0.0,0.0248072835749,0.0,0.0,0.0,0.0,-14.1421356237,-127.279220614,130.932134245,0.769479123754,-100.0,-0.781754167872,80.0,0.785398163397,-100.0,-0.785398163397,80.0,16763611.889,0.0,0.0,0.0,0.0,0.0,0.0
1402756901561985934,3,-12.396179424,-7.1377884924,13.9401969593,2.38304939926,29.2829427957,-3.84635974695,-0.0600677566097,0.0,0.0224340303887,0.0,0.819245515573,0.0,-2.58101384929,0.0,-0.119233216,0.0,0.00882334762834,0.0,0.0284466786853,0.0,0.0697348008727,0.0,0.0119376856583,0.0,0.0,0.0,0.0,-14.1421356237,-127.279220614,130.932134245,0.769479123754,-100.0,-0.781754167872,80.0,0.785398163397,-100.0,-0.785398163397,80.0,16763611.889,0.0,0.0,0.0,0.0,0.0,0.0
1402756901581055361,3,-12.396179424,-7.1377884924,13.9401969593,2.38304939926,29.2829427957,-3.84635974695,-0.0600677566097,0.0,0.0224340303887,0.0,0.819245515573,0.0,-2.58101384929,0.0,-0.119233216,0.0,0.00882334762834,0.0,0.0284466786853,0.0,0.0697348008727,0.0,0.0119376856583,0.0,0.0,0.0,0.0,-14.1421356237,-127.279220614,130.932134245,0.769479123754,-100.0,-0.781754167872,80.0,0.785398163397,-100.0,-0.785398163397,80.0,16763611.889,0.0,0.0,0.0,0.0,0.0,0.0
1402756901600976944,3,-12.3799907697,-7.1377884924,13.9196579996,2.38304939926,29.2624188007,-3.84635974695,-0.0422964813079,0.0,0.0129014919185,0.0,0.826192736081,0.0,-2.5853859023,0.0,-0.113674942616,0.0,0.00674125638039,0.0,0.0300956213876,0.0,0.0691932181721,0.0,0.0243274541551,0.0,0.0,0.0,0.0,-14.1421356237,-127.279220614,130.932134245,0.769479123754,-100.0,-0.783288391429,80.0,0.785398163397,-100.0,-0.785398163397,80.0,16763611.889,0.0,0.0,0.0,0.0,0.0,0.0
1402756901621501238,3,-12.3547931686,-7.1377884924,13.8907008991,2.38304939926,29.2132934382,-3.84635974695,-0.0182933007201,0.0,-0.00982092050178,0.0,0.834328046496,0.0,-2.58652749565,0.0,-0.115639817184,0.0,0.00354018706613,0.0,0.0122947302784,0.0,0.0684331433362,0.0,0.00418697646898,0.0,0.0,0.0,0.0,-14.1421356237,-127.279220614,130.932134245,0.769479123754,-100.0,-0.781754167872,80.0,0.785398163397,-100.0,-0.785398163397,80.0,16763611.889,0.0,0.0,0.0,0.0,0.0,0.0
1402756901640976767,3,-12.3551438559,-7.1377884924,13.8903810643,2.38304939926,29.2307379639,-3.84635974695,-0.0120172721305,0.0,-0.0134106668289,0.0,0.82656302783,0.0,-2.58885539579,0.0,-0.112594497174,0.0,0.00311836149188,0.0,0.0120432578604,0.0,0.068335126779,0.0,0.0130191781953,0.0,0.0,0.0,0.0,-14.1421356237,-127.279220614,130.932134245,0.769479123754,-100.0,-0.781754167872,80.0,0.785398163397,-100.0,-0.785398163397,80.0,16763611.889,0.0,0.0,0.0,0.0,0.0,0.0
1402756901661127085,3,-12.3551438559,-7.1377884924,13.8903810643,2.38304939926,29.2307379639,-3.84635974695,-0.0120172721305,0.0,-0.0134106668289,0.0,0.82656302783,0.0,-2.58885539579,0.0,-0.112594497174,0.0,0.00311836149188,0.0,0.0120432578604,0.0,0.068335126779,0.0,0.0130191781953,0.0,0.0,0.0,0.0,-14.1421356237,-127.279220614,130.932134245,0.769479123754,-100.0,-0.781754167872,80.0,0.785398163397,-100.0,-0.785398163397,80.0,16763611.889,0.0,0.0,0.0,0.0,0.0,0.0
1402756901681407475,3,-12.3405244084,-7.1377884924,13.8668500946,2.38304939926,29.1902722894,-3.84635974695,-0.00558040908036,0.0,-0.021140274666,0.0,0.82230726924,0.0,-2.59338909431,0.0,-0.109082110452,0.0,0.0030091976454,0.0,0.0108573141615,0.0,0.0683684341394,0.0,0.0109375443673,0.0,0.0,0.0,0.0,-14.1421356237,-127.279220614,130.932134245,0.769479123754,-100.0,-0.781754167872,80.0,0.785398163397,-100.0,-0.785398163397,80.0,16763611.889,0.0,0.0,0.0,0.0,0.0,0.0
1402756901700994849,3,-12.3405244084,-7.1377884924,13.8668500946,2.38304939926,29.1902722894,-3.84635974695,-0.00558040908036,0.0,-0.021140274666,0.0,0.82230726924,0.0,-2.59338909431,0.0,-0.109082110452,0.0,0.0030091976454,0.0,0.0108573141615,0.0,0.0683684341394,0.0,0.0109375443673,0.0,0.0,0.0,0.0,-14.1421356237,-127.279220614,130.932134245,0.767944900197,-100.0,-0.781754167872,80.0,0.785398163397,-100.0,-0.785398163397,80.0,16763611.889,0.0,0.0,0.0,0.0,0.0,0.0
1402756901720964101,3,-12.3281813786,-7.1377884924,13.8360859393,2.38304939926,29.1266924678,-3.84635974695,-0.0123250204757,0.0,-0.0334660834667,0.0,0.817013725389,0.0,-2.5985677995,0.0,-0.102562158033,0.0,0.00372476244215,0.0,-0.00670825631753,0.0,0.0698729426865,0.0,0.009732728819,0.0,0.0,0.0,0.0,-14.1421356237,-127.279220614,130.932134245,0.769479123754,-100.0,-0.781754167872,80.0,0.785398163397,-100.0,-0.785398163397,80.0,16763611.889,0.0,0.0,0.0,0.0,0.0,0.0
1402756901741540305,3,-12.3281813786,-7.1377884924,13.8360859393,2.38304939926,29.1266924678,-3.84635974695,-0.0123250204757,0.0,-0.0334660834667,0.0,0.817013725389,0.0,-2.5985677995,0.0,-0.102562158033,0.0,0.00372476244215,0.0,-0.00670825631753,0.0,0.0698729426865,0.0,0.009732728819,0.0,0.0,0.0,0.0,-14.1421356237,-127.279220614,130.932134245,0.767944900197,-100.0,-0.781754167872,80.0,0.785398163397,-100.0,-0.785398163397,80.0,16763611.889,0.0,0.0,0.0,0.0,0.0,0.0
1402756901761910162,3,-12.3028418607,-7.1377884924,13.8076441162,2.38304939926,29.0506365681,-3.84635974695,0.00247925113097,0.0,-0.0277005768385,0.0,0.816482591579,0.0,-2.60164954554,0.0,-0.105481280603,0.0,0.0051193892157,0.0,-0.0140194135448,0.0,0.0678088170296,0.0,-0.0204457886545,0.0,0.0,0.0,0.0,-14.1421356237,-127.279220614,130.932134245,0.767944900197,-100.0,-0.781754167872,80.0,0.785398163397,-100.0,-0.785398163397,80.0,16763611.889,0.0,0.0,0.0,0.0,0.0,0.0
1402756901781637955,3,-12.3028418607,-7.1377884924,13.8076441162,2.38304939926,29.0506365681,-3.84635974695,0.00247925113097,0.0,-0.0277005768385,0.0,0.816482591579,0.0,-2.60164954554,0.0,-0.105481280603,0.0,0.0051193892157,0.0,-0.0140194135448,0.0,0.0678088170296,0.0,-0.0204457886545,0.0,0.0,0.0,0.0,-14.1421356237,-127.279220614,130.932134245,0.767944900197,-100.0,-0.781754167872,80.0,0.785398163397,-100.0,-0.785398163397,80.0,16763611.889,0.0,0.0,0.0,0.0,0.0,0.0
1402756901801541801,3,-12.2862000938,-7.1377884924,13.7708544079,2.38304939926,28.9878404603,-3.84635974695,0.00694494862624,0.0,-0.0569179985918,0.0,0.803186021639,0.0,-2.60666263446,0.0,-0.0937264006321,0.0,0.00437120473362,0.0,-0.00762179465683,0.0,0.0694364164384,0.0,-0.0167617660776,0.0,0.0,0.0,0.0,-14.1421356237,-127.279220614,130.932134245,0.767944900197,-100.0,-0.781754167872,80.0,0.785398163397,-100.0,-0.785398163397,80.0,16763611.889,0.0,0.0,0.0,0.0,0.0,0.0
1402756901821000171,3,-12.2862000938,-7.1377884924,13.7708544079,2.38304939926,28.9878404603,-3.84635974695,0.00694494862624,0.0,-0.0569179985918,0.0,0.803186021639,0.0,-2.60666263446,0.0,-0.0937264006321,0.0,0.00437120473362,0.0,-0.00762179465683,0.0,0.0694364164384,0.0,-0.0167617660776,0.0,0.0,0.0,0.0,-14.1421356237,-127.279220614,130.932134245,0.767944900197,-100.0,-0.781754167872,80.0,0.785398163397,-100.0,-0.785398163397,80.0,16763611.889,0.0,0.0,0.0,0.0,0.0,0.0
1402756901841339394,3,-12.270726517,-7.1377884924,13.754854613,2.38304939926,28.9785919746,-3.84635974695,0.030108714512,0.0,-0.0657643970818,0.0,0.790713124497,0.0,-2.61004339411,0.0,-0.0871011134534,0.0,0.0048350593987,0.0,-0.0181450065545,0.0,0.0682051822077,0.0,-0.0190550777485,0.0,0.0,0.0,0.0,-14.1421356237,-127.279220614,130.932134245,0.767944900197,-100.0,-0.781754167872,80.0,0.785398163397,-100.0,-0.785398163397,80.0,16763611.889,0.0,0.0,0.0,0.0,0.0,0.0
1402756901862603470,3,-12.270726517,-7.1377884924,13.754854613,2.38304939926,28.9785919746,-3.84635974695,0.030108714512,0.0,-0.0657643970818,0.0,0.790713124497,0.0,-2.61004339411,0.0,-0.0871011134534,0.0,0.0048350593987,0.0,-0.0181450065545,0.0,0.0682051822077,0.0,-0.0190550777485,0.0,0.0,0.0,0.0,-14.1421356237,-127.279220614,130.932134245,0.767944900197,-100.0,-0.781754167872,80.0,0.785398163397,-100.0,-0.785398163397,80.0,16763611.889,0.0,0.0,0.0,0.0,0.0,0.0
1402756901881207480,3,-12.2523369453,-7.1377884924,13.7271196268,2.38304939926,28.9125961062,-3.84635974695,0.0344635836418,0.0,-0.0664066677408,0.0,0.78080598398,0.0,-2.6131752768,0.0,-0.0807751135811,0.0,0.00661640073389,0.0,-0.0150927737731,0.0,0.0680693376217,0.0,-0.0219136740538,0.0,0.0,0.0,0.0,-14.1421356237,-127.279220614,130.932134245,0.767944900197,-100.0,-0.781754167872,80.0,0.785398163397,-100.0,-0.785398163397,80.0,16763611.889,0.0,0.0,0.0,0.0,0.0,0.0
1402756901901126094,3,-12.2523369453,-7.1377884924,13.7271196268,2.38304939926,28.9125961062,-3.84635974695,0.0344635836418,0.0,-0.0664066677408,0.0,0.78080598398,0.0,-2.6131752768,0.0,-0.0807751135811,0.0,0.00661640073389,0.0,-0.0150927737731,0.0,0.0680693376217,0.0,-0.0219136740538,0.0,0.0,0.0,0.0,-14.1421356237,-127.279220614,130.932134245,0.767944900197,-100.0,-0.781754167872,80.0,0.785398163397,-100.0,-0.785398163397,80.0,16763611.889,0.0,0.0,0.0,0.0,0.0,0.0
1402756901920946026,3,-12.250811934,-7.1377884924,13.7242792946,2.38304939926,28.944745639,-3.84635974695,0.0398600785069,0.0,-0.0743486623909,0.0,0.786369393216,0.0,-2.61621553774,0.0,-0.0744320864838,0.0,0.00746088367835,0.0,-0.0159288422157,0.0,0.0684239972085,0.0,-0.0109765649674,0.0,0.0,0.0,0.0,-14.1421356237,-127.279220614,130.932134245,0.766410676641,-100.0,-0.781754167872,80.0,0.785398163397,-100.0,-0.785398163397,80.0,16763611.889,0.0,0.0,0.0,0.0,0.0,0.0
1402756901941717666,3,-12.250811934,-7.1377884924,13.7242792946,2.38304939926,28.944745639,-3.84635974695,0.0398600785069,0.0,-0.0743486623909,0.0,0.786369393216,0.0,-2.61621553774,0.0,-0.0744320864838,0.0,0.00746088367835,0.0,-0.0159288422157,0.0,0.0684239972085,0.0,-0.0109765649674,0.0,0.0,0.0,0.0,-14.1421356237,-127.279220614,130.932134245,0.766410676641,-100.0,-0.781754167872,80.0,0.785398163397,-100.0,-0.785398163397,80.0,16763611.889,0.0,0.0,0.0,0.0,0.0,0.0
1402756901961007135,3,-12.2386939165,-7.1377884924,13.7027874919,2.38304939926,28.9057369522,-3.84635974695,0.0355054866849,0.0,-0.0732301785889,0.0,0.776719640881,0.0,-2.61879265679,0.0,-0.0664433009229,0.0,0.00922362755369,0.0,-0.0130607430249,0.0,0.0689218436696,0.0,-0.00856765593319,0.0,0.0,0.0,0.0,-14.1421356237,-127.279220614,130.932134245,0.767944900197,-100.0,-0.783288391429,80.0,0.785398163397,-100.0,-0.785398163397,80.0,16763611.889,0.0,0.0,0.0,0.0,0.0,0.0
1402756901980851994,3,-12.2386939165,-7.1377884924,13.7027874919,2.38304939926,28.9057369522,-3.84635974695,0.0355054866849,0.0,-0.0732301785889,0.0,0.776719640881,0.0,-2.61879265679,0.0,-0.0664433009229,0.0,0.00922362755369,0.0,-0.0130607430249,0.0,0.0689218436696,0.0,-0.00856765593319,0.0,0.0,0.0,0.0,-14.1421356237,-127.279220614,130.932134245,0.767944900197,-100.0,-0.781754167872,80.0,0.785398163397,-100.0,-0.785398163397,80.0,16763611.889,0.0,0.0,0.0,0.0,0.0,0.0
1402756902001143819,3,-12.2205666443,-7.1377884924,13.6694111834,2.38304939926,28.8193402466,-3.84635974695,0.0266260691991,0.0,-0.0709975646673,0.0,0.779631155989,0.0,-2.62129569087,0.0,-0.0689871046718,0.0,0.0116413956781,0.0,-0.0177877219176,0.0,0.0694950896283,0.0,-0.022384366346,0.0,0.0,0.0,0.0,-14.1421356237,-127.279220614,130.932134245,0.767944900197,-100.0,-0.781754167872,80.0,0.785398163397,-100.0,-0.785398163397,80.0,16763611.889,0.0,0.0,0.0,0.0,0.0,0.0
1402756902020914854,3,-12.2205666443,-7.1377884924,13.6694111834,2.38304939926,28.8193402466,-3.84635974695,0.0266260691991,0.0,-0.0709975646673,0.0,0.779631155989,0.0,-2.62129569087,0.0,-0.0689871046718,0.0,0.0116413956781,0.0,-0.0177877219176,0.0,0.0694950896283,0.0,-0.022384366346,0.0,0.0,0.0,0.0,-14.1421356237,-127.279220614,130.932134245,0.766410676641,-100.0,-0.781754167872,80.0,0.785398163397,-100.0,-0.785398163397,80.0,16763611.889,0.0,0.0,0.0,0.0,0.0,0.0
1402756902040798390,3,-12.2035071395,-7.1377884924,13.6484934776,2.38304939926,28.7865551068,-3.84635974695,0.0328862149426,0.0,-0.0684140521184,0.0,0.788997538594,0.0,-2.62393363043,0.0,-0.0666560154642,0.0,0.0128935870369,0.0,-0.0325447804426,0.0,0.0685682655377,0.0,-0.0298631368825,0.0,0.0,0.0,0.0,-14.1421356237,-127.279220614,130.932134245,0.767944900197,-100.0,-0.781754167872,80.0,0.785398163397,-100.0,-0.785398163397,80.0,16763611.889,0.0,0.0,0.0,0.0,0.0,0.0
1402756902061478487,3,-12.2035071395,-7.1377884924,13.6484934776,2.38304939926,28.7865551068,-3.84635974695,0.0328862149426,0.0,-0.0684140521184,0.0,0.788997538594,0.0,-2.62393363043,0.0,-0.0666560154642,0.0,0.0128935870369,0.0,-0.0325447804426,0.0,0.0685682655377,0.0,-0.0298631368825,0.0,0.0,0.0,0.0,-14.1421356237,-127.279220614,130.932134245,0.767944900197,-100.0,-0.781754167872,80.0,0.785398163397,-100.0,-0.785398163397,80.0,16763611.889,0.0,0.0,0.0,0.0,0.0,0.0
1402756902080855620,3,-12.1916572772,-7.1377884924,13.6251522212,2.38304939926,28.759934135,-3.84635974695,0.0371200268115,0.0,-0.0784819412362,0.0,0.784304646576,0.0,-2.62624319432,0.0,-0.0599190112743,0.0,0.013258022726,0.0,-0.0145862996712,0.0,0.0692641677337,0.0,0.000650835265564,0.0,0.0,0.0,0.0,-14.1421356237,-127.279220614,130.932134245,0.767944900197,-100.0,-0.781754167872,80.0,0.785398163397,-100.0,-0.785398163397,80.0,16763611.889,0.0,0.0,0.0,0.0,0.0,0.0
1402756902101145503,3,-12.1916572772,-7.1377884924,13.6251522212,2.38304939926,28.759934135,-3.84635974695,0.0371200268115,0.0,-0.0784819412362,0.0,0.784304646576,0.0,-2.62624319432,0.0,-0.0599190112743,0.0,0.013258022726,0.0,-0.0145862996712,0.0,0.0692641677337,0.0,0.000650835265564,0.0,0.0,0.0,0.0,-14.1421356237,-127.279220614,130.932134245,0.767944900197,-100.0,-0.781754167872,80.0,0.785398163397,-100.0,-0.785398163397,80.0,16763611.889,0.0,0.0,0.0,0.0,0.0,0.0
1402756902121028178,3,-12.1901297887,-7.1377884924,13.6221086417,2.38304939926,28.7910998749,-3.84635974695,0.0383882882358,0.0,-0.0848761573843,0.0,0.794453096629,0.0,-2.62838449528,0.0,-0.0464121024933,0.0,0.0138778011154,0.0,-0.0097681674239,0.0,0.0691289274731,0.0,0.00622447779647,0.0,0.0,0.0,0.0,-14.1421356237,-127.279220614,130.932134245,0.767944900197,-100.0,-0.781754167872,80.0,0.785398163397,-100.0,-0.785398163397,80.0,16763611.889,0.0,0.0,0.0,0.0,0.0,0.0
1402756902141577448,3,-12.1901297887,-7.1377884924,13.6221086417,2.38304939926,28.7910998749,-3.84635974695,0.0383882882358,0.0,-0.0848761573843,0.0,0.794453096629,0.0,-2.62838449528,0.0,-0.0464121024933,0.0,0.0138778011154,0.0,-0.0097681674239,0.0,0.0691289274731,0.0,0.00622447779647,0.0,0.0,0.0,0.0,-14.1421356237,-127.279220614,130.932134245,0.767944900197,-100.0,-0.781754167872,80.0,0.785398163397,-100.0,-0.785398163397,80.0,16763611.889,0.0,0.0,0.0,0.0,0.0,0.0
1402756902161079770,3,-12.173186144,-7.1377884924,13.5910439805,2.38304939926,28.7360273588,-3.84635974695,0.0380209735974,0.0,-0.0901368082047,0.0,0.794583430778,0.0,-2.63030100118,0.0,-0.0392940878143,0.0,0.0155288157717,0.0,-0.011994993627,0.0,0.0693521208603,0.0,-3.33111673627e-05,0.0,0.0,0.0,0.0,-14.1421356237,-127.279220614,130.932134245,0.767944900197,-100.0,-0.781754167872,80.0,0.785398163397,-100.0,-0.785398163397,80.0,16763611.889,0.0,0.0,0.0,0.0,0.0,0.0
1402756902181025222,3,-12.173186144,-7.1377884924,13.5910439805,2.38304939926,28.7360273588,-3.84635974695,0.0380209735974,0.0,-0.0901368082047,0.0,0.794583430778,0.0,-2.63030100118,0.0,-0.0392940878143,0.0,0.0155288157717,0.0,-0.011994993627,0.0,0.0693521208603,0.0,-3.33111673627e-05,0.0,0.0,0.0,0.0,-14.1421356237,-127.279220614,130.932134245,0.767944900197,-100.0,-0.781754167872,80.0,0.785398163397,-100.0,-0.785398163397,80.0,16763611.889,0.0,0.0,0.0,0.0,0.0,0.0
1402756902201340564,3,-12.1578880925,-7.1377884924,13.5689130467,2.38304939926,28.7332256297,-3.84635974695,0.0535809944821,0.0,-0.116182504875,0.0,0.801323068189,0.0,-2.63132649916,0.0,-0.0300125392934,0.0,0.0133006170644,0.0,-0.0181218238603,0.0,0.0691740095144,0.0,-0.013072196684,0.0,0.0,0.0,0.0,-14.1421356237,-127.279220614,130.932134245,0.767944900197,-100.0,-0.783288391429,80.0,0.785398163397,-100.0,-0.785398163397,80.0,16763611.889,0.0,0.0,0.0,0.0,0.0,0.0
1402756902221146802,3,-12.1568669883,-7.1377884924,13.5663211565,2.38304939926,28.7496770337,-3.84635974695,0.0537310048026,0.0,-0.118314891579,0.0,0.817394283966,0.0,-2.63188546592,0.0,-0.0243433270595,0.0,0.0137103346859,0.0,-0.0230503398539,0.0,0.0691710629574,0.0,-0.0223081043039,0.0,0.0,0.0,0.0,-14.1421356237,-127.279220614,130.932134245,0.767944900197,-100.0,-0.781754167872,80.0,0.785398163397,-100.0,-0.785398163397,80.0,16763611.889,0.0,0.0,0.0,0.0,0.0,0.0
1402756902241176703,3,-12.1568669883,-7.1377884924,13.5663211565,2.38304939926,28.7496770337,-3.84635974695,0.0537310048026,0.0,-0.118314891579,0.0,0.817394283966,0.0,-2.63188546592,0.0,-0.0243433270595,0.0,0.0137103346859,0.0,-0.0230503398539,0.0,0.0691710629574,0.0,-0.0223081043039,0.0,0.0,0.0,0.0,-14.1421356237,-127.279220614,130.932134245,0.767944900197,-100.0,-0.781754167872,80.0,0.785398163397,-100.0,-0.785398163397,80.0,16763611.889,0.0,0.0,0.0,0.0,0.0,0.0
1402756902261828161,3,-12.1475036191,-7.1377884924,13.551352474,2.38304939926,28.706906779,-3.84635974695,0.0471614287309,0.0,-0.111472943552,0.0,0.81176749027,0.0,-2.63249831808,0.0,-0.0227934090869,0.0,0.0156426400525,0.0,-0.0110769690078,0.0,0.0691151445967,0.0,-0.0196873618275,0.0,0.0,0.0,0.0,-14.1421356237,-127.279220614,130.932134245,0.767944900197,-100.0,-0.781754167872,80.0,0.785398163397,-100.0,-0.785398163397,80.0,16763611.889,0.0,0.0,0.0,0.0,0.0,0.0
1402756902281061900,3,-12.1475036191,-7.1377884924,13.551352474,2.38304939926,28.706906779,-3.84635974695,0.0471614287309,0.0,-0.111472943552,0.0,0.81176749027,0.0,-2.63249831808,0.0,-0.0227934090869,0.0,0.0156426400525,0.0,-0.0110769690078,0.0,0.0691151445967,0.0,-0.0196873618275,0.0,0.0,0.0,0.0,-14.1421356237,-127.279220614,130.932134245,0.767944900197,-100.0,-0.781754167872,80.0,0.785398163397,-100.0,-0.785398163397,80.0,16763611.889,0.0,0.0,0.0,0.0,0.0,0.0
1402756902301092009,3,-12.1315202174,-7.1377884924,13.5244804293,2.38304939926,28.6555481524,-3.84635974695,0.052655438491,0.0,-0.116337711474,0.0,0.796542797577,0.0,-2.63333869868,0.0,-0.015499402151,0.0,0.0172688897245,0.0,-0.00954548434113,0.0,0.0690464254744,0.0,0.00858005198144,0.0,0.0,0.0,0.0,-14.1421356237,-127.279220614,130.932134245,0.767944900197,-100.0,-0.781754167872,80.0,0.785398163397,-100.0,-0.785398163397,80.0,16763611.889,0.0,0.0,0.0,0.0,0.0,0.0
1402756902321022208,3,-12.1315202174,-7.1377884924,13.5244804293,2.38304939926,28.6555481524,-3.84635974695,0.052655438491,0.0,-0.116337711474,0.0,0.796542797577,0.0,-2.63333869868,0.0,-0.015499402151,0.0,0.0172688897245,0.0,-0.00954548434113,0.0,0.0690464254744,0.0,0.00858005198144,0.0,0.0,0.0,0.0,-14.1421356237,-127.279220614,130.932134245,0.767944900197,-100.0,-0.781754167872,80.0,0.785398163397,-100.0,-0.785398163397,80.0,16763611.889,0.0,0.0,0.0,0.0,0.0,0.0
1402756902341829538,3,-12.1293025064,-7.1377884924,13.5195063177,2.38304939926,28.6880230112,-3.84635974695,0.0579914162116,0.0,-0.125967426818,0.0,0.805822057171,0.0,-2.63367608748,0.0,-0.00730961906027,0.0,0.0176359485514,0.0,0.00139249732982,0.0,0.0693537854341,0.0,0.00963120328383,0.0,0.0,0.0,0.0,-14.1421356237,-127.279220614,130.932134245,0.767944900197,-100.0,-0.781754167872,80.0,0.785398163397,-100.0,-0.785398163397,80.0,16763611.889,0.0,0.0,0.0,0.0,0.0,0.0
1402756902360944810,3,-12.1293025064,-7.1377884924,13.5195063177,2.38304939926,28.6880230112,-3.84635974695,0.0579914162116,0.0,-0.125967426818,0.0,0.805822057171,0.0,-2.63367608748,0.0,-0.00730961906027,0.0,0.0176359485514,0.0,0.00139249732982,0.0,0.0693537854341,0.0,0.00963120328383,0.0,0.0,0.0,0.0,-14.1421356237,-127.279220614,130.932134245,0.766410676641,-100.0,-0.781754167872,80.0,0.785398163397,-100.0,-0.785398163397,80.0,16763611.889,0.0,0.0,0.0,0.0,0.0,0.0
1402756902381096204,3,-12.1121353258,-7.1377884924,13.4940672356,2.38304939926,28.6638070024,-3.84635974695,0.0621750641009,0.0,-0.145291593154,0.0,0.811150683008,0.0,-2.63407009123,0.0,-0.0094993285671,0.0,0.0171535793457,0.0,0.0158600728895,0.0,0.0697810158206,0.0,-0.0190176893201,0.0,0.0,0.0,0.0,-14.1421356237,-127.279220614,130.932134245,0.767944900197,-100.0,-0.781754167872,80.0,0.785398163397,-100.0,-0.785398163397,80.0,16763611.889,0.0,0.0,0.0,0.0,0.0,0.0
1402756902401120173,3,-12.1121353258,-7.1377884924,13.4940672356,2.38304939926,28.6638070024,-3.84635974695,0.0621750641009,0.0,-0.145291593154,0.0,0.811150683008,0.0,-2.63407009123,0.0,-0.0094993285671,0.0,0.0171535793457,0.0,0.0158600728895,0.0,0.0697810158206,0.0,-0.0190176893201,0.0,0.0,0.0,0.0,-14.1421356237,-127.279220614,130.932134245,0.766410676641,-100.0,-0.781754167872,80.0,0.785398163397,-100.0,-0.785398163397,80.0,16763611.889,0.0,0.0,0.0,0.0,0.0,0.0
1402756902421625425,3,-12.0973073685,-7.1377884924,13.4775486617,2.38304939926,28.6491853183,-3.84635974695,0.073645830473,0.0,-0.141806617242,0.0,0.808109053027,0.0,-2.6348756805,0.0,-0.00512693627288,0.0,0.0178684126676,0.0,0.0169562126807,0.0,0.0693680814401,0.0,-0.015051672574,0.0,0.0,0.0,0.0,-14.1421356237,-127.279220614,130.932134245,0.767944900197,-100.0,-0.781754167872,80.0,0.785398163397,-100.0,-0.785398163397,80.0,16763611.889,0.0,0.0,0.0,0.0,0.0,0.0
1402756902441224394,3,-12.0973073685,-7.1377884924,13.4775486617,2.38304939926,28.6491853183,-3.84635974695,0.073645830473,0.0,-0.141806617242,0.0,0.808109053027,0.0,-2.6348756805,0.0,-0.00512693627288,0.0,0.0178684126676,0.0,0.0169562126807,0.0,0.0693680814401,0.0,-0.015051672574,0.0,0.0,0.0,0.0,-14.1421356237,-127.279220614,130.932134245,0.767944900197,-100.0,-0.781754167872,80.0,0.785398163397,-100.0,-0.785398163397,80.0,16763611.889,0.0,0.0,0.0,0.0,0.0,0.0
1402756902460990383,3,-12.0886320527,-7.1377884924,13.4553818204,2.38304939926,28.6473013896,-3.84635974695,0.0710152851507,0.0,-0.162837717806,0.0,0.801259803702,0.0,-2.63416813384,0.0,-0.00442634090958,0.0,0.0164676704286,0.0,0.0160968600723,0.0,0.0716430646719,0.0,-0.0258568813842,0.0,0.0,0.0,0.0,-14.1421356237,-127.279220614,130.932134245,0.767944900197,-100.0,-0.781754167872,80.0,0.785398163397,-100.0,-0.785398163397,80.0,16763611.889,0.0,0.0,0.0,0.0,0.0,0.0
1402756902481072782,3,-12.0886320527,-7.1377884924,13.4553818204,2.38304939926,28.6473013896,-3.84635974695,0.0710152851507,0.0,-0.162837717806,0.0,0.801259803702,0.0,-2.63416813384,0.0,-0.00442634090958,0.0,0.0164676704286,0.0,0.0160968600723,0.0,0.0716430646719,0.0,-0.0258568813842,0.0,0.0,0.0,0.0,-14.1421356237,-127.279220614,130.932134245,0.766410676641,-100.0,-0.781754167872,80.0,0.785398163397,-100.0,-0.785398163397,80.0,16763611.889,0.0,0.0,0.0,0.0,0.0,0.0
1402756902501391130,3,-12.0851400798,-7.1377884924,13.4482493268,2.38304939926,28.6597017193,-3.84635974695,0.0648151347592,0.0,-0.147410377742,0.0,0.786365622366,0.0,-2.63435726222,0.0,-0.00162416612949,0.0,0.017720546575,0.0,0.0264596448292,0.0,0.0726949178863,0.0,-0.0248652007334,0.0,0.0,0.0,0.0,-14.1421356237,-127.279220614,130.932134245,0.767944900197,-100.0,-0.781754167872,80.0,0.785398163397,-100.0,-0.785398163397,80.0,16763611.889,0.0,0.0,0.0,0.0,0.0,0.0
1402756902521483552,3,-12.0851400798,-7.1377884924,13.4482493268,2.38304939926,28.6597017193,-3.84635974695,0.0648151347592,0.0,-0.147410377742,0.0,0.786365622366,0.0,-2.63435726222,0.0,-0.00162416612949,0.0,0.017720546575,0.0,0.0264596448292,0.0,0.0726949178863,0.0,-0.0248652007334,0.0,0.0,0.0,0.0,-14.1421356237,-127.279220614,130.932134245,0.767944900197,-100.0,-0.781754167872,80.0,0.785398163397,-100.0,-0.785398163397,80.0,16763611.889,0.0,0.0,0.0,0.0,0.0,0.0
1402756902541078220,3,-12.0823053112,-7.1377884924,13.4420204052,2.38304939926,28.6918976713,-3.84635974695,0.0695872153419,0.0,-0.152898250609,0.0,0.7807314618,0.0,-2.63443438054,0.0,-0.000221492533552,0.0,0.0165775561042,0.0,0.0341587074562,0.0,0.073594204733,0.0,0.0110006057768,0.0,0.0,0.0,0.0,-14.1421356237,-127.279220614,130.932134245,0.767944900197,-100.0,-0.781754167872,80.0,0.785398163397,-100.0,-0.785398163397,80.0,16763611.889,0.0,0.0,0.0,0.0,0.0,0.0
1402756902561824488,3,-12.0823053112,-7.1377884924,13.4420204052,2.38304939926,28.6918976713,-3.84635974695,0.0695872153419,0.0,-0.152898250609,0.0,0.7807314618,0.0,-2.63443438054,0.0,-0.000221492533552,0.0,0.0165775561042,0.0,0.0341587074562,0.0,0.073594204733,0.0,0.0110006057768,0.0,0.0,0.0,0.0,-14.1421356237,-127.279220614,130.932134245,0.766410676641,-100.0,-0.781754167872,80.0,0.785398163397,-100.0,-0.785398163397,80.0,16763611.889,0.0,0.0,0.0,0.0,0.0,0.0
1402756902581111821,3,-12.0798197643,-7.1377884924,13.435864959,2.38304939926,28.7232428858,-3.84635974695,0.070874088837,0.0,-0.155668106563,0.0,0.773565150849,0.0,-2.6346152133,0.0,-0.0055106876681,0.0,0.0155687906347,0.0,0.0403904255261,0.0,0.0743929661687,0.0,0.0206676323965,0.0,0.0,0.0,0.0,-14.1421356237,-127.279220614,130.932134245,0.767944900197,-100.0,-0.781754167872,80.0,0.785398163397,-100.0,-0.785398163397,80.0,16763611.889,0.0,0.0,0.0,0.0,0.0,0.0
1402756902601134717,3,-12.0798197643,-7.1377884924,13.435864959,2.38304939926,28.7232428858,-3.84635974695,0.070874088837,0.0,-0.155668106563,0.0,0.773565150849,0.0,-2.6346152133,0.0,-0.0055106876681,0.0,0.0155687906347,0.0,0.0403904255261,0.0,0.0743929661687,0.0,0.0206676323965,0.0,0.0,0.0,0.0,-14.1421356237,-127.279220614,130.932134245,0.767944900197,-100.0,-0.781754167872,80.0,0.785398163397,-100.0,-0.785398163397,80.0,16763611.889,0.0,0.0,0.0,0.0,0.0,0.0
1402756902620945936,3,-12.049238627,-7.1377884924,13.3804058247,2.38304939926,28.6435421681,-3.84635974695,0.0858592644387,0.0,-0.18925166206,0.0,0.759301444015,0.0,-2.63400049781,0.0,0.00401957256312,0.0,0.010902790041,0.0,0.0411882943504,0.0,0.0760889356755,0.0,0.0282554441225,0.0,0.0,0.0,0.0,-14.1421356237,-127.279220614,130.932134245,0.767944900197,-100.0,-0.781754167872,80.0,0.785398163397,-100.0,-0.785398163397,80.0,16763611.889,0.0,0.0,0.0,0.0,0.0,0.0
