rosbagTimestamp,control_method,x_current,x_desired,y_current,y_desired,x_velocity_current,x_velocity_desired,y_velocity_current,y_velocity_desired,yaw_current,yaw_desired,required_force_x,required_force_y,required_moment_z,resultant_force_x,resultant_force_y,resultant_moment_z,current_port_servo_angle,current_port_thruster_force,current_starboard_servo_angle,current_starboard_thruster_force,estimated_port_servo_angle,estimated_port_thruster_force,estimated_starboard_servo_angle,estimated_starboard_thruster_force,cost_value,step,user_defined_1,user_defined_2,user_defined_3,user_defined_4,user_defined_5
1402601532147410581,3,5.18105429438,-0.114322152727,-30.6566388968,0.043815185726,-0.407881665864,0.0,0.188215070069,0.0,1.77161499944,0.0,0.0,0.0,0.0,20.9389005956,-78.1450408774,73.8744270948,1.18682369391,-50.0,-0.678952129679,50.0,1.20427718388,-50.0,-0.680678408278,50.0,5828961.07406,0.0,0.0,0.0,0.0,0.0,0.0
1402601532167829118,3,5.18105429438,-0.114322152727,-30.6566388968,0.043815185726,-0.407881665864,0.0,0.188215070069,0.0,1.77161499944,0.0,0.0,0.0,0.0,20.9389005956,-78.1450408774,73.8744270948,1.18682369391,-50.0,-0.677417906123,50.0,1.20427718388,-50.0,-0.680678408278,50.0,5828961.07406,0.0,0.0,0.0,0.0,0.0,0.0
1402601532187342398,3,5.17427032952,-0.114322152727,-30.6395628352,0.043815185726,-0.403040497543,0.0,0.193500824635,0.0,1.76892849258,0.0,0.0,0.0,0.0,20.9389005956,-78.1450408774,73.8744270948,1.18682369391,-50.0,-0.677417906123,50.0,1.20427718388,-50.0,-0.680678408278,50.0,5828961.07406,0.0,0.0,0.0,0.0,0.0,0.0
1402601532207792387,3,5.17427032952,-0.114322152727,-30.6395628352,0.043815185726,-0.403040497543,0.0,0.193500824635,0.0,1.76892849258,0.0,0.0,0.0,0.0,20.9389005956,-78.1450408774,73.8744270948,1.18682369391,-50.0,-0.678952129679,50.0,1.20427718388,-50.0,-0.680678408278,50.0,5828961.07406,0.0,0.0,0.0,0.0,0.0,0.0
1402601532227206333,3,5.16032571659,-0.114322152727,-30.6235966947,0.043815185726,-0.409486019792,0.0,0.199569339378,0.0,1.76660326148,0.0,0.0,0.0,0.0,20.9389005956,-78.1450408774,73.8744270948,1.18682369391,-50.0,-0.677417906123,50.0,1.20427718388,-50.0,-0.680678408278,50.0,5828961.07406,0.0,0.0,0.0,0.0,0.0,0.0
1402601532247851383,3,5.16032571659,-0.114322152727,-30.6235966947,0.043815185726,-0.409486019792,0.0,0.199569339378,0.0,1.76660326148,0.0,0.0,0.0,0.0,20.9389005956,-78.1450408774,73.8744270948,1.18682369391,-50.0,-0.678952129679,50.0,1.20427718388,-50.0,-0.680678408278,50.0,5828961.07406,0.0,0.0,0.0,0.0,0.0,0.0
1402601532267204004,3,5.15190783014,-0.114322152727,-30.6194203571,0.043815185726,-0.411529600757,0.0,0.200736360068,0.0,1.76567149199,0.0,0.0,0.0,0.0,20.9389005956,-78.1450408774,73.8744270948,1.18682369391,-50.0,-0.677417906123,50.0,1.20427718388,-50.0,-0.680678408278,50.0,5828961.07406,0.0,0.0,0.0,0.0,0.0,0.0
1402601532287939102,3,5.15190783014,-0.114322152727,-30.6194203571,0.043815185726,-0.411529600757,0.0,0.200736360068,0.0,1.76567149199,0.0,0.0,0.0,0.0,20.9389005956,-78.1450408774,73.8744270948,1.18682369391,-50.0,-0.677417906123,50.0,1.20427718388,-50.0,-0.680678408278,50.0,5828961.07406,0.0,0.0,0.0,0.0,0.0,0.0
1402601532307210226,3,5.14155751046,-0.114322152727,-30.6111143456,0.043815185726,-0.412305659219,0.0,0.190639964323,0.0,1.76427877626,0.0,0.0,0.0,0.0,20.9389005956,-78.1450408774,73.8744270948,1.18682369391,-50.0,-0.678952129679,50.0,1.20427718388,-50.0,-0.680678408278,50.0,5828961.07406,0.0,0.0,0.0,0.0,0.0,0.0
1402601532327717025,3,5.14155751046,-0.114322152727,-30.6111143456,0.043815185726,-0.412305659219,0.0,0.190639964323,0.0,1.76427877626,0.0,0.0,0.0,0.0,20.9389005956,-78.1450408774,73.8744270948,1.18835815589,-50.0,-0.677417906123,50.0,1.20427718388,-50.0,-0.680678408278,50.0,5828961.07406,0.0,0.0,0.0,0.0,0.0,0.0
1402601532347089362,3,5.1251112401,-0.114322152727,-30.5992792179,0.043815185726,-0.425297047845,0.0,0.195123335494,0.0,1.76276061176,0.0,0.0,0.0,0.0,20.9389005956,-78.1450408774,73.8744270948,1.18682369391,-50.0,-0.678952129679,50.0,1.20427718388,-50.0,-0.680678408278,50.0,5828961.07406,0.0,0.0,0.0,0.0,0.0,0.0
1402601532367676710,3,5.1251112401,-0.114322152727,-30.5992792179,0.043815185726,-0.425297047845,0.0,0.195123335494,0.0,1.76276061176,0.0,0.0,0.0,0.0,20.9389005956,-78.1450408774,73.8744270948,1.18682369391,-50.0,-0.677417906123,50.0,1.20427718388,-50.0,-0.680678408278,50.0,5828961.07406,0.0,0.0,0.0,0.0,0.0,0.0
1402601532387183487,3,5.11186999663,-0.114322152727,-30.590490096,0.043815185726,-0.413699926865,0.0,0.198363684665,0.0,1.76141477274,0.0,0.0,0.0,0.0,20.9389005956,-78.1450408774,73.8744270948,1.18682369391,-50.0,-0.677417906123,50.0,1.20427718388,-50.0,-0.680678408278,50.0,5828961.07406,0.0,0.0,0.0,0.0,0.0,0.0
1402601532407864910,3,5.11186999663,-0.114322152727,-30.590490096,0.043815185726,-0.413699926865,0.0,0.198363684665,0.0,1.76141477274,0.0,0.0,0.0,0.0,20.9389005956,-78.1450408774,73.8744270948,1.18682369391,-50.0,-0.678952129679,50.0,1.20427718388,-50.0,-0.680678408278,50.0,5828961.07406,0.0,0.0,0.0,0.0,0.0,0.0
1402601532427148521,3,5.09501714381,-0.114322152727,-30.5824092858,0.043815185726,-0.409645574298,0.0,0.200140145711,0.0,1.76025039866,0.0,0.0,0.0,0.0,20.9389005956,-78.1450408774,73.8744270948,1.18682369391,-50.0,-0.677417906123,50.0,1.20427718388,-50.0,-0.680678408278,50.0,5828961.07406,0.0,0.0,0.0,0.0,0.0,0.0
1402601532447460901,3,5.09501714381,-0.114322152727,-30.5824092858,0.043815185726,-0.409645574298,0.0,0.200140145711,0.0,1.76025039866,0.0,0.0,0.0,0.0,20.9389005956,-78.1450408774,73.8744270948,1.18682369391,-50.0,-0.677417906123,50.0,1.20427718388,-50.0,-0.680678408278,50.0,5828961.07406,0.0,0.0,0.0,0.0,0.0,0.0
1402601532467076380,3,5.08399699048,-0.114322152727,-30.5745117573,0.043815185726,-0.398412362479,0.0,0.198042685444,0.0,1.75876610613,0.0,0.0,0.0,0.0,20.9389005956,-78.1450408774,73.8744270948,1.18835815589,-50.0,-0.678952129679,50.0,1.20427718388,-50.0,-0.680678408278,50.0,5828961.07406,0.0,0.0,0.0,0.0,0.0,0.0
1402601532487725175,3,5.08399699048,-0.114322152727,-30.5745117573,0.043815185726,-0.398412362479,0.0,0.198042685444,0.0,1.75876610613,0.0,0.0,0.0,0.0,20.9389005956,-78.1450408774,73.8744270948,1.18835815589,-50.0,-0.677417906123,50.0,1.20427718388,-50.0,-0.680678408278,50.0,5828961.07406,0.0,0.0,0.0,0.0,0.0,0.0
1402601532507238399,3,5.06557904778,-0.114322152727,-30.5682997812,0.043815185726,-0.398440230498,0.0,0.191989367071,0.0,1.75726363486,0.0,0.0,0.0,0.0,20.9389005956,-78.1450408774,73.8744270948,1.18835815589,-50.0,-0.678952129679,50.0,1.20427718388,-50.0,-0.680678408278,50.0,5828961.07406,0.0,0.0,0.0,0.0,0.0,0.0
1402601532527863937,3,5.06557904778,-0.114322152727,-30.5682997812,0.043815185726,-0.398440230498,0.0,0.191989367071,0.0,1.75726363486,0.0,0.0,0.0,0.0,20.9389005956,-78.1450408774,73.8744270948,1.18835815589,-50.0,-0.678952129679,50.0,1.20427718388,-50.0,-0.680678408278,50.0,5828961.07406,0.0,0.0,0.0,0.0,0.0,0.0
1402601532547209922,3,5.04991616443,-0.114322152727,-30.5606562078,0.043815185726,-0.394860808933,0.0,0.194661918963,0.0,1.75571030362,0.0,0.0,0.0,0.0,20.9389005956,-78.1450408774,73.8744270948,1.18835815589,-50.0,-0.677417906123,50.0,1.20427718388,-50.0,-0.680678408278,50.0,5828961.07406,0.0,0.0,0.0,0.0,0.0,0.0
1402601532567704656,3,5.04991616443,-0.114322152727,-30.5606562078,0.043815185726,-0.394860808933,0.0,0.194661918963,0.0,1.75571030362,0.0,0.0,0.0,0.0,20.9389005956,-78.1450408774,73.8744270948,1.18682369391,-50.0,-0.678952129679,50.0,1.20427718388,-50.0,-0.680678408278,50.0,5828961.07406,0.0,0.0,0.0,0.0,0.0,0.0
1402601532587188735,3,5.03438827682,-0.114322152727,-30.5553974468,0.043815185726,-0.389580426428,0.0,0.18578304198,0.0,1.7541012549,0.0,0.0,0.0,0.0,20.9389005956,-78.1450408774,73.8744270948,1.18682369391,-50.0,-0.677417906123,50.0,1.20427718388,-50.0,-0.680678408278,50.0,5828961.07406,0.0,0.0,0.0,0.0,0.0,0.0
1402601532607762816,3,5.03438827682,-0.114322152727,-30.5553974468,0.043815185726,-0.389580426428,0.0,0.18578304198,0.0,1.7541012549,0.0,0.0,0.0,0.0,20.9389005956,-78.1450408774,73.8744270948,1.18682369391,-50.0,-0.678952129679,50.0,1.20427718388,-50.0,-0.680678408278,50.0,5828961.07406,0.0,0.0,0.0,0.0,0.0,0.0
1402601532627065763,3,5.01874099455,-0.114322152727,-30.5480008808,0.043815185726,-0.386421598868,0.0,0.185449341609,0.0,1.75252520588,0.0,0.0,0.0,0.0,20.9389005956,-78.1450408774,73.8744270948,1.18682369391,-50.0,-0.678952129679,50.0,1.20427718388,-50.0,-0.680678408278,50.0,5828961.07406,0.0,0.0,0.0,0.0,0.0,0.0
1402601532647602769,3,5.01874099455,-0.114322152727,-30.5480008808,0.043815185726,-0.386421598868,0.0,0.185449341609,0.0,1.75252520588,0.0,0.0,0.0,0.0,20.9389005956,-78.1450408774,73.8744270948,1.18835815589,-50.0,-0.677417906123,50.0,1.20427718388,-50.0,-0.680678408278,50.0,5828961.07406,0.0,0.0,0.0,0.0,0.0,0.0
1402601532667269105,3,4.99953888832,-0.114322152727,-30.5374891796,0.043815185726,-0.387967389786,0.0,0.197470907648,0.0,1.75119521888,0.0,0.0,0.0,0.0,20.9389005956,-78.1450408774,73.8744270948,1.18682369391,-50.0,-0.678952129679,50.0,1.20427718388,-50.0,-0.680678408278,50.0,5828961.07406,0.0,0.0,0.0,0.0,0.0,0.0
1402601532687772671,3,4.99953888832,-0.114322152727,-30.5374891796,0.043815185726,-0.387967389786,0.0,0.197470907648,0.0,1.75119521888,0.0,0.0,0.0,0.0,20.9389005956,-78.1450408774,73.8744270948,1.18682369391,-50.0,-0.677417906123,50.0,1.20427718388,-50.0,-0.680678408278,50.0,5828961.07406,0.0,0.0,0.0,0.0,0.0,0.0
1402601532707267620,3,4.98037311595,-0.114322152727,-30.5337461621,0.043815185726,-0.398898553139,0.0,0.184274736255,0.0,1.74965376766,0.0,0.0,0.0,0.0,20.9389005956,-78.1450408774,73.8744270948,1.18682369391,-50.0,-0.678952129679,50.0,1.20427718388,-50.0,-0.680678408278,50.0,5828961.07406,0.0,0.0,0.0,0.0,0.0,0.0
1402601532727726317,3,4.98037311595,-0.114322152727,-30.5337461621,0.043815185726,-0.398898553139,0.0,0.184274736255,0.0,1.74965376766,0.0,0.0,0.0,0.0,20.9389005956,-78.1450408774,73.8744270948,1.18682369391,-50.0,-0.677417906123,50.0,1.20427718388,-50.0,-0.680678408278,50.0,5828961.07406,0.0,0.0,0.0,0.0,0.0,0.0
1402601532747245283,3,4.9646725848,-0.114322152727,-30.5250194502,0.043815185726,-0.394228096074,0.0,0.189558972073,0.0,1.74835155088,0.0,0.0,0.0,0.0,20.9389005956,-78.1450408774,73.8744270948,1.18682369391,-50.0,-0.677417906123,50.0,1.20427718388,-50.0,-0.680678408278,50.0,5828961.07406,0.0,0.0,0.0,0.0,0.0,0.0
1402601532767803856,3,4.9646725848,-0.114322152727,-30.5250194502,0.043815185726,-0.394228096074,0.0,0.189558972073,0.0,1.74835155088,0.0,0.0,0.0,0.0,20.9389005956,-78.1450408774,73.8744270948,1.18682369391,-50.0,-0.678952129679,50.0,1.20427718388,-50.0,-0.680678408278,50.0,5828961.07406,0.0,0.0,0.0,0.0,0.0,0.0
1402601532787456908,3,4.95219363766,-0.114322152727,-30.5231404309,0.043815185726,-0.376942016757,0.0,0.177852641958,0.0,1.74681788883,0.0,0.0,0.0,0.0,20.9389005956,-78.1450408774,73.8744270948,1.18682369391,-50.0,-0.677417906123,50.0,1.20427718388,-50.0,-0.680678408278,50.0,5828961.07406,0.0,0.0,0.0,0.0,0.0,0.0
1402601532807921475,3,4.95219363766,-0.114322152727,-30.5231404309,0.043815185726,-0.376942016757,0.0,0.177852641958,0.0,1.74681788883,0.0,0.0,0.0,0.0,20.9389005956,-78.1450408774,73.8744270948,1.18682369391,-50.0,-0.678952129679,50.0,1.20427718388,-50.0,-0.680678408278,50.0,5828961.07406,0.0,0.0,0.0,0.0,0.0,0.0
1402601532827347608,3,4.92869619775,-0.114322152727,-30.5096561864,0.043815185726,-0.39919824898,0.0,0.190827877146,0.0,1.74582452805,0.0,0.0,0.0,0.0,20.9389005956,-78.1450408774,73.8744270948,1.18682369391,-50.0,-0.677417906123,50.0,1.20427718388,-50.0,-0.680678408278,50.0,5828961.07406,0.0,0.0,0.0,0.0,0.0,0.0
1402601532847794336,3,4.92869619775,-0.114322152727,-30.5096561864,0.043815185726,-0.39919824898,0.0,0.190827877146,0.0,1.74582452805,0.0,0.0,0.0,0.0,20.9389005956,-78.1450408774,73.8744270948,1.18835815589,-50.0,-0.678952129679,50.0,1.20427718388,-50.0,-0.680678408278,50.0,5828961.07406,0.0,0.0,0.0,0.0,0.0,0.0
1402601532867240171,3,4.90482361838,-0.114322152727,-30.4995787006,0.043815185726,-0.41448077088,0.0,0.200782281743,0.0,1.74473291355,0.0,0.0,0.0,0.0,20.9389005956,-78.1450408774,73.8744270948,1.18682369391,-50.0,-0.678952129679,50.0,1.20427718388,-50.0,-0.680678408278,50.0,5828961.07406,0.0,0.0,0.0,0.0,0.0,0.0
1402601532887786153,3,4.90482361838,-0.114322152727,-30.4995787006,0.043815185726,-0.41448077088,0.0,0.200782281743,0.0,1.74473291355,0.0,0.0,0.0,0.0,20.9389005956,-78.1450408774,73.8744270948,1.18682369391,-50.0,-0.677417906123,50.0,1.20427718388,-50.0,-0.680678408278,50.0,5828961.07406,0.0,0.0,0.0,0.0,0.0,0.0
1402601532907470214,3,4.88634353152,-0.114322152727,-30.4918380272,0.043815185726,-0.408883444456,0.0,0.207217901179,0.0,1.74304357525,0.0,0.0,0.0,0.0,20.9389005956,-78.1450408774,73.8744270948,1.18682369391,-50.0,-0.678952129679,50.0,1.20427718388,-50.0,-0.680678408278,50.0,5828961.07406,0.0,0.0,0.0,0.0,0.0,0.0
1402601532927785744,3,4.88634353152,-0.114322152727,-30.4918380272,0.043815185726,-0.408883444456,0.0,0.207217901179,0.0,1.74304357525,0.0,0.0,0.0,0.0,20.9389005956,-78.1450408774,73.8744270948,1.18682369391,-50.0,-0.677417906123,50.0,1.20427718388,-50.0,-0.680678408278,50.0,5828961.07406,0.0,0.0,0.0,0.0,0.0,0.0
1402601532947130616,3,4.86666062868,-0.114322152727,-30.4884422773,0.043815185726,-0.401908710997,0.0,0.199845470958,0.0,1.74121438046,0.0,0.0,0.0,0.0,20.9389005956,-78.1450408774,73.8744270948,1.18682369391,-50.0,-0.678952129679,50.0,1.20427718388,-50.0,-0.680678408278,50.0,5828961.07406,0.0,0.0,0.0,0.0,0.0,0.0
1402601532967818435,3,4.86666062868,-0.114322152727,-30.4884422773,0.043815185726,-0.401908710997,0.0,0.199845470958,0.0,1.74121438046,0.0,0.0,0.0,0.0,20.9389005956,-78.1450408774,73.8744270948,1.18682369391,-50.0,-0.678952129679,50.0,1.20427718388,-50.0,-0.680678408278,50.0,5828961.07406,0.0,0.0,0.0,0.0,0.0,0.0
1402601532987264862,3,4.84646893215,-0.114322152727,-30.4791899333,0.043815185726,-0.397265983266,0.0,0.191793150092,0.0,1.73847557009,0.0,0.0,0.0,0.0,20.9389005956,-78.1450408774,73.8744270948,1.18835815589,-50.0,-0.677417906123,50.0,1.20427718388,-50.0,-0.680678408278,50.0,5828961.07406,0.0,0.0,0.0,0.0,0.0,0.0
1402601533007859861,3,4.84646893215,-0.114322152727,-30.4791899333,0.043815185726,-0.397265983266,0.0,0.191793150092,0.0,1.73847557009,0.0,0.0,0.0,0.0,20.9389005956,-78.1450408774,73.8744270948,1.18682369391,-50.0,-0.677417906123,50.0,1.20427718388,-50.0,-0.680678408278,50.0,5828961.07406,0.0,0.0,0.0,0.0,0.0,0.0
1402601533027482257,3,4.8316206017,-0.114322152727,-30.4689207695,0.043815185726,-0.412765222507,0.0,0.197313201044,0.0,1.73640365261,0.0,0.0,0.0,0.0,20.9389005956,-78.1450408774,73.8744270948,1.18835815589,-50.0,-0.677417906123,50.0,1.20427718388,-50.0,-0.680678408278,50.0,5828961.07406,0.0,0.0,0.0,0.0,0.0,0.0
1402601533047767553,3,4.82318143388,-0.114322152727,-30.4650951901,0.043815185726,-0.413076118461,0.0,0.196428930149,0.0,1.73523132433,0.0,0.0,0.0,0.0,20.9389005956,-78.1450408774,73.8744270948,1.18682369391,-50.0,-0.678952129679,50.0,1.20427718388,-50.0,-0.680678408278,50.0,5828961.07406,0.0,0.0,0.0,0.0,0.0,0.0
1402601533067249955,3,4.82318143388,-0.114322152727,-30.4650951901,0.043815185726,-0.413076118461,0.0,0.196428930149,0.0,1.73523132433,0.0,0.0,0.0,0.0,20.9389005956,-78.1450408774,73.8744270948,1.18682369391,-50.0,-0.678952129679,50.0,1.20427718388,-50.0,-0.680678408278,50.0,5828961.07406,0.0,0.0,0.0,0.0,0.0,0.0
1402601533088013545,3,4.81453386513,-0.114322152727,-30.4609659508,0.043815185726,-0.413741437364,0.0,0.195007585245,0.0,1.73400698198,0.0,0.0,0.0,0.0,20.9389005956,-78.1450408774,73.8744270948,1.18682369391,-50.0,-0.677417906123,50.0,1.20427718388,-50.0,-0.680678408278,50.0,5828961.07406,0.0,0.0,0.0,0.0,0.0,0.0
1402601533107417091,3,4.81453386513,-0.114322152727,-30.4609659508,0.043815185726,-0.413741437364,0.0,0.195007585245,0.0,1.73400698198,0.0,0.0,0.0,0.0,20.9389005956,-78.1450408774,73.8744270948,1.18682369391,-50.0,-0.678952129679,50.0,1.20427718388,-50.0,-0.680678408278,50.0,5828961.07406,0.0,0.0,0.0,0.0,0.0,0.0
1402601533128077664,3,4.79951869605,-0.114322152727,-30.450823353,0.043815185726,-0.410530666802,0.0,0.199636113686,0.0,1.73172924293,0.0,0.0,0.0,0.0,20.9389005956,-78.1450408774,73.8744270948,1.18682369391,-50.0,-0.677417906123,50.0,1.20427718388,-50.0,-0.680678408278,50.0,5828961.07406,0.0,0.0,0.0,0.0,0.0,0.0
1402601533147443545,3,4.79951869605,-0.114322152727,-30.450823353,0.043815185726,-0.410530666802,0.0,0.199636113686,0.0,1.73172924293,0.0,0.0,0.0,0.0,20.9389005956,-78.1450408774,73.8744270948,1.18682369391,-50.0,-0.678952129679,50.0,1.20427718388,-50.0,-0.680678408278,50.0,5828961.07406,0.0,0.0,0.0,0.0,0.0,0.0
1402601533167828758,3,4.78806800874,-0.114322152727,-30.4427154682,0.043815185726,-0.397824183698,0.0,0.197753360486,0.0,1.72986432952,0.0,0.0,0.0,0.0,20.9389005956,-78.1450408774,73.8744270948,1.18682369391,-50.0,-0.678952129679,50.0,1.20427718388,-50.0,-0.680678408278,50.0,5828961.07406,0.0,0.0,0.0,0.0,0.0,0.0
1402601533187226106,3,4.78806800874,-0.114322152727,-30.4427154682,0.043815185726,-0.397824183698,0.0,0.197753360486,0.0,1.72986432952,0.0,0.0,0.0,0.0,20.9389005956,-78.1450408774,73.8744270948,1.18682369391,-50.0,-0.677417906123,50.0,1.20427718388,-50.0,-0.680678408278,50.0,5828961.07406,0.0,0.0,0.0,0.0,0.0,0.0
1402601533207997579,3,4.77081674293,-0.114322152727,-30.4379380667,0.043815185726,-0.390049263142,0.0,0.19262719514,0.0,1.72808526814,0.0,0.0,0.0,0.0,20.9389005956,-78.1450408774,73.8744270948,1.18835815589,-50.0,-0.678952129679,50.0,1.20427718388,-50.0,-0.680678408278,50.0,5828961.07406,0.0,0.0,0.0,0.0,0.0,0.0
1402601533227886897,3,4.77081674293,-0.114322152727,-30.4379380667,0.043815185726,-0.390049263142,0.0,0.19262719514,0.0,1.72808526814,0.0,0.0,0.0,0.0,20.9389005956,-78.1450408774,73.8744270948,1.18682369391,-50.0,-0.677417906123,50.0,1.20427718388,-50.0,-0.680678408278,50.0,5828961.07406,0.0,0.0,0.0,0.0,0.0,0.0
1402601533247724235,3,4.75463896758,-0.114322152727,-30.4352677582,0.043815185726,-0.385582668659,0.0,0.177972771565,0.0,1.72614545559,0.0,0.0,0.0,0.0,20.9389005956,-78.1450408774,73.8744270948,1.18682369391,-50.0,-0.677417906123,50.0,1.20427718388,-50.0,-0.680678408278,50.0,5828961.07406,0.0,0.0,0.0,0.0,0.0,0.0
1402601533267997369,3,4.75463896758,-0.114322152727,-30.4352677582,0.043815185726,-0.385582668659,0.0,0.177972771565,0.0,1.72614545559,0.0,0.0,0.0,0.0,20.9389005956,-78.1450408774,73.8744270948,1.18835815589,-50.0,-0.677417906123,50.0,1.20427718388,-50.0,-0.680678408278,50.0,5828961.07406,0.0,0.0,0.0,0.0,0.0,0.0
1402601533287984814,3,4.73939752062,-0.114322152727,-30.4279844962,0.043815185726,-0.381605434352,0.0,0.179163516144,0.0,1.72453641683,0.0,0.0,0.0,0.0,20.9389005956,-78.1450408774,73.8744270948,1.18682369391,-50.0,-0.677417906123,50.0,1.20427718388,-50.0,-0.680678408278,50.0,5828961.07406,0.0,0.0,0.0,0.0,0.0,0.0
1402601533307233081,3,4.73939752062,-0.114322152727,-30.4279844962,0.043815185726,-0.381605434352,0.0,0.179163516144,0.0,1.72453641683,0.0,0.0,0.0,0.0,20.9389005956,-78.1450408774,73.8744270948,1.18682369391,-50.0,-0.678952129679,50.0,1.20427718388,-50.0,-0.680678408278,50.0,5828961.07406,0.0,0.0,0.0,0.0,0.0,0.0
1402601533327839708,3,4.71888464151,-0.114322152727,-30.4229841925,0.043815185726,-0.393611042904,0.0,0.178777423228,0.0,1.72281971443,0.0,0.0,0.0,0.0,20.9389005956,-78.1450408774,73.8744270948,1.18682369391,-50.0,-0.677417906123,50.0,1.20427718388,-50.0,-0.680678408278,50.0,5828961.07406,0.0,0.0,0.0,0.0,0.0,0.0
1402601533347701033,3,4.71888464151,-0.114322152727,-30.4229841925,0.043815185726,-0.393611042904,0.0,0.178777423228,0.0,1.72281971443,0.0,0.0,0.0,0.0,20.9389005956,-78.1450408774,73.8744270948,1.18682369391,-50.0,-0.677417906123,50.0,1.20427718388,-50.0,-0.680678408278,50.0,5828961.07406,0.0,0.0,0.0,0.0,0.0,0.0
1402601533368287637,3,4.69557205648,-0.114322152727,-30.4142309963,0.043815185726,-0.406795888924,0.0,0.187577004009,0.0,1.72130212384,0.0,0.0,0.0,0.0,20.9389005956,-78.1450408774,73.8744270948,1.18682369391,-50.0,-0.678952129679,50.0,1.20427718388,-50.0,-0.680678408278,50.0,5828961.07406,0.0,0.0,0.0,0.0,0.0,0.0
1402601533387962487,3,4.69557205648,-0.114322152727,-30.4142309963,0.043815185726,-0.406795888924,0.0,0.187577004009,0.0,1.72130212384,0.0,0.0,0.0,0.0,20.9389005956,-78.1450408774,73.8744270948,1.18682369391,-50.0,-0.677417906123,50.0,1.20427718388,-50.0,-0.680678408278,50.0,5828961.07406,0.0,0.0,0.0,0.0,0.0,0.0
1402601533408502480,3,4.67984962311,-0.114322152727,-30.4099931514,0.043815185726,-0.400634418815,0.0,0.183396622259,0.0,1.71961056271,0.0,0.0,0.0,0.0,20.9389005956,-78.1450408774,73.8744270948,1.18682369391,-50.0,-0.678952129679,50.0,1.20427718388,-50.0,-0.680678408278,50.0,5828961.07406,0.0,0.0,0.0,0.0,0.0,0.0
1402601533428014054,3,4.67984962311,-0.114322152727,-30.4099931514,0.043815185726,-0.400634418815,0.0,0.183396622259,0.0,1.71961056271,0.0,0.0,0.0,0.0,20.9389005956,-78.1450408774,73.8744270948,1.18682369391,-50.0,-0.678952129679,50.0,1.20427718388,-50.0,-0.680678408278,50.0,5828961.07406,0.0,0.0,0.0,0.0,0.0,0.0
1402601533447793197,3,4.66066829282,-0.114322152727,-30.4058332554,0.043815185726,-0.40501460323,0.0,0.18286131617,0.0,1.71770113058,0.0,0.0,0.0,0.0,20.9389005956,-78.1450408774,73.8744270948,1.18682369391,-50.0,-0.678952129679,50.0,1.20427718388,-50.0,-0.680678408278,50.0,5828961.07406,0.0,0.0,0.0,0.0,0.0,0.0
1402601533467225680,3,4.66066829282,-0.114322152727,-30.4058332554,0.043815185726,-0.40501460323,0.0,0.18286131617,0.0,1.71770113058,0.0,0.0,0.0,0.0,20.9389005956,-78.1450408774,73.8744270948,1.18682369391,-50.0,-0.678952129679,50.0,1.20427718388,-50.0,-0.680678408278,50.0,5828961.07406,0.0,0.0,0.0,0.0,0.0,0.0
1402601533487863259,3,4.64403632594,-0.114322152727,-30.3984023929,0.043815185726,-0.411860809545,0.0,0.186390301991,0.0,1.7155988398,0.0,0.0,0.0,0.0,20.9389005956,-78.1450408774,73.8744270948,1.18835815589,-50.0,-0.677417906123,50.0,1.20427718388,-50.0,-0.680678408278,50.0,5828961.07406,0.0,0.0,0.0,0.0,0.0,0.0
1402601533507173306,3,4.64403632594,-0.114322152727,-30.3984023929,0.043815185726,-0.411860809545,0.0,0.186390301991,0.0,1.7155988398,0.0,0.0,0.0,0.0,20.9389005956,-78.1450408774,73.8744270948,1.18682369391,-50.0,-0.678952129679,50.0,1.20427718388,-50.0,-0.680678408278,50.0,5828961.07406,0.0,0.0,0.0,0.0,0.0,0.0
1402601533527801702,3,4.6296849386,-0.114322152727,-30.3951144222,0.043815185726,-0.405043977201,0.0,0.184445829768,0.0,1.71376407632,0.0,0.0,0.0,0.0,20.9389005956,-78.1450408774,73.8744270948,1.18682369391,-50.0,-0.678952129679,50.0,1.20427718388,-50.0,-0.680678408278,50.0,5828961.07406,0.0,0.0,0.0,0.0,0.0,0.0
1402601533547440921,3,4.6296849386,-0.114322152727,-30.3951144222,0.043815185726,-0.405043977201,0.0,0.184445829768,0.0,1.71376407632,0.0,0.0,0.0,0.0,20.9389005956,-78.1450408774,73.8744270948,1.18835815589,-50.0,-0.678952129679,50.0,1.20427718388,-50.0,-0.680678408278,50.0,5828961.07406,0.0,0.0,0.0,0.0,0.0,0.0
1402601533567837306,3,4.6089547837,-0.114322152727,-30.3857047011,0.043815185726,-0.409395741714,0.0,0.184555564631,0.0,1.71097680102,0.0,0.0,0.0,0.0,20.9389005956,-78.1450408774,73.8744270948,1.18835815589,-50.0,-0.678952129679,50.0,1.20427718388,-50.0,-0.680678408278,50.0,5828961.07406,0.0,0.0,0.0,0.0,0.0,0.0
1402601533587937884,3,4.6089547837,-0.114322152727,-30.3857047011,0.043815185726,-0.409395741714,0.0,0.184555564631,0.0,1.71097680102,0.0,0.0,0.0,0.0,20.9389005956,-78.1450408774,73.8744270948,1.18682369391,-50.0,-0.677417906123,50.0,1.20427718388,-50.0,-0.680678408278,50.0,5828961.07406,0.0,0.0,0.0,0.0,0.0,0.0
1402601533607728854,3,4.59049374173,-0.114322152727,-30.376060518,0.043815185726,-0.409610204134,0.0,0.19256381996,0.0,1.70792304014,0.0,0.0,0.0,0.0,20.9389005956,-78.1450408774,73.8744270948,1.18682369391,-50.0,-0.677417906123,50.0,1.20427718388,-50.0,-0.680678408278,50.0,5828961.07406,0.0,0.0,0.0,0.0,0.0,0.0
1402601533627381335,3,4.59049374173,-0.114322152727,-30.376060518,0.043815185726,-0.409610204134,0.0,0.19256381996,0.0,1.70792304014,0.0,0.0,0.0,0.0,20.9389005956,-78.1450408774,73.8744270948,1.18835815589,-50.0,-0.678952129679,50.0,1.20427718388,-50.0,-0.680678408278,50.0,5828961.07406,0.0,0.0,0.0,0.0,0.0,0.0
1402601533647809479,3,4.58289510699,-0.114322152727,-30.3787276837,0.043815185726,-0.401038137747,0.0,0.188248616978,0.0,1.70701574962,0.0,0.0,0.0,0.0,20.9389005956,-78.1450408774,73.8744270948,1.18682369391,-50.0,-0.678952129679,50.0,1.20427718388,-50.0,-0.680678408278,50.0,5828961.07406,0.0,0.0,0.0,0.0,0.0,0.0
1402601533667195732,3,4.58289510699,-0.114322152727,-30.3787276837,0.043815185726,-0.401038137747,0.0,0.188248616978,0.0,1.70701574962,0.0,0.0,0.0,0.0,20.9389005956,-78.1450408774,73.8744270948,1.18682369391,-50.0,-0.678952129679,50.0,1.20427718388,-50.0,-0.680678408278,50.0,5828961.07406,0.0,0.0,0.0,0.0,0.0,0.0
1402601533687759289,3,4.56286779276,-0.114322152727,-30.3653154102,0.043815185726,-0.41682015981,0.0,0.210413239658,0.0,1.70392415676,0.0,0.0,0.0,0.0,20.9389005956,-78.1450408774,73.8744270948,1.18835815589,-50.0,-0.678952129679,50.0,1.20427718388,-50.0,-0.680678408278,50.0,5828961.07406,0.0,0.0,0.0,0.0,0.0,0.0
1402601533707544480,3,4.56286779276,-0.114322152727,-30.3653154102,0.043815185726,-0.41682015981,0.0,0.210413239658,0.0,1.70392415676,0.0,0.0,0.0,0.0,20.9389005956,-78.1450408774,73.8744270948,1.18682369391,-50.0,-0.677417906123,50.0,1.20427718388,-50.0,-0.680678408278,50.0,5828961.07406,0.0,0.0,0.0,0.0,0.0,0.0
1402601533727830424,3,4.54893189854,-0.114322152727,-30.3555481691,0.043815185726,-0.411669117094,0.0,0.21355849529,0.0,1.70155933658,0.0,0.0,0.0,0.0,20.9389005956,-78.1450408774,73.8744270948,1.18682369391,-50.0,-0.677417906123,50.0,1.20427718388,-50.0,-0.680678408278,50.0,5828961.07406,0.0,0.0,0.0,0.0,0.0,0.0
1402601533747396161,3,4.54893189854,-0.114322152727,-30.3555481691,0.043815185726,-0.411669117094,0.0,0.21355849529,0.0,1.70155933658,0.0,0.0,0.0,0.0,20.9389005956,-78.1450408774,73.8744270948,1.18682369391,-50.0,-0.677417906123,50.0,1.20427718388,-50.0,-0.680678408278,50.0,5828961.07406,0.0,0.0,0.0,0.0,0.0,0.0
1402601533767810197,3,4.54381005457,-0.114322152727,-30.3477599634,0.043815185726,-0.393375256657,0.0,0.20614365162,0.0,1.69927669804,0.0,0.0,0.0,0.0,20.9389005956,-78.1450408774,73.8744270948,1.18835815589,-50.0,-0.678952129679,50.0,1.20427718388,-50.0,-0.680678408278,50.0,5828961.07406,0.0,0.0,0.0,0.0,0.0,0.0
1402601533787352683,3,4.54381005457,-0.114322152727,-30.3477599634,0.043815185726,-0.393375256657,0.0,0.20614365162,0.0,1.69927669804,0.0,0.0,0.0,0.0,20.9389005956,-78.1450408774,73.8744270948,1.18682369391,-50.0,-0.677417906123,50.0,1.20427718388,-50.0,-0.680678408278,50.0,5828961.07406,0.0,0.0,0.0,0.0,0.0,0.0
1402601533807742232,3,4.52759427277,-0.114322152727,-30.3417647481,0.043815185726,-0.391753607317,0.0,0.202167742672,0.0,1.69685791398,0.0,0.0,0.0,0.0,20.9389005956,-78.1450408774,73.8744270948,1.18682369391,-50.0,-0.678952129679,50.0,1.20427718388,-50.0,-0.680678408278,50.0,5828961.07406,0.0,0.0,0.0,0.0,0.0,0.0
1402601533827069264,3,4.52759427277,-0.114322152727,-30.3417647481,0.043815185726,-0.391753607317,0.0,0.202167742672,0.0,1.69685791398,0.0,0.0,0.0,0.0,20.9389005956,-78.1450408774,73.8744270948,1.18682369391,-50.0,-0.677417906123,50.0,1.20427718388,-50.0,-0.680678408278,50.0,5828961.07406,0.0,0.0,0.0,0.0,0.0,0.0
1402601533847669535,3,4.51670714008,-0.114322152727,-30.3326628064,0.043815185726,-0.389008356505,0.0,0.201953097634,0.0,1.69459741719,0.0,0.0,0.0,0.0,20.9389005956,-78.1450408774,73.8744270948,1.18835815589,-50.0,-0.677417906123,50.0,1.20427718388,-50.0,-0.680678408278,50.0,5828961.07406,0.0,0.0,0.0,0.0,0.0,0.0
1402601533867021336,3,4.51670714008,-0.114322152727,-30.3326628064,0.043815185726,-0.389008356505,0.0,0.201953097634,0.0,1.69459741719,0.0,0.0,0.0,0.0,20.9389005956,-78.1450408774,73.8744270948,1.18682369391,-50.0,-0.678952129679,50.0,1.20427718388,-50.0,-0.680678408278,50.0,5828961.07406,0.0,0.0,0.0,0.0,0.0,0.0
1402601533887608549,3,4.49576123348,-0.114322152727,-30.3240330004,0.043815185726,-0.405648811949,0.0,0.202769509033,0.0,1.69244090353,0.0,0.0,0.0,0.0,20.9389005956,-78.1450408774,73.8744270948,1.18682369391,-50.0,-0.677417906123,50.0,1.20427718388,-50.0,-0.680678408278,50.0,5828961.07406,0.0,0.0,0.0,0.0,0.0,0.0
1402601533907014837,3,4.49576123348,-0.114322152727,-30.3240330004,0.043815185726,-0.405648811949,0.0,0.202769509033,0.0,1.69244090353,0.0,0.0,0.0,0.0,20.9389005956,-78.1450408774,73.8744270948,1.18835815589,-50.0,-0.677417906123,50.0,1.20427718388,-50.0,-0.680678408278,50.0,5828961.07406,0.0,0.0,0.0,0.0,0.0,0.0
1402601533927591647,3,4.47941018482,-0.114322152727,-30.3159856405,0.043815185726,-0.406948040787,0.0,0.202068547978,0.0,1.69046160499,0.0,0.0,0.0,0.0,20.9389005956,-78.1450408774,73.8744270948,1.18682369391,-50.0,-0.678952129679,50.0,1.20427718388,-50.0,-0.680678408278,50.0,5828961.07406,0.0,0.0,0.0,0.0,0.0,0.0
1402601533946999101,3,4.47941018482,-0.114322152727,-30.3159856405,0.043815185726,-0.406948040787,0.0,0.202068547978,0.0,1.69046160499,0.0,0.0,0.0,0.0,20.9389005956,-78.1450408774,73.8744270948,1.18682369391,-50.0,-0.677417906123,50.0,1.20427718388,-50.0,-0.680678408278,50.0,5828961.07406,0.0,0.0,0.0,0.0,0.0,0.0
1402601533967626849,3,4.47306133014,-0.114322152727,-30.309340376,0.043815185726,-0.387631103988,0.0,0.203119756063,0.0,1.68874256499,0.0,0.0,0.0,0.0,20.9389005956,-78.1450408774,73.8744270948,1.18682369391,-50.0,-0.678952129679,50.0,1.20427718388,-50.0,-0.680678408278,50.0,5828961.07406,0.0,0.0,0.0,0.0,0.0,0.0
1402601533987277013,3,4.47306133014,-0.114322152727,-30.309340376,0.043815185726,-0.387631103988,0.0,0.203119756063,0.0,1.68874256499,0.0,0.0,0.0,0.0,20.9389005956,-78.1450408774,73.8744270948,1.18835815589,-50.0,-0.677417906123,50.0,1.20427718388,-50.0,-0.680678408278,50.0,5828961.07406,0.0,0.0,0.0,0.0,0.0,0.0
1402601534007888123,3,4.45613234623,-0.114322152727,-30.3036474064,0.043815185726,-0.393519438697,0.0,0.20284690563,0.0,1.68718313224,0.0,0.0,0.0,0.0,20.9389005956,-78.1450408774,73.8744270948,1.18835815589,-50.0,-0.678952129679,50.0,1.20427718388,-50.0,-0.680678408278,50.0,5828961.07406,0.0,0.0,0.0,0.0,0.0,0.0
1402601534027253060,3,4.45613234623,-0.114322152727,-30.3036474064,0.043815185726,-0.393519438697,0.0,0.20284690563,0.0,1.68718313224,0.0,0.0,0.0,0.0,20.9389005956,-78.1450408774,73.8744270948,1.18682369391,-50.0,-0.678952129679,50.0,1.20427718388,-50.0,-0.680678408278,50.0,5828961.07406,0.0,0.0,0.0,0.0,0.0,0.0
1402601534047790475,3,4.43788989631,-0.114322152727,-30.3013398814,0.043815185726,-0.396786299571,0.0,0.203385395073,0.0,1.6858881045,0.0,0.0,0.0,0.0,20.9389005956,-78.1450408774,73.8744270948,1.18682369391,-50.0,-0.677417906123,50.0,1.20427718388,-50.0,-0.680678408278,50.0,5828961.07406,0.0,0.0,0.0,0.0,0.0,0.0
1402601534067146430,3,4.43788989631,-0.114322152727,-30.3013398814,0.043815185726,-0.396786299571,0.0,0.203385395073,0.0,1.6858881045,0.0,0.0,0.0,0.0,20.9389005956,-78.1450408774,73.8744270948,1.18835815589,-50.0,-0.678952129679,50.0,1.20427718388,-50.0,-0.680678408278,50.0,5828961.07406,0.0,0.0,0.0,0.0,0.0,0.0
1402601534087812418,3,4.41651811564,-0.114322152727,-30.3031351447,0.043815185726,-0.402795446189,0.0,0.197569036687,0.0,1.68439055048,0.0,0.0,0.0,0.0,20.9389005956,-78.1450408774,73.8744270948,1.18682369391,-50.0,-0.677417906123,50.0,1.20427718388,-50.0,-0.680678408278,50.0,5828961.07406,0.0,0.0,0.0,0.0,0.0,0.0
1402601534107198720,3,4.41651811564,-0.114322152727,-30.3031351447,0.043815185726,-0.402795446189,0.0,0.197569036687,0.0,1.68439055048,0.0,0.0,0.0,0.0,20.9389005956,-78.1450408774,73.8744270948,1.18682369391,-50.0,-0.677417906123,50.0,1.20427718388,-50.0,-0.680678408278,50.0,5828961.07406,0.0,0.0,0.0,0.0,0.0,0.0
1402601534127526217,3,4.40027369913,-0.114322152727,-30.2951423998,0.043815185726,-0.404460269082,0.0,0.198087303936,0.0,1.68313927621,0.0,0.0,0.0,0.0,20.9389005956,-78.1450408774,73.8744270948,1.18682369391,-50.0,-0.678952129679,50.0,1.20427718388,-50.0,-0.680678408278,50.0,5828961.07406,0.0,0.0,0.0,0.0,0.0,0.0
1402601534147067260,3,4.40027369913,-0.114322152727,-30.2951423998,0.043815185726,-0.404460269082,0.0,0.198087303936,0.0,1.68313927621,0.0,0.0,0.0,0.0,20.9389005956,-78.1450408774,73.8744270948,1.18682369391,-50.0,-0.677417906123,50.0,1.20427718388,-50.0,-0.680678408278,50.0,5828961.07406,0.0,0.0,0.0,0.0,0.0,0.0
1402601534167548999,3,4.38855908556,-0.114322152727,-30.2918420378,0.043815185726,-0.386767215817,0.0,0.202750768698,0.0,1.68192585869,0.0,0.0,0.0,0.0,20.9389005956,-78.1450408774,73.8744270948,1.18682369391,-50.0,-0.678952129679,50.0,1.20427718388,-50.0,-0.680678408278,50.0,5828961.07406,0.0,0.0,0.0,0.0,0.0,0.0
1402601534187002179,3,4.38855908556,-0.114322152727,-30.2918420378,0.043815185726,-0.386767215817,0.0,0.202750768698,0.0,1.68192585869,0.0,0.0,0.0,0.0,20.9389005956,-78.1450408774,73.8744270948,1.18682369391,-50.0,-0.678952129679,50.0,1.20427718388,-50.0,-0.680678408278,50.0,5828961.07406,0.0,0.0,0.0,0.0,0.0,0.0
1402601534207738725,3,4.36593527719,-0.114322152727,-30.2979557462,0.043815185726,-0.383219845952,0.0,0.18113313355,0.0,1.68034950111,0.0,0.0,0.0,0.0,20.9389005956,-78.1450408774,73.8744270948,1.18682369391,-50.0,-0.677417906123,50.0,1.20427718388,-50.0,-0.680678408278,50.0,5828961.07406,0.0,0.0,0.0,0.0,0.0,0.0
1402601534226880107,3,4.36593527719,-0.114322152727,-30.2979557462,0.043815185726,-0.383219845952,0.0,0.18113313355,0.0,1.68034950111,0.0,0.0,0.0,0.0,20.9389005956,-78.1450408774,73.8744270948,1.18682369391,-50.0,-0.678952129679,50.0,1.20427718388,-50.0,-0.680678408278,50.0,5828961.07406,0.0,0.0,0.0,0.0,0.0,0.0
1402601534246967930,3,4.34142104919,-0.114322152727,-30.2886413833,0.043815185726,-0.388616219021,0.0,0.189968735413,0.0,1.67855721003,0.0,0.0,0.0,0.0,20.9389005956,-78.1450408774,73.8744270948,1.18835815589,-50.0,-0.677417906123,50.0,1.20427718388,-50.0,-0.680678408278,50.0,5828961.07406,0.0,0.0,0.0,0.0,0.0,0.0
1402601534267801715,3,4.34142104919,-0.114322152727,-30.2886413833,0.043815185726,-0.388616219021,0.0,0.189968735413,0.0,1.67855721003,0.0,0.0,0.0,0.0,20.9389005956,-78.1450408774,73.8744270948,1.18682369391,-50.0,-0.678952129679,50.0,1.20427718388,-50.0,-0.680678408278,50.0,5828961.07406,0.0,0.0,0.0,0.0,0.0,0.0
1402601534287015002,3,4.3258054481,-0.114322152727,-30.2859523561,0.043815185726,-0.385374689104,0.0,0.191573677367,0.0,1.67743282754,0.0,0.0,0.0,0.0,20.9389005956,-78.1450408774,73.8744270948,1.18835815589,-50.0,-0.677417906123,50.0,1.20427718388,-50.0,-0.680678408278,50.0,5828961.07406,0.0,0.0,0.0,0.0,0.0,0.0
1402601534307216732,3,4.31801814448,-0.114322152727,-30.2820673025,0.043815185726,-0.386590712183,0.0,0.19411838617,0.0,1.67661672814,0.0,0.0,0.0,0.0,20.9389005956,-78.1450408774,73.8744270948,1.18682369391,-50.0,-0.677417906123,50.0,1.20427718388,-50.0,-0.680678408278,50.0,5828961.07406,0.0,0.0,0.0,0.0,0.0,0.0
1402601534327742910,3,4.31801814448,-0.114322152727,-30.2820673025,0.043815185726,-0.386590712183,0.0,0.19411838617,0.0,1.67661672814,0.0,0.0,0.0,0.0,20.9389005956,-78.1450408774,73.8744270948,1.18682369391,-50.0,-0.678952129679,50.0,1.20427718388,-50.0,-0.680678408278,50.0,5828961.07406,0.0,0.0,0.0,0.0,0.0,0.0
1402601534347231060,3,4.31042037824,-0.114322152727,-30.2782497971,0.043815185726,-0.386028770638,0.0,0.195774916687,0.0,1.67583913943,0.0,0.0,0.0,0.0,20.9389005956,-78.1450408774,73.8744270948,1.18682369391,-50.0,-0.677417906123,50.0,1.20427718388,-50.0,-0.680678408278,50.0,5828961.07406,0.0,0.0,0.0,0.0,0.0,0.0
1402601534367282181,3,4.31042037824,-0.114322152727,-30.2782497971,0.043815185726,-0.386028770638,0.0,0.195774916687,0.0,1.67583913943,0.0,0.0,0.0,0.0,20.9389005956,-78.1450408774,73.8744270948,1.18682369391,-50.0,-0.678952129679,50.0,1.20427718388,-50.0,-0.680678408278,50.0,5828961.07406,0.0,0.0,0.0,0.0,0.0,0.0
1402601534387636467,3,4.29226212192,-0.114322152727,-30.2703265319,0.043815185726,-0.388591241715,0.0,0.203778359483,0.0,1.67431795514,0.0,0.0,0.0,0.0,20.9389005956,-78.1450408774,73.8744270948,1.18682369391,-50.0,-0.677417906123,50.0,1.20427718388,-50.0,-0.680678408278,50.0,5828961.07406,0.0,0.0,0.0,0.0,0.0,0.0
1402601534407198598,3,4.29226212192,-0.114322152727,-30.2703265319,0.043815185726,-0.388591241715,0.0,0.203778359483,0.0,1.67431795514,0.0,0.0,0.0,0.0,20.9389005956,-78.1450408774,73.8744270948,1.18682369391,-50.0,-0.677417906123,50.0,1.20427718388,-50.0,-0.680678408278,50.0,5828961.07406,0.0,0.0,0.0,0.0,0.0,0.0
1402601534427729623,3,4.27535767414,-0.114322152727,-30.2617373947,0.043815185726,-0.39205086467,0.0,0.207181725494,0.0,1.67270556439,0.0,0.0,0.0,0.0,20.9389005956,-78.1450408774,73.8744270948,1.18682369391,-50.0,-0.678952129679,50.0,1.20427718388,-50.0,-0.680678408278,50.0,5828961.07406,0.0,0.0,0.0,0.0,0.0,0.0
1402601534447254264,3,4.27535767414,-0.114322152727,-30.2617373947,0.043815185726,-0.39205086467,0.0,0.207181725494,0.0,1.67270556439,0.0,0.0,0.0,0.0,20.9389005956,-78.1450408774,73.8744270948,1.18682369391,-50.0,-0.677417906123,50.0,1.20427718388,-50.0,-0.680678408278,50.0,5828961.07406,0.0,0.0,0.0,0.0,0.0,0.0
1402601534467187357,3,4.26036788754,-0.114322152727,-30.2538104283,0.043815185726,-0.395169882388,0.0,0.202166057602,0.0,1.67099195068,0.0,0.0,0.0,0.0,20.9389005956,-78.1450408774,73.8744270948,1.18682369391,-50.0,-0.678952129679,50.0,1.20427718388,-50.0,-0.680678408278,50.0,5828961.07406,0.0,0.0,0.0,0.0,0.0,0.0
1402601534487910821,3,4.26036788754,-0.114322152727,-30.2538104283,0.043815185726,-0.395169882388,0.0,0.202166057602,0.0,1.67099195068,0.0,0.0,0.0,0.0,20.9389005956,-78.1450408774,73.8744270948,1.18682369391,-50.0,-0.678952129679,50.0,1.20427718388,-50.0,-0.680678408278,50.0,5828961.07406,0.0,0.0,0.0,0.0,0.0,0.0
1402601534506935443,3,4.25163602074,-0.114322152727,-30.2478772158,0.043815185726,-0.384600953986,0.0,0.199987584116,0.0,1.669280929,0.0,0.0,0.0,0.0,20.9389005956,-78.1450408774,73.8744270948,1.18835815589,-50.0,-0.678952129679,50.0,1.20427718388,-50.0,-0.680678408278,50.0,5828961.07406,0.0,0.0,0.0,0.0,0.0,0.0
1402601534527739087,3,4.25163602074,-0.114322152727,-30.2478772158,0.043815185726,-0.384600953986,0.0,0.199987584116,0.0,1.669280929,0.0,0.0,0.0,0.0,20.9389005956,-78.1450408774,73.8744270948,1.18835815589,-50.0,-0.678952129679,50.0,1.20427718388,-50.0,-0.680678408278,50.0,5828961.07406,0.0,0.0,0.0,0.0,0.0,0.0
1402601534547222253,3,4.2363832315,-0.114322152727,-30.2399255041,0.043815185726,-0.384801638063,0.0,0.197755389404,0.0,1.66761826867,0.0,0.0,0.0,0.0,20.9389005956,-78.1450408774,73.8744270948,1.18682369391,-50.0,-0.677417906123,50.0,1.20427718388,-50.0,-0.680678408278,50.0,5828961.07406,0.0,0.0,0.0,0.0,0.0,0.0
1402601534567841735,3,4.2363832315,-0.114322152727,-30.2399255041,0.043815185726,-0.384801638063,0.0,0.197755389404,0.0,1.66761826867,0.0,0.0,0.0,0.0,20.9389005956,-78.1450408774,73.8744270948,1.18682369391,-50.0,-0.678952129679,50.0,1.20427718388,-50.0,-0.680678408278,50.0,5828961.07406,0.0,0.0,0.0,0.0,0.0,0.0
1402601534587273655,3,4.22071064498,-0.114322152727,-30.2318389857,0.043815185726,-0.385314843702,0.0,0.196251940054,0.0,1.66583906576,0.0,0.0,0.0,0.0,20.9389005956,-78.1450408774,73.8744270948,1.18682369391,-50.0,-0.677417906123,50.0,1.20427718388,-50.0,-0.680678408278,50.0,5828961.07406,0.0,0.0,0.0,0.0,0.0,0.0
1402601534607205955,3,4.22071064498,-0.114322152727,-30.2318389857,0.043815185726,-0.385314843702,0.0,0.196251940054,0.0,1.66583906576,0.0,0.0,0.0,0.0,20.9389005956,-78.1450408774,73.8744270948,1.18682369391,-50.0,-0.677417906123,50.0,1.20427718388,-50.0,-0.680678408278,50.0,5828961.07406,0.0,0.0,0.0,0.0,0.0,0.0
1402601534627135195,3,4.20413873439,-0.114322152727,-30.2205601327,0.043815185726,-0.392240047475,0.0,0.207798988976,0.0,1.66360119858,0.0,0.0,0.0,0.0,20.9389005956,-78.1450408774,73.8744270948,1.18682369391,-50.0,-0.677417906123,50.0,1.20427718388,-50.0,-0.680678408278,50.0,5828961.07406,0.0,0.0,0.0,0.0,0.0,0.0
1402601534647233462,3,4.20413873439,-0.114322152727,-30.2205601327,0.043815185726,-0.392240047475,0.0,0.207798988976,0.0,1.66360119858,0.0,0.0,0.0,0.0,20.9389005956,-78.1450408774,73.8744270948,1.18682369391,-50.0,-0.677417906123,50.0,1.20427718388,-50.0,-0.680678408278,50.0,5828961.07406,0.0,0.0,0.0,0.0,0.0,0.0
1402601534667586002,3,4.18872848563,-0.114322152727,-30.2127620364,0.043815185726,-0.393654277077,0.0,0.203438571263,0.0,1.66139219791,0.0,0.0,0.0,0.0,20.9389005956,-78.1450408774,73.8744270948,1.18682369391,-50.0,-0.678952129679,50.0,1.20427718388,-50.0,-0.680678408278,50.0,5828961.07406,0.0,0.0,0.0,0.0,0.0,0.0
1402601534687073185,3,4.18872848563,-0.114322152727,-30.2127620364,0.043815185726,-0.393654277077,0.0,0.203438571263,0.0,1.66139219791,0.0,0.0,0.0,0.0,20.9389005956,-78.1450408774,73.8744270948,1.18682369391,-50.0,-0.677417906123,50.0,1.20427718388,-50.0,-0.680678408278,50.0,5828961.07406,0.0,0.0,0.0,0.0,0.0,0.0
1402601534708256080,3,4.18090313427,-0.114322152727,-30.1980248151,0.043815185726,-0.390229749789,0.0,0.217364988688,0.0,1.65906595642,0.0,0.0,0.0,0.0,20.9389005956,-78.1450408774,73.8744270948,1.18682369391,-50.0,-0.677417906123,50.0,1.20427718388,-50.0,-0.680678408278,50.0,5828961.07406,0.0,0.0,0.0,0.0,0.0,0.0
1402601534727430276,3,4.18090313427,-0.114322152727,-30.1980248151,0.043815185726,-0.390229749789,0.0,0.217364988688,0.0,1.65906595642,0.0,0.0,0.0,0.0,20.9389005956,-78.1450408774,73.8744270948,1.18682369391,-50.0,-0.677417906123,50.0,1.20427718388,-50.0,-0.680678408278,50.0,5828961.07406,0.0,0.0,0.0,0.0,0.0,0.0
1402601534748085700,3,4.16458290596,-0.114322152727,-30.1936187777,0.043815185726,-0.390295552631,0.0,0.208164588818,0.0,1.65701746314,0.0,0.0,0.0,0.0,20.9389005956,-78.1450408774,73.8744270948,1.18682369391,-50.0,-0.677417906123,50.0,1.20427718388,-50.0,-0.680678408278,50.0,5828961.07406,0.0,0.0,0.0,0.0,0.0,0.0
1402601534767543591,3,4.16458290596,-0.114322152727,-30.1936187777,0.043815185726,-0.390295552631,0.0,0.208164588818,0.0,1.65701746314,0.0,0.0,0.0,0.0,20.9389005956,-78.1450408774,73.8744270948,1.18682369391,-50.0,-0.678952129679,50.0,1.20427718388,-50.0,-0.680678408278,50.0,5828961.07406,0.0,0.0,0.0,0.0,0.0,0.0
1402601534788665927,3,4.15171812505,-0.114322152727,-30.1888128389,0.043815185726,-0.387882424123,0.0,0.203596470181,0.0,1.65506051928,0.0,0.0,0.0,0.0,20.9389005956,-78.1450408774,73.8744270948,1.18835815589,-50.0,-0.678952129679,50.0,1.20427718388,-50.0,-0.680678408278,50.0,5828961.07406,0.0,0.0,0.0,0.0,0.0,0.0
1402601534807898760,3,4.15171812505,-0.114322152727,-30.1888128389,0.043815185726,-0.387882424123,0.0,0.203596470181,0.0,1.65506051928,0.0,0.0,0.0,0.0,20.9389005956,-78.1450408774,73.8744270948,1.18682369391,-50.0,-0.677417906123,50.0,1.20427718388,-50.0,-0.680678408278,50.0,5828961.07406,0.0,0.0,0.0,0.0,0.0,0.0
1402601534827107905,3,4.12912857235,-0.114322152727,-30.1761794561,0.043815185726,-0.402577074916,0.0,0.209587891405,0.0,1.65245050052,0.0,0.0,0.0,0.0,20.9389005956,-78.1450408774,73.8744270948,1.18682369391,-50.0,-0.678952129679,50.0,1.20427718388,-50.0,-0.680678408278,50.0,5828961.07406,0.0,0.0,0.0,0.0,0.0,0.0
1402601534847141125,3,4.12912857235,-0.114322152727,-30.1761794561,0.043815185726,-0.402577074916,0.0,0.209587891405,0.0,1.65245050052,0.0,0.0,0.0,0.0,20.9389005956,-78.1450408774,73.8744270948,1.18682369391,-50.0,-0.677417906123,50.0,1.20427718388,-50.0,-0.680678408278,50.0,5828961.07406,0.0,0.0,0.0,0.0,0.0,0.0
1402601534867761014,3,4.11884941127,-0.114322152727,-30.1651387336,0.043815185726,-0.38635863023,0.0,0.211739013828,0.0,1.65057923696,0.0,0.0,0.0,0.0,20.9389005956,-78.1450408774,73.8744270948,1.18682369391,-50.0,-0.678952129679,50.0,1.20427718388,-50.0,-0.680678408278,50.0,5828961.07406,0.0,0.0,0.0,0.0,0.0,0.0
1402601534887236372,3,4.11884941127,-0.114322152727,-30.1651387336,0.043815185726,-0.38635863023,0.0,0.211739013828,0.0,1.65057923696,0.0,0.0,0.0,0.0,20.9389005956,-78.1450408774,73.8744270948,1.18682369391,-50.0,-0.677417906123,50.0,1.20427718388,-50.0,-0.680678408278,50.0,5828961.07406,0.0,0.0,0.0,0.0,0.0,0.0
1402601534907926301,3,4.11898710515,-0.114322152727,-30.1601896155,0.043815185726,-0.377145102606,0.0,0.208625861983,0.0,1.64988939898,0.0,0.0,0.0,0.0,20.9389005956,-78.1450408774,73.8744270948,1.18682369391,-50.0,-0.677417906123,50.0,1.20427718388,-50.0,-0.680678408278,50.0,5828961.07406,0.0,0.0,0.0,0.0,0.0,0.0
1402601534927092100,3,4.11898710515,-0.114322152727,-30.1601896155,0.043815185726,-0.377145102606,0.0,0.208625861983,0.0,1.64988939898,0.0,0.0,0.0,0.0,20.9389005956,-78.1450408774,73.8744270948,1.18682369391,-50.0,-0.678952129679,50.0,1.20427718388,-50.0,-0.680678408278,50.0,5828961.07406,0.0,0.0,0.0,0.0,0.0,0.0
1402601534947193491,3,4.10279601263,-0.114322152727,-30.1510646444,0.043815185726,-0.377184680788,0.0,0.209800192517,0.0,1.64834762163,0.0,0.0,0.0,0.0,20.9389005956,-78.1450408774,73.8744270948,1.18682369391,-50.0,-0.677417906123,50.0,1.20427718388,-50.0,-0.680678408278,50.0,5828961.07406,0.0,0.0,0.0,0.0,0.0,0.0
1402601534967868415,3,4.10279601263,-0.114322152727,-30.1510646444,0.043815185726,-0.377184680788,0.0,0.209800192517,0.0,1.64834762163,0.0,0.0,0.0,0.0,20.9389005956,-78.1450408774,73.8744270948,1.18682369391,-50.0,-0.678952129679,50.0,1.20427718388,-50.0,-0.680678408278,50.0,5828961.07406,0.0,0.0,0.0,0.0,0.0,0.0
1402601534987097004,3,4.09011978366,-0.114322152727,-30.1393848087,0.043815185726,-0.391700710379,0.0,0.212170566044,0.0,1.64696982631,0.0,0.0,0.0,0.0,20.9389005956,-78.1450408774,73.8744270948,1.18682369391,-50.0,-0.678952129679,50.0,1.20427718388,-50.0,-0.680678408278,50.0,5828961.07406,0.0,0.0,0.0,0.0,0.0,0.0
1402601535007490283,3,4.09011978366,-0.114322152727,-30.1393848087,0.043815185726,-0.391700710379,0.0,0.212170566044,0.0,1.64696982631,0.0,0.0,0.0,0.0,20.9389005956,-78.1450408774,73.8744270948,1.18835815589,-50.0,-0.677417906123,50.0,1.20427718388,-50.0,-0.680678408278,50.0,5828961.07406,0.0,0.0,0.0,0.0,0.0,0.0
1402601535027930206,3,4.09217283434,-0.114322152727,-30.1319717307,0.043815185726,-0.360746189382,0.0,0.204947960263,0.0,1.6458779042,0.0,0.0,0.0,0.0,20.9389005956,-78.1450408774,73.8744270948,1.18835815589,-50.0,-0.678952129679,50.0,1.20427718388,-50.0,-0.680678408278,50.0,5828961.07406,0.0,0.0,0.0,0.0,0.0,0.0
1402601535047326010,3,4.09217283434,-0.114322152727,-30.1319717307,0.043815185726,-0.360746189382,0.0,0.204947960263,0.0,1.6458779042,0.0,0.0,0.0,0.0,20.9389005956,-78.1450408774,73.8744270948,1.18682369391,-50.0,-0.677417906123,50.0,1.20427718388,-50.0,-0.680678408278,50.0,5828961.07406,0.0,0.0,0.0,0.0,0.0,0.0
1402601535067729829,3,4.08241819093,-0.114322152727,-30.1257237157,0.043815185726,-0.360614458638,0.0,0.200663889537,0.0,1.64431188626,0.0,0.0,0.0,0.0,20.9389005956,-78.1450408774,73.8744270948,1.18682369391,-50.0,-0.678952129679,50.0,1.20427718388,-50.0,-0.680678408278,50.0,5828961.07406,0.0,0.0,0.0,0.0,0.0,0.0
1402601535087224399,3,4.08241819093,-0.114322152727,-30.1257237157,0.043815185726,-0.360614458638,0.0,0.200663889537,0.0,1.64431188626,0.0,0.0,0.0,0.0,20.9389005956,-78.1450408774,73.8744270948,1.18682369391,-50.0,-0.677417906123,50.0,1.20427718388,-50.0,-0.680678408278,50.0,5828961.07406,0.0,0.0,0.0,0.0,0.0,0.0
1402601535107983746,3,4.06848691441,-0.114322152727,-30.1165910277,0.043815185726,-0.373439538099,0.0,0.20281778407,0.0,1.64264741546,0.0,0.0,0.0,0.0,20.9389005956,-78.1450408774,73.8744270948,1.18682369391,-50.0,-0.678952129679,50.0,1.20427718388,-50.0,-0.680678408278,50.0,5828961.07406,0.0,0.0,0.0,0.0,0.0,0.0
1402601535127082626,3,4.06848691441,-0.114322152727,-30.1165910277,0.043815185726,-0.373439538099,0.0,0.20281778407,0.0,1.64264741546,0.0,0.0,0.0,0.0,20.9389005956,-78.1450408774,73.8744270948,1.18835815589,-50.0,-0.678952129679,50.0,1.20427718388,-50.0,-0.680678408278,50.0,5828961.07406,0.0,0.0,0.0,0.0,0.0,0.0
1402601535148026868,3,4.06099765769,-0.114322152727,-30.1038628926,0.043815185726,-0.366012365465,0.0,0.216308822645,0.0,1.64075400296,0.0,0.0,0.0,0.0,20.9389005956,-78.1450408774,73.8744270948,1.18682369391,-50.0,-0.677417906123,50.0,1.20427718388,-50.0,-0.680678408278,50.0,5828961.07406,0.0,0.0,0.0,0.0,0.0,0.0
1402601535167250457,3,4.06099765769,-0.114322152727,-30.1038628926,0.043815185726,-0.366012365465,0.0,0.216308822645,0.0,1.64075400296,0.0,0.0,0.0,0.0,20.9389005956,-78.1450408774,73.8744270948,1.18835815589,-50.0,-0.678952129679,50.0,1.20427718388,-50.0,-0.680678408278,50.0,5828961.07406,0.0,0.0,0.0,0.0,0.0,0.0
1402601535187094216,3,4.04593576281,-0.114322152727,-30.0950913488,0.043815185726,-0.365712622984,0.0,0.216626772229,0.0,1.63880700667,0.0,0.0,0.0,0.0,20.9389005956,-78.1450408774,73.8744270948,1.18682369391,-50.0,-0.678952129679,50.0,1.20427718388,-50.0,-0.680678408278,50.0,5828961.07406,0.0,0.0,0.0,0.0,0.0,0.0
1402601535207754654,3,4.04593576281,-0.114322152727,-30.0950913488,0.043815185726,-0.365712622984,0.0,0.216626772229,0.0,1.63880700667,0.0,0.0,0.0,0.0,20.9389005956,-78.1450408774,73.8744270948,1.18682369391,-50.0,-0.677417906123,50.0,1.20427718388,-50.0,-0.680678408278,50.0,5828961.07406,0.0,0.0,0.0,0.0,0.0,0.0
1402601535227240515,3,4.03167222527,-0.114322152727,-30.0903769683,0.043815185726,-0.370369568952,0.0,0.209035439432,0.0,1.63684292446,0.0,0.0,0.0,0.0,20.9389005956,-78.1450408774,73.8744270948,1.18835815589,-50.0,-0.678952129679,50.0,1.20427718388,-50.0,-0.680678408278,50.0,5828961.07406,0.0,0.0,0.0,0.0,0.0,0.0
1402601535247205070,3,4.03167222527,-0.114322152727,-30.0903769683,0.043815185726,-0.370369568952,0.0,0.209035439432,0.0,1.63684292446,0.0,0.0,0.0,0.0,20.9389005956,-78.1450408774,73.8744270948,1.18682369391,-50.0,-0.677417906123,50.0,1.20427718388,-50.0,-0.680678408278,50.0,5828961.07406,0.0,0.0,0.0,0.0,0.0,0.0
1402601535267921186,3,4.0182881577,-0.114322152727,-30.0788812962,0.043815185726,-0.373812060297,0.0,0.219556256123,0.0,1.63478355836,0.0,0.0,0.0,0.0,20.9389005956,-78.1450408774,73.8744270948,1.18682369391,-50.0,-0.677417906123,50.0,1.20427718388,-50.0,-0.680678408278,50.0,5828961.07406,0.0,0.0,0.0,0.0,0.0,0.0
1402601535286908515,3,4.0182881577,-0.114322152727,-30.0788812962,0.043815185726,-0.373812060297,0.0,0.219556256123,0.0,1.63478355836,0.0,0.0,0.0,0.0,20.9389005956,-78.1450408774,73.8744270948,1.18682369391,-50.0,-0.677417906123,50.0,1.20427718388,-50.0,-0.680678408278,50.0,5828961.07406,0.0,0.0,0.0,0.0,0.0,0.0
1402601535308500912,3,3.99015596255,-0.114322152727,-30.0726295625,0.043815185726,-0.405679432722,0.0,0.218407567417,0.0,1.63288319326,0.0,0.0,0.0,0.0,20.9389005956,-78.1450408774,73.8744270948,1.18835815589,-50.0,-0.677417906123,50.0,1.20427718388,-50.0,-0.680678408278,50.0,5828961.07406,0.0,0.0,0.0,0.0,0.0,0.0
1402601535327781308,3,3.99015596255,-0.114322152727,-30.0726295625,0.043815185726,-0.405679432722,0.0,0.218407567417,0.0,1.63288319326,0.0,0.0,0.0,0.0,20.9389005956,-78.1450408774,73.8744270948,1.18682369391,-50.0,-0.678952129679,50.0,1.20427718388,-50.0,-0.680678408278,50.0,5828961.07406,0.0,0.0,0.0,0.0,0.0,0.0
1402601535348114467,3,3.97754945576,-0.114322152727,-30.0617795245,0.043815185726,-0.396854360741,0.0,0.231540021366,0.0,1.63080611094,0.0,0.0,0.0,0.0,20.9389005956,-78.1450408774,73.8744270948,1.18835815589,-50.0,-0.677417906123,50.0,1.20427718388,-50.0,-0.680678408278,50.0,5828961.07406,0.0,0.0,0.0,0.0,0.0,0.0
1402601535367373300,3,3.97754945576,-0.114322152727,-30.0617795245,0.043815185726,-0.396854360741,0.0,0.231540021366,0.0,1.63080611094,0.0,0.0,0.0,0.0,20.9389005956,-78.1450408774,73.8744270948,1.18835815589,-50.0,-0.678952129679,50.0,1.20427718388,-50.0,-0.680678408278,50.0,5828961.07406,0.0,0.0,0.0,0.0,0.0,0.0
1402601535387844534,3,3.96175593853,-0.114322152727,-30.052479889,0.043815185726,-0.396483348636,0.0,0.231551496246,0.0,1.62885656083,0.0,0.0,0.0,0.0,20.9389005956,-78.1450408774,73.8744270948,1.18835815589,-50.0,-0.677417906123,50.0,1.20427718388,-50.0,-0.680678408278,50.0,5828961.07406,0.0,0.0,0.0,0.0,0.0,0.0
1402601535407275697,3,3.96175593853,-0.114322152727,-30.052479889,0.043815185726,-0.396483348636,0.0,0.231551496246,0.0,1.62885656083,0.0,0.0,0.0,0.0,20.9389005956,-78.1450408774,73.8744270948,1.18682369391,-50.0,-0.677417906123,50.0,1.20427718388,-50.0,-0.680678408278,50.0,5828961.07406,0.0,0.0,0.0,0.0,0.0,0.0
1402601535427842339,3,3.9494618841,-0.114322152727,-30.0455194941,0.043815185726,-0.383063085804,0.0,0.23203040189,0.0,1.62714002632,0.0,0.0,0.0,0.0,20.9389005956,-78.1450408774,73.8744270948,1.18835815589,-50.0,-0.678952129679,50.0,1.20427718388,-50.0,-0.680678408278,50.0,5828961.07406,0.0,0.0,0.0,0.0,0.0,0.0
1402601535447217248,3,3.9494618841,-0.114322152727,-30.0455194941,0.043815185726,-0.383063085804,0.0,0.23203040189,0.0,1.62714002632,0.0,0.0,0.0,0.0,20.9389005956,-78.1450408774,73.8744270948,1.18682369391,-50.0,-0.677417906123,50.0,1.20427718388,-50.0,-0.680678408278,50.0,5828961.07406,0.0,0.0,0.0,0.0,0.0,0.0
1402601535467873749,3,3.93589934502,-0.114322152727,-30.0370705168,0.043815185726,-0.373660228218,0.0,0.228638069969,0.0,1.62496941717,0.0,0.0,0.0,0.0,20.9389005956,-78.1450408774,73.8744270948,1.18682369391,-50.0,-0.677417906123,50.0,1.20427718388,-50.0,-0.680678408278,50.0,5828961.07406,0.0,0.0,0.0,0.0,0.0,0.0
1402601535487498210,3,3.93589934502,-0.114322152727,-30.0370705168,0.043815185726,-0.373660228218,0.0,0.228638069969,0.0,1.62496941717,0.0,0.0,0.0,0.0,20.9389005956,-78.1450408774,73.8744270948,1.18682369391,-50.0,-0.678952129679,50.0,1.20427718388,-50.0,-0.680678408278,50.0,5828961.07406,0.0,0.0,0.0,0.0,0.0,0.0
1402601535507334746,3,3.909486191,-0.114322152727,-30.0266863138,0.043815185726,-0.386106038824,0.0,0.233904213675,0.0,1.62328356766,0.0,0.0,0.0,0.0,20.9389005956,-78.1450408774,73.8744270948,1.18835815589,-50.0,-0.677417906123,50.0,1.20427718388,-50.0,-0.680678408278,50.0,5828961.07406,0.0,0.0,0.0,0.0,0.0,0.0
1402601535527773004,3,3.909486191,-0.114322152727,-30.0266863138,0.043815185726,-0.386106038824,0.0,0.233904213675,0.0,1.62328356766,0.0,0.0,0.0,0.0,20.9389005956,-78.1450408774,73.8744270948,1.18682369391,-50.0,-0.678952129679,50.0,1.20427718388,-50.0,-0.680678408278,50.0,5828961.07406,0.0,0.0,0.0,0.0,0.0,0.0
1402601535547262303,3,3.90149278644,-0.114322152727,-30.0221852663,0.043815185726,-0.384769467864,0.0,0.233049724722,0.0,1.62258685146,0.0,0.0,0.0,0.0,20.9389005956,-78.1450408774,73.8744270948,1.18682369391,-50.0,-0.677417906123,50.0,1.20427718388,-50.0,-0.680678408278,50.0,5828961.07406,0.0,0.0,0.0,0.0,0.0,0.0
1402601535567341486,3,3.90149278644,-0.114322152727,-30.0221852663,0.043815185726,-0.384769467864,0.0,0.233049724722,0.0,1.62258685146,0.0,0.0,0.0,0.0,20.9389005956,-78.1450408774,73.8744270948,1.18682369391,-50.0,-0.677417906123,50.0,1.20427718388,-50.0,-0.680678408278,50.0,5828961.07406,0.0,0.0,0.0,0.0,0.0,0.0
1402601535587308442,3,3.89081527477,-0.114322152727,-30.0186588653,0.043815185726,-0.376121918554,0.0,0.223972717918,0.0,1.62085309072,0.0,0.0,0.0,0.0,20.9389005956,-78.1450408774,73.8744270948,1.18682369391,-50.0,-0.678952129679,50.0,1.20427718388,-50.0,-0.680678408278,50.0,5828961.07406,0.0,0.0,0.0,0.0,0.0,0.0
1402601535607579251,3,3.89081527477,-0.114322152727,-30.0186588653,0.043815185726,-0.376121918554,0.0,0.223972717918,0.0,1.62085309072,0.0,0.0,0.0,0.0,20.9389005956,-78.1450408774,73.8744270948,1.18835815589,-50.0,-0.677417906123,50.0,1.20427718388,-50.0,-0.680678408278,50.0,5828961.07406,0.0,0.0,0.0,0.0,0.0,0.0
1402601535627524940,3,3.8757807439,-0.114322152727,-30.0096329376,0.043815185726,-0.379088125926,0.0,0.224761109234,0.0,1.61938552043,0.0,0.0,0.0,0.0,20.9389005956,-78.1450408774,73.8744270948,1.18682369391,-50.0,-0.678952129679,50.0,1.20427718388,-50.0,-0.680678408278,50.0,5828961.07406,0.0,0.0,0.0,0.0,0.0,0.0
1402601535648015140,3,3.8757807439,-0.114322152727,-30.0096329376,0.043815185726,-0.379088125926,0.0,0.224761109234,0.0,1.61938552043,0.0,0.0,0.0,0.0,20.9389005956,-78.1450408774,73.8744270948,1.18682369391,-50.0,-0.677417906123,50.0,1.20427718388,-50.0,-0.680678408278,50.0,5828961.07406,0.0,0.0,0.0,0.0,0.0,0.0
1402601535667303623,3,3.86668866225,-0.114322152727,-30.0008551468,0.043815185726,-0.36766314756,0.0,0.231167237321,0.0,1.61787341477,0.0,0.0,0.0,0.0,20.9389005956,-78.1450408774,73.8744270948,1.18682369391,-50.0,-0.678952129679,50.0,1.20427718388,-50.0,-0.680678408278,50.0,5828961.07406,0.0,0.0,0.0,0.0,0.0,0.0
1402601535687766095,3,3.86668866225,-0.114322152727,-30.0008551468,0.043815185726,-0.36766314756,0.0,0.231167237321,0.0,1.61787341477,0.0,0.0,0.0,0.0,20.9389005956,-78.1450408774,73.8744270948,1.18835815589,-50.0,-0.678952129679,50.0,1.20427718388,-50.0,-0.680678408278,50.0,5828961.07406,0.0,0.0,0.0,0.0,0.0,0.0
1402601535707287328,3,3.84504192785,-0.114322152727,-29.9949990458,0.043815185726,-0.383801507867,0.0,0.22768597431,0.0,1.61634861217,0.0,0.0,0.0,0.0,20.9389005956,-78.1450408774,73.8744270948,1.18682369391,-50.0,-0.677417906123,50.0,1.20427718388,-50.0,-0.680678408278,50.0,5828961.07406,0.0,0.0,0.0,0.0,0.0,0.0
1402601535727711427,3,3.84504192785,-0.114322152727,-29.9949990458,0.043815185726,-0.383801507867,0.0,0.22768597431,0.0,1.61634861217,0.0,0.0,0.0,0.0,20.9389005956,-78.1450408774,73.8744270948,1.18682369391,-50.0,-0.678952129679,50.0,1.20427718388,-50.0,-0.680678408278,50.0,5828961.07406,0.0,0.0,0.0,0.0,0.0,0.0
1402601535747367125,3,3.83652593002,-0.114322152727,-29.9856296206,0.043815185726,-0.378525611397,0.0,0.226742975388,0.0,1.61482408204,0.0,0.0,0.0,0.0,20.9389005956,-78.1450408774,73.8744270948,1.18682369391,-50.0,-0.677417906123,50.0,1.20427718388,-50.0,-0.680678408278,50.0,5828961.07406,0.0,0.0,0.0,0.0,0.0,0.0
1402601535767840122,3,3.83652593002,-0.114322152727,-29.9856296206,0.043815185726,-0.378525611397,0.0,0.226742975388,0.0,1.61482408204,0.0,0.0,0.0,0.0,20.9389005956,-78.1450408774,73.8744270948,1.18835815589,-50.0,-0.677417906123,50.0,1.20427718388,-50.0,-0.680678408278,50.0,5828961.07406,0.0,0.0,0.0,0.0,0.0,0.0
1402601535787370501,3,3.82732442931,-0.114322152727,-29.973125584,0.043815185726,-0.373763321005,0.0,0.233343587128,0.0,1.61321504774,0.0,0.0,0.0,0.0,20.9389005956,-78.1450408774,73.8744270948,1.18835815589,-50.0,-0.678952129679,50.0,1.20427718388,-50.0,-0.680678408278,50.0,5828961.07406,0.0,0.0,0.0,0.0,0.0,0.0
1402601535807135432,3,3.82732442931,-0.114322152727,-29.973125584,0.043815185726,-0.373763321005,0.0,0.233343587128,0.0,1.61321504774,0.0,0.0,0.0,0.0,20.9389005956,-78.1450408774,73.8744270948,1.18682369391,-50.0,-0.677417906123,50.0,1.20427718388,-50.0,-0.680678408278,50.0,5828961.07406,0.0,0.0,0.0,0.0,0.0,0.0
1402601535827153012,3,3.81262267441,-0.114322152727,-29.9714265383,0.043815185726,-0.369212771698,0.0,0.21629257109,0.0,1.61195292909,0.0,0.0,0.0,0.0,20.9389005956,-78.1450408774,73.8744270948,1.18682369391,-50.0,-0.678952129679,50.0,1.20427718388,-50.0,-0.680678408278,50.0,5828961.07406,0.0,0.0,0.0,0.0,0.0,0.0
1402601535847490928,3,3.81262267441,-0.114322152727,-29.9714265383,0.043815185726,-0.369212771698,0.0,0.21629257109,0.0,1.61195292909,0.0,0.0,0.0,0.0,20.9389005956,-78.1450408774,73.8744270948,1.18682369391,-50.0,-0.677417906123,50.0,1.20427718388,-50.0,-0.680678408278,50.0,5828961.07406,0.0,0.0,0.0,0.0,0.0,0.0
1402601535867187686,3,3.79453772913,-0.114322152727,-29.957761528,0.043815185726,-0.377969176478,0.0,0.227149147874,0.0,1.61049111566,0.0,0.0,0.0,0.0,20.9389005956,-78.1450408774,73.8744270948,1.18682369391,-50.0,-0.677417906123,50.0,1.20427718388,-50.0,-0.680678408278,50.0,5828961.07406,0.0,0.0,0.0,0.0,0.0,0.0
1402601535888613731,3,3.79453772913,-0.114322152727,-29.957761528,0.043815185726,-0.377969176478,0.0,0.227149147874,0.0,1.61049111566,0.0,0.0,0.0,0.0,20.9389005956,-78.1450408774,73.8744270948,1.18682369391,-50.0,-0.678952129679,50.0,1.20427718388,-50.0,-0.680678408278,50.0,5828961.07406,0.0,0.0,0.0,0.0,0.0,0.0
