rosbagTimestamp,control_method,x_current,x_desired,y_current,y_desired,z_current,z_desired,x_velocity_current,x_velocity_desired,y_velocity_current,y_velocity_desired,z_velocity_current,z_velocity_desired,yaw_current,yaw_desired,yaw_velocity_current,yaw_velocity_desired,roll_current,roll_desired,roll_velocity_current,roll_velocity_desired,pitch_current,pitch_desired,pitch_velocity_current,pitch_velocity_desired,required_force_x,required_force_y,required_moment_z,resultant_force_x,resultant_force_y,resultant_moment_z,current_port_servo_angle,current_port_thruster_force,current_starboard_servo_angle,current_starboard_thruster_force,estimated_port_servo_angle,estimated_port_thruster_force,estimated_starboard_servo_angle,estimated_starboard_thruster_force,cost_value,step,user_defined_1,user_defined_2,user_defined_3,user_defined_4,user_defined_5
1402760720735460724,3,-9.23523649833,-7.1377884924,-14.0221932666,2.38304939926,-0.761373182168,-3.84635974695,-0.0358310997402,0.0,-0.0177809091833,0.0,0.0437536035007,0.0,1.87868597946,0.0,0.0475998850843,0.0,0.00316645857658,0.0,0.000685359810033,0.0,0.0714173876958,0.0,-0.0107931935492,0.0,-0.0,-0.0,0.592139422894,200.0,-0.0,0.0,0.00383600394174,0.0,0.00230154196664,0.0,-0.0,100.0,-0.0,100.0,2100175.31455,0.0,0.0,0.0,0.0,0.0,0.0
1402760720754450874,3,-9.23425358275,-7.1377884924,-14.0254469264,2.38304939926,-0.749885384015,-3.84635974695,-0.0330017675086,0.0,-0.0201092658042,0.0,0.047530749173,0.0,1.88031218224,0.0,0.0431091911181,0.0,0.00305104081036,0.0,0.00128972149044,0.0,0.0709795291578,0.0,-0.0130536439846,0.0,-0.0,-0.0,0.592139422894,200.0,-0.0,0.0,0.00383600394174,0.0,0.00230154196664,0.0,-0.0,100.0,-0.0,100.0,2100175.31455,0.0,0.0,0.0,0.0,0.0,0.0
1402760720774513468,3,-9.23425358275,-7.1377884924,-14.0254469264,2.38304939926,-0.749885384015,-3.84635974695,-0.0330017675086,0.0,-0.0201092658042,0.0,0.047530749173,0.0,1.88031218224,0.0,0.0431091911181,0.0,0.00305104081036,0.0,0.00128972149044,0.0,0.0709795291578,0.0,-0.0130536439846,0.0,-0.0,-0.0,0.592139422894,200.0,-0.0,0.0,0.00383600394174,0.0,0.00230154196664,0.0,-0.0,100.0,-0.0,100.0,2100175.31455,0.0,0.0,0.0,0.0,0.0,0.0
1402760720795148931,3,-9.2395987666,-7.1377884924,-14.0282210283,2.38304939926,-0.747606827663,-3.84635974695,-0.045441309194,0.0,-0.0247536120597,0.0,0.0460494974571,0.0,1.88167028504,0.0,0.037690510109,0.0,0.0010202315154,0.0,0.0050409136083,0.0,0.0707828312978,0.0,-0.0137766963917,0.0,-0.0,-0.0,0.592139422894,200.0,-0.0,0.0,0.00383600394174,0.0,0.00230154196664,0.0,-0.0,100.0,-0.0,100.0,2100175.31455,0.0,0.0,0.0,0.0,0.0,0.0
1402760720814528730,3,-9.2395987666,-7.1377884924,-14.0282210283,2.38304939926,-0.747606827663,-3.84635974695,-0.045441309194,0.0,-0.0247536120597,0.0,0.0460494974571,0.0,1.88167028504,0.0,0.037690510109,0.0,0.0010202315154,0.0,0.0050409136083,0.0,0.0707828312978,0.0,-0.0137766963917,0.0,-0.0,-0.0,0.592139422894,200.0,-0.0,0.0,0.00537022749826,0.0,0.00230154196664,0.0,-0.0,100.0,-0.0,100.0,2100175.31455,0.0,0.0,0.0,0.0,0.0,0.0
1402760720834556107,3,-9.23609559387,-7.1377884924,-14.0308908983,2.38304939926,-0.740348548601,-3.84635974695,-0.032484819045,0.0,-0.0264667397399,0.0,0.0463592204047,0.0,1.88357965339,0.0,0.0408682059718,0.0,0.00179104293408,0.0,0.00866350342496,0.0,0.0699073293443,0.0,-0.0190364613912,0.0,-0.0,-0.0,0.592139422894,200.0,-0.0,0.0,0.00383600394174,0.0,0.00230154196664,0.0,-0.0,100.0,-0.0,100.0,2100175.31455,0.0,0.0,0.0,0.0,0.0,0.0
1402760720854956656,3,-9.23609559387,-7.1377884924,-14.0308908983,2.38304939926,-0.740348548601,-3.84635974695,-0.032484819045,0.0,-0.0264667397399,0.0,0.0463592204047,0.0,1.88357965339,0.0,0.0408682059718,0.0,0.00179104293408,0.0,0.00866350342496,0.0,0.0699073293443,0.0,-0.0190364613912,0.0,-0.0,-0.0,0.592139422894,200.0,-0.0,0.0,0.00383600394174,0.0,0.00230154196664,0.0,-0.0,100.0,-0.0,100.0,2100175.31455,0.0,0.0,0.0,0.0,0.0,0.0
1402760720874337670,3,-9.23940191321,-7.1377884924,-14.0301257712,2.38304939926,-0.736265004142,-3.84635974695,-0.0384293985283,0.0,-0.0188206234821,0.0,0.0456209223957,0.0,1.88554793076,0.0,0.0409345754613,0.0,0.000731179111106,0.0,0.00526460491371,0.0,0.0709082477798,0.0,-0.0125227593024,0.0,-0.0,-0.0,0.592139422894,200.0,-0.0,0.0,0.00383600394174,0.0,0.00230154196664,0.0,-0.0,100.0,-0.0,100.0,2100175.31455,0.0,0.0,0.0,0.0,0.0,0.0
1402760720894702213,3,-9.23940191321,-7.1377884924,-14.0301257712,2.38304939926,-0.736265004142,-3.84635974695,-0.0384293985283,0.0,-0.0188206234821,0.0,0.0456209223957,0.0,1.88554793076,0.0,0.0409345754613,0.0,0.000731179111106,0.0,0.00526460491371,0.0,0.0709082477798,0.0,-0.0125227593024,0.0,-0.0,-0.0,0.592139422894,200.0,-0.0,0.0,0.00383600394174,0.0,0.00230154196664,0.0,-0.0,100.0,-0.0,100.0,2100175.31455,0.0,0.0,0.0,0.0,0.0,0.0
1402760720914680475,3,-9.23937357133,-7.1377884924,-14.0315636413,2.38304939926,-0.740973188479,-3.84635974695,-0.0372816325623,0.0,-0.0240210921945,0.0,0.0407049225048,0.0,1.88624487221,0.0,0.0378888113536,0.0,0.000498101193361,0.0,0.00769656018491,0.0,0.0701044248245,0.0,-0.0160633685193,0.0,-0.0,-0.0,0.592139422894,200.0,-0.0,0.0,0.00383600394174,0.0,0.00230154196664,0.0,-0.0,100.0,-0.0,100.0,2100175.31455,0.0,0.0,0.0,0.0,0.0,0.0
1402760720934490621,3,-9.23937357133,-7.1377884924,-14.0315636413,2.38304939926,-0.740973188479,-3.84635974695,-0.0372816325623,0.0,-0.0240210921945,0.0,0.0407049225048,0.0,1.88624487221,0.0,0.0378888113536,0.0,0.000498101193361,0.0,0.00769656018491,0.0,0.0701044248245,0.0,-0.0160633685193,0.0,-0.0,-0.0,0.592139422894,200.0,-0.0,0.0,0.00383600394174,0.0,0.00230154196664,0.0,-0.0,100.0,-0.0,100.0,2100175.31455,0.0,0.0,0.0,0.0,0.0,0.0
1402760720954800018,3,-9.24213685191,-7.1377884924,-14.0315255645,2.38304939926,-0.735291251976,-3.84635974695,-0.0445616345292,0.0,-0.0179472054323,0.0,0.0422087901482,0.0,1.88773494909,0.0,0.036707417894,0.0,-0.000866602680869,0.0,0.00320422707954,0.0,0.0710476354757,0.0,-0.0194498781909,0.0,-0.0,-0.0,0.592139422894,200.0,-0.0,0.0,0.00383600394174,0.0,0.00230154196664,0.0,-0.0,100.0,-0.0,100.0,2100175.31455,0.0,0.0,0.0,0.0,0.0,0.0
1402760720975341018,3,-9.24213685191,-7.1377884924,-14.0315255645,2.38304939926,-0.735291251976,-3.84635974695,-0.0445616345292,0.0,-0.0179472054323,0.0,0.0422087901482,0.0,1.88773494909,0.0,0.036707417894,0.0,-0.000866602680869,0.0,0.00320422707954,0.0,0.0710476354757,0.0,-0.0194498781909,0.0,-0.0,-0.0,0.592139422894,200.0,-0.0,0.0,0.00383600394174,0.0,0.00230154196664,0.0,-0.0,100.0,-0.0,100.0,2100175.31455,0.0,0.0,0.0,0.0,0.0,0.0
1402760720994697133,3,-9.24383558915,-7.1377884924,-14.0321489072,2.38304939926,-0.733763255195,-3.84635974695,-0.0441537768887,0.0,-0.0184613731179,0.0,0.0415055662764,0.0,1.88918658434,0.0,0.0392570540632,0.0,-0.00145682471851,0.0,0.00994068555902,0.0,0.0709481677626,0.0,-0.0155314465838,0.0,-0.0,-0.0,0.592139422894,200.0,-0.0,0.0,0.00383600394174,0.0,0.00230154196664,0.0,-0.0,100.0,-0.0,100.0,2100175.31455,0.0,0.0,0.0,0.0,0.0,0.0
1402760721014528923,3,-9.24383558915,-7.1377884924,-14.0321489072,2.38304939926,-0.733763255195,-3.84635974695,-0.0441537768887,0.0,-0.0184613731179,0.0,0.0415055662764,0.0,1.88918658434,0.0,0.0392570540632,0.0,-0.00145682471851,0.0,0.00994068555902,0.0,0.0709481677626,0.0,-0.0155314465838,0.0,-0.0,-0.0,0.592139422894,200.0,-0.0,0.0,0.00383600394174,0.0,0.00230154196664,0.0,-0.0,100.0,-0.0,100.0,2100175.31455,0.0,0.0,0.0,0.0,0.0,0.0
1402760721034833993,3,-9.24368863833,-7.1377884924,-14.0341971759,2.38304939926,-0.737631780955,-3.84635974695,-0.0404270531555,0.0,-0.0230490536136,0.0,0.0378614519496,0.0,1.89055478388,0.0,0.031764697264,0.0,-0.00150443292422,0.0,0.00711655803874,0.0,0.069961167095,0.0,-0.00900501310906,0.0,-0.0,-0.0,0.592139422894,200.0,-0.0,0.0,0.00383600394174,0.0,0.00230154196664,0.0,-0.0,100.0,-0.0,100.0,2100175.31455,0.0,0.0,0.0,0.0,0.0,0.0
1402760721054293196,3,-9.24368863833,-7.1377884924,-14.0341971759,2.38304939926,-0.737631780955,-3.84635974695,-0.0404270531555,0.0,-0.0230490536136,0.0,0.0378614519496,0.0,1.89055478388,0.0,0.031764697264,0.0,-0.00150443292422,0.0,0.00711655803874,0.0,0.069961167095,0.0,-0.00900501310906,0.0,-0.0,-0.0,0.592139422894,200.0,-0.0,0.0,0.00383600394174,0.0,0.00230154196664,0.0,-0.0,100.0,-0.0,100.0,2100175.31455,0.0,0.0,0.0,0.0,0.0,0.0
1402760721075145401,3,-9.24555457223,-7.1377884924,-14.0360401414,2.38304939926,-0.731557938466,-3.84635974695,-0.0449881739772,0.0,-0.0228016062039,0.0,0.0395004432036,0.0,1.89194021418,0.0,0.0321928427045,0.0,-0.00248540951411,0.0,0.00394423495475,0.0,0.0700112975483,0.0,-0.00652084833746,0.0,-0.0,-0.0,0.592139422894,200.0,-0.0,0.0,0.00383600394174,0.0,0.00230154196664,0.0,-0.0,100.0,-0.0,100.0,2100175.31455,0.0,0.0,0.0,0.0,0.0,0.0
1402760721095111549,3,-9.24555457223,-7.1377884924,-14.0360401414,2.38304939926,-0.731557938466,-3.84635974695,-0.0449881739772,0.0,-0.0228016062039,0.0,0.0395004432036,0.0,1.89194021418,0.0,0.0321928427045,0.0,-0.00248540951411,0.0,0.00394423495475,0.0,0.0700112975483,0.0,-0.00652084833746,0.0,-0.0,-0.0,0.592139422894,200.0,-0.0,0.0,0.00383600394174,0.0,0.00230154196664,0.0,-0.0,100.0,-0.0,100.0,2100175.31455,0.0,0.0,0.0,0.0,0.0,0.0
1402760721114557135,3,-9.24646763961,-7.1377884924,-14.0360899124,2.38304939926,-0.728624729757,-3.84635974695,-0.0437698671014,0.0,-0.0183268128744,0.0,0.0391520946438,0.0,1.8934045595,0.0,0.0375907232938,0.0,-0.00238700378778,0.0,0.00541653938209,0.0,0.0704404620475,0.0,-0.000473367609723,0.0,-0.0,-0.0,0.592139422894,200.0,-0.0,0.0,0.00537022749826,0.0,0.00230154196664,0.0,-0.0,100.0,-0.0,100.0,2100175.31455,0.0,0.0,0.0,0.0,0.0,0.0
1402760721134567463,3,-9.24646763961,-7.1377884924,-14.0360899124,2.38304939926,-0.728624729757,-3.84635974695,-0.0437698671014,0.0,-0.0183268128744,0.0,0.0391520946438,0.0,1.8934045595,0.0,0.0375907232938,0.0,-0.00238700378778,0.0,0.00541653938209,0.0,0.0704404620475,0.0,-0.000473367609723,0.0,-0.0,-0.0,0.592139422894,200.0,-0.0,0.0,0.00383600394174,0.0,0.00230154196664,0.0,-0.0,100.0,-0.0,100.0,2100175.31455,0.0,0.0,0.0,0.0,0.0,0.0
1402760721154796466,3,-9.24809370104,-7.1377884924,-14.0367469515,2.38304939926,-0.727085967797,-3.84635974695,-0.044514162736,0.0,-0.0181161793127,0.0,0.0409936624994,0.0,1.89477064309,0.0,0.029407805452,0.0,-0.00219380642673,0.0,-0.000254346888689,0.0,0.0703964342151,0.0,0.00227500933404,0.0,-0.0,-0.0,0.592139422894,200.0,-0.0,0.0,0.00383600394174,0.0,0.00230154196664,0.0,-0.0,100.0,-0.0,100.0,2100175.31455,0.0,0.0,0.0,0.0,0.0,0.0
1402760721174517504,3,-9.24809370104,-7.1377884924,-14.0367469515,2.38304939926,-0.727085967797,-3.84635974695,-0.044514162736,0.0,-0.0181161793127,0.0,0.0409936624994,0.0,1.89477064309,0.0,0.029407805452,0.0,-0.00219380642673,0.0,-0.000254346888689,0.0,0.0703964342151,0.0,0.00227500933404,0.0,-0.0,-0.0,0.592139422894,200.0,-0.0,0.0,0.00383600394174,0.0,0.00230154196664,0.0,-0.0,100.0,-0.0,100.0,2100175.31455,0.0,0.0,0.0,0.0,0.0,0.0
1402760721194696671,3,-9.24861633297,-7.1377884924,-14.0387105135,2.38304939926,-0.723362563873,-3.84635974695,-0.0424591414971,0.0,-0.0191723556798,0.0,0.0412753421942,0.0,1.89625851582,0.0,0.0343573511408,0.0,-0.00185915221995,0.0,-0.00177235669336,0.0,0.0701138750433,0.0,0.0122878661921,0.0,-0.0,-0.0,0.592139422894,200.0,-0.0,0.0,0.00383600394174,0.0,0.00230154196664,0.0,-0.0,100.0,-0.0,100.0,2100175.31455,0.0,0.0,0.0,0.0,0.0,0.0
1402760721215234498,3,-9.24861633297,-7.1377884924,-14.0387105135,2.38304939926,-0.723362563873,-3.84635974695,-0.0424591414971,0.0,-0.0191723556798,0.0,0.0412753421942,0.0,1.89625851582,0.0,0.0343573511408,0.0,-0.00185915221995,0.0,-0.00177235669336,0.0,0.0701138750433,0.0,0.0122878661921,0.0,-0.0,-0.0,0.592139422894,200.0,-0.0,0.0,0.00537022749826,0.0,0.00230154196664,0.0,-0.0,100.0,-0.0,100.0,2100175.31455,0.0,0.0,0.0,0.0,0.0,0.0
1402760721234585534,3,-9.25092893991,-7.1377884924,-14.0390213338,2.38304939926,-0.722521173723,-3.84635974695,-0.0457315612882,0.0,-0.0164079569275,0.0,0.0406031356167,0.0,1.89778371473,0.0,0.0425907656603,0.0,-0.00153996056544,0.0,-0.00373914279412,0.0,0.0705116233148,0.0,0.0142408430295,0.0,-0.0,-0.0,0.592139422894,200.0,-0.0,0.0,0.00383600394174,0.0,0.00230154196664,0.0,-0.0,100.0,-0.0,100.0,2100175.31455,0.0,0.0,0.0,0.0,0.0,0.0
1402760721254804217,3,-9.25092893991,-7.1377884924,-14.0390213338,2.38304939926,-0.722521173723,-3.84635974695,-0.0457315612882,0.0,-0.0164079569275,0.0,0.0406031356167,0.0,1.89778371473,0.0,0.0425907656603,0.0,-0.00153996056544,0.0,-0.00373914279412,0.0,0.0705116233148,0.0,0.0142408430295,0.0,-0.0,-0.0,0.592139422894,200.0,-0.0,0.0,0.00383600394174,0.0,0.00230154196664,0.0,-0.0,100.0,-0.0,100.0,2100175.31455,0.0,0.0,0.0,0.0,0.0,0.0
1402760721274678408,3,-9.24844625068,-7.1377884924,-14.0429829029,2.38304939926,-0.723873512661,-3.84635974695,-0.035751784221,0.0,-0.0269744028815,0.0,0.0367196191464,0.0,1.89926672115,0.0,0.036476979766,0.0,-3.80208913008e-05,0.0,0.00654767926437,0.0,0.0686692396143,0.0,0.0201434247404,0.0,-0.0,-0.0,0.592139422894,200.0,-0.0,0.0,0.00383600394174,0.0,0.00230154196664,0.0,-0.0,100.0,-0.0,100.0,2100175.31455,0.0,0.0,0.0,0.0,0.0,0.0
1402760721294948801,3,-9.24844625068,-7.1377884924,-14.0429829029,2.38304939926,-0.723873512661,-3.84635974695,-0.035751784221,0.0,-0.0269744028815,0.0,0.0367196191464,0.0,1.89926672115,0.0,0.036476979766,0.0,-3.80208913008e-05,0.0,0.00654767926437,0.0,0.0686692396143,0.0,0.0201434247404,0.0,-0.0,-0.0,0.592139422894,200.0,-0.0,0.0,0.00383600394174,0.0,0.00230154196664,0.0,-0.0,100.0,-0.0,100.0,2100175.31455,0.0,0.0,0.0,0.0,0.0,0.0
1402760721314929689,3,-9.25097753315,-7.1377884924,-14.0416531518,2.38304939926,-0.719590252752,-3.84635974695,-0.04182507577,0.0,-0.0166276547027,0.0,0.038674839834,0.0,1.90082596127,0.0,0.0345158094384,0.0,0.00038770709853,0.0,-0.00927344958918,0.0,0.070107678239,0.0,0.0206251825443,0.0,-0.0,-0.0,0.592139422894,200.0,-0.0,0.0,0.00383600394174,0.0,0.00230154196664,0.0,-0.0,100.0,-0.0,100.0,2100175.31455,0.0,0.0,0.0,0.0,0.0,0.0
1402760721335381472,3,-9.25097753315,-7.1377884924,-14.0416531518,2.38304939926,-0.719590252752,-3.84635974695,-0.04182507577,0.0,-0.0166276547027,0.0,0.038674839834,0.0,1.90082596127,0.0,0.0345158094384,0.0,0.00038770709853,0.0,-0.00927344958918,0.0,0.070107678239,0.0,0.0206251825443,0.0,-0.0,-0.0,0.592139422894,200.0,-0.0,0.0,0.00383600394174,0.0,0.00230154196664,0.0,-0.0,100.0,-0.0,100.0,2100175.31455,0.0,0.0,0.0,0.0,0.0,0.0
1402760721354958611,3,-9.25058809828,-7.1377884924,-14.0447082427,2.38304939926,-0.717862793518,-3.84635974695,-0.036056346861,0.0,-0.0216368043856,0.0,0.0381362362206,0.0,1.90287990233,0.0,0.0418889600862,0.0,0.00174354388563,0.0,-0.0126059418808,0.0,0.069280254131,0.0,0.0222062435859,0.0,-0.0,-0.0,0.592139422894,200.0,-0.0,0.0,0.00383600394174,0.0,0.00230154196664,0.0,-0.0,100.0,-0.0,100.0,2100175.31455,0.0,0.0,0.0,0.0,0.0,0.0
1402760721374824033,3,-9.25058809828,-7.1377884924,-14.0447082427,2.38304939926,-0.717862793518,-3.84635974695,-0.036056346861,0.0,-0.0216368043856,0.0,0.0381362362206,0.0,1.90287990233,0.0,0.0418889600862,0.0,0.00174354388563,0.0,-0.0126059418808,0.0,0.069280254131,0.0,0.0222062435859,0.0,-0.0,-0.0,0.592139422894,200.0,-0.0,0.0,0.00537022749826,0.0,0.00230154196664,0.0,-0.0,100.0,-0.0,100.0,2100175.31455,0.0,0.0,0.0,0.0,0.0,0.0
1402760721395144298,3,-9.2516306253,-7.1377884924,-14.0454508762,2.38304939926,-0.716551268133,-3.84635974695,-0.036126535305,0.0,-0.0221318261669,0.0,0.0386719737852,0.0,1.90404974594,0.0,0.0423502051978,0.0,0.00236631417643,0.0,-0.0119110911527,0.0,0.0692835299628,0.0,0.0188430938516,0.0,-0.0,-0.0,0.592139422894,200.0,-0.0,0.0,0.00383600394174,100.0,0.00230154196664,100.0,-0.0,100.0,-0.0,100.0,2100175.31455,0.0,0.0,0.0,0.0,0.0,0.0
1402760721414973676,3,-9.25171863444,-7.1377884924,-14.0475635743,2.38304939926,-0.713528728767,-3.84635974695,-0.0387784605524,0.0,-0.0253977756639,0.0,0.0379274822729,0.0,1.90487456499,0.0,0.0408045274672,0.0,0.00235536644429,0.0,-0.00508431194794,0.0,0.0691230529866,0.0,0.0108917428675,0.0,-0.0,-0.0,0.592139422894,200.0,-0.0,0.0,0.00383600394174,100.0,0.00230154196664,100.0,-0.0,100.0,-0.0,100.0,2100175.31455,0.0,0.0,0.0,0.0,0.0,0.0
1402760721434522470,3,-9.25171863444,-7.1377884924,-14.0475635743,2.38304939926,-0.713528728767,-3.84635974695,-0.0387784605524,0.0,-0.0253977756639,0.0,0.0379274822729,0.0,1.90487456499,0.0,0.0408045274672,0.0,0.00235536644429,0.0,-0.00508431194794,0.0,0.0691230529866,0.0,0.0108917428675,0.0,-0.0,-0.0,0.592139422894,200.0,-0.0,0.0,0.00383600394174,100.0,0.00230154196664,100.0,-0.0,100.0,-0.0,100.0,2100175.31455,0.0,0.0,0.0,0.0,0.0,0.0
1402760721454580599,3,-9.25257240889,-7.1377884924,-14.048110768,2.38304939926,-0.712602853706,-3.84635974695,-0.037989069656,0.0,-0.0252427751489,0.0,0.0385286932676,0.0,1.90568037431,0.0,0.0412089931811,0.0,0.00270838004153,0.0,-0.00736761182126,0.0,0.0691662628841,0.0,0.0141133334966,0.0,-0.0,-0.0,0.592139422894,200.0,-0.0,0.0,0.00537022749826,100.0,0.00230154196664,100.0,-0.0,100.0,-0.0,100.0,2100175.31455,0.0,0.0,0.0,0.0,0.0,0.0
1402760721474632653,3,-9.25257240889,-7.1377884924,-14.048110768,2.38304939926,-0.712602853706,-3.84635974695,-0.037989069656,0.0,-0.0252427751489,0.0,0.0385286932676,0.0,1.90568037431,0.0,0.0412089931811,0.0,0.00270838004153,0.0,-0.00736761182126,0.0,0.0691662628841,0.0,0.0141133334966,0.0,-0.0,-0.0,0.592139422894,200.0,-0.0,0.0,0.00383600394174,100.0,0.00383600394174,100.0,-0.0,100.0,-0.0,100.0,2100175.31455,0.0,0.0,0.0,0.0,0.0,0.0
1402760721495020687,3,-9.2525025576,-7.1377884924,-14.048815749,2.38304939926,-0.707087157483,-3.84635974695,-0.0381178374664,0.0,-0.0219015453741,0.0,0.0401823450619,0.0,1.90730369647,0.0,0.0417228447629,0.0,0.00334002779693,0.0,-0.00481561348508,0.0,0.0698068774963,0.0,0.00380846064176,0.0,-0.0,-0.0,0.592139422894,200.0,-0.0,0.0,0.00383600394174,100.0,0.000767318410122,100.0,-0.0,100.0,-0.0,100.0,2100175.31455,0.0,0.0,0.0,0.0,0.0,0.0
1402760721514657552,3,-9.2525025576,-7.1377884924,-14.048815749,2.38304939926,-0.707087157483,-3.84635974695,-0.0381178374664,0.0,-0.0219015453741,0.0,0.0401823450619,0.0,1.90730369647,0.0,0.0417228447629,0.0,0.00334002779693,0.0,-0.00481561348508,0.0,0.0698068774963,0.0,0.00380846064176,0.0,-0.0,-0.0,0.592139422894,200.0,-0.0,0.0,0.00383600394174,100.0,0.000767318410122,100.0,-0.0,100.0,-0.0,100.0,2100175.31455,0.0,0.0,0.0,0.0,0.0,0.0
1402760721534498661,3,-9.25046537277,-7.1377884924,-14.051493538,2.38304939926,-0.699883407026,-3.84635974695,-0.0334564789292,0.0,-0.0235539709511,0.0,0.0427544213984,0.0,1.90881282649,0.0,0.0380269090007,0.0,0.00424938134322,0.0,-0.00279444162284,0.0,0.0695318307586,0.0,0.00176415258741,0.0,-0.0,-0.0,0.592139422894,200.0,-0.0,0.0,0.00383600394174,100.0,0.000767318410122,100.0,-0.0,100.0,-0.0,100.0,2100175.31455,0.0,0.0,0.0,0.0,0.0,0.0
1402760721555272928,3,-9.25046537277,-7.1377884924,-14.051493538,2.38304939926,-0.699883407026,-3.84635974695,-0.0334564789292,0.0,-0.0235539709511,0.0,0.0427544213984,0.0,1.90881282649,0.0,0.0380269090007,0.0,0.00424938134322,0.0,-0.00279444162284,0.0,0.0695318307586,0.0,0.00176415258741,0.0,-0.0,-0.0,0.592139422894,200.0,-0.0,0.0,0.00383600394174,100.0,0.00230154196664,100.0,-0.0,100.0,-0.0,100.0,2100175.31455,0.0,0.0,0.0,0.0,0.0,0.0
1402760721575192354,3,-9.25173447314,-7.1377884924,-14.0524110211,2.38304939926,-0.697938884356,-3.84635974695,-0.0338455502475,0.0,-0.0148014541863,0.0,0.0449305174778,0.0,1.91026287381,0.0,0.0361816048919,0.0,0.00453222182888,0.0,-0.00674801530606,0.0,0.0696599156089,0.0,0.00997910413888,0.0,-0.0,-0.0,0.592139422894,200.0,-0.0,0.0,0.00537022749826,100.0,0.00230154196664,100.0,-0.0,100.0,-0.0,100.0,2100175.31455,0.0,0.0,0.0,0.0,0.0,0.0
1402760721594469653,3,-9.25173447314,-7.1377884924,-14.0524110211,2.38304939926,-0.697938884356,-3.84635974695,-0.0338455502475,0.0,-0.0148014541863,0.0,0.0449305174778,0.0,1.91026287381,0.0,0.0361816048919,0.0,0.00453222182888,0.0,-0.00674801530606,0.0,0.0696599156089,0.0,0.00997910413888,0.0,-0.0,-0.0,0.592139422894,200.0,-0.0,0.0,0.00383600394174,100.0,0.00230154196664,100.0,-0.0,100.0,-0.0,100.0,2100175.31455,0.0,0.0,0.0,0.0,0.0,0.0
1402760721615176243,3,-9.25518930239,-7.1377884924,-14.054176453,2.38304939926,-0.705813897902,-3.84635974695,-0.058026875125,0.0,0.0393865304842,0.0,0.0550597756683,0.0,1.91253772362,0.0,0.0321047022518,0.0,0.00339103010691,0.0,-0.0039676650098,0.0,0.0679173588157,0.0,0.0378573438071,0.0,-0.0,-0.0,0.592139422894,200.0,-0.0,0.0,0.00383600394174,100.0,0.00230154196664,100.0,-0.0,100.0,-0.0,100.0,2100175.31455,0.0,0.0,0.0,0.0,0.0,0.0
1402760721634524546,3,-9.25518930239,-7.1377884924,-14.054176453,2.38304939926,-0.705813897902,-3.84635974695,-0.058026875125,0.0,0.0393865304842,0.0,0.0550597756683,0.0,1.91253772362,0.0,0.0321047022518,0.0,0.00339103010691,0.0,-0.0039676650098,0.0,0.0679173588157,0.0,0.0378573438071,0.0,-0.0,-0.0,0.592139422894,200.0,-0.0,0.0,0.00383600394174,100.0,0.00230154196664,100.0,-0.0,100.0,-0.0,100.0,2100175.31455,0.0,0.0,0.0,0.0,0.0,0.0
1402760721654958068,3,-9.25448384627,-7.1377884924,-14.0558024317,2.38304939926,-0.696938132444,-3.84635974695,-0.0814900503623,0.0,0.0939977117443,0.0,0.0688785457441,0.0,1.91346570569,0.0,0.02288845597,0.0,0.00396554732705,0.0,0.0897828752198,0.0,0.0636625636408,0.0,-0.00984111324758,0.0,-0.0,-0.0,0.592139422894,200.0,-0.0,0.0,0.00383600394174,100.0,0.00230154196664,100.0,-0.0,100.0,-0.0,100.0,2100175.31455,0.0,0.0,0.0,0.0,0.0,0.0
1402760721675018776,3,-9.25448384627,-7.1377884924,-14.0558024317,2.38304939926,-0.696938132444,-3.84635974695,-0.0814900503623,0.0,0.0939977117443,0.0,0.0688785457441,0.0,1.91346570569,0.0,0.02288845597,0.0,0.00396554732705,0.0,0.0897828752198,0.0,0.0636625636408,0.0,-0.00984111324758,0.0,-0.0,-0.0,0.592139422894,200.0,-0.0,0.0,0.00383600394174,100.0,0.00230154196664,100.0,-0.0,100.0,-0.0,100.0,2100175.31455,0.0,0.0,0.0,0.0,0.0,0.0
1402760721694532522,3,-9.25902536637,-7.1377884924,-14.0493239673,2.38304939926,-0.710092992758,-3.84635974695,-0.101713780932,0.0,0.161353916103,0.0,0.0747681038246,0.0,1.91439926257,0.0,0.0208675177615,0.0,0.00499547037088,0.0,0.127505427961,0.0,0.0585981511661,0.0,0.0422774174711,0.0,-0.0,-0.0,0.592139422894,200.0,-0.0,0.0,0.00383600394174,100.0,0.00230154196664,100.0,-0.0,100.0,-0.0,100.0,2100175.31455,0.0,0.0,0.0,0.0,0.0,0.0
1402760721714751680,3,-9.25902536637,-7.1377884924,-14.0493239673,2.38304939926,-0.710092992758,-3.84635974695,-0.101713780932,0.0,0.161353916103,0.0,0.0747681038246,0.0,1.91439926257,0.0,0.0208675177615,0.0,0.00499547037088,0.0,0.127505427961,0.0,0.0585981511661,0.0,0.0422774174711,0.0,-0.0,-0.0,0.592139422894,200.0,-0.0,0.0,0.00383600394174,100.0,0.00230154196664,100.0,-0.0,100.0,-0.0,100.0,2100175.31455,0.0,0.0,0.0,0.0,0.0,0.0
1402760721735015389,3,-9.26139338213,-7.1377884924,-14.0407899452,2.38304939926,-0.690247702213,-3.84635974695,-0.126587407202,0.0,0.239626614051,0.0,0.087605502812,0.0,1.91326379148,0.0,0.00331790672861,0.0,0.00574527642571,0.0,0.179489372622,0.0,0.0497492082983,0.0,0.0415640644152,0.0,-0.0,-0.0,0.592139422894,200.0,-0.0,0.0,0.00383600394174,100.0,0.00230154196664,100.0,-0.0,100.0,-0.0,100.0,2100175.31455,0.0,0.0,0.0,0.0,0.0,0.0
1402760721754713940,3,-9.26139338213,-7.1377884924,-14.0407899452,2.38304939926,-0.690247702213,-3.84635974695,-0.126587407202,0.0,0.239626614051,0.0,0.087605502812,0.0,1.91326379148,0.0,0.00331790672861,0.0,0.00574527642571,0.0,0.179489372622,0.0,0.0497492082983,0.0,0.0415640644152,0.0,-0.0,-0.0,0.592139422894,200.0,-0.0,0.0,0.00383600394174,100.0,0.00230154196664,100.0,-0.0,100.0,-0.0,100.0,2100175.31455,0.0,0.0,0.0,0.0,0.0,0.0
1402760721774374181,3,-9.26699506348,-7.1377884924,-14.031034183,2.38304939926,-0.691350695855,-3.84635974695,-0.145100755713,0.0,0.309211736389,0.0,0.094635037998,0.0,1.91419541575,0.0,-0.00841987836819,0.0,0.00539654108095,0.0,0.165160369753,0.0,0.0385254964543,0.0,0.0782531799097,0.0,-0.0,-0.0,0.592139422894,200.0,-0.0,0.0,0.00383600394174,100.0,0.00230154196664,100.0,-0.0,100.0,-0.0,100.0,2100175.31455,0.0,0.0,0.0,0.0,0.0,0.0
1402760721794556703,3,-9.26699506348,-7.1377884924,-14.031034183,2.38304939926,-0.691350695855,-3.84635974695,-0.145100755713,0.0,0.309211736389,0.0,0.094635037998,0.0,1.91419541575,0.0,-0.00841987836819,0.0,0.00539654108095,0.0,0.165160369753,0.0,0.0385254964543,0.0,0.0782531799097,0.0,-0.0,-0.0,0.592139422894,200.0,-0.0,0.0,0.00383600394174,100.0,0.00230154196664,100.0,-0.0,100.0,-0.0,100.0,2100175.31455,0.0,0.0,0.0,0.0,0.0,0.0
1402760721815059316,3,-9.26807478097,-7.1377884924,-14.0270273314,2.38304939926,-0.689652871553,-3.84635974695,-0.155808222581,0.0,0.335648528942,0.0,0.0895344271448,0.0,1.91403969431,0.0,-0.0163133237105,0.0,0.00502414356242,0.0,0.15597829467,0.0,0.034250716002,0.0,0.0332620614228,0.0,-0.0,-0.0,0.592139422894,200.0,-0.0,0.0,0.00383600394174,100.0,0.00230154196664,100.0,-0.0,100.0,-0.0,100.0,2100175.31455,0.0,0.0,0.0,0.0,0.0,0.0
1402760721834300764,3,-9.26807478097,-7.1377884924,-14.0270273314,2.38304939926,-0.689652871553,-3.84635974695,-0.155808222581,0.0,0.335648528942,0.0,0.0895344271448,0.0,1.91403969431,0.0,-0.0163133237105,0.0,0.00502414356242,0.0,0.15597829467,0.0,0.034250716002,0.0,0.0332620614228,0.0,-0.0,-0.0,0.592139422894,200.0,-0.0,0.0,0.00383600394174,100.0,0.00230154196664,100.0,-0.0,100.0,-0.0,100.0,2100175.31455,0.0,0.0,0.0,0.0,0.0,0.0
1402760721854637530,3,-9.27853228673,-7.1377884924,-14.0135306962,2.38304939926,-0.695245186097,-3.84635974695,-0.184054021747,0.0,0.3989401606,0.0,0.0774554285097,0.0,1.91869903991,0.0,-0.0205301304065,0.0,0.00322720618428,0.0,0.117795307065,0.0,0.0289632016186,0.0,0.039439291153,0.0,-0.0,-0.0,0.592139422894,200.0,-0.0,0.0,0.00383600394174,100.0,0.00230154196664,100.0,-0.0,100.0,-0.0,100.0,2100175.31455,0.0,0.0,0.0,0.0,0.0,0.0
1402760721874933178,3,-9.27853228673,-7.1377884924,-14.0135306962,2.38304939926,-0.695245186097,-3.84635974695,-0.184054021747,0.0,0.3989401606,0.0,0.0774554285097,0.0,1.91869903991,0.0,-0.0205301304065,0.0,0.00322720618428,0.0,0.117795307065,0.0,0.0289632016186,0.0,0.039439291153,0.0,-0.0,-0.0,0.592139422894,200.0,-0.0,0.0,0.00383600394174,100.0,0.00230154196664,100.0,-0.0,100.0,-0.0,100.0,2100175.31455,0.0,0.0,0.0,0.0,0.0,0.0
1402760721894537765,3,-9.28641329665,-7.1377884924,-13.9959841982,2.38304939926,-0.691989191606,-3.84635974695,-0.203629313356,0.0,0.458523218759,0.0,0.0695520412028,0.0,1.91781180338,0.0,-0.0191208660067,0.0,0.00241241316202,0.0,0.0896560228301,0.0,0.02510569485,0.0,0.0143470572646,0.0,-0.0,-0.0,0.592139422894,200.0,-0.0,0.0,0.00383600394174,100.0,0.00383600394174,100.0,-0.0,100.0,-0.0,100.0,2100175.31455,0.0,0.0,0.0,0.0,0.0,0.0
1402760721914716261,3,-9.28641329665,-7.1377884924,-13.9959841982,2.38304939926,-0.691989191606,-3.84635974695,-0.203629313356,0.0,0.458523218759,0.0,0.0695520412028,0.0,1.91781180338,0.0,-0.0191208660067,0.0,0.00241241316202,0.0,0.0896560228301,0.0,0.02510569485,0.0,0.0143470572646,0.0,-0.0,-0.0,0.592139422894,200.0,-0.0,0.0,0.00383600394174,100.0,0.00230154196664,100.0,-0.0,100.0,-0.0,100.0,2100175.31455,0.0,0.0,0.0,0.0,0.0,0.0
1402760721934942409,3,-9.29656028992,-7.1377884924,-13.9730888938,2.38304939926,-0.689821136226,-3.84635974695,-0.229225398946,0.0,0.527970505167,0.0,0.0543620210587,0.0,1.91766008197,0.0,-0.0283828537451,0.0,0.00136660714441,0.0,0.0417407827809,0.0,0.0243352706201,0.0,0.00266244500082,0.0,-0.0,-0.0,0.592139422894,200.0,-0.0,0.0,0.00383600394174,100.0,0.00383600394174,100.0,-0.0,100.0,-0.0,100.0,2100175.31455,0.0,0.0,0.0,0.0,0.0,0.0
1402760721954597352,3,-9.29656028992,-7.1377884924,-13.9730888938,2.38304939926,-0.689821136226,-3.84635974695,-0.229225398946,0.0,0.527970505167,0.0,0.0543620210587,0.0,1.91766008197,0.0,-0.0283828537451,0.0,0.00136660714441,0.0,0.0417407827809,0.0,0.0243352706201,0.0,0.00266244500082,0.0,-0.0,-0.0,0.592139422894,200.0,-0.0,0.0,0.00383600394174,100.0,0.00230154196664,100.0,-0.0,100.0,-0.0,100.0,2100175.31455,0.0,0.0,0.0,0.0,0.0,0.0
1402760721974463555,3,-9.30424008545,-7.1377884924,-13.939794719,2.38304939926,-0.678351908399,-3.84635974695,-0.247344952378,0.0,0.611977149961,0.0,0.0423136614743,0.0,1.91117898548,0.0,-0.0335465953794,0.0,0.00121550133742,0.0,-0.0230317113945,0.0,0.0255970586349,0.0,-0.0310470778087,0.0,-0.0,-0.0,0.592139422894,200.0,-0.0,0.0,0.00383600394174,100.0,0.00230154196664,100.0,-0.0,100.0,-0.0,100.0,2100175.31455,0.0,0.0,0.0,0.0,0.0,0.0
1402760721995011342,3,-9.30424008545,-7.1377884924,-13.939794719,2.38304939926,-0.678351908399,-3.84635974695,-0.247344952378,0.0,0.611977149961,0.0,0.0423136614743,0.0,1.91117898548,0.0,-0.0335465953794,0.0,0.00121550133742,0.0,-0.0230317113945,0.0,0.0255970586349,0.0,-0.0310470778087,0.0,-0.0,-0.0,0.592139422894,200.0,-0.0,0.0,0.00383600394174,100.0,0.00230154196664,100.0,-0.0,100.0,-0.0,100.0,2100175.31455,0.0,0.0,0.0,0.0,0.0,0.0
1402760722015084745,3,-9.3174836027,-7.1377884924,-13.9255949948,2.38304939926,-0.685262966868,-3.84635974695,-0.276702896622,0.0,0.641104781706,0.0,0.0154344621281,0.0,1.91862267149,0.0,-0.0338700087677,0.0,-0.00100453764823,0.0,-0.0250631681866,0.0,0.0262488389612,0.0,-0.0257249095671,0.0,-0.0,-0.0,0.592139422894,200.0,-0.0,0.0,0.00383600394174,100.0,0.00230154196664,100.0,-0.0,100.0,-0.0,100.0,2100175.31455,0.0,0.0,0.0,0.0,0.0,0.0
1402760722034628478,3,-9.32335292958,-7.1377884924,-13.9118068656,2.38304939926,-0.684893912706,-3.84635974695,-0.286212088022,0.0,0.668981206557,0.0,0.0133753517269,0.0,1.91780350763,0.0,-0.04150429094,0.0,-0.00142193815431,0.0,-0.0462571714709,0.0,0.0275522881487,0.0,-0.0339851038016,0.0,-0.0,-0.0,0.592139422894,200.0,-0.0,0.0,0.00383600394174,100.0,0.00230154196664,100.0,-0.0,100.0,-0.0,100.0,2100175.31455,0.0,0.0,0.0,0.0,0.0,0.0
1402760722055098408,3,-9.32335292958,-7.1377884924,-13.9118068656,2.38304939926,-0.684893912706,-3.84635974695,-0.286212088022,0.0,0.668981206557,0.0,0.0133753517269,0.0,1.91780350763,0.0,-0.04150429094,0.0,-0.00142193815431,0.0,-0.0462571714709,0.0,0.0275522881487,0.0,-0.0339851038016,0.0,-0.0,-0.0,0.592139422894,200.0,-0.0,0.0,0.00383600394174,100.0,0.00230154196664,100.0,-0.0,100.0,-0.0,100.0,2100175.31455,0.0,0.0,0.0,0.0,0.0,0.0
1402760722074312586,3,-9.32195015741,-7.1377884924,-13.8823732729,2.38304939926,-0.686518762949,-3.84635974695,-0.278615498958,0.0,0.729905660327,0.0,0.000492619708082,0.0,1.90448232393,0.0,-0.0368451887876,0.0,0.000914428491474,0.0,-0.0645899594475,0.0,0.0325532507137,0.0,-0.0508546299617,0.0,-0.0,-0.0,0.592139422894,200.0,-0.0,0.0,0.00383600394174,100.0,0.00230154196664,100.0,-0.0,100.0,-0.0,100.0,2100175.31455,0.0,0.0,0.0,0.0,0.0,0.0
1402760722094433172,3,-9.32195015741,-7.1377884924,-13.8823732729,2.38304939926,-0.686518762949,-3.84635974695,-0.278615498958,0.0,0.729905660327,0.0,0.000492619708082,0.0,1.90448232393,0.0,-0.0368451887876,0.0,0.000914428491474,0.0,-0.0645899594475,0.0,0.0325532507137,0.0,-0.0508546299617,0.0,-0.0,-0.0,0.592139422894,200.0,-0.0,0.0,0.00383600394174,100.0,0.00230154196664,100.0,-0.0,100.0,-0.0,100.0,2100175.31455,0.0,0.0,0.0,0.0,0.0,0.0
1402760722115342292,3,-9.33371528784,-7.1377884924,-13.8503621496,2.38304939926,-0.686939877935,-3.84635974695,-0.292255685208,0.0,0.783908937997,0.0,-0.0145102210404,0.0,1.90269064085,0.0,-0.0412871757491,0.0,0.000257581067095,0.0,-0.0777400075441,0.0,0.036203253468,0.0,-0.0500612370444,0.0,-0.0,-0.0,0.592139422894,200.0,-0.0,0.0,0.00383600394174,100.0,0.00230154196664,100.0,-0.0,100.0,-0.0,100.0,2100175.31455,0.0,0.0,0.0,0.0,0.0,0.0
1402760722134536797,3,-9.33371528784,-7.1377884924,-13.8503621496,2.38304939926,-0.686939877935,-3.84635974695,-0.292255685208,0.0,0.783908937997,0.0,-0.0145102210404,0.0,1.90269064085,0.0,-0.0412871757491,0.0,0.000257581067095,0.0,-0.0777400075441,0.0,0.036203253468,0.0,-0.0500612370444,0.0,-0.0,-0.0,0.592139422894,200.0,-0.0,0.0,0.00383600394174,100.0,0.00230154196664,100.0,-0.0,100.0,-0.0,100.0,2100175.31455,0.0,0.0,0.0,0.0,0.0,0.0
1402760722154524154,3,-9.33327154857,-7.1377884924,-13.8211339353,2.38304939926,-0.669327663912,-3.84635974695,-0.279840521986,0.0,0.820167447639,0.0,-0.0103662176999,0.0,1.89332929096,0.0,-0.0406487575972,0.0,0.00172160355636,0.0,-0.0852716151402,0.0,0.0376497786756,0.0,-0.0492842350146,0.0,-0.0,-0.0,0.592139422894,200.0,-0.0,0.0,0.00383600394174,100.0,0.00230154196664,100.0,-0.0,100.0,-0.0,100.0,2100175.31455,0.0,0.0,0.0,0.0,0.0,0.0
1402760722174644068,3,-9.33327154857,-7.1377884924,-13.8211339353,2.38304939926,-0.669327663912,-3.84635974695,-0.279840521986,0.0,0.820167447639,0.0,-0.0103662176999,0.0,1.89332929096,0.0,-0.0406487575972,0.0,0.00172160355636,0.0,-0.0852716151402,0.0,0.0376497786756,0.0,-0.0492842350146,0.0,-0.0,-0.0,0.592139422894,200.0,-0.0,0.0,0.00383600394174,100.0,0.00230154196664,100.0,-0.0,100.0,-0.0,100.0,2100175.31455,0.0,0.0,0.0,0.0,0.0,0.0
1402760722195047957,3,-9.35986291861,-7.1377884924,-13.7830975677,2.38304939926,-0.689195195928,-3.84635974695,-0.321533367007,0.0,0.869122933728,0.0,-0.0168509368713,0.0,1.90295597947,0.0,-0.0451705582934,0.0,-0.00141138541754,0.0,-0.087583552253,0.0,0.0423227034784,0.0,-0.020601403847,0.0,-0.0,-0.0,0.592139422894,200.0,-0.0,0.0,0.00383600394174,100.0,0.00230154196664,100.0,-0.0,100.0,-0.0,100.0,2100175.31455,0.0,0.0,0.0,0.0,0.0,0.0
1402760722214539645,3,-9.35986291861,-7.1377884924,-13.7830975677,2.38304939926,-0.689195195928,-3.84635974695,-0.321533367007,0.0,0.869122933728,0.0,-0.0168509368713,0.0,1.90295597947,0.0,-0.0451705582934,0.0,-0.00141138541754,0.0,-0.087583552253,0.0,0.0423227034784,0.0,-0.020601403847,0.0,-0.0,-0.0,0.592139422894,200.0,-0.0,0.0,0.00383600394174,100.0,0.00383600394174,100.0,-0.0,100.0,-0.0,100.0,2100175.31455,0.0,0.0,0.0,0.0,0.0,0.0
1402760722234525624,3,-9.36773386026,-7.1377884924,-13.7298794303,2.38304939926,-0.676587453222,-3.84635974695,-0.319192664973,0.0,0.939257119445,0.0,-0.00715049681063,0.0,1.89302152462,0.0,-0.0418039216914,0.0,0.000957174547895,0.0,-0.0616632081797,0.0,0.0478194995255,0.0,-0.0117983466307,0.0,-0.0,-0.0,0.592139422894,200.0,-0.0,0.0,0.00383600394174,100.0,0.00230154196664,100.0,-0.0,100.0,-0.0,100.0,2100175.31455,0.0,0.0,0.0,0.0,0.0,0.0
1402760722255093178,3,-9.36773386026,-7.1377884924,-13.7298794303,2.38304939926,-0.676587453222,-3.84635974695,-0.319192664973,0.0,0.939257119445,0.0,-0.00715049681063,0.0,1.89302152462,0.0,-0.0418039216914,0.0,0.000957174547895,0.0,-0.0616632081797,0.0,0.0478194995255,0.0,-0.0117983466307,0.0,-0.0,-0.0,0.592139422894,200.0,-0.0,0.0,0.00383600394174,100.0,0.00383600394174,100.0,-0.0,100.0,-0.0,100.0,2100175.31455,0.0,0.0,0.0,0.0,0.0,0.0
1402760722275495649,3,-9.3741942405,-7.1377884924,-13.707196925,2.38304939926,-0.681130657276,-3.84635974695,-0.328221147492,0.0,0.966667554504,0.0,-0.00579383183515,0.0,1.89160991076,0.0,-0.0522143876116,0.0,0.00105328210877,0.0,-0.0564077480965,0.0,0.049965499815,0.0,-0.0216720868758,0.0,-0.0,-0.0,0.592139422894,200.0,-0.0,0.0,0.00383600394174,100.0,0.00383600394174,100.0,-0.0,100.0,-0.0,100.0,2100175.31455,0.0,0.0,0.0,0.0,0.0,0.0
1402760722294496992,3,-9.3741942405,-7.1377884924,-13.707196925,2.38304939926,-0.681130657276,-3.84635974695,-0.328221147492,0.0,0.966667554504,0.0,-0.00579383183515,0.0,1.89160991076,0.0,-0.0522143876116,0.0,0.00105328210877,0.0,-0.0564077480965,0.0,0.049965499815,0.0,-0.0216720868758,0.0,-0.0,-0.0,0.592139422894,200.0,-0.0,0.0,0.00537022749826,100.0,0.00383600394174,100.0,-0.0,100.0,-0.0,100.0,2100175.31455,0.0,0.0,0.0,0.0,0.0,0.0
1402760722315323805,3,-9.39106819856,-7.1377884924,-13.6710183197,2.38304939926,-0.679182922202,-3.84635974695,-0.345949014141,0.0,1.00245696292,0.0,0.0157304330948,0.0,1.89417245441,0.0,-0.0511670074809,0.0,-2.57334439882e-05,0.0,-0.0406725904751,0.0,0.0511485585987,0.0,0.00838978359898,0.0,-0.0,-0.0,0.592139422894,200.0,-0.0,0.0,0.00383600394174,100.0,0.00383600394174,100.0,-0.0,100.0,-0.0,100.0,2100175.31455,0.0,0.0,0.0,0.0,0.0,0.0
1402760722334619919,3,-9.39106819856,-7.1377884924,-13.6710183197,2.38304939926,-0.679182922202,-3.84635974695,-0.345949014141,0.0,1.00245696292,0.0,0.0157304330948,0.0,1.89417245441,0.0,-0.0511670074809,0.0,-2.57334439882e-05,0.0,-0.0406725904751,0.0,0.0511485585987,0.0,0.00838978359898,0.0,-0.0,-0.0,0.592139422894,200.0,-0.0,0.0,0.00383600394174,100.0,0.00230154196664,100.0,-0.0,100.0,-0.0,100.0,2100175.31455,0.0,0.0,0.0,0.0,0.0,0.0
1402760722354579259,3,-9.40540468975,-7.1377884924,-13.6291890313,2.38304939926,-0.678462940983,-3.84635974695,-0.354145800365,0.0,1.04122393169,0.0,0.0260975712506,0.0,1.89210783302,0.0,-0.0482402308682,0.0,0.000809722821421,0.0,-0.0216174260154,0.0,0.0521069240702,0.0,0.0224972726937,0.0,-0.0,-0.0,0.592139422894,200.0,-0.0,0.0,0.00383600394174,100.0,0.00383600394174,100.0,-0.0,100.0,-0.0,100.0,2100175.31455,0.0,0.0,0.0,0.0,0.0,0.0
1402760722375937895,3,-9.40540468975,-7.1377884924,-13.6291890313,2.38304939926,-0.678462940983,-3.84635974695,-0.354145800365,0.0,1.04122393169,0.0,0.0260975712506,0.0,1.89210783302,0.0,-0.0482402308682,0.0,0.000809722821421,0.0,-0.0216174260154,0.0,0.0521069240702,0.0,0.0224972726937,0.0,-0.0,-0.0,0.592139422894,200.0,-0.0,0.0,0.00383600394174,100.0,0.00383600394174,100.0,-0.0,100.0,-0.0,100.0,2100175.31455,0.0,0.0,0.0,0.0,0.0,0.0
1402760722394534845,3,-9.41896901648,-7.1377884924,-13.5871699071,2.38304939926,-0.669741603593,-3.84635974695,-0.365358514054,0.0,1.07552159241,0.0,0.0436958767424,0.0,1.89050513248,0.0,-0.0467427707481,0.0,0.00137133701857,0.0,-0.000808328201451,0.0,0.0521462651059,0.0,0.0233149183491,0.0,-0.0,-0.0,0.592139422894,200.0,-0.0,0.0,0.00383600394174,100.0,0.00383600394174,100.0,-0.0,100.0,-0.0,100.0,2100175.31455,0.0,0.0,0.0,0.0,0.0,0.0
1402760722414619697,3,-9.41896901648,-7.1377884924,-13.5871699071,2.38304939926,-0.669741603593,-3.84635974695,-0.365358514054,0.0,1.07552159241,0.0,0.0436958767424,0.0,1.89050513248,0.0,-0.0467427707481,0.0,0.00137133701857,0.0,-0.000808328201451,0.0,0.0521462651059,0.0,0.0233149183491,0.0,-0.0,-0.0,0.592139422894,200.0,-0.0,0.0,0.00383600394174,100.0,0.00383600394174,100.0,-0.0,100.0,-0.0,100.0,2100175.31455,0.0,0.0,0.0,0.0,0.0,0.0
1402760722434969241,3,-9.43809001001,-7.1377884924,-13.5405665009,2.38304939926,-0.679401785291,-3.84635974695,-0.387886694616,0.0,1.11409900795,0.0,0.0446714134948,0.0,1.89092360602,0.0,-0.0474984766995,0.0,0.00103673947607,0.0,0.0146453789581,0.0,0.0523878832506,0.0,0.0188331417548,0.0,-0.0,-0.0,0.592139422894,200.0,-0.0,0.0,0.00383600394174,100.0,0.00230154196664,100.0,-0.0,100.0,-0.0,100.0,2100175.31455,0.0,0.0,0.0,0.0,0.0,0.0
1402760722454523582,3,-9.43809001001,-7.1377884924,-13.5405665009,2.38304939926,-0.679401785291,-3.84635974695,-0.387886694616,0.0,1.11409900795,0.0,0.0446714134948,0.0,1.89092360602,0.0,-0.0474984766995,0.0,0.00103673947607,0.0,0.0146453789581,0.0,0.0523878832506,0.0,0.0188331417548,0.0,-0.0,-0.0,0.592139422894,200.0,-0.0,0.0,0.00383600394174,100.0,0.00383600394174,100.0,-0.0,100.0,-0.0,100.0,2100175.31455,0.0,0.0,0.0,0.0,0.0,0.0
1402760722474722223,3,-9.4544412954,-7.1377884924,-13.4847464634,2.38304939926,-0.687144803144,-3.84635974695,-0.385837631279,0.0,1.14736518731,0.0,0.0547307425725,0.0,1.8872164733,0.0,-0.0422472126662,0.0,0.00232763566061,0.0,0.0328526477666,0.0,0.0489277320686,0.0,0.0349323963492,0.0,-0.0,-0.0,0.592139422894,200.0,-0.0,0.0,0.00383600394174,100.0,0.00383600394174,100.0,-0.0,100.0,-0.0,100.0,2100175.31455,0.0,0.0,0.0,0.0,0.0,0.0
1402760722494969001,3,-9.4544412954,-7.1377884924,-13.4847464634,2.38304939926,-0.687144803144,-3.84635974695,-0.385837631279,0.0,1.14736518731,0.0,0.0547307425725,0.0,1.8872164733,0.0,-0.0422472126662,0.0,0.00232763566061,0.0,0.0328526477666,0.0,0.0489277320686,0.0,0.0349323963492,0.0,-0.0,-0.0,0.592139422894,200.0,-0.0,0.0,0.00383600394174,100.0,0.00230154196664,100.0,-0.0,100.0,-0.0,100.0,2100175.31455,0.0,0.0,0.0,0.0,0.0,0.0
1402760722514775997,3,-9.47847794266,-7.1377884924,-13.3909699924,2.38304939926,-0.682721996156,-3.84635974695,-0.39414120177,0.0,1.23183748955,0.0,0.0566500952354,0.0,1.88194772595,0.0,-0.0406549554416,0.0,0.00492847472969,0.0,0.0406547072516,0.0,0.0490503909774,0.0,0.0262508821154,0.0,-0.0,-0.0,0.592139422894,200.0,-0.0,0.0,0.00383600394174,100.0,0.00383600394174,100.0,-0.0,100.0,-0.0,100.0,2100175.31455,0.0,0.0,0.0,0.0,0.0,0.0
1402760722534549127,3,-9.47847794266,-7.1377884924,-13.3909699924,2.38304939926,-0.682721996156,-3.84635974695,-0.39414120177,0.0,1.23183748955,0.0,0.0566500952354,0.0,1.88194772595,0.0,-0.0406549554416,0.0,0.00492847472969,0.0,0.0406547072516,0.0,0.0490503909774,0.0,0.0262508821154,0.0,-0.0,-0.0,0.592139422894,200.0,-0.0,0.0,0.00383600394174,100.0,0.00383600394174,100.0,-0.0,100.0,-0.0,100.0,2100175.31455,0.0,0.0,0.0,0.0,0.0,0.0
1402760722554653513,3,-9.48636580269,-7.1377884924,-13.3660148678,2.38304939926,-0.681855541596,-3.84635974695,-0.399568134559,0.0,1.24745707053,0.0,0.0590232693029,0.0,1.88109093719,0.0,-0.0385839772764,0.0,0.00495704131365,0.0,0.0375275702254,0.0,0.0482012515046,0.0,0.0194245190789,0.0,-0.0,-0.0,0.592139422894,200.0,-0.0,0.0,0.00383600394174,100.0,0.00383600394174,100.0,-0.0,100.0,-0.0,100.0,2100175.31455,0.0,0.0,0.0,0.0,0.0,0.0
1402760722574519643,3,-9.48636580269,-7.1377884924,-13.3660148678,2.38304939926,-0.681855541596,-3.84635974695,-0.399568134559,0.0,1.24745707053,0.0,0.0590232693029,0.0,1.88109093719,0.0,-0.0385839772764,0.0,0.00495704131365,0.0,0.0375275702254,0.0,0.0482012515046,0.0,0.0194245190789,0.0,-0.0,-0.0,0.592139422894,200.0,-0.0,0.0,0.00537022749826,100.0,0.00383600394174,100.0,-0.0,100.0,-0.0,100.0,2100175.31455,0.0,0.0,0.0,0.0,0.0,0.0
1402760722595437458,3,-9.49428643295,-7.1377884924,-13.3410080865,2.38304939926,-0.680556595971,-3.84635974695,-0.401398415198,0.0,1.2632707429,0.0,0.058727615304,0.0,1.88034538617,0.0,-0.0349750427342,0.0,0.00507434255555,0.0,0.0423395536252,0.0,0.0472412430975,0.0,0.0189429204425,0.0,-0.0,-0.0,0.592139422894,200.0,-0.0,0.0,0.00537022749826,100.0,0.00383600394174,100.0,-0.0,100.0,-0.0,100.0,2100175.31455,0.0,0.0,0.0,0.0,0.0,0.0
1402760722615641921,3,-9.49428643295,-7.1377884924,-13.3410080865,2.38304939926,-0.680556595971,-3.84635974695,-0.401398415198,0.0,1.2632707429,0.0,0.058727615304,0.0,1.88034538617,0.0,-0.0349750427342,0.0,0.00507434255555,0.0,0.0423395536252,0.0,0.0472412430975,0.0,0.0189429204425,0.0,-0.0,-0.0,0.592139422894,200.0,-0.0,0.0,0.00383600394174,100.0,0.00383600394174,100.0,-0.0,100.0,-0.0,100.0,2100175.31455,0.0,0.0,0.0,0.0,0.0,0.0
1402760722634456112,3,-9.50651889005,-7.1377884924,-13.3010369495,2.38304939926,-0.675800048478,-3.84635974695,-0.402126940615,0.0,1.25638914903,0.0,0.0613259438119,0.0,1.87763108929,0.0,-0.0374046840365,0.0,0.00429093515148,0.0,0.04064431967,0.0,0.0408390786206,0.0,0.0203749121934,0.0,-0.0,-0.0,0.592139422894,200.0,-0.0,0.0,0.00383600394174,100.0,0.00230154196664,100.0,-0.0,100.0,-0.0,100.0,2100175.31455,0.0,0.0,0.0,0.0,0.0,0.0
1402760722654534975,3,-9.50651889005,-7.1377884924,-13.3010369495,2.38304939926,-0.675800048478,-3.84635974695,-0.402126940615,0.0,1.25638914903,0.0,0.0613259438119,0.0,1.87763108929,0.0,-0.0374046840365,0.0,0.00429093515148,0.0,0.04064431967,0.0,0.0408390786206,0.0,0.0203749121934,0.0,-0.0,-0.0,0.592139422894,200.0,-0.0,0.0,0.00383600394174,100.0,0.00383600394174,100.0,-0.0,100.0,-0.0,100.0,2100175.31455,0.0,0.0,0.0,0.0,0.0,0.0
1402760722674872489,3,-9.52014143907,-7.1377884924,-13.2442457078,2.38304939926,-0.687194798016,-3.84635974695,-0.40306170672,0.0,1.29062629287,0.0,0.05092949295,0.0,1.87576575894,0.0,-0.0324098216889,0.0,0.00498680069297,0.0,0.0354505303941,0.0,0.0400623371076,0.0,0.0126346642111,0.0,-0.0,-0.0,0.592139422894,200.0,-0.0,0.0,0.00383600394174,100.0,0.00230154196664,100.0,-0.0,100.0,-0.0,100.0,2100175.31455,0.0,0.0,0.0,0.0,0.0,0.0
1402760722694478455,3,-9.52014143907,-7.1377884924,-13.2442457078,2.38304939926,-0.687194798016,-3.84635974695,-0.40306170672,0.0,1.29062629287,0.0,0.05092949295,0.0,1.87576575894,0.0,-0.0324098216889,0.0,0.00498680069297,0.0,0.0354505303941,0.0,0.0400623371076,0.0,0.0126346642111,0.0,-0.0,-0.0,0.592139422894,200.0,-0.0,0.0,0.00383600394174,100.0,0.00383600394174,100.0,-0.0,100.0,-0.0,100.0,2100175.31455,0.0,0.0,0.0,0.0,0.0,0.0
1402760722714507707,3,-9.53767725398,-7.1377884924,-13.1901206382,2.38304939926,-0.683096404143,-3.84635974695,-0.417127410992,0.0,1.32072756491,0.0,0.0481127761223,0.0,1.87499259382,0.0,-0.0330937298079,0.0,0.00393457642541,0.0,0.025564489927,0.0,0.0394513946108,0.0,-0.00776917846294,0.0,-0.0,-0.0,0.592139422894,200.0,-0.0,0.0,0.00383600394174,100.0,0.00383600394174,100.0,-0.0,100.0,-0.0,100.0,2100175.31455,0.0,0.0,0.0,0.0,0.0,0.0
1402760722735617196,3,-9.53767725398,-7.1377884924,-13.1901206382,2.38304939926,-0.683096404143,-3.84635974695,-0.417127410992,0.0,1.32072756491,0.0,0.0481127761223,0.0,1.87499259382,0.0,-0.0330937298079,0.0,0.00393457642541,0.0,0.025564489927,0.0,0.0394513946108,0.0,-0.00776917846294,0.0,-0.0,-0.0,0.592139422894,200.0,-0.0,0.0,0.00383600394174,100.0,0.00230154196664,100.0,-0.0,100.0,-0.0,100.0,2100175.31455,0.0,0.0,0.0,0.0,0.0,0.0
1402760722754484946,3,-9.55612127359,-7.1377884924,-13.1343809397,2.38304939926,-0.678815304699,-3.84635974695,-0.42448280399,0.0,1.34823746321,0.0,0.0518164137375,0.0,1.87388432048,0.0,-0.0305429016201,0.0,0.00279157549943,0.0,0.0198675404113,0.0,0.0387562489704,0.0,-0.000183556742613,0.0,-0.0,-0.0,0.592139422894,200.0,-0.0,0.0,0.00383600394174,100.0,0.00383600394174,100.0,-0.0,100.0,-0.0,100.0,2100175.31455,0.0,0.0,0.0,0.0,0.0,0.0
1402760722774536454,3,-9.55612127359,-7.1377884924,-13.1343809397,2.38304939926,-0.678815304699,-3.84635974695,-0.42448280399,0.0,1.34823746321,0.0,0.0518164137375,0.0,1.87388432048,0.0,-0.0305429016201,0.0,0.00279157549943,0.0,0.0198675404113,0.0,0.0387562489704,0.0,-0.000183556742613,0.0,-0.0,-0.0,0.592139422894,200.0,-0.0,0.0,0.00537022749826,100.0,0.00230154196664,100.0,-0.0,100.0,-0.0,100.0,2100175.31455,0.0,0.0,0.0,0.0,0.0,0.0
1402760722794711031,3,-9.57352587185,-7.1377884924,-13.0785424694,2.38304939926,-0.677047650877,-3.84635974695,-0.429962908651,0.0,1.37274413181,0.0,0.0450636967794,0.0,1.87267140399,0.0,-0.0302292823761,0.0,0.00236070018926,0.0,0.00936710543745,0.0,0.0384611604136,0.0,-0.00507587967009,0.0,-0.0,-0.0,0.592139422894,200.0,-0.0,0.0,0.00383600394174,100.0,0.00383600394174,100.0,-0.0,100.0,-0.0,100.0,2100175.31455,0.0,0.0,0.0,0.0,0.0,0.0
1402760722814492973,3,-9.57352587185,-7.1377884924,-13.0785424694,2.38304939926,-0.677047650877,-3.84635974695,-0.429962908651,0.0,1.37274413181,0.0,0.0450636967794,0.0,1.87267140399,0.0,-0.0302292823761,0.0,0.00236070018926,0.0,0.00936710543745,0.0,0.0384611604136,0.0,-0.00507587967009,0.0,-0.0,-0.0,0.592139422894,200.0,-0.0,0.0,0.00383600394174,100.0,0.00230154196664,100.0,-0.0,100.0,-0.0,100.0,2100175.31455,0.0,0.0,0.0,0.0,0.0,0.0
1402760722834650608,3,-9.5870583233,-7.1377884924,-13.0224236579,2.38304939926,-0.676447595144,-3.84635974695,-0.431541288763,0.0,1.39188035592,0.0,0.0271695176082,0.0,1.87129231171,0.0,-0.0178528389342,0.0,0.00238083265471,0.0,-5.4568313212e-05,0.0,0.0379196478911,0.0,-0.0313339875639,0.0,-0.0,-0.0,0.592139422894,200.0,-0.0,0.0,0.00383600394174,100.0,0.00383600394174,100.0,-0.0,100.0,-0.0,100.0,2100175.31455,0.0,0.0,0.0,0.0,0.0,0.0
1402760722855450008,3,-9.5870583233,-7.1377884924,-13.0224236579,2.38304939926,-0.676447595144,-3.84635974695,-0.431541288763,0.0,1.39188035592,0.0,0.0271695176082,0.0,1.87129231171,0.0,-0.0178528389342,0.0,0.00238083265471,0.0,-5.4568313212e-05,0.0,0.0379196478911,0.0,-0.0313339875639,0.0,-0.0,-0.0,0.592139422894,200.0,-0.0,0.0,0.00383600394174,100.0,0.00383600394174,100.0,-0.0,100.0,-0.0,100.0,2100175.31455,0.0,0.0,0.0,0.0,0.0,0.0
1402760722874639571,3,-9.61250891091,-7.1377884924,-12.9476863775,2.38304939926,-0.677446880099,-3.84635974695,-0.445159106167,0.0,1.42669790856,0.0,0.028480185046,0.0,1.87057995269,0.0,-0.0193443191782,0.0,0.000428653300752,0.0,-0.0035742353771,0.0,0.0397955894759,0.0,-0.0183997724051,0.0,-0.0,-0.0,0.592139422894,200.0,-0.0,0.0,0.00537022749826,100.0,0.00230154196664,100.0,-0.0,100.0,-0.0,100.0,2100175.31455,0.0,0.0,0.0,0.0,0.0,0.0
1402760722894428376,3,-9.61250891091,-7.1377884924,-12.9476863775,2.38304939926,-0.677446880099,-3.84635974695,-0.445159106167,0.0,1.42669790856,0.0,0.028480185046,0.0,1.87057995269,0.0,-0.0193443191782,0.0,0.000428653300752,0.0,-0.0035742353771,0.0,0.0397955894759,0.0,-0.0183997724051,0.0,-0.0,-0.0,0.592139422894,200.0,-0.0,0.0,0.00383600394174,100.0,0.00383600394174,100.0,-0.0,100.0,-0.0,100.0,2100175.31455,0.0,0.0,0.0,0.0,0.0,0.0
1402760722914576998,3,-9.62585402524,-7.1377884924,-12.9028502948,2.38304939926,-0.673244060736,-3.84635974695,-0.452821368865,0.0,1.44383559637,0.0,0.0235295875613,0.0,1.870015619,0.0,-0.0160045694837,0.0,-0.00037345690105,0.0,-0.0124263968702,0.0,0.0407953288561,0.0,-0.0159136688585,0.0,-0.0,-0.0,0.592139422894,200.0,-0.0,0.0,0.00383600394174,100.0,0.00230154196664,100.0,-0.0,100.0,-0.0,100.0,2100175.31455,0.0,0.0,0.0,0.0,0.0,0.0
1402760722934521730,3,-9.63551606606,-7.1377884924,-12.8726200233,2.38304939926,-0.672450342257,-3.84635974695,-0.455510648916,0.0,1.45183002009,0.0,0.0244830366854,0.0,1.86958570101,0.0,-0.0179589546667,0.0,-0.000760298827262,0.0,-0.0147895666797,0.0,0.0412516488508,0.0,-0.0119840446048,0.0,-0.0,-0.0,0.592139422894,200.0,-0.0,0.0,0.00537022749826,100.0,0.00383600394174,100.0,-0.0,100.0,-0.0,100.0,2100175.31455,0.0,0.0,0.0,0.0,0.0,0.0
1402760722954473354,3,-9.63551606606,-7.1377884924,-12.8726200233,2.38304939926,-0.672450342257,-3.84635974695,-0.455510648916,0.0,1.45183002009,0.0,0.0244830366854,0.0,1.86958570101,0.0,-0.0179589546667,0.0,-0.000760298827262,0.0,-0.0147895666797,0.0,0.0412516488508,0.0,-0.0119840446048,0.0,-0.0,-0.0,0.592139422894,200.0,-0.0,0.0,0.00383600394174,100.0,0.00383600394174,100.0,-0.0,100.0,-0.0,100.0,2100175.31455,0.0,0.0,0.0,0.0,0.0,0.0
1402760722975214560,3,-9.64986106984,-7.1377884924,-12.8392152385,2.38304939926,-0.677699377719,-3.84635974695,-0.472907647552,0.0,1.46732634196,0.0,0.0199741479985,0.0,1.86881974363,0.0,-0.0153039477756,0.0,-0.00281067231087,0.0,-0.0153065044689,0.0,0.0429233194435,0.0,-0.012851046012,0.0,-0.0,-0.0,0.592139422894,200.0,-0.0,0.0,0.00383600394174,100.0,0.00383600394174,100.0,-0.0,100.0,-0.0,100.0,2100175.31455,0.0,0.0,0.0,0.0,0.0,0.0
1402760722994790341,3,-9.64986106984,-7.1377884924,-12.8392152385,2.38304939926,-0.677699377719,-3.84635974695,-0.472907647552,0.0,1.46732634196,0.0,0.0199741479985,0.0,1.86881974363,0.0,-0.0153039477756,0.0,-0.00281067231087,0.0,-0.0153065044689,0.0,0.0429233194435,0.0,-0.012851046012,0.0,-0.0,-0.0,0.592139422894,200.0,-0.0,0.0,0.00383600394174,100.0,0.00383600394174,100.0,-0.0,100.0,-0.0,100.0,2100175.31455,0.0,0.0,0.0,0.0,0.0,0.0
1402760723014555528,3,-9.66947960677,-7.1377884924,-12.7787214934,2.38304939926,-0.677176316142,-3.84635974695,-0.482448094285,0.0,1.48367240503,0.0,0.0135619991669,0.0,1.86826419036,0.0,-0.00821379632987,0.0,-0.00343788932595,0.0,-0.0258969854973,0.0,0.0440432612882,0.0,-0.0228321451328,0.0,-0.0,-0.0,0.592139422894,200.0,-0.0,0.0,0.00383600394174,100.0,0.00230154196664,100.0,-0.0,100.0,-0.0,100.0,2100175.31455,0.0,0.0,0.0,0.0,0.0,0.0
1402760723034577835,3,-9.66947960677,-7.1377884924,-12.7787214934,2.38304939926,-0.677176316142,-3.84635974695,-0.482448094285,0.0,1.48367240503,0.0,0.0135619991669,0.0,1.86826419036,0.0,-0.00821379632987,0.0,-0.00343788932595,0.0,-0.0258969854973,0.0,0.0440432612882,0.0,-0.0228321451328,0.0,-0.0,-0.0,0.592139422894,200.0,-0.0,0.0,0.00383600394174,100.0,0.00230154196664,100.0,-0.0,100.0,-0.0,100.0,2100175.31455,0.0,0.0,0.0,0.0,0.0,0.0
1402760723055093788,3,-9.68124322919,-7.1377884924,-12.7243457873,2.38304939926,-0.6673641483,-3.84635974695,-0.471908399304,0.0,1.48674754999,0.0,0.0239533698074,0.0,1.86776358147,0.0,-0.00488988073801,0.0,-0.00261804218536,0.0,-0.0247007243203,0.0,0.0429429398926,0.0,-0.0222899529479,0.0,-0.0,-0.0,0.592139422894,200.0,-0.0,0.0,0.00383600394174,100.0,0.00383600394174,100.0,-0.0,100.0,-0.0,100.0,2100175.31455,0.0,0.0,0.0,0.0,0.0,0.0
1402760723074696873,3,-9.68124322919,-7.1377884924,-12.7243457873,2.38304939926,-0.6673641483,-3.84635974695,-0.471908399304,0.0,1.48674754999,0.0,0.0239533698074,0.0,1.86776358147,0.0,-0.00488988073801,0.0,-0.00261804218536,0.0,-0.0247007243203,0.0,0.0429429398926,0.0,-0.0222899529479,0.0,-0.0,-0.0,0.592139422894,200.0,-0.0,0.0,0.00383600394174,100.0,0.00383600394174,100.0,-0.0,100.0,-0.0,100.0,2100175.31455,0.0,0.0,0.0,0.0,0.0,0.0
1402760723094335336,3,-9.69997575591,-7.1377884924,-12.65965327,2.38304939926,-0.677134807017,-3.84635974695,-0.467716247345,0.0,1.51036545921,0.0,0.0383262751453,0.0,1.86768418599,0.0,-0.0150350921472,0.0,-0.00214509155813,0.0,-0.0304483465894,0.0,0.0445158883792,0.0,0.00749798792398,0.0,-0.0,-0.0,0.592139422894,200.0,-0.0,0.0,0.00383600394174,100.0,0.00383600394174,100.0,-0.0,100.0,-0.0,100.0,2100175.31455,0.0,0.0,0.0,0.0,0.0,0.0
1402760723114325842,3,-9.69997575591,-7.1377884924,-12.65965327,2.38304939926,-0.677134807017,-3.84635974695,-0.467716247345,0.0,1.51036545921,0.0,0.0383262751453,0.0,1.86768418599,0.0,-0.0150350921472,0.0,-0.00214509155813,0.0,-0.0304483465894,0.0,0.0445158883792,0.0,0.00749798792398,0.0,-0.0,-0.0,0.592139422894,200.0,-0.0,0.0,0.00383600394174,100.0,0.00230154196664,100.0,-0.0,100.0,-0.0,100.0,2100175.31455,0.0,0.0,0.0,0.0,0.0,0.0
1402760723135115847,3,-9.71662861951,-7.1377884924,-12.5944238502,2.38304939926,-0.679786353063,-3.84635974695,-0.46797425848,0.0,1.53055435432,0.0,0.0386052717309,0.0,1.86813028648,0.0,-0.0170011094687,0.0,-0.00125108978347,0.0,-0.0161722141013,0.0,0.0461399743899,0.0,0.00156445227166,0.0,-0.0,-0.0,0.592139422894,200.0,-0.0,0.0,0.00383600394174,100.0,0.00383600394174,100.0,-0.0,100.0,-0.0,100.0,2100175.31455,0.0,0.0,0.0,0.0,0.0,0.0
1402760723154732537,3,-9.71662861951,-7.1377884924,-12.5944238502,2.38304939926,-0.679786353063,-3.84635974695,-0.46797425848,0.0,1.53055435432,0.0,0.0386052717309,0.0,1.86813028648,0.0,-0.0170011094687,0.0,-0.00125108978347,0.0,-0.0161722141013,0.0,0.0461399743899,0.0,0.00156445227166,0.0,-0.0,-0.0,0.592139422894,200.0,-0.0,0.0,0.00383600394174,100.0,0.00383600394174,100.0,-0.0,100.0,-0.0,100.0,2100175.31455,0.0,0.0,0.0,0.0,0.0,0.0
1402760723174561628,3,-9.73511138793,-7.1377884924,-12.5272667086,2.38304939926,-0.676157995291,-3.84635974695,-0.479802547414,0.0,1.55558317132,0.0,0.0311975920279,0.0,1.86825634416,0.0,-0.00810219879798,0.0,-0.000683634970758,0.0,-0.0163441508249,0.0,0.0485723888814,0.0,0.000184890872172,0.0,-0.0,-0.0,0.592139422894,200.0,-0.0,0.0,0.00383600394174,100.0,0.00383600394174,100.0,-0.0,100.0,-0.0,100.0,2100175.31455,0.0,0.0,0.0,0.0,0.0,0.0
1402760723194499488,3,-9.73511138793,-7.1377884924,-12.5272667086,2.38304939926,-0.676157995291,-3.84635974695,-0.479802547414,0.0,1.55558317132,0.0,0.0311975920279,0.0,1.86825634416,0.0,-0.00810219879798,0.0,-0.000683634970758,0.0,-0.0163441508249,0.0,0.0485723888814,0.0,0.000184890872172,0.0,-0.0,-0.0,0.592139422894,200.0,-0.0,0.0,0.00383600394174,100.0,0.00230154196664,100.0,-0.0,100.0,-0.0,100.0,2100175.31455,0.0,0.0,0.0,0.0,0.0,0.0
1402760723215128002,3,-9.75648136974,-7.1377884924,-12.4533884142,2.38304939926,-0.674660316012,-3.84635974695,-0.475054976315,0.0,1.55473367149,0.0,0.0437475268591,0.0,1.86708855783,0.0,-0.00875352600808,0.0,-0.000461286377262,0.0,-0.00553891062871,0.0,0.0466334499395,0.0,-0.00379647009233,0.0,-0.0,-0.0,0.592139422894,200.0,-0.0,0.0,0.00537022749826,100.0,0.00230154196664,100.0,-0.0,100.0,-0.0,100.0,2100175.31455,0.0,0.0,0.0,0.0,0.0,0.0
1402760723234611303,3,-9.75648136974,-7.1377884924,-12.4533884142,2.38304939926,-0.674660316012,-3.84635974695,-0.475054976315,0.0,1.55473367149,0.0,0.0437475268591,0.0,1.86708855783,0.0,-0.00875352600808,0.0,-0.000461286377262,0.0,-0.00553891062871,0.0,0.0466334499395,0.0,-0.00379647009233,0.0,-0.0,-0.0,0.592139422894,200.0,-0.0,0.0,0.00383600394174,100.0,0.00230154196664,100.0,-0.0,100.0,-0.0,100.0,2100175.31455,0.0,0.0,0.0,0.0,0.0,0.0
1402760723254653450,3,-9.78160108013,-7.1377884924,-12.3699260061,2.38304939926,-0.676939593574,-3.84635974695,-0.478396842205,0.0,1.57933370624,0.0,0.052927701312,0.0,1.8670148137,0.0,-0.00257959174362,0.0,-0.000101091069172,0.0,-0.00230410628735,0.0,0.0482730049548,0.0,0.00488710625388,0.0,-0.0,-0.0,0.592139422894,200.0,-0.0,0.0,0.00383600394174,100.0,0.00383600394174,100.0,-0.0,100.0,-0.0,100.0,2100175.31455,0.0,0.0,0.0,0.0,0.0,0.0
1402760723274595350,3,-9.78160108013,-7.1377884924,-12.3699260061,2.38304939926,-0.676939593574,-3.84635974695,-0.478396842205,0.0,1.57933370624,0.0,0.052927701312,0.0,1.8670148137,0.0,-0.00257959174362,0.0,-0.000101091069172,0.0,-0.00230410628735,0.0,0.0482730049548,0.0,0.00488710625388,0.0,-0.0,-0.0,0.592139422894,200.0,-0.0,0.0,0.00383600394174,100.0,0.00383600394174,100.0,-0.0,100.0,-0.0,100.0,2100175.31455,0.0,0.0,0.0,0.0,0.0,0.0
1402760723295294062,3,-9.79106044901,-7.1377884924,-12.3379595997,2.38304939926,-0.676457914661,-3.84635974695,-0.48106129343,0.0,1.5863489828,0.0,0.050497385518,0.0,1.86688740212,0.0,-0.00332546402074,0.0,1.300660444e-05,0.0,-0.00182172219587,0.0,0.0483348849665,0.0,-0.0027492188011,0.0,-0.0,-0.0,0.592139422894,200.0,-0.0,0.0,0.00383600394174,100.0,0.00383600394174,100.0,-0.0,100.0,-0.0,100.0,2100175.31455,0.0,0.0,0.0,0.0,0.0,0.0
1402760723314669470,3,-9.79106044901,-7.1377884924,-12.3379595997,2.38304939926,-0.676457914661,-3.84635974695,-0.48106129343,0.0,1.5863489828,0.0,0.050497385518,0.0,1.86688740212,0.0,-0.00332546402074,0.0,1.300660444e-05,0.0,-0.00182172219587,0.0,0.0483348849665,0.0,-0.0027492188011,0.0,-0.0,-0.0,0.592139422894,200.0,-0.0,0.0,0.00383600394174,100.0,0.00383600394174,100.0,-0.0,100.0,-0.0,100.0,2100175.31455,0.0,0.0,0.0,0.0,0.0,0.0
1402760723334583763,3,-9.81043922466,-7.1377884924,-12.2732603636,2.38304939926,-0.671631011711,-3.84635974695,-0.4860555709,0.0,1.60035718924,0.0,0.0545146406079,0.0,1.86649996612,0.0,-0.000841354602302,0.0,0.000237338013423,0.0,0.00429509697364,0.0,0.0489295666422,0.0,0.0192385439016,0.0,-0.0,-0.0,0.592139422894,200.0,-0.0,0.0,0.00383600394174,100.0,0.00230154196664,100.0,-0.0,100.0,-0.0,100.0,2100175.31455,0.0,0.0,0.0,0.0,0.0,0.0
1402760723354653651,3,-9.81043922466,-7.1377884924,-12.2732603636,2.38304939926,-0.671631011711,-3.84635974695,-0.4860555709,0.0,1.60035718924,0.0,0.0545146406079,0.0,1.86649996612,0.0,-0.000841354602302,0.0,0.000237338013423,0.0,0.00429509697364,0.0,0.0489295666422,0.0,0.0192385439016,0.0,-0.0,-0.0,0.592139422894,200.0,-0.0,0.0,0.00383600394174,100.0,0.00383600394174,100.0,-0.0,100.0,-0.0,100.0,2100175.31455,0.0,0.0,0.0,0.0,0.0,0.0
1402760723374657688,3,-9.82310525974,-7.1377884924,-12.2110683256,2.38304939926,-0.668846332848,-3.84635974695,-0.472789769043,0.0,1.60780114734,0.0,0.0585709007706,0.0,1.86839395546,0.0,0.0023861958837,0.0,0.00230499413026,0.0,-0.00209379859011,0.0,0.0474906973143,0.0,0.0124857498772,0.0,-0.0,-0.0,0.592139422894,200.0,-0.0,0.0,0.00383600394174,100.0,0.00383600394174,100.0,-0.0,100.0,-0.0,100.0,2100175.31455,0.0,0.0,0.0,0.0,0.0,0.0
1402760723394621154,3,-9.82310525974,-7.1377884924,-12.2110683256,2.38304939926,-0.668846332848,-3.84635974695,-0.472789769043,0.0,1.60780114734,0.0,0.0585709007706,0.0,1.86839395546,0.0,0.0023861958837,0.0,0.00230499413026,0.0,-0.00209379859011,0.0,0.0474906973143,0.0,0.0124857498772,0.0,-0.0,-0.0,0.592139422894,200.0,-0.0,0.0,0.00537022749826,100.0,0.00383600394174,100.0,-0.0,100.0,-0.0,100.0,2100175.31455,0.0,0.0,0.0,0.0,0.0,0.0
1402760723415002645,3,-9.84078639113,-7.1377884924,-12.1456209954,2.38304939926,-0.664931726323,-3.84635974695,-0.47676005641,0.0,1.61526666829,0.0,0.0482820163366,0.0,1.86835541085,0.0,0.00128822470491,0.0,0.00293334125797,0.0,0.0002059308817,0.0,0.0470572782511,0.0,0.00573374397542,0.0,-0.0,-0.0,0.592139422894,200.0,-0.0,0.0,0.00383600394174,100.0,0.00383600394174,100.0,-0.0,100.0,-0.0,100.0,2100175.31455,0.0,0.0,0.0,0.0,0.0,0.0
