rosbagTimestamp,control_method,x_current,x_desired,y_current,y_desired,x_velocity_current,x_velocity_desired,y_velocity_current,y_velocity_desired,yaw_current,yaw_desired,required_force_x,required_force_y,required_moment_z,resultant_force_x,resultant_force_y,resultant_moment_z,current_port_servo_angle,current_port_thruster_force,current_starboard_servo_angle,current_starboard_thruster_force,estimated_port_servo_angle,estimated_port_thruster_force,estimated_starboard_servo_angle,estimated_starboard_thruster_force,cost_value,step,user_defined_1,user_defined_2,user_defined_3,user_defined_4,user_defined_5
1402598305942899479,0,16.2581734299,-0.114322152727,-23.1264009451,0.043815185726,0.0693191438681,0.0,0.032618308527,0.0,-0.614962442575,0.0,0.0,0.0,0.0,-0.0,0.0,0.0,-0.174149425822,-0.0,0.00230154196664,-0.0,-0.186463408346,-0.0,0.0,-0.0,7.84656305092e-07,0.0,0.0,0.0,0.0,0.0,0.0
1402598305963232165,0,16.2743608853,-0.114322152727,-23.1336245421,0.043815185726,0.101405034463,0.0,0.0184373826397,0.0,-0.614036622657,0.0,0.0,0.0,0.0,-0.0,0.0,0.0,-0.172614963847,-0.0,0.00230154196664,-0.0,-0.186463408346,-0.0,0.0,-0.0,9.85382552304e-07,0.0,0.0,0.0,0.0,0.0,0.0
1402598305982533365,0,16.2743608853,-0.114322152727,-23.1336245421,0.043815185726,0.101405034463,0.0,0.0184373826397,0.0,-0.614036622657,0.0,0.0,0.0,0.0,-0.0,0.0,0.0,-0.172614963847,-0.0,0.00230154196664,-0.0,-0.186463408346,-0.0,0.0,-0.0,9.85382552304e-07,0.0,0.0,0.0,0.0,0.0,0.0
1402598306003173119,0,16.2813305163,-0.114322152727,-23.1246337667,0.043815185726,0.109622329761,0.0,0.0368036639595,0.0,-0.612587274674,0.0,0.0,0.0,0.0,-0.0,0.0,0.0,-0.172614963847,-0.0,0.00230154196664,-0.0,-0.186463408346,-0.0,0.0,-0.0,9.85382552304e-07,0.0,0.0,0.0,0.0,0.0,0.0
1402598306022720025,0,16.2813305163,-0.114322152727,-23.1246337667,0.043815185726,0.109622329761,0.0,0.0368036639595,0.0,-0.612587274674,0.0,0.0,0.0,0.0,-0.0,0.0,0.0,-0.174149425822,-0.0,0.00230154196664,-0.0,-0.186463408346,-0.0,0.0,-0.0,7.84656305092e-07,0.0,0.0,0.0,0.0,0.0,0.0
1402598306042544938,0,16.287167678,-0.114322152727,-23.122578982,0.043815185726,0.113582409456,0.0,0.0381773679745,0.0,-0.611256390276,0.0,0.0,0.0,0.0,-0.0,0.0,0.0,-0.174149425822,-0.0,0.00230154196664,-0.0,-0.186463408346,-0.0,0.0,-0.0,7.84656305092e-07,0.0,0.0,0.0,0.0,0.0,0.0
1402598306063055014,0,16.287167678,-0.114322152727,-23.122578982,0.043815185726,0.113582409456,0.0,0.0381773679745,0.0,-0.611256390276,0.0,0.0,0.0,0.0,-0.0,0.0,0.0,-0.172614963847,-0.0,0.00230154196664,-0.0,-0.186463408346,-0.0,0.0,-0.0,9.85382552304e-07,0.0,0.0,0.0,0.0,0.0,0.0
1402598306082462539,0,16.2723574286,-0.114322152727,-23.1167163836,0.043815185726,0.0859488479438,0.0,0.0388798184075,0.0,-0.609936938903,0.0,0.0,0.0,0.0,2.84834075719,0.0,0.868174262792,-0.172614963847,-0.0,0.00230154196664,-0.0,-0.186463408346,-0.0,0.0,2.84834075719,823.080755072,0.0,0.0,0.0,0.0,0.0,0.0
1402598306102776706,0,16.2723574286,-0.114322152727,-23.1167163836,0.043815185726,0.0859488479438,0.0,0.0388798184075,0.0,-0.609936938903,0.0,0.0,0.0,0.0,7.85980150104,0.0,2.39566749752,-0.174149425822,-0.0,0.00230154196664,2.84834075719,-0.112789709547,-0.0,0.0,7.85980150104,6267.31777814,0.0,0.0,0.0,0.0,0.0,0.0
1402598306123565327,0,16.2756893927,-0.114322152727,-23.1149910977,0.043815185726,0.0842294002846,0.0,0.0350975474202,0.0,-0.608676263625,0.0,0.0,0.0,0.0,33.925819397,0.0,10.3405897522,-0.174149425822,-0.0,0.00230154196664,7.85980150104,0.182135225419,-0.0,0.0,33.925819397,116766.766043,0.0,0.0,0.0,0.0,0.0,0.0
1402598306142788214,0,16.2756893927,-0.114322152727,-23.1149910977,0.043815185726,0.0842294002846,0.0,0.0350975474202,0.0,-0.608676263625,0.0,0.0,0.0,0.0,-5.18136350606,-18.1979326726,68.6808244327,-0.172614963847,-0.0,0.00230154196664,33.925819397,0.358397015502,-100.0,0.188537930212,90.0606036186,2616007.08875,0.0,0.0,0.0,0.0,0.0,0.0
1402598306163238548,0,16.2872190772,-0.114322152727,-23.1132577142,0.043815185726,0.0998777502497,0.0,0.0184124468523,0.0,-0.607343732622,0.0,0.0,0.0,0.0,3.42996891632,-11.072143015,66.147199422,-0.158805998164,-100.0,0.00230154196664,90.0606036186,0.358397015502,-100.0,0.24241954374,100.0,2349610.40712,0.0,0.0,0.0,0.0,0.0,0.0
1402598306182394996,0,16.2872190772,-0.114322152727,-23.1132577142,0.043815185726,0.0998777502497,0.0,0.0184124468523,0.0,-0.607343732622,0.0,0.0,0.0,0.0,3.42996891632,-11.072143015,66.147199422,-0.138859184581,-100.0,0.00690445105478,100.0,0.358397015502,-100.0,0.24241954374,100.0,2349610.40701,0.0,0.0,0.0,0.0,0.0,0.0
1402598306203073060,0,16.2901748169,-0.114322152727,-23.1127678282,0.043815185726,0.0970368274566,0.0,0.0143196045656,0.0,-0.60621696273,0.0,0.0,0.0,0.0,3.42996891632,-11.072143015,66.147199422,-0.108172090846,-100.0,0.0237825791065,100.0,0.358397015502,-100.0,0.24241954374,100.0,2349610.40682,0.0,0.0,0.0,0.0,0.0,0.0
1402598306222621561,0,16.2920946677,-0.114322152727,-23.1125358532,0.043815185726,0.094855941822,0.0,0.0117403891163,0.0,-0.605471363686,0.0,0.0,0.0,0.0,3.42996891632,-11.072143015,66.147199422,-0.0744163115795,-100.0,0.0590725819294,100.0,0.358397015502,-100.0,0.24241954374,100.0,2349610.4066,0.0,0.0,0.0,0.0,0.0,0.0
1402598306242937136,0,16.2920946677,-0.114322152727,-23.1125358532,0.043815185726,0.094855941822,0.0,0.0117403891163,0.0,-0.605471363686,0.0,0.0,0.0,0.0,3.42996891632,-11.072143015,66.147199422,-0.049866588908,-100.0,0.0928283611958,100.0,0.358397015502,-100.0,0.24241954374,100.0,2349610.40644,0.0,0.0,0.0,0.0,0.0,0.0
1402598306262423810,0,16.2940363665,-0.114322152727,-23.1123504316,0.043815185726,0.0910611087702,0.0,0.00658040278352,0.0,-0.604606370389,0.0,0.0,0.0,0.0,3.42996891632,-11.072143015,66.147199422,-0.02378264268,-100.0,0.111240712804,100.0,0.358397015502,-100.0,0.24241954374,100.0,2349610.40631,0.0,0.0,0.0,0.0,0.0,0.0
1402598306283052631,0,16.2940363665,-0.114322152727,-23.1123504316,0.043815185726,0.0910611087702,0.0,0.00658040278352,0.0,-0.604606370389,0.0,0.0,0.0,0.0,3.28420858842,-10.4901913737,65.6814968809,0.00537022749826,-100.0,0.15573701064,100.0,0.358397015502,-100.0,0.248418834244,100.0,2312590.87575,0.0,0.0,0.0,0.0,0.0,0.0
1402598306302660150,0,16.2928735051,-0.114322152727,-23.1064751277,0.043815185726,0.080145159084,0.0,0.00344144136711,0.0,-0.602779955217,0.0,0.0,0.0,0.0,2.83557782542,-9.09923708698,64.7203451515,0.0483320633595,-100.0,0.191027251882,100.0,0.349762506293,-100.0,0.254418150756,100.0,2236161.6216,0.0,0.0,0.0,0.0,0.0,0.0
1402598306322487601,0,16.2928735051,-0.114322152727,-23.1064751277,0.043815185726,0.080145159084,0.0,0.00344144136711,0.0,-0.602779955217,0.0,0.0,0.0,0.0,1.8305596966,-6.0854941172,62.7519205452,0.0928283611958,-100.0,0.223248807592,100.0,0.323976693509,-100.0,0.26041744126,100.0,2087585.93309,0.0,0.0,0.0,0.0,0.0,0.0
1402598306342766703,0,16.3072708544,-0.114322152727,-23.1010073919,0.043815185726,0.123346467095,0.0,-0.00290552117614,0.0,-0.599290906415,0.0,0.0,0.0,0.0,1.58015073163,-5.43895861515,62.453323744,0.131187287969,-100.0,0.244729606313,100.0,0.311064180113,-100.0,0.254418150756,100.0,2065124.80272,0.0,0.0,0.0,0.0,0.0,0.0
1402598306362775457,0,16.3072708544,-0.114322152727,-23.1010073919,0.043815185726,0.123346467095,0.0,-0.00290552117614,0.0,-0.599290906415,0.0,0.0,0.0,0.0,1.58015073163,-5.43895861515,62.453323744,0.16647752921,-100.0,0.261607495946,100.0,0.311064180113,-100.0,0.254418150756,100.0,2065124.80267,0.0,0.0,0.0,0.0,0.0,0.0
1402598306382896381,0,16.3044816561,-0.114322152727,-23.1026954605,0.043815185726,0.126872285598,0.0,-0.0213420996428,0.0,-0.593684328178,0.0,0.0,0.0,0.0,1.58015073163,-5.43895861515,62.453323744,0.198698846502,-100.0,0.264676419896,100.0,0.311064180113,-100.0,0.254418150756,100.0,2065124.80262,0.0,0.0,0.0,0.0,0.0,0.0
1402598306402515792,0,16.3044816561,-0.114322152727,-23.1026954605,0.043815185726,0.126872285598,0.0,-0.0213420996428,0.0,-0.593684328178,0.0,0.0,0.0,0.0,1.58015073163,-5.43895861515,62.453323744,0.23092064063,-100.0,0.266210643453,100.0,0.311064180113,-100.0,0.254418150756,100.0,2065124.80259,0.0,0.0,0.0,0.0,0.0,0.0
1402598306423060114,0,16.30696832,-0.114322152727,-23.1030027098,0.043815185726,0.130770898409,0.0,-0.0136023509501,0.0,-0.590355396051,0.0,0.0,0.0,0.0,1.58015073163,-5.43895861515,62.453323744,0.263141957921,-100.0,0.264676419896,100.0,0.311064180113,-100.0,0.254418150756,100.0,2065124.80257,0.0,0.0,0.0,0.0,0.0,0.0
1402598306442632084,0,16.30696832,-0.114322152727,-23.1030027098,0.043815185726,0.130770898409,0.0,-0.0136023509501,0.0,-0.590355396051,0.0,0.0,0.0,0.0,1.58015073163,-5.43895861515,62.453323744,0.289225904149,-100.0,0.266210643453,100.0,0.311064180113,-100.0,0.254418150756,100.0,2065124.80256,0.0,0.0,0.0,0.0,0.0,0.0
1402598306462863769,0,16.3129045689,-0.114322152727,-23.1034200693,0.043815185726,0.14362458053,0.0,-0.0130573333086,0.0,-0.582156534246,0.0,0.0,0.0,0.0,1.58015073163,-5.43895861515,62.453323744,0.304569570226,-100.0,0.263141957921,100.0,0.311064180113,-100.0,0.254418150756,100.0,2065124.80256,0.0,0.0,0.0,0.0,0.0,0.0
1402598306482464433,0,16.3129045689,-0.114322152727,-23.1034200693,0.043815185726,0.14362458053,0.0,-0.0130573333086,0.0,-0.582156534246,0.0,0.0,0.0,0.0,1.58015073163,-5.43895861515,62.453323744,0.310706941289,-100.0,0.260073033971,100.0,0.311064180113,-100.0,0.254418150756,100.0,2065124.80256,0.0,0.0,0.0,0.0,0.0,0.0
1402598306503233581,0,16.318798657,-0.114322152727,-23.1038728852,0.043815185726,0.150087090326,0.0,0.0019636028951,0.0,-0.571584930714,0.0,0.0,0.0,0.0,1.58015073163,-5.43895861515,62.453323744,0.316844312352,-100.0,0.258538810415,100.0,0.311064180113,-100.0,0.254418150756,100.0,2065124.80256,0.0,0.0,0.0,0.0,0.0,0.0
1402598306522978970,0,16.318798657,-0.114322152727,-23.1038728852,0.043815185726,0.150087090326,0.0,0.0019636028951,0.0,-0.571584930714,0.0,0.0,0.0,0.0,1.58015073163,-5.43895861515,62.453323744,0.316844312352,-100.0,0.258538810415,100.0,0.311064180113,-100.0,0.254418150756,100.0,2065124.80256,0.0,0.0,0.0,0.0,0.0,0.0
1402598306543211840,0,16.3269510949,-0.114322152727,-23.1034288826,0.043815185726,0.16808629779,0.0,0.0182995081226,0.0,-0.555788576397,0.0,0.0,0.0,0.0,1.58015073163,-5.43895861515,62.453323744,0.316844312352,-100.0,0.258538810415,100.0,0.311064180113,-100.0,0.254418150756,100.0,2065124.80256,0.0,0.0,0.0,0.0,0.0,0.0
1402598306562500995,0,16.3269510949,-0.114322152727,-23.1034288826,0.043815185726,0.16808629779,0.0,0.0182995081226,0.0,-0.555788576397,0.0,0.0,0.0,0.0,1.58015073163,-5.43895861515,62.453323744,0.316844312352,-100.0,0.258538810415,100.0,0.311064180113,-100.0,0.254418150756,100.0,2065124.80256,0.0,0.0,0.0,0.0,0.0,0.0
1402598306583022984,0,16.3324864454,-0.114322152727,-23.1024988397,0.043815185726,0.179883100945,0.0,0.027809025944,0.0,-0.545410655463,0.0,0.0,0.0,0.0,1.58015073163,-5.43895861515,62.453323744,0.318378774327,-100.0,0.258538810415,100.0,0.311064180113,-100.0,0.254418150756,100.0,2065124.80256,0.0,0.0,0.0,0.0,0.0,0.0
1402598306602526194,0,16.3363266659,-0.114322152727,-23.1017464094,0.043815185726,0.19118826516,0.0,0.0417395303957,0.0,-0.537989669909,0.0,0.0,0.0,0.0,1.58015073163,-5.43895861515,62.453323744,0.318378774327,-100.0,0.258538810415,100.0,0.311064180113,-100.0,0.254418150756,100.0,2065124.80256,0.0,0.0,0.0,0.0,0.0,0.0
1402598306623288629,0,16.3363266659,-0.114322152727,-23.1017464094,0.043815185726,0.19118826516,0.0,0.0417395303957,0.0,-0.537989669909,0.0,0.0,0.0,0.0,1.58015073163,-5.43895861515,62.453323744,0.318378774327,-100.0,0.258538810415,100.0,0.311064180113,-100.0,0.254418150756,100.0,2065124.80256,0.0,0.0,0.0,0.0,0.0,0.0
1402598306643250588,0,16.3327527888,-0.114322152727,-23.1067102646,0.043815185726,0.170265783056,0.0,0.0404727234215,0.0,-0.532667630623,0.0,0.0,0.0,0.0,1.58015073163,-5.43895861515,62.453323744,0.318378774327,-100.0,0.258538810415,100.0,0.311064180113,-100.0,0.254418150756,100.0,2065124.80256,0.0,0.0,0.0,0.0,0.0,0.0
1402598306663362124,0,16.3327527888,-0.114322152727,-23.1067102646,0.043815185726,0.170265783056,0.0,0.0404727234215,0.0,-0.532667630623,0.0,0.0,0.0,0.0,1.58015073163,-5.43895861515,62.453323744,0.318378774327,-100.0,0.258538810415,100.0,0.311064180113,-100.0,0.254418150756,100.0,2065124.80256,0.0,0.0,0.0,0.0,0.0,0.0
1402598306682526529,0,16.3525175401,-0.114322152727,-23.1064190816,0.043815185726,0.192180136455,0.0,0.0564770254455,0.0,-0.51610410732,0.0,0.0,0.0,0.0,1.58015073163,-5.43895861515,62.453323744,0.318378774327,-100.0,0.258538810415,100.0,0.311064180113,-100.0,0.254418150756,100.0,2065124.80256,0.0,0.0,0.0,0.0,0.0,0.0
1402598306703062648,0,16.3525175401,-0.114322152727,-23.1064190816,0.043815185726,0.192180136455,0.0,0.0564770254455,0.0,-0.51610410732,0.0,0.0,0.0,0.0,1.58015073163,-5.43895861515,62.453323744,0.318378774327,-100.0,0.258538810415,100.0,0.311064180113,-100.0,0.254418150756,100.0,2065124.80256,0.0,0.0,0.0,0.0,0.0,0.0
1402598306722502707,0,16.3652869671,-0.114322152727,-23.1132012239,0.043815185726,0.19632563311,0.0,0.0472644093632,0.0,-0.498810680508,0.0,0.0,0.0,0.0,1.58015073163,-5.43895861515,62.453323744,0.319912997884,-100.0,0.258538810415,100.0,0.311064180113,-100.0,0.254418150756,100.0,2065124.80256,0.0,0.0,0.0,0.0,0.0,0.0
1402598306743298191,0,16.3652869671,-0.114322152727,-23.1132012239,0.043815185726,0.19632563311,0.0,0.0472644093632,0.0,-0.498810680508,0.0,0.0,0.0,0.0,1.58015073163,-5.43895861515,62.453323744,0.319912997884,-100.0,0.258538810415,100.0,0.311064180113,-100.0,0.254418150756,100.0,2065124.80256,0.0,0.0,0.0,0.0,0.0,0.0
1402598306762660676,0,16.3761694618,-0.114322152727,-23.1104117821,0.043815185726,0.211663440651,0.0,0.0600642312001,0.0,-0.474831781381,0.0,0.0,0.0,0.0,1.58015073163,-5.43895861515,62.453323744,0.318378774327,-100.0,0.257004586858,100.0,0.311064180113,-100.0,0.254418150756,100.0,2065124.80256,0.0,0.0,0.0,0.0,0.0,0.0
1402598306782642805,0,16.3761694618,-0.114322152727,-23.1104117821,0.043815185726,0.211663440651,0.0,0.0600642312001,0.0,-0.474831781381,0.0,0.0,0.0,0.0,1.58015073163,-5.43895861515,62.453323744,0.319912997884,-100.0,0.258538810415,100.0,0.311064180113,-100.0,0.254418150756,100.0,2065124.80256,0.0,0.0,0.0,0.0,0.0,0.0
1402598306803164706,0,16.3877449693,-0.114322152727,-23.1069977275,0.043815185726,0.224659323202,0.0,0.074991762572,0.0,-0.448194849286,0.0,0.0,0.0,0.0,1.58015073163,-5.43895861515,62.453323744,0.318378774327,-100.0,0.257004586858,100.0,0.311064180113,-100.0,0.254418150756,100.0,2065124.80256,0.0,0.0,0.0,0.0,0.0,0.0
1402598306822410859,0,16.3877449693,-0.114322152727,-23.1069977275,0.043815185726,0.224659323202,0.0,0.074991762572,0.0,-0.448194849286,0.0,0.0,0.0,0.0,1.58015073163,-5.43895861515,62.453323744,0.319912997884,-100.0,0.257004586858,100.0,0.311064180113,-100.0,0.254418150756,100.0,2065124.80256,0.0,0.0,0.0,0.0,0.0,0.0
1402598306843648651,0,16.4079400333,-0.114322152727,-23.1111369346,0.043815185726,0.233213261826,0.0,0.059142048429,0.0,-0.436399160198,0.0,0.0,0.0,0.0,1.58015073163,-5.43895861515,62.453323744,0.319912997884,-100.0,0.258538810415,100.0,0.311064180113,-100.0,0.254418150756,100.0,2065124.80256,0.0,0.0,0.0,0.0,0.0,0.0
1402598306862804184,0,16.4079400333,-0.114322152727,-23.1111369346,0.043815185726,0.233213261826,0.0,0.059142048429,0.0,-0.436399160198,0.0,0.0,0.0,0.0,1.58015073163,-5.43895861515,62.453323744,0.319912997884,-100.0,0.257004586858,100.0,0.311064180113,-100.0,0.254418150756,100.0,2065124.80256,0.0,0.0,0.0,0.0,0.0,0.0
1402598306883108920,0,16.4285754296,-0.114322152727,-23.1170852163,0.043815185726,0.238048296698,0.0,0.0520057496431,0.0,-0.413731238574,0.0,0.0,0.0,0.0,1.58015073163,-5.43895861515,62.453323744,0.321447459859,-100.0,0.258538810415,100.0,0.311064180113,-100.0,0.254418150756,100.0,2065124.80256,0.0,0.0,0.0,0.0,0.0,0.0
1402598306902473960,0,16.4285754296,-0.114322152727,-23.1170852163,0.043815185726,0.238048296698,0.0,0.0520057496431,0.0,-0.413731238574,0.0,0.0,0.0,0.0,1.58015073163,-5.43895861515,62.453323744,0.319912997884,-100.0,0.258538810415,100.0,0.311064180113,-100.0,0.254418150756,100.0,2065124.80256,0.0,0.0,0.0,0.0,0.0,0.0
1402598306923046664,0,16.4411234594,-0.114322152727,-23.1142302918,0.043815185726,0.246508997466,0.0,0.0543078036813,0.0,-0.383823385262,0.0,0.0,0.0,0.0,1.58015073163,-5.43895861515,62.453323744,0.321447459859,-100.0,0.257004586858,100.0,0.311064180113,-100.0,0.254418150756,100.0,2065124.80256,0.0,0.0,0.0,0.0,0.0,0.0
1402598306942987545,0,16.4411234594,-0.114322152727,-23.1142302918,0.043815185726,0.246508997466,0.0,0.0543078036813,0.0,-0.383823385262,0.0,0.0,0.0,0.0,1.58015073163,-5.43895861515,62.453323744,0.319912997884,-100.0,0.258538810415,100.0,0.311064180113,-100.0,0.254418150756,100.0,2065124.80256,0.0,0.0,0.0,0.0,0.0,0.0
1402598306963259354,0,16.4646913342,-0.114322152727,-23.1108044288,0.043815185726,0.254257304219,0.0,0.0594283595204,0.0,-0.351856900801,0.0,0.0,0.0,0.0,1.58015073163,-5.43895861515,62.453323744,0.321447459859,-100.0,0.257004586858,100.0,0.311064180113,-100.0,0.254418150756,100.0,2065124.80256,0.0,0.0,0.0,0.0,0.0,0.0
1402598306982585518,0,16.4646913342,-0.114322152727,-23.1108044288,0.043815185726,0.254257304219,0.0,0.0594283595204,0.0,-0.351856900801,0.0,0.0,0.0,0.0,1.58015073163,-5.43895861515,62.453323744,0.321447459859,-100.0,0.258538810415,100.0,0.311064180113,-100.0,0.254418150756,100.0,2065124.80256,0.0,0.0,0.0,0.0,0.0,0.0
1402598307003599600,0,16.4698989787,-0.114322152727,-23.1094967306,0.043815185726,0.250177415014,0.0,0.0573798207469,0.0,-0.33899417795,0.0,0.0,0.0,0.0,1.58015073163,-5.43895861515,62.453323744,0.319912997884,-100.0,0.257004586858,100.0,0.311064180113,-100.0,0.254418150756,100.0,2065124.80256,0.0,0.0,0.0,0.0,0.0,0.0
1402598307022439896,0,16.4698989787,-0.114322152727,-23.1094967306,0.043815185726,0.250177415014,0.0,0.0573798207469,0.0,-0.33899417795,0.0,0.0,0.0,0.0,1.58015073163,-5.43895861515,62.453323744,0.319912997884,-100.0,0.258538810415,100.0,0.311064180113,-100.0,0.254418150756,100.0,2065124.80256,0.0,0.0,0.0,0.0,0.0,0.0
1402598307043256625,0,16.4812147638,-0.114322152727,-23.1131389691,0.043815185726,0.240675208291,0.0,0.0543381628608,0.0,-0.314886356928,0.0,0.0,0.0,0.0,1.58015073163,-5.43895861515,62.453323744,0.319912997884,-100.0,0.258538810415,100.0,0.311064180113,-100.0,0.254418150756,100.0,2065124.80256,0.0,0.0,0.0,0.0,0.0,0.0
1402598307062509058,0,16.4812147638,-0.114322152727,-23.1131389691,0.043815185726,0.240675208291,0.0,0.0543381628608,0.0,-0.314886356928,0.0,0.0,0.0,0.0,1.58015073163,-5.43895861515,62.453323744,0.321447459859,-100.0,0.258538810415,100.0,0.311064180113,-100.0,0.254418150756,100.0,2065124.80256,0.0,0.0,0.0,0.0,0.0,0.0
1402598307083113380,0,16.5117586067,-0.114322152727,-23.1169800193,0.043815185726,0.270559770461,0.0,0.0364400215347,0.0,-0.286450075581,0.0,0.0,0.0,0.0,1.58015073163,-5.43895861515,62.453323744,0.321447459859,-100.0,0.257004586858,100.0,0.311064180113,-100.0,0.254418150756,100.0,2065124.80256,0.0,0.0,0.0,0.0,0.0,0.0
1402598307102488761,0,16.5117586067,-0.114322152727,-23.1169800193,0.043815185726,0.270559770461,0.0,0.0364400215347,0.0,-0.286450075581,0.0,0.0,0.0,0.0,1.58015073163,-5.43895861515,62.453323744,0.321447459859,-100.0,0.257004586858,100.0,0.311064180113,-100.0,0.254418150756,100.0,2065124.80256,0.0,0.0,0.0,0.0,0.0,0.0
1402598307123064453,0,16.525936399,-0.114322152727,-23.1153120842,0.043815185726,0.272676671577,0.0,0.0293807247769,0.0,-0.25367944395,0.0,0.0,0.0,0.0,1.58015073163,-5.43895861515,62.453323744,0.321447459859,-100.0,0.258538810415,100.0,0.311064180113,-100.0,0.254418150756,100.0,2065124.80256,0.0,0.0,0.0,0.0,0.0,0.0
1402598307142501373,0,16.525936399,-0.114322152727,-23.1153120842,0.043815185726,0.272676671577,0.0,0.0293807247769,0.0,-0.25367944395,0.0,0.0,0.0,0.0,1.58015073163,-5.43895861515,62.453323744,0.322981683416,-100.0,0.257004586858,100.0,0.311064180113,-100.0,0.254418150756,100.0,2065124.80256,0.0,0.0,0.0,0.0,0.0,0.0
1402598307163103953,0,16.534798989,-0.114322152727,-23.1141711513,0.043815185726,0.277310690689,0.0,0.0393429883027,0.0,-0.233366553551,0.0,0.0,0.0,0.0,1.58015073163,-5.43895861515,62.453323744,0.321447459859,-100.0,0.258538810415,100.0,0.311064180113,-100.0,0.254418150756,100.0,2065124.80256,0.0,0.0,0.0,0.0,0.0,0.0
1402598307182545187,0,16.5402306367,-0.114322152727,-23.1135775888,0.043815185726,0.276638236029,0.0,0.0368112181066,0.0,-0.220515098486,0.0,0.0,0.0,0.0,1.58015073163,-5.43895861515,62.453323744,0.322981683416,-100.0,0.258538810415,100.0,0.311064180113,-100.0,0.254418150756,100.0,2065124.80256,0.0,0.0,0.0,0.0,0.0,0.0
1402598307203075232,0,16.5402306367,-0.114322152727,-23.1135775888,0.043815185726,0.276638236029,0.0,0.0368112181066,0.0,-0.220515098486,0.0,0.0,0.0,0.0,1.58015073163,-5.43895861515,62.453323744,0.321447459859,-100.0,0.257004586858,100.0,0.311064180113,-100.0,0.254418150756,100.0,2065124.80256,0.0,0.0,0.0,0.0,0.0,0.0
1402598307222480402,0,16.5461481635,-0.114322152727,-23.1128038096,0.043815185726,0.278794554524,0.0,0.0398400389084,0.0,-0.206836054974,0.0,0.0,0.0,0.0,1.58015073163,-5.43895861515,62.453323744,0.321447459859,-100.0,0.257004586858,100.0,0.311064180113,-100.0,0.254418150756,100.0,2065124.80256,0.0,0.0,0.0,0.0,0.0,0.0
1402598307243140391,0,16.5461481635,-0.114322152727,-23.1128038096,0.043815185726,0.278794554524,0.0,0.0398400389084,0.0,-0.206836054974,0.0,0.0,0.0,0.0,1.58015073163,-5.43895861515,62.453323744,0.321447459859,-100.0,0.258538810415,100.0,0.311064180113,-100.0,0.254418150756,100.0,2065124.80256,0.0,0.0,0.0,0.0,0.0,0.0
1402598307262510288,0,16.5692428342,-0.114322152727,-23.1100914379,0.043815185726,0.302920162141,0.0,0.051561149879,0.0,-0.177871477412,0.0,0.0,0.0,0.0,1.58015073163,-5.43895861515,62.453323744,0.322981683416,-100.0,0.257004586858,100.0,0.311064180113,-100.0,0.254418150756,100.0,2065124.80256,0.0,0.0,0.0,0.0,0.0,0.0
1402598307283031300,0,16.5692428342,-0.114322152727,-23.1100914379,0.043815185726,0.302920162141,0.0,0.051561149879,0.0,-0.177871477412,0.0,0.0,0.0,0.0,1.58015073163,-5.43895861515,62.453323744,0.321447459859,-100.0,0.257004586858,100.0,0.311064180113,-100.0,0.254418150756,100.0,2065124.80256,0.0,0.0,0.0,0.0,0.0,0.0
1402598307302411143,0,16.5816911075,-0.114322152727,-23.1080138159,0.043815185726,0.307017252918,0.0,0.0603263859935,0.0,-0.150119862268,0.0,0.0,0.0,0.0,1.58015073163,-5.43895861515,62.453323744,0.321447459859,-100.0,0.257004586858,100.0,0.311064180113,-100.0,0.254418150756,100.0,2065124.80256,0.0,0.0,0.0,0.0,0.0,0.0
1402598307323095276,0,16.5816911075,-0.114322152727,-23.1080138159,0.043815185726,0.307017252918,0.0,0.0603263859935,0.0,-0.150119862268,0.0,0.0,0.0,0.0,1.58015073163,-5.43895861515,62.453323744,0.322981683416,-100.0,0.257004586858,100.0,0.311064180113,-100.0,0.254418150756,100.0,2065124.80256,0.0,0.0,0.0,0.0,0.0,0.0
1402598307342668760,0,16.5919739016,-0.114322152727,-23.0988576316,0.043815185726,0.30677104435,0.0,0.0908890312661,0.0,-0.120475326601,0.0,0.0,0.0,0.0,1.58015073163,-5.43895861515,62.453323744,0.322981683416,-100.0,0.258538810415,100.0,0.311064180113,-100.0,0.254418150756,100.0,2065124.80256,0.0,0.0,0.0,0.0,0.0,0.0
1402598307363088613,0,16.5919739016,-0.114322152727,-23.0988576316,0.043815185726,0.30677104435,0.0,0.0908890312661,0.0,-0.120475326601,0.0,0.0,0.0,0.0,1.58015073163,-5.43895861515,62.453323744,0.321447459859,-100.0,0.257004586858,100.0,0.311064180113,-100.0,0.254418150756,100.0,2065124.80256,0.0,0.0,0.0,0.0,0.0,0.0
1402598307382588899,0,16.6022300597,-0.114322152727,-23.1039698658,0.043815185726,0.307293860517,0.0,0.0858213004334,0.0,-0.0938373224283,0.0,0.0,0.0,0.0,1.58015073163,-5.43895861515,62.453323744,0.322981683416,-100.0,0.257004586858,100.0,0.311064180113,-100.0,0.254418150756,100.0,2065124.80256,0.0,0.0,0.0,0.0,0.0,0.0
1402598307403026290,0,16.6022300597,-0.114322152727,-23.1039698658,0.043815185726,0.307293860517,0.0,0.0858213004334,0.0,-0.0938373224283,0.0,0.0,0.0,0.0,1.58015073163,-5.43895861515,62.453323744,0.321447459859,-100.0,0.257004586858,100.0,0.311064180113,-100.0,0.254418150756,100.0,2065124.80256,0.0,0.0,0.0,0.0,0.0,0.0
1402598307422730021,0,16.6182144711,-0.114322152727,-23.09971013,0.043815185726,0.309864611582,0.0,0.0920485209286,0.0,-0.0559915250752,0.0,0.0,0.0,0.0,1.58015073163,-5.43895861515,62.453323744,0.321447459859,-100.0,0.257004586858,100.0,0.311064180113,-100.0,0.254418150756,100.0,2065124.80256,0.0,0.0,0.0,0.0,0.0,0.0
1402598307442962764,0,16.6182144711,-0.114322152727,-23.09971013,0.043815185726,0.309864611582,0.0,0.0920485209286,0.0,-0.0559915250752,0.0,0.0,0.0,0.0,1.58015073163,-5.43895861515,62.453323744,0.321447459859,-100.0,0.257004586858,100.0,0.311064180113,-100.0,0.254418150756,100.0,2065124.80256,0.0,0.0,0.0,0.0,0.0,0.0
1402598307462826821,0,16.634388395,-0.114322152727,-23.0941943355,0.043815185726,0.310603918612,0.0,0.111173817932,0.0,-0.0172237572267,0.0,0.0,0.0,0.0,1.58015073163,-5.43895861515,62.453323744,0.321447459859,-100.0,0.257004586858,100.0,0.311064180113,-100.0,0.254418150756,100.0,2065124.80256,0.0,0.0,0.0,0.0,0.0,0.0
1402598307483231004,0,16.634388395,-0.114322152727,-23.0941943355,0.043815185726,0.310603918612,0.0,0.111173817932,0.0,-0.0172237572267,0.0,0.0,0.0,0.0,1.58015073163,-5.43895861515,62.453323744,0.321447459859,-100.0,0.257004586858,100.0,0.311064180113,-100.0,0.254418150756,100.0,2065124.80256,0.0,0.0,0.0,0.0,0.0,0.0
1402598307502535918,0,16.6407380876,-0.114322152727,-23.0919921107,0.043815185726,0.311061779389,0.0,0.116848855751,0.0,-0.00134171338007,0.0,0.0,0.0,0.0,1.58015073163,-5.43895861515,62.453323744,0.322981683416,-100.0,0.258538810415,100.0,0.311064180113,-100.0,0.254418150756,100.0,2065124.80256,0.0,0.0,0.0,0.0,0.0,0.0
1402598307523093658,0,16.6407380876,-0.114322152727,-23.0919921107,0.043815185726,0.311061779389,0.0,0.116848855751,0.0,-0.00134171338007,0.0,0.0,0.0,0.0,1.58015073163,-5.43895861515,62.453323744,0.321447459859,-100.0,0.257004586858,100.0,0.311064180113,-100.0,0.254418150756,100.0,2065124.80256,0.0,0.0,0.0,0.0,0.0,0.0
1402598307542507179,0,16.6535141293,-0.114322152727,-23.0871424514,0.043815185726,0.310029703238,0.0,0.128430181842,0.0,0.0291799816505,0.0,0.0,0.0,0.0,1.58015073163,-5.43895861515,62.453323744,0.322981683416,-100.0,0.257004586858,100.0,0.311064180113,-100.0,0.254418150756,100.0,2065124.80256,0.0,0.0,0.0,0.0,0.0,0.0
1402598307563168600,0,16.6535141293,-0.114322152727,-23.0871424514,0.043815185726,0.310029703238,0.0,0.128430181842,0.0,0.0291799816505,0.0,0.0,0.0,0.0,1.58015073163,-5.43895861515,62.453323744,0.321447459859,-100.0,0.257004586858,100.0,0.311064180113,-100.0,0.254418150756,100.0,2065124.80256,0.0,0.0,0.0,0.0,0.0,0.0
1402598307582697696,0,16.6778244808,-0.114322152727,-23.0872427394,0.043815185726,0.334517639606,0.0,0.122890413525,0.0,0.0599602203687,0.0,0.0,0.0,0.0,1.58015073163,-5.43895861515,62.453323744,0.322981683416,-100.0,0.257004586858,100.0,0.311064180113,-100.0,0.254418150756,100.0,2065124.80256,0.0,0.0,0.0,0.0,0.0,0.0
1402598307603173415,0,16.6778244808,-0.114322152727,-23.0872427394,0.043815185726,0.334517639606,0.0,0.122890413525,0.0,0.0599602203687,0.0,0.0,0.0,0.0,1.58015073163,-5.43895861515,62.453323744,0.321447459859,-100.0,0.257004586858,100.0,0.311064180113,-100.0,0.254418150756,100.0,2065124.80256,0.0,0.0,0.0,0.0,0.0,0.0
1402598307622480949,0,16.7101946534,-0.114322152727,-23.087738002,0.043815185726,0.371420762532,0.0,0.116711773391,0.0,0.0911125082372,0.0,0.0,0.0,0.0,1.58015073163,-5.43895861515,62.453323744,0.322981683416,-100.0,0.257004586858,100.0,0.311064180113,-100.0,0.254418150756,100.0,2065124.80256,0.0,0.0,0.0,0.0,0.0,0.0
1402598307643137742,0,16.7101946534,-0.114322152727,-23.087738002,0.043815185726,0.371420762532,0.0,0.116711773391,0.0,0.0911125082372,0.0,0.0,0.0,0.0,1.58015073163,-5.43895861515,62.453323744,0.321447459859,-100.0,0.257004586858,100.0,0.311064180113,-100.0,0.254418150756,100.0,2065124.80256,0.0,0.0,0.0,0.0,0.0,0.0
1402598307662502719,0,16.7717848055,-0.114322152727,-23.048319095,0.043815185726,0.441462696069,0.0,0.180479728513,0.0,0.130824147742,0.0,0.0,0.0,0.0,1.58015073163,-5.43895861515,62.453323744,0.321447459859,-100.0,0.257004586858,100.0,0.311064180113,-100.0,0.254418150756,100.0,2065124.80256,0.0,0.0,0.0,0.0,0.0,0.0
1402598307683039676,0,16.7717848055,-0.114322152727,-23.048319095,0.043815185726,0.441462696069,0.0,0.180479728513,0.0,0.130824147742,0.0,0.0,0.0,0.0,1.58015073163,-5.43895861515,62.453323744,0.321447459859,-100.0,0.257004586858,100.0,0.311064180113,-100.0,0.254418150756,100.0,2065124.80256,0.0,0.0,0.0,0.0,0.0,0.0
1402598307702510598,0,16.7823846941,-0.114322152727,-23.0453653728,0.043815185726,0.417935247619,0.0,0.170806268547,0.0,0.162017539146,0.0,0.0,0.0,0.0,1.58015073163,-5.43895861515,62.453323744,0.321447459859,-100.0,0.257004586858,100.0,0.311064180113,-100.0,0.254418150756,100.0,2065124.80256,0.0,0.0,0.0,0.0,0.0,0.0
1402598307723080502,0,16.7823846941,-0.114322152727,-23.0453653728,0.043815185726,0.417935247619,0.0,0.170806268547,0.0,0.162017539146,0.0,0.0,0.0,0.0,1.58015073163,-5.43895861515,62.453323744,0.321447459859,-100.0,0.257004586858,100.0,0.311064180113,-100.0,0.254418150756,100.0,2065124.80256,0.0,0.0,0.0,0.0,0.0,0.0
1402598307742568550,0,16.7658413575,-0.114322152727,-23.0326663682,0.043815185726,0.341414349981,0.0,0.179525131664,0.0,0.205060628072,0.0,0.0,0.0,0.0,1.58015073163,-5.43895861515,62.453323744,0.321447459859,-100.0,0.257004586858,100.0,0.311064180113,-100.0,0.254418150756,100.0,2065124.80256,0.0,0.0,0.0,0.0,0.0,0.0
1402598307763107430,0,16.7658413575,-0.114322152727,-23.0326663682,0.043815185726,0.341414349981,0.0,0.179525131664,0.0,0.205060628072,0.0,0.0,0.0,0.0,1.58015073163,-5.43895861515,62.453323744,0.321447459859,-100.0,0.257004586858,100.0,0.311064180113,-100.0,0.254418150756,100.0,2065124.80256,0.0,0.0,0.0,0.0,0.0,0.0
1402598307782698118,0,16.7761713744,-0.114322152727,-23.0271077763,0.043815185726,0.33891694943,0.0,0.184045478348,0.0,0.230359089158,0.0,0.0,0.0,0.0,1.58015073163,-5.43895861515,62.453323744,0.321447459859,-100.0,0.257004586858,100.0,0.311064180113,-100.0,0.254418150756,100.0,2065124.80256,0.0,0.0,0.0,0.0,0.0,0.0
1402598307802276409,0,16.7831792738,-0.114322152727,-23.0234018662,0.043815185726,0.33781975084,0.0,0.18836332028,0.0,0.246771383356,0.0,0.0,0.0,0.0,1.58015073163,-5.43895861515,62.453323744,0.321447459859,-100.0,0.257004586858,100.0,0.311064180113,-100.0,0.254418150756,100.0,2065124.80256,0.0,0.0,0.0,0.0,0.0,0.0
1402598307823102435,0,16.7831792738,-0.114322152727,-23.0234018662,0.043815185726,0.33781975084,0.0,0.18836332028,0.0,0.246771383356,0.0,0.0,0.0,0.0,1.58015073163,-5.43895861515,62.453323744,0.319912997884,-100.0,0.257004586858,100.0,0.311064180113,-100.0,0.254418150756,100.0,2065124.80256,0.0,0.0,0.0,0.0,0.0,0.0
1402598307842774232,0,16.7119194601,-0.114322152727,-23.042229662,0.043815185726,0.186777312901,0.0,0.141695914249,0.0,0.262260945696,0.0,0.0,0.0,0.0,1.58015073163,-5.43895861515,62.453323744,0.319912997884,-100.0,0.257004586858,100.0,0.311064180113,-100.0,0.254418150756,100.0,2065124.80256,0.0,0.0,0.0,0.0,0.0,0.0
1402598307863116442,0,16.7119194601,-0.114322152727,-23.042229662,0.043815185726,0.186777312901,0.0,0.141695914249,0.0,0.262260945696,0.0,0.0,0.0,0.0,1.58015073163,-5.43895861515,62.453323744,0.319912997884,-100.0,0.257004586858,100.0,0.311064180113,-100.0,0.254418150756,100.0,2065124.80256,0.0,0.0,0.0,0.0,0.0,0.0
1402598307882501250,0,16.7193549604,-0.114322152727,-23.0363118999,0.043815185726,0.18035364575,0.0,0.145590117152,0.0,0.296359886133,0.0,0.0,0.0,0.0,1.58015073163,-5.43895861515,62.453323744,0.319912997884,-100.0,0.257004586858,100.0,0.311064180113,-100.0,0.254418150756,100.0,2065124.80256,0.0,0.0,0.0,0.0,0.0,0.0
1402598307903029453,0,16.7193549604,-0.114322152727,-23.0363118999,0.043815185726,0.18035364575,0.0,0.145590117152,0.0,0.296359886133,0.0,0.0,0.0,0.0,1.58015073163,-5.43895861515,62.453323744,0.319912997884,-100.0,0.257004586858,100.0,0.311064180113,-100.0,0.254418150756,100.0,2065124.80256,0.0,0.0,0.0,0.0,0.0,0.0
1402598307922582973,0,16.7265112329,-0.114322152727,-23.0303128068,0.043815185726,0.168876229006,0.0,0.147682573336,0.0,0.33053090096,0.0,0.0,0.0,0.0,1.58015073163,-5.43895861515,62.453323744,0.318378774327,-100.0,0.257004586858,100.0,0.311064180113,-100.0,0.254418150756,100.0,2065124.80256,0.0,0.0,0.0,0.0,0.0,0.0
1402598307943046105,0,16.7265112329,-0.114322152727,-23.0303128068,0.043815185726,0.168876229006,0.0,0.147682573336,0.0,0.33053090096,0.0,0.0,0.0,0.0,1.58015073163,-5.43895861515,62.453323744,0.319912997884,-100.0,0.257004586858,100.0,0.311064180113,-100.0,0.254418150756,100.0,2065124.80256,0.0,0.0,0.0,0.0,0.0,0.0
1402598307962589637,0,16.7333453546,-0.114322152727,-23.0241368311,0.043815185726,0.16028441129,0.0,0.150259286503,0.0,0.365086631708,0.0,0.0,0.0,0.0,1.58015073163,-5.43895861515,62.453323744,0.318378774327,-100.0,0.257004586858,100.0,0.311064180113,-100.0,0.254418150756,100.0,2065124.80256,0.0,0.0,0.0,0.0,0.0,0.0
1402598307983071800,0,16.7333453546,-0.114322152727,-23.0241368311,0.043815185726,0.16028441129,0.0,0.150259286503,0.0,0.365086631708,0.0,0.0,0.0,0.0,1.58015073163,-5.43895861515,62.453323744,0.319912997884,-100.0,0.257004586858,100.0,0.311064180113,-100.0,0.254418150756,100.0,2065124.80256,0.0,0.0,0.0,0.0,0.0,0.0
1402598308002649526,0,16.7396131663,-0.114322152727,-23.0179523257,0.043815185726,0.146149054165,0.0,0.15475218617,0.0,0.399945086852,0.0,0.0,0.0,0.0,1.58015073163,-5.43895861515,62.453323744,0.319912997884,-100.0,0.257004586858,100.0,0.311064180113,-100.0,0.254418150756,100.0,2065124.80256,0.0,0.0,0.0,0.0,0.0,0.0
1402598308023088198,0,16.7396131663,-0.114322152727,-23.0179523257,0.043815185726,0.146149054165,0.0,0.15475218617,0.0,0.399945086852,0.0,0.0,0.0,0.0,1.58015073163,-5.43895861515,62.453323744,0.319912997884,-100.0,0.257004586858,100.0,0.311064180113,-100.0,0.254418150756,100.0,2065124.80256,0.0,0.0,0.0,0.0,0.0,0.0
1402598308042458760,0,16.7503092431,-0.114322152727,-23.0198515499,0.043815185726,0.134024831199,0.0,0.137347265111,0.0,0.442257609938,0.0,0.0,0.0,0.0,1.58015073163,-5.43895861515,62.453323744,0.319912997884,-100.0,0.257004586858,100.0,0.311064180113,-100.0,0.254418150756,100.0,2065124.80256,0.0,0.0,0.0,0.0,0.0,0.0
1402598308063110488,0,16.7503092431,-0.114322152727,-23.0198515499,0.043815185726,0.134024831199,0.0,0.137347265111,0.0,0.442257609938,0.0,0.0,0.0,0.0,1.58015073163,-5.43895861515,62.453323744,0.318378774327,-100.0,0.257004586858,100.0,0.311064180113,-100.0,0.254418150756,100.0,2065124.80256,0.0,0.0,0.0,0.0,0.0,0.0
1402598308082717730,0,16.7848319056,-0.114322152727,-23.0075405771,0.043815185726,0.162882901019,0.0,0.163772713766,0.0,0.486185135732,0.0,0.0,0.0,0.0,1.58015073163,-5.43895861515,62.453323744,0.318378774327,-100.0,0.257004586858,100.0,0.311064180113,-100.0,0.254418150756,100.0,2065124.80256,0.0,0.0,0.0,0.0,0.0,0.0
1402598308103177467,0,16.7848319056,-0.114322152727,-23.0075405771,0.043815185726,0.162882901019,0.0,0.163772713766,0.0,0.486185135732,0.0,0.0,0.0,0.0,1.58015073163,-5.43895861515,62.453323744,0.318378774327,-100.0,0.257004586858,100.0,0.311064180113,-100.0,0.254418150756,100.0,2065124.80256,0.0,0.0,0.0,0.0,0.0,0.0
1402598308122555179,0,16.7880650309,-0.114322152727,-23.00431166,0.043815185726,0.157292748713,0.0,0.163015303656,0.0,0.503428046675,0.0,0.0,0.0,0.0,1.58015073163,-5.43895861515,62.453323744,0.316844312352,-100.0,0.257004586858,100.0,0.311064180113,-100.0,0.254418150756,100.0,2065124.80256,0.0,0.0,0.0,0.0,0.0,0.0
1402598308143023354,0,16.7880650309,-0.114322152727,-23.00431166,0.043815185726,0.157292748713,0.0,0.163015303656,0.0,0.503428046675,0.0,0.0,0.0,0.0,1.58015073163,-5.43895861515,62.453323744,0.316844312352,-100.0,0.257004586858,100.0,0.311064180113,-100.0,0.254418150756,100.0,2065124.80256,0.0,0.0,0.0,0.0,0.0,0.0
1402598308162621716,0,16.7941975563,-0.114322152727,-22.9973798691,0.043815185726,0.143447589185,0.0,0.169565489418,0.0,0.539529444371,0.0,0.0,0.0,0.0,1.58015073163,-5.43895861515,62.453323744,0.315310088796,-100.0,0.257004586858,100.0,0.311064180113,-100.0,0.254418150756,100.0,2065124.80256,0.0,0.0,0.0,0.0,0.0,0.0
1402598308183018258,0,16.7941975563,-0.114322152727,-22.9973798691,0.043815185726,0.143447589185,0.0,0.169565489418,0.0,0.539529444371,0.0,0.0,0.0,0.0,1.58015073163,-5.43895861515,62.453323744,0.315310088796,-100.0,0.257004586858,100.0,0.311064180113,-100.0,0.254418150756,100.0,2065124.80256,0.0,0.0,0.0,0.0,0.0,0.0
1402598308203357951,0,16.820954459,-0.114322152727,-22.9715495813,0.043815185726,0.158319808223,0.0,0.227940910962,0.0,0.575999292018,0.0,0.0,0.0,0.0,1.58015073163,-5.43895861515,62.453323744,0.315310088796,-100.0,0.257004586858,100.0,0.311064180113,-100.0,0.254418150756,100.0,2065124.80256,0.0,0.0,0.0,0.0,0.0,0.0
1402598308223411657,0,16.820954459,-0.114322152727,-22.9715495813,0.043815185726,0.158319808223,0.0,0.227940910962,0.0,0.575999292018,0.0,0.0,0.0,0.0,1.58015073163,-5.43895861515,62.453323744,0.315310088796,-100.0,0.257004586858,100.0,0.311064180113,-100.0,0.254418150756,100.0,2065124.80256,0.0,0.0,0.0,0.0,0.0,0.0
1402598308242589522,0,16.847810574,-0.114322152727,-22.9415253485,0.043815185726,0.165945294943,0.0,0.287484872109,0.0,0.619682995927,0.0,0.0,0.0,0.0,1.58015073163,-5.43895861515,62.453323744,0.315310088796,-100.0,0.257004586858,100.0,0.311064180113,-100.0,0.254418150756,100.0,2065124.80256,0.0,0.0,0.0,0.0,0.0,0.0
1402598308263101605,0,16.847810574,-0.114322152727,-22.9415253485,0.043815185726,0.165945294943,0.0,0.287484872109,0.0,0.619682995927,0.0,0.0,0.0,0.0,1.58015073163,-5.43895861515,62.453323744,0.313775626821,-100.0,0.257004586858,100.0,0.311064180113,-100.0,0.254418150756,100.0,2065124.80256,0.0,0.0,0.0,0.0,0.0,0.0
1402598308282618718,0,16.8647517326,-0.114322152727,-22.9331131325,0.043815185726,0.167872443515,0.0,0.302762820613,0.0,0.645251119875,0.0,0.0,0.0,0.0,1.58015073163,-5.43895861515,62.453323744,0.312241164846,-100.0,0.257004586858,100.0,0.311064180113,-100.0,0.254418150756,100.0,2065124.80256,0.0,0.0,0.0,0.0,0.0,0.0
1402598308303675622,0,16.8685130105,-0.114322152727,-22.926746942,0.043815185726,0.160001553159,0.0,0.309103264783,0.0,0.663225078461,0.0,0.0,0.0,0.0,1.58015073163,-5.43895861515,62.453323744,0.312241164846,-100.0,0.257004586858,100.0,0.311064180113,-100.0,0.254418150756,100.0,2065124.80256,0.0,0.0,0.0,0.0,0.0,0.0
1402598308322992814,0,16.8685130105,-0.114322152727,-22.926746942,0.043815185726,0.160001553159,0.0,0.309103264783,0.0,0.663225078461,0.0,0.0,0.0,0.0,1.58015073163,-5.43895861515,62.453323744,0.312241164846,-100.0,0.257004586858,100.0,0.311064180113,-100.0,0.254418150756,100.0,2065124.80256,0.0,0.0,0.0,0.0,0.0,0.0
1402598308343846714,0,16.8850213238,-0.114322152727,-22.9251868607,0.043815185726,0.160972000576,0.0,0.312315540059,0.0,0.680230915028,0.0,0.0,0.0,0.0,1.58015073163,-5.43895861515,62.453323744,0.310706941289,-100.0,0.257004586858,100.0,0.311064180113,-100.0,0.254418150756,100.0,2065124.80256,0.0,0.0,0.0,0.0,0.0,0.0
1402598308362748602,0,16.8850213238,-0.114322152727,-22.9251868607,0.043815185726,0.160972000576,0.0,0.312315540059,0.0,0.680230915028,0.0,0.0,0.0,0.0,1.58015073163,-5.43895861515,62.453323744,0.306104032201,-100.0,0.257004586858,100.0,0.311064180113,-100.0,0.254418150756,100.0,2065124.80256,0.0,0.0,0.0,0.0,0.0,0.0
1402598308383179225,0,16.8914370971,-0.114322152727,-22.9125666879,0.043815185726,0.154254262767,0.0,0.311054474824,0.0,0.715241746667,0.0,0.0,0.0,0.0,1.58015073163,-5.43895861515,62.453323744,0.307638255758,-100.0,0.257004586858,100.0,0.311064180113,-100.0,0.254418150756,100.0,2065124.80256,0.0,0.0,0.0,0.0,0.0,0.0
1402598308402654082,0,16.8914370971,-0.114322152727,-22.9125666879,0.043815185726,0.154254262767,0.0,0.311054474824,0.0,0.715241746667,0.0,0.0,0.0,0.0,1.58015073163,-5.43895861515,62.453323744,0.307638255758,-100.0,0.257004586858,100.0,0.311064180113,-100.0,0.254418150756,100.0,2065124.80256,0.0,0.0,0.0,0.0,0.0,0.0
1402598308423210468,0,16.8978505726,-0.114322152727,-22.8994424988,0.043815185726,0.142254786677,0.0,0.317950601689,0.0,0.751235906793,0.0,0.0,0.0,0.0,1.58015073163,-5.43895861515,62.453323744,0.304569570226,-100.0,0.257004586858,100.0,0.311064180113,-100.0,0.254418150756,100.0,2065124.80256,0.0,0.0,0.0,0.0,0.0,0.0
1402598308442652795,0,16.8978505726,-0.114322152727,-22.8994424988,0.043815185726,0.142254786677,0.0,0.317950601689,0.0,0.751235906793,0.0,0.0,0.0,0.0,1.58015073163,-5.43895861515,62.453323744,0.301500646276,-100.0,0.257004586858,100.0,0.311064180113,-100.0,0.254418150756,100.0,2065124.80256,0.0,0.0,0.0,0.0,0.0,0.0
1402598308463620357,0,16.905004602,-0.114322152727,-22.8825222332,0.043815185726,0.13070847906,0.0,0.327085970345,0.0,0.795928878675,0.0,0.0,0.0,0.0,1.58015073163,-5.43895861515,62.453323744,0.303035108251,-100.0,0.257004586858,100.0,0.311064180113,-100.0,0.254418150756,100.0,2065124.80256,0.0,0.0,0.0,0.0,0.0,0.0
1402598308482614989,0,16.905004602,-0.114322152727,-22.8825222332,0.043815185726,0.13070847906,0.0,0.327085970345,0.0,0.795928878675,0.0,0.0,0.0,0.0,1.58015073163,-5.43895861515,62.453323744,0.303035108251,-100.0,0.257004586858,100.0,0.311064180113,-100.0,0.254418150756,100.0,2065124.80256,0.0,0.0,0.0,0.0,0.0,0.0
1402598308503232737,0,16.9204724479,-0.114322152727,-22.8704406562,0.043815185726,0.119366758057,0.0,0.330850957315,0.0,0.83868685586,0.0,0.0,0.0,0.0,1.58015073163,-5.43895861515,62.453323744,0.301500646276,-100.0,0.257004586858,100.0,0.311064180113,-100.0,0.254418150756,100.0,2065124.80256,0.0,0.0,0.0,0.0,0.0,0.0
1402598308522879855,0,16.9204724479,-0.114322152727,-22.8704406562,0.043815185726,0.119366758057,0.0,0.330850957315,0.0,0.83868685586,0.0,0.0,0.0,0.0,1.58015073163,-5.43895861515,62.453323744,0.303035108251,-100.0,0.257004586858,100.0,0.311064180113,-100.0,0.254418150756,100.0,2065124.80256,0.0,0.0,0.0,0.0,0.0,0.0
1402598308543136624,0,16.9228519016,-0.114322152727,-22.8635036751,0.043815185726,0.112365394524,0.0,0.334154245484,0.0,0.856972856709,0.0,0.0,0.0,0.0,1.58015073163,-5.43895861515,62.453323744,0.301500646276,-100.0,0.257004586858,100.0,0.311064180113,-100.0,0.254418150756,100.0,2065124.80256,0.0,0.0,0.0,0.0,0.0,0.0
1402598308562473611,0,16.9228519016,-0.114322152727,-22.8635036751,0.043815185726,0.112365394524,0.0,0.334154245484,0.0,0.856972856709,0.0,0.0,0.0,0.0,1.58015073163,-5.43895861515,62.453323744,0.301500646276,-100.0,0.257004586858,100.0,0.311064180113,-100.0,0.254418150756,100.0,2065124.80256,0.0,0.0,0.0,0.0,0.0,0.0
1402598308583139579,0,16.9468912412,-0.114322152727,-22.8469047431,0.043815185726,0.117085759964,0.0,0.361319032406,0.0,0.88983622083,0.0,0.0,0.0,0.0,1.58015073163,-5.43895861515,62.453323744,0.301500646276,-100.0,0.257004586858,100.0,0.311064180113,-100.0,0.254418150756,100.0,2065124.80256,0.0,0.0,0.0,0.0,0.0,0.0
1402598308602476342,0,16.9468912412,-0.114322152727,-22.8469047431,0.043815185726,0.117085759964,0.0,0.361319032406,0.0,0.88983622083,0.0,0.0,0.0,0.0,1.58015073163,-5.43895861515,62.453323744,0.301500646276,-100.0,0.257004586858,100.0,0.311064180113,-100.0,0.254418150756,100.0,2065124.80256,0.0,0.0,0.0,0.0,0.0,0.0
1402598308622995662,0,16.9515145416,-0.114322152727,-22.8314811451,0.043815185726,0.101124601873,0.0,0.369935447026,0.0,0.926957630384,0.0,0.0,0.0,0.0,1.58015073163,-5.43895861515,62.453323744,0.301500646276,-100.0,0.257004586858,100.0,0.311064180113,-100.0,0.254418150756,100.0,2065124.80256,0.0,0.0,0.0,0.0,0.0,0.0
1402598308642637658,0,16.9515145416,-0.114322152727,-22.8314811451,0.043815185726,0.101124601873,0.0,0.369935447026,0.0,0.926957630384,0.0,0.0,0.0,0.0,1.58015073163,-5.43895861515,62.453323744,0.301500646276,-100.0,0.257004586858,100.0,0.311064180113,-100.0,0.254418150756,100.0,2065124.80256,0.0,0.0,0.0,0.0,0.0,0.0
1402598308663495444,0,16.9647388316,-0.114322152727,-22.8189344794,0.043815185726,0.0952180103894,0.0,0.371534176488,0.0,0.962860178869,0.0,0.0,0.0,0.0,1.58015073163,-5.43895861515,62.453323744,0.301500646276,-100.0,0.257004586858,100.0,0.311064180113,-100.0,0.254418150756,100.0,2065124.80256,0.0,0.0,0.0,0.0,0.0,0.0
1402598308682544382,0,16.9647388316,-0.114322152727,-22.8189344794,0.043815185726,0.0952180103894,0.0,0.371534176488,0.0,0.962860178869,0.0,0.0,0.0,0.0,1.58015073163,-5.43895861515,62.453323744,0.301500646276,-100.0,0.257004586858,100.0,0.311064180113,-100.0,0.254418150756,100.0,2065124.80256,0.0,0.0,0.0,0.0,0.0,0.0
1402598308703184078,0,16.9867052009,-0.114322152727,-22.7882002405,0.043815185726,0.0914748052886,0.0,0.411778423818,0.0,1.0062833252,0.0,0.0,0.0,0.0,1.58015073163,-5.43895861515,62.453323744,0.303035108251,-100.0,0.257004586858,100.0,0.311064180113,-100.0,0.254418150756,100.0,2065124.80256,0.0,0.0,0.0,0.0,0.0,0.0
1402598308722613819,0,16.9867052009,-0.114322152727,-22.7882002405,0.043815185726,0.0914748052886,0.0,0.411778423818,0.0,1.0062833252,0.0,0.0,0.0,0.0,1.58015073163,-5.43895861515,62.453323744,0.303035108251,-100.0,0.257004586858,100.0,0.311064180113,-100.0,0.254418150756,100.0,2065124.80256,0.0,0.0,0.0,0.0,0.0,0.0
1402598308743168627,0,16.9904328792,-0.114322152727,-22.7711499753,0.043815185726,0.0755470663716,0.0,0.416792916626,0.0,1.04317086697,0.0,0.0,0.0,0.0,1.58015073163,-5.43895861515,62.453323744,0.304569570226,-100.0,0.257004586858,100.0,0.311064180113,-100.0,0.254418150756,100.0,2065124.80256,0.0,0.0,0.0,0.0,0.0,0.0
1402598308762592752,0,16.9915686967,-0.114322152727,-22.7623819407,0.043815185726,0.0696007658532,0.0,0.419576818076,0.0,1.06199910258,0.0,0.0,0.0,0.0,1.58015073163,-5.43895861515,62.453323744,0.304569570226,-100.0,0.257004586858,100.0,0.311064180113,-100.0,0.254418150756,100.0,2065124.80256,0.0,0.0,0.0,0.0,0.0,0.0
1402598308783161235,0,16.9915686967,-0.114322152727,-22.7623819407,0.043815185726,0.0696007658532,0.0,0.419576818076,0.0,1.06199910258,0.0,0.0,0.0,0.0,1.58015073163,-5.43895861515,62.453323744,0.306104032201,-100.0,0.257004586858,100.0,0.311064180113,-100.0,0.254418150756,100.0,2065124.80256,0.0,0.0,0.0,0.0,0.0,0.0
1402598308802470418,0,16.9937035376,-0.114322152727,-22.7492622341,0.043815185726,0.0577724963538,0.0,0.423822281282,0.0,1.08988427837,0.0,0.0,0.0,0.0,1.58015073163,-5.43895861515,62.453323744,0.307638255758,-100.0,0.257004586858,100.0,0.311064180113,-100.0,0.254418150756,100.0,2065124.80256,0.0,0.0,0.0,0.0,0.0,0.0
1402598308823146913,0,16.9937035376,-0.114322152727,-22.7492622341,0.043815185726,0.0577724963538,0.0,0.423822281282,0.0,1.08988427837,0.0,0.0,0.0,0.0,1.58015073163,-5.43895861515,62.453323744,0.309172479314,-100.0,0.257004586858,100.0,0.311064180113,-100.0,0.254418150756,100.0,2065124.80256,0.0,0.0,0.0,0.0,0.0,0.0
1402598308842689934,0,16.9960143316,-0.114322152727,-22.7242287075,0.043815185726,0.0397153602848,0.0,0.458562824396,0.0,1.11800242044,0.0,0.0,0.0,0.0,1.58015073163,-5.43895861515,62.453323744,0.315310088796,-100.0,0.257004586858,100.0,0.311064180113,-100.0,0.254418150756,100.0,2065124.80256,0.0,0.0,0.0,0.0,0.0,0.0
1402598308863056609,0,16.9960143316,-0.114322152727,-22.7242287075,0.043815185726,0.0397153602848,0.0,0.458562824396,0.0,1.11800242044,0.0,0.0,0.0,0.0,1.58015073163,-5.43895861515,62.453323744,0.316844312352,-100.0,0.257004586858,100.0,0.311064180113,-100.0,0.254418150756,100.0,2065124.80256,0.0,0.0,0.0,0.0,0.0,0.0
1402598308882521326,0,16.9976541671,-0.114322152727,-22.7052449089,0.043815185726,0.0239205862553,0.0,0.462539632422,0.0,1.15476171573,0.0,0.0,0.0,0.0,1.58015073163,-5.43895861515,62.453323744,0.316844312352,-100.0,0.257004586858,100.0,0.311064180113,-100.0,0.254418150756,100.0,2065124.80256,0.0,0.0,0.0,0.0,0.0,0.0
1402598308903011943,0,16.9976541671,-0.114322152727,-22.7052449089,0.043815185726,0.0239205862553,0.0,0.462539632422,0.0,1.15476171573,0.0,0.0,0.0,0.0,1.58015073163,-5.43895861515,62.453323744,0.316844312352,-100.0,0.257004586858,100.0,0.311064180113,-100.0,0.254418150756,100.0,2065124.80256,0.0,0.0,0.0,0.0,0.0,0.0
1402598308922798247,0,16.9983676326,-0.114322152727,-22.6858741738,0.043815185726,0.0107954772416,0.0,0.472996976563,0.0,1.19234077837,0.0,0.0,0.0,0.0,1.58015073163,-5.43895861515,62.453323744,0.316844312352,-100.0,0.257004586858,100.0,0.311064180113,-100.0,0.254418150756,100.0,2065124.80256,0.0,0.0,0.0,0.0,0.0,0.0
1402598308943194927,0,16.9983676326,-0.114322152727,-22.6858741738,0.043815185726,0.0107954772416,0.0,0.472996976563,0.0,1.19234077837,0.0,0.0,0.0,0.0,1.58015073163,-5.43895861515,62.453323744,0.316844312352,-100.0,0.257004586858,100.0,0.311064180113,-100.0,0.254418150756,100.0,2065124.80256,0.0,0.0,0.0,0.0,0.0,0.0
1402598308962670423,0,17.0178569684,-0.114322152727,-22.6599390924,0.043815185726,0.0272528353934,0.0,0.482731563997,0.0,1.23331009748,0.0,0.0,0.0,0.0,1.58015073163,-5.43895861515,62.453323744,0.316844312352,-100.0,0.257004586858,100.0,0.311064180113,-100.0,0.254418150756,100.0,2065124.80256,0.0,0.0,0.0,0.0,0.0,0.0
1402598308983171784,0,17.0178569684,-0.114322152727,-22.6599390924,0.043815185726,0.0272528353934,0.0,0.482731563997,0.0,1.23331009748,0.0,0.0,0.0,0.0,1.58015073163,-5.43895861515,62.453323744,0.315310088796,-100.0,0.257004586858,100.0,0.311064180113,-100.0,0.254418150756,100.0,2065124.80256,0.0,0.0,0.0,0.0,0.0,0.0
1402598309002677784,0,17.0189587579,-0.114322152727,-22.6345893111,0.043815185726,0.0175043066511,0.0,0.484362414061,0.0,1.2787828055,0.0,0.0,0.0,0.0,1.58015073163,-5.43895861515,62.453323744,0.315310088796,-100.0,0.257004586858,100.0,0.311064180113,-100.0,0.254418150756,100.0,2065124.80256,0.0,0.0,0.0,0.0,0.0,0.0
1402598309023090231,0,17.0189587579,-0.114322152727,-22.6345893111,0.043815185726,0.0175043066511,0.0,0.484362414061,0.0,1.2787828055,0.0,0.0,0.0,0.0,1.58015073163,-5.43895861515,62.453323744,0.315310088796,-100.0,0.257004586858,100.0,0.311064180113,-100.0,0.254418150756,100.0,2065124.80256,0.0,0.0,0.0,0.0,0.0,0.0
1402598309042591735,0,17.0196413494,-0.114322152727,-22.6244395545,0.043815185726,0.0117909709654,0.0,0.481288133988,0.0,1.29675855746,0.0,0.0,0.0,0.0,1.58015073163,-5.43895861515,62.453323744,0.315310088796,-100.0,0.257004586858,100.0,0.311064180113,-100.0,0.254418150756,100.0,2065124.80256,0.0,0.0,0.0,0.0,0.0,0.0
1402598309063011636,0,17.0196413494,-0.114322152727,-22.6244395545,0.043815185726,0.0117909709654,0.0,0.481288133988,0.0,1.29675855746,0.0,0.0,0.0,0.0,1.58015073163,-5.43895861515,62.453323744,0.315310088796,-100.0,0.257004586858,100.0,0.311064180113,-100.0,0.254418150756,100.0,2065124.80256,0.0,0.0,0.0,0.0,0.0,0.0
1402598309082559632,0,17.0259911048,-0.114322152727,-22.6036119133,0.043815185726,0.0205703476911,0.0,0.486427525691,0.0,1.32948013538,0.0,0.0,0.0,0.0,1.58015073163,-5.43895861515,62.453323744,0.315310088796,-100.0,0.257004586858,100.0,0.311064180113,-100.0,0.254418150756,100.0,2065124.80256,0.0,0.0,0.0,0.0,0.0,0.0
1402598309103204712,0,17.0259911048,-0.114322152727,-22.6036119133,0.043815185726,0.0205703476911,0.0,0.486427525691,0.0,1.32948013538,0.0,0.0,0.0,0.0,1.58015073163,-5.43895861515,62.453323744,0.313775626821,-100.0,0.257004586858,100.0,0.311064180113,-100.0,0.254418150756,100.0,2065124.80256,0.0,0.0,0.0,0.0,0.0,0.0
1402598309122557065,0,17.0348424521,-0.114322152727,-22.5804485905,0.043815185726,0.0327016182332,0.0,0.49262623586,0.0,1.36087248847,0.0,0.0,0.0,0.0,1.58015073163,-5.43895861515,62.453323744,0.310706941289,-100.0,0.257004586858,100.0,0.311064180113,-100.0,0.254418150756,100.0,2065124.80256,0.0,0.0,0.0,0.0,0.0,0.0
1402598309143080428,0,17.0348424521,-0.114322152727,-22.5804485905,0.043815185726,0.0327016182332,0.0,0.49262623586,0.0,1.36087248847,0.0,0.0,0.0,0.0,1.58015073163,-5.43895861515,62.453323744,0.312241164846,-100.0,0.257004586858,100.0,0.311064180113,-100.0,0.254418150756,100.0,2065124.80256,0.0,0.0,0.0,0.0,0.0,0.0
1402598309162506688,0,17.0361193475,-0.114322152727,-22.5601664315,0.043815185726,0.0209507316298,0.0,0.49365509621,0.0,1.39623959434,0.0,0.0,0.0,0.0,1.58015073163,-5.43895861515,62.453323744,0.309172479314,-100.0,0.257004586858,100.0,0.311064180113,-100.0,0.254418150756,100.0,2065124.80256,0.0,0.0,0.0,0.0,0.0,0.0
1402598309183144580,0,17.0361193475,-0.114322152727,-22.5601664315,0.043815185726,0.0209507316298,0.0,0.49365509621,0.0,1.39623959434,0.0,0.0,0.0,0.0,1.58015073163,-5.43895861515,62.453323744,0.309172479314,-100.0,0.257004586858,100.0,0.311064180113,-100.0,0.254418150756,100.0,2065124.80256,0.0,0.0,0.0,0.0,0.0,0.0
1402598309202661240,0,17.0291789084,-0.114322152727,-22.5332408819,0.043815185726,0.000619986068304,0.0,0.495911528607,0.0,1.44158999205,0.0,0.0,0.0,0.0,1.58015073163,-5.43895861515,62.453323744,0.313775626821,-100.0,0.255470124883,100.0,0.311064180113,-100.0,0.254418150756,100.0,2065124.80256,0.0,0.0,0.0,0.0,0.0,0.0
1402598309223238154,0,17.0291789084,-0.114322152727,-22.5332408819,0.043815185726,0.000619986068304,0.0,0.495911528607,0.0,1.44158999205,0.0,0.0,0.0,0.0,1.58015073163,-5.43895861515,62.453323744,0.312241164846,-100.0,0.257004586858,100.0,0.311064180113,-100.0,0.254418150756,100.0,2065124.80256,0.0,0.0,0.0,0.0,0.0,0.0
1402598309242689619,0,17.0290202157,-0.114322152727,-22.5178871387,0.043815185726,-0.00949194801204,0.0,0.495119694879,0.0,1.46813568115,0.0,0.0,0.0,0.0,1.58015073163,-5.43895861515,62.453323744,0.304569570226,-100.0,0.257004586858,100.0,0.311064180113,-100.0,0.254418150756,100.0,2065124.80256,0.0,0.0,0.0,0.0,0.0,0.0
1402598309263536764,0,17.0164702715,-0.114322152727,-22.4901027412,0.043815185726,-0.0334455878291,0.0,0.524814110446,0.0,1.48523188925,0.0,0.0,0.0,0.0,1.58015073163,-5.43895861515,62.453323744,0.306104032201,-100.0,0.257004586858,100.0,0.311064180113,-100.0,0.254418150756,100.0,2065124.80256,0.0,0.0,0.0,0.0,0.0,0.0
1402598309282620611,0,17.0164702715,-0.114322152727,-22.4901027412,0.043815185726,-0.0334455878291,0.0,0.524814110446,0.0,1.48523188925,0.0,0.0,0.0,0.0,1.58015073163,-5.43895861515,62.453323744,0.303035108251,-100.0,0.257004586858,100.0,0.311064180113,-100.0,0.254418150756,100.0,2065124.80256,0.0,0.0,0.0,0.0,0.0,0.0
1402598309303230127,0,17.0159100819,-0.114322152727,-22.4797266124,0.043815185726,-0.0406945970931,0.0,0.522646191986,0.0,1.50238905948,0.0,0.0,0.0,0.0,1.58015073163,-5.43895861515,62.453323744,0.303035108251,-100.0,0.257004586858,100.0,0.311064180113,-100.0,0.254418150756,100.0,2065124.80256,0.0,0.0,0.0,0.0,0.0,0.0
1402598309322611955,0,17.0159100819,-0.114322152727,-22.4797266124,0.043815185726,-0.0406945970931,0.0,0.522646191986,0.0,1.50238905948,0.0,0.0,0.0,0.0,1.58015073163,-5.43895861515,62.453323744,0.303035108251,-100.0,0.257004586858,100.0,0.311064180113,-100.0,0.254418150756,100.0,2065124.80256,0.0,0.0,0.0,0.0,0.0,0.0
1402598309343016457,0,17.0199631394,-0.114322152727,-22.4725970001,0.043815185726,-0.0289811684148,0.0,0.480395307534,0.0,1.5400043118,0.0,0.0,0.0,0.0,1.58015073163,-5.43895861515,62.453323744,0.303035108251,-100.0,0.257004586858,100.0,0.311064180113,-100.0,0.254418150756,100.0,2065124.80256,0.0,0.0,0.0,0.0,0.0,0.0
1402598309362584404,0,17.0199631394,-0.114322152727,-22.4725970001,0.043815185726,-0.0289811684148,0.0,0.480395307534,0.0,1.5400043118,0.0,0.0,0.0,0.0,1.58015073163,-5.43895861515,62.453323744,0.303035108251,-100.0,0.257004586858,100.0,0.311064180113,-100.0,0.254418150756,100.0,2065124.80256,0.0,0.0,0.0,0.0,0.0,0.0
1402598309383227064,0,17.0210942122,-0.114322152727,-22.4441742199,0.043815185726,-0.0438000762032,0.0,0.489469057917,0.0,1.57383718931,0.0,0.0,0.0,0.0,1.58015073163,-5.43895861515,62.453323744,0.304569570226,-100.0,0.257004586858,100.0,0.311064180113,-100.0,0.254418150756,100.0,2065124.80256,0.0,0.0,0.0,0.0,0.0,0.0
1402598309402586593,0,17.0210942122,-0.114322152727,-22.4441742199,0.043815185726,-0.0438000762032,0.0,0.489469057917,0.0,1.57383718931,0.0,0.0,0.0,0.0,1.58015073163,-5.43895861515,62.453323744,0.303035108251,-100.0,0.257004586858,100.0,0.311064180113,-100.0,0.254418150756,100.0,2065124.80256,0.0,0.0,0.0,0.0,0.0,0.0
1402598309423236815,0,17.0191067938,-0.114322152727,-22.4243346979,0.043815185726,-0.0565419230285,0.0,0.48465622182,0.0,1.60895625684,0.0,0.0,0.0,0.0,1.58015073163,-5.43895861515,62.453323744,0.303035108251,-100.0,0.257004586858,100.0,0.311064180113,-100.0,0.254418150756,100.0,2065124.80256,0.0,0.0,0.0,0.0,0.0,0.0
1402598309442545623,0,17.0191067938,-0.114322152727,-22.4243346979,0.043815185726,-0.0565419230285,0.0,0.48465622182,0.0,1.60895625684,0.0,0.0,0.0,0.0,1.58015073163,-5.43895861515,62.453323744,0.303035108251,-100.0,0.257004586858,100.0,0.311064180113,-100.0,0.254418150756,100.0,2065124.80256,0.0,0.0,0.0,0.0,0.0,0.0
1402598309463067682,0,17.02613383,-0.114322152727,-22.4126522588,0.043815185726,-0.0449616006072,0.0,0.451503243727,0.0,1.64670191493,0.0,0.0,0.0,0.0,1.58015073163,-5.43895861515,62.453323744,0.303035108251,-100.0,0.257004586858,100.0,0.311064180113,-100.0,0.254418150756,100.0,2065124.80256,0.0,0.0,0.0,0.0,0.0,0.0
1402598309482476608,0,17.02613383,-0.114322152727,-22.4126522588,0.043815185726,-0.0449616006072,0.0,0.451503243727,0.0,1.64670191493,0.0,0.0,0.0,0.0,1.58015073163,-5.43895861515,62.453323744,0.303035108251,-100.0,0.257004586858,100.0,0.311064180113,-100.0,0.254418150756,100.0,2065124.80256,0.0,0.0,0.0,0.0,0.0,0.0
1402598309502865904,0,17.0118613861,-0.114322152727,-22.373861167,0.043815185726,-0.075509966534,0.0,0.482564768873,0.0,1.67872351109,0.0,0.0,0.0,0.0,1.58015073163,-5.43895861515,62.453323744,0.303035108251,-100.0,0.257004586858,100.0,0.311064180113,-100.0,0.254418150756,100.0,2065124.80256,0.0,0.0,0.0,0.0,0.0,0.0
1402598309522413435,0,17.0118613861,-0.114322152727,-22.373861167,0.043815185726,-0.075509966534,0.0,0.482564768873,0.0,1.67872351109,0.0,0.0,0.0,0.0,1.58015073163,-5.43895861515,62.453323744,0.303035108251,-100.0,0.257004586858,100.0,0.311064180113,-100.0,0.254418150756,100.0,2065124.80256,0.0,0.0,0.0,0.0,0.0,0.0
1402598309542974828,0,17.00832792,-0.114322152727,-22.354760225,0.043815185726,-0.0898220439877,0.0,0.481275633195,0.0,1.71313267879,0.0,0.0,0.0,0.0,1.58015073163,-5.43895861515,62.453323744,0.303035108251,-100.0,0.257004586858,100.0,0.311064180113,-100.0,0.254418150756,100.0,2065124.80256,0.0,0.0,0.0,0.0,0.0,0.0
1402598309562492333,0,17.00832792,-0.114322152727,-22.354760225,0.043815185726,-0.0898220439877,0.0,0.481275633195,0.0,1.71313267879,0.0,0.0,0.0,0.0,1.58015073163,-5.43895861515,62.453323744,0.303035108251,-100.0,0.255470124883,100.0,0.311064180113,-100.0,0.254418150756,100.0,2065124.80256,0.0,0.0,0.0,0.0,0.0,0.0
1402598309583048447,0,17.0030616605,-0.114322152727,-22.3264774082,0.043815185726,-0.0891803050015,0.0,0.465548906149,0.0,1.75668035972,0.0,0.0,0.0,0.0,1.58015073163,-5.43895861515,62.453323744,0.303035108251,-100.0,0.257004586858,100.0,0.311064180113,-100.0,0.254418150756,100.0,2065124.80256,0.0,0.0,0.0,0.0,0.0,0.0
1402598309602501584,0,17.0030616605,-0.114322152727,-22.3264774082,0.043815185726,-0.0891803050015,0.0,0.465548906149,0.0,1.75668035972,0.0,0.0,0.0,0.0,1.58015073163,-5.43895861515,62.453323744,0.303035108251,-100.0,0.255470124883,100.0,0.311064180113,-100.0,0.254418150756,100.0,2065124.80256,0.0,0.0,0.0,0.0,0.0,0.0
1402598309623033321,0,16.987341601,-0.114322152727,-22.3013403404,0.043815185726,-0.119870481749,0.0,0.451689884766,0.0,1.80228258138,0.0,0.0,0.0,0.0,1.58015073163,-5.43895861515,62.453323744,0.301500646276,-100.0,0.255470124883,100.0,0.311064180113,-100.0,0.254418150756,100.0,2065124.80256,0.0,0.0,0.0,0.0,0.0,0.0
1402598309642567268,0,16.987341601,-0.114322152727,-22.3013403404,0.043815185726,-0.119870481749,0.0,0.451689884766,0.0,1.80228258138,0.0,0.0,0.0,0.0,1.58015073163,-5.43895861515,62.453323744,0.301500646276,-100.0,0.255470124883,100.0,0.311064180113,-100.0,0.254418150756,100.0,2065124.80256,0.0,0.0,0.0,0.0,0.0,0.0
1402598309663089849,0,16.9850465306,-0.114322152727,-22.2923744623,0.043815185726,-0.122575767955,0.0,0.447535565959,0.0,1.81933812062,0.0,0.0,0.0,0.0,1.58015073163,-5.43895861515,62.453323744,0.301500646276,-100.0,0.255470124883,100.0,0.311064180113,-100.0,0.254418150756,100.0,2065124.80256,0.0,0.0,0.0,0.0,0.0,0.0
