rosbagTimestamp,control_method,x_current,x_desired,y_current,y_desired,z_current,z_desired,x_velocity_current,x_velocity_desired,y_velocity_current,y_velocity_desired,z_velocity_current,z_velocity_desired,yaw_current,yaw_desired,yaw_velocity_current,yaw_velocity_desired,roll_current,roll_desired,roll_velocity_current,roll_velocity_desired,pitch_current,pitch_desired,pitch_velocity_current,pitch_velocity_desired,required_force_x,required_force_y,required_moment_z,resultant_force_x,resultant_force_y,resultant_moment_z,current_port_servo_angle,current_port_thruster_force,current_starboard_servo_angle,current_starboard_thruster_force,estimated_port_servo_angle,estimated_port_thruster_force,estimated_starboard_servo_angle,estimated_starboard_thruster_force,cost_value,step,user_defined_1,user_defined_2,user_defined_3,user_defined_4,user_defined_5
1402752900086890884,3,-8.07516732819,-0.00591572024346,9.19069268225,-0.122189614607,-2.16370036328,0.10862951003,-0.00466453681934,0.0,-0.0334062315408,0.0,0.128182480017,0.0,-1.82559413587,0.0,0.00721974392718,0.0,-0.000320254460966,0.0,-0.00554576857361,0.0,0.0736308056727,0.0,-0.0126848291355,0.0,0.0,0.0,0.0,50.0,-0.0,15.24,0.00230154196664,0.0,0.000767318410122,0.0,-0.0,0.0,-0.0,50.0,253628.8,0.0,0.0,0.0,0.0,0.0,0.0
1402752900106575828,3,-8.07308292174,-0.00591572024346,9.19078471711,-0.122189614607,-2.17032716339,0.10862951003,0.000744203994079,0.0,-0.0393816643156,0.0,0.129837736427,0.0,-1.82528921968,0.0,0.00886530224986,0.0,-0.000788385221907,0.0,-0.00321213490342,0.0,0.0741405182567,0.0,-0.0103327061409,0.0,0.0,0.0,0.0,50.0,-0.0,15.24,0.00230154196664,0.0,-0.000767381983555,0.0,-0.0,0.0,-0.0,50.0,253628.8,0.0,0.0,0.0,0.0,0.0,0.0
1402752900126462650,3,-8.07308292174,-0.00591572024346,9.19078471711,-0.122189614607,-2.17032716339,0.10862951003,0.000744203994079,0.0,-0.0393816643156,0.0,0.129837736427,0.0,-1.82528921968,0.0,0.00886530224986,0.0,-0.000788385221907,0.0,-0.00321213490342,0.0,0.0741405182567,0.0,-0.0103327061409,0.0,0.0,0.0,0.0,50.0,-0.0,15.24,0.00230154196664,0.0,-0.000767381983555,0.0,-0.0,0.0,-0.0,50.0,253628.8,0.0,0.0,0.0,0.0,0.0,0.0
1402752900146315773,3,-8.07808451677,-0.00591572024346,9.19210639306,-0.122189614607,-2.17635131109,0.10862951003,-0.00995341221233,0.0,-0.0399741755165,0.0,0.130190665603,0.0,-1.82478562576,0.0,0.00780394976149,0.0,0.000620253738069,0.0,-0.00972328268389,0.0,0.0741790962772,0.0,-0.00329893490264,0.0,0.0,0.0,0.0,50.0,-0.0,15.24,0.00230154196664,0.0,-0.000767381983555,0.0,-0.0,0.0,-0.0,50.0,253628.8,0.0,0.0,0.0,0.0,0.0,0.0
1402752900166722949,3,-8.07808451677,-0.00591572024346,9.19210639306,-0.122189614607,-2.17635131109,0.10862951003,-0.00995341221233,0.0,-0.0399741755165,0.0,0.130190665603,0.0,-1.82478562576,0.0,0.00780394976149,0.0,0.000620253738069,0.0,-0.00972328268389,0.0,0.0741790962772,0.0,-0.00329893490264,0.0,0.0,0.0,0.0,50.0,-0.0,15.24,0.00230154196664,0.0,0.000767318410122,0.0,-0.0,0.0,-0.0,50.0,253628.8,0.0,0.0,0.0,0.0,0.0,0.0
1402752900186689672,3,-8.06799590108,-0.00591572024346,9.18887781842,-0.122189614607,-2.16695708994,0.10862951003,0.0101435980926,0.0,-0.041640421583,0.0,0.133812912729,0.0,-1.82459238367,0.0,0.00350072660844,0.0,-0.00135433514177,0.0,-0.0128085405306,0.0,0.073237245231,0.0,-0.0104019834881,0.0,0.0,0.0,0.0,50.0,-0.0,15.24,0.00230154196664,0.0,0.000767318410122,0.0,-0.0,0.0,-0.0,50.0,253628.8,0.0,0.0,0.0,0.0,0.0,0.0
1402752900206945405,3,-8.06799590108,-0.00591572024346,9.18887781842,-0.122189614607,-2.16695708994,0.10862951003,0.0101435980926,0.0,-0.041640421583,0.0,0.133812912729,0.0,-1.82459238367,0.0,0.00350072660844,0.0,-0.00135433514177,0.0,-0.0128085405306,0.0,0.073237245231,0.0,-0.0104019834881,0.0,0.0,0.0,0.0,50.0,-0.0,15.24,0.00230154196664,0.0,0.000767318410122,0.0,-0.0,0.0,-0.0,50.0,253628.8,0.0,0.0,0.0,0.0,0.0,0.0
1402752900226539385,3,-8.07053857975,-0.00591572024346,9.19662171938,-0.122189614607,-2.1863097854,0.10862951003,0.010196702455,0.0,-0.0339030537219,0.0,0.13032076548,0.0,-1.82446283427,0.0,0.00415088977946,0.0,-0.000957423231929,0.0,-0.0125288460859,0.0,0.0722115697841,0.0,0.00652523805147,0.0,0.0,0.0,0.0,50.0,-0.0,15.24,0.00230154196664,0.0,-0.000767381983555,0.0,-0.0,0.0,-0.0,50.0,253628.8,0.0,0.0,0.0,0.0,0.0,0.0
1402752900247065755,3,-8.07053857975,-0.00591572024346,9.19662171938,-0.122189614607,-2.1863097854,0.10862951003,0.010196702455,0.0,-0.0339030537219,0.0,0.13032076548,0.0,-1.82446283427,0.0,0.00415088977946,0.0,-0.000957423231929,0.0,-0.0125288460859,0.0,0.0722115697841,0.0,0.00652523805147,0.0,0.0,0.0,0.0,50.0,-0.0,15.24,0.00230154196664,0.0,-0.000767381983555,0.0,-0.0,0.0,-0.0,50.0,253628.8,0.0,0.0,0.0,0.0,0.0,0.0
1402752900266945864,3,-8.07013867391,-0.00591572024346,9.19525156997,-0.122189614607,-2.18089109046,0.10862951003,0.00990412897363,0.0,-0.0342595522147,0.0,0.13158180354,0.0,-1.82422221456,0.0,0.0110191221044,0.0,-0.000908918955043,0.0,-0.0105946335957,0.0,0.0716565026053,0.0,0.0108899694108,0.0,0.0,0.0,0.0,50.0,-0.0,15.24,0.00230154196664,0.0,-0.000767381983555,0.0,-0.0,0.0,-0.0,50.0,253628.8,0.0,0.0,0.0,0.0,0.0,0.0
1402752900286549431,3,-8.07013867391,-0.00591572024346,9.19525156997,-0.122189614607,-2.18089109046,0.10862951003,0.00990412897363,0.0,-0.0342595522147,0.0,0.13158180354,0.0,-1.82422221456,0.0,0.0110191221044,0.0,-0.000908918955043,0.0,-0.0105946335957,0.0,0.0716565026053,0.0,0.0108899694108,0.0,0.0,0.0,0.0,50.0,-0.0,15.24,0.00230154196664,0.0,0.000767318410122,0.0,-0.0,0.0,-0.0,50.0,253628.8,0.0,0.0,0.0,0.0,0.0,0.0
1402752900306554003,3,-8.06991955639,-0.00591572024346,9.19374778342,-0.122189614607,-2.18023227716,0.10862951003,0.00786093031497,0.0,-0.0384659957454,0.0,0.132622493169,0.0,-1.82403007968,0.0,0.00913318588552,0.0,-0.000908474948769,0.0,-0.00975322069298,0.0,0.071644251422,0.0,0.00268855729796,0.0,0.0,0.0,0.0,50.0,-0.0,15.24,0.00230154196664,0.0,-0.000767381983555,0.0,-0.0,0.0,-0.0,50.0,253628.8,0.0,0.0,0.0,0.0,0.0,0.0
1402752900326659286,3,-8.06991955639,-0.00591572024346,9.19374778342,-0.122189614607,-2.18023227716,0.10862951003,0.00786093031497,0.0,-0.0384659957454,0.0,0.132622493169,0.0,-1.82403007968,0.0,0.00913318588552,0.0,-0.000908474948769,0.0,-0.00975322069298,0.0,0.071644251422,0.0,0.00268855729796,0.0,0.0,0.0,0.0,50.0,-0.0,15.24,0.00230154196664,0.0,-0.000767381983555,0.0,-0.0,0.0,-0.0,50.0,253628.8,0.0,0.0,0.0,0.0,0.0,0.0
1402752900346322859,3,-8.07619005217,-0.00591572024346,9.20012507467,-0.122189614607,-2.2031273606,0.10862951003,-0.00249515187998,0.0,-0.0399610693506,0.0,0.127918090409,0.0,-1.82363184675,0.0,0.0127771997531,0.0,-0.00010936498896,0.0,-0.0105593480591,0.0,0.0716903248273,0.0,0.00445112559512,0.0,0.0,0.0,0.0,50.0,-0.0,15.24,0.00230154196664,0.0,-0.000767381983555,0.0,-0.0,0.0,-0.0,50.0,253628.8,0.0,0.0,0.0,0.0,0.0,0.0
1402752900367729148,3,-8.07619005217,-0.00591572024346,9.20012507467,-0.122189614607,-2.2031273606,0.10862951003,-0.00249515187998,0.0,-0.0399610693506,0.0,0.127918090409,0.0,-1.82363184675,0.0,0.0127771997531,0.0,-0.00010936498896,0.0,-0.0105593480591,0.0,0.0716903248273,0.0,0.00445112559512,0.0,0.0,0.0,0.0,50.0,-0.0,15.24,0.00230154196664,0.0,-0.000767381983555,0.0,-0.0,0.0,-0.0,50.0,253628.8,0.0,0.0,0.0,0.0,0.0,0.0
1402752900386594019,3,-8.07241029896,-0.00591572024346,9.20229228655,-0.122189614607,-2.20006136829,0.10862951003,0.00438934790376,0.0,-0.0338878094861,0.0,0.128785836231,0.0,-1.82339505555,0.0,0.00381110095895,0.0,-0.000446634842835,0.0,-0.00798362702548,0.0,0.0702589109209,0.0,-0.00103457790153,0.0,0.0,0.0,0.0,50.0,-0.0,15.24,0.00230154196664,0.0,-0.000767381983555,0.0,-0.0,0.0,-0.0,50.0,253628.8,0.0,0.0,0.0,0.0,0.0,0.0
1402752900406721432,3,-8.07241029896,-0.00591572024346,9.20229228655,-0.122189614607,-2.20006136829,0.10862951003,0.00438934790376,0.0,-0.0338878094861,0.0,0.128785836231,0.0,-1.82339505555,0.0,0.00381110095895,0.0,-0.000446634842835,0.0,-0.00798362702548,0.0,0.0702589109209,0.0,-0.00103457790153,0.0,0.0,0.0,0.0,50.0,-0.0,15.24,0.00230154196664,0.0,-0.000767381983555,0.0,-0.0,0.0,-0.0,50.0,253628.8,0.0,0.0,0.0,0.0,0.0,0.0
1402752900426740178,3,-8.07534605901,-0.00591572024346,9.20563188643,-0.122189614607,-2.20843800451,0.10862951003,-0.000942852358802,0.0,-0.0325238483535,0.0,0.127378572429,0.0,-1.82301983852,0.0,0.0104240411606,0.0,8.87309030607e-05,0.0,-0.000871069878126,0.0,0.0699211923149,0.0,0.00488435268915,0.0,0.0,0.0,0.0,50.0,-0.0,15.24,0.00230154196664,0.0,0.000767318410122,0.0,-0.0,0.0,-0.0,50.0,253628.8,0.0,0.0,0.0,0.0,0.0,0.0
1402752900446851021,3,-8.07534605901,-0.00591572024346,9.20563188643,-0.122189614607,-2.20843800451,0.10862951003,-0.000942852358802,0.0,-0.0325238483535,0.0,0.127378572429,0.0,-1.82301983852,0.0,0.0104240411606,0.0,8.87309030607e-05,0.0,-0.000871069878126,0.0,0.0699211923149,0.0,0.00488435268915,0.0,0.0,0.0,0.0,50.0,-0.0,15.24,0.00230154196664,0.0,0.000767318410122,0.0,-0.0,0.0,-0.0,50.0,253628.8,0.0,0.0,0.0,0.0,0.0,0.0
1402752900466900055,3,-8.07545069078,-0.00591572024346,9.20432023399,-0.122189614607,-2.20330961198,0.10862951003,-0.000189862271412,0.0,-0.0327560561741,0.0,0.127084940144,0.0,-1.82261351036,0.0,0.00778682328793,0.0,-0.000146380790482,0.0,0.00112816353643,0.0,0.0697398288741,0.0,0.00467556027068,0.0,0.0,0.0,0.0,50.0,-0.0,15.24,0.00230154196664,0.0,-0.000767381983555,0.0,-0.0,0.0,-0.0,50.0,253628.8,0.0,0.0,0.0,0.0,0.0,0.0
1402752900487145271,3,-8.07545069078,-0.00591572024346,9.20432023399,-0.122189614607,-2.20330961198,0.10862951003,-0.000189862271412,0.0,-0.0327560561741,0.0,0.127084940144,0.0,-1.82261351036,0.0,0.00778682328793,0.0,-0.000146380790482,0.0,0.00112816353643,0.0,0.0697398288741,0.0,0.00467556027068,0.0,0.0,0.0,0.0,50.0,-0.0,15.24,0.00230154196664,0.0,-0.000767381983555,50.0,-0.0,0.0,-0.0,50.0,253628.8,0.0,0.0,0.0,0.0,0.0,0.0
1402752900506592872,3,-8.07112647253,-0.00591572024346,9.20235081761,-0.122189614607,-2.19478088929,0.10862951003,0.00336808124059,0.0,-0.035409353524,0.0,0.129104326115,0.0,-1.82248039135,0.0,0.00812630254145,0.0,-0.000730392370343,0.0,0.00344172449666,0.0,0.0699567605265,0.0,0.00256857990537,0.0,0.0,0.0,0.0,50.0,-0.0,15.24,0.00230154196664,0.0,0.000767318410122,50.0,-0.0,0.0,-0.0,50.0,253628.8,0.0,0.0,0.0,0.0,0.0,0.0
1402752900526625268,3,-8.07112647253,-0.00591572024346,9.20235081761,-0.122189614607,-2.19478088929,0.10862951003,0.00336808124059,0.0,-0.035409353524,0.0,0.129104326115,0.0,-1.82248039135,0.0,0.00812630254145,0.0,-0.000730392370343,0.0,0.00344172449666,0.0,0.0699567605265,0.0,0.00256857990537,0.0,0.0,0.0,0.0,50.0,-0.0,15.24,0.00230154196664,0.0,0.000767318410122,50.0,-0.0,0.0,-0.0,50.0,253628.8,0.0,0.0,0.0,0.0,0.0,0.0
1402752900547465960,3,-8.0710750938,-0.00591572024346,9.20093013104,-0.122189614607,-2.18965283025,0.10862951003,0.00335251252821,0.0,-0.0349520064567,0.0,0.128457250104,0.0,-1.82209005648,0.0,0.00763696086093,0.0,-0.00053481819591,0.0,0.00120022188146,0.0,0.0700016093895,0.0,-0.000820659369336,0.0,0.0,0.0,0.0,50.0,-0.0,15.24,0.00230154196664,0.0,0.00230154196664,50.0,-0.0,0.0,-0.0,50.0,253628.8,0.0,0.0,0.0,0.0,0.0,0.0
1402752900566494190,3,-8.0710750938,-0.00591572024346,9.20093013104,-0.122189614607,-2.18965283025,0.10862951003,0.00335251252821,0.0,-0.0349520064567,0.0,0.128457250104,0.0,-1.82209005648,0.0,0.00763696086093,0.0,-0.00053481819591,0.0,0.00120022188146,0.0,0.0700016093895,0.0,-0.000820659369336,0.0,0.0,0.0,0.0,50.0,-0.0,15.24,0.00230154196664,0.0,0.00230154196664,50.0,-0.0,0.0,-0.0,50.0,253628.8,0.0,0.0,0.0,0.0,0.0,0.0
1402752900586523550,3,-8.06940168492,-0.00591572024346,9.20451525054,-0.122189614607,-2.21492859467,0.10862951003,0.0112866764663,0.0,-0.0479842482738,0.0,0.123929131399,0.0,-1.82201883197,0.0,0.0142448421616,0.0,-0.00198934841417,0.0,0.00455482913337,0.0,0.0717153730605,0.0,-0.00206970910915,0.0,0.0,0.0,0.0,50.0,-0.0,15.24,0.00230154196664,0.0,-0.00843897660331,50.0,-0.0,0.0,-0.0,50.0,253628.8,0.0,0.0,0.0,0.0,0.0,0.0
1402752900606602135,3,-8.06940168492,-0.00591572024346,9.20451525054,-0.122189614607,-2.21492859467,0.10862951003,0.0112866764663,0.0,-0.0479842482738,0.0,0.123929131399,0.0,-1.82201883197,0.0,0.0142448421616,0.0,-0.00198934841417,0.0,0.00455482913337,0.0,0.0717153730605,0.0,-0.00206970910915,0.0,0.0,0.0,0.0,50.0,-0.0,15.24,0.00230154196664,0.0,-0.00690451462821,50.0,-0.0,0.0,-0.0,50.0,253628.8,0.0,0.0,0.0,0.0,0.0,0.0
1402752900626770780,3,-8.07235095317,-0.00591572024346,9.21205217915,-0.122189614607,-2.22135866826,0.10862951003,0.00594938435901,0.0,-0.0333288881906,0.0,0.1230338725,0.0,-1.82153405516,0.0,0.00484042123203,0.0,-0.000801968584351,0.0,0.00273552204852,0.0,0.0704209094939,0.0,-0.0112991299714,0.0,0.0,0.0,0.0,50.0,-0.0,15.24,0.00230154196664,0.0,-0.00383606751517,50.0,-0.0,0.0,-0.0,50.0,253628.8,0.0,0.0,0.0,0.0,0.0,0.0
1402752900646602700,3,-8.07235095317,-0.00591572024346,9.21205217915,-0.122189614607,-2.22135866826,0.10862951003,0.00594938435901,0.0,-0.0333288881906,0.0,0.1230338725,0.0,-1.82153405516,0.0,0.00484042123203,0.0,-0.000801968584351,0.0,0.00273552204852,0.0,0.0704209094939,0.0,-0.0112991299714,0.0,0.0,0.0,0.0,50.0,-0.0,15.24,0.00230154196664,0.0,-0.00383606751517,50.0,-0.0,0.0,-0.0,50.0,253628.8,0.0,0.0,0.0,0.0,0.0,0.0
1402752900666878421,3,-8.07820009919,-0.00591572024346,9.21862570746,-0.122189614607,-2.24108402337,0.10862951003,-0.00304932259311,0.0,-0.0517384960783,0.0,0.12205723087,0.0,-1.82079685186,0.0,0.0142546140579,0.0,-0.000228673565364,0.0,0.0128794160538,0.0,0.0716514820302,0.0,0.0435805218696,0.0,0.0,0.0,0.0,50.0,-0.0,15.24,0.00230154196664,0.0,-0.00383606751517,50.0,-0.0,0.0,-0.0,50.0,253628.8,0.0,0.0,0.0,0.0,0.0,0.0
1402752900686997264,3,-8.07820009919,-0.00591572024346,9.21862570746,-0.122189614607,-2.24108402337,0.10862951003,-0.00304932259311,0.0,-0.0517384960783,0.0,0.12205723087,0.0,-1.82079685186,0.0,0.0142546140579,0.0,-0.000228673565364,0.0,0.0128794160538,0.0,0.0716514820302,0.0,0.0435805218696,0.0,0.0,0.0,0.0,50.0,-0.0,15.24,0.00230154196664,0.0,-0.00383606751517,50.0,-0.0,0.0,-0.0,50.0,253628.8,0.0,0.0,0.0,0.0,0.0,0.0
1402752900706520825,3,-8.07336492253,-0.00591572024346,9.22604562006,-0.122189614607,-2.25202793469,0.10862951003,0.0129019347049,0.0,-0.0613796343131,0.0,0.120300987066,0.0,-1.81933424464,0.0,0.0462086477735,0.0,-0.000212857003415,0.0,-0.00641685802133,0.0,0.069678460477,0.0,0.0818413072666,0.0,0.0,0.0,0.0,50.0,-0.0,15.24,0.00230154196664,0.0,-0.00383606751517,50.0,-0.0,0.0,-0.0,50.0,253628.8,0.0,0.0,0.0,0.0,0.0,0.0
1402752900726728957,3,-8.07336492253,-0.00591572024346,9.22604562006,-0.122189614607,-2.25202793469,0.10862951003,0.0129019347049,0.0,-0.0613796343131,0.0,0.120300987066,0.0,-1.81933424464,0.0,0.0462086477735,0.0,-0.000212857003415,0.0,-0.00641685802133,0.0,0.069678460477,0.0,0.0818413072666,0.0,0.0,0.0,0.0,50.0,-0.0,15.24,0.00230154196664,0.0,-0.00383606751517,50.0,-0.0,0.0,-0.0,50.0,253628.8,0.0,0.0,0.0,0.0,0.0,0.0
1402752900746619655,3,-8.07325972772,-0.00591572024346,9.22457558878,-0.122189614607,-2.24932857457,0.10862951003,0.00663720962222,0.0,-0.0684196102576,0.0,0.123770724952,0.0,-1.81854685815,0.0,0.0345728580937,0.0,-0.000419474028129,0.0,-0.0230563879187,0.0,0.0693906657713,0.0,0.00727693350572,0.0,0.0,0.0,0.0,50.0,-0.0,15.24,0.00230154196664,0.0,-0.00383606751517,50.0,-0.0,0.0,-0.0,50.0,253628.8,0.0,0.0,0.0,0.0,0.0,0.0
1402752900766624549,3,-8.07325972772,-0.00591572024346,9.22457558878,-0.122189614607,-2.24932857457,0.10862951003,0.00663720962222,0.0,-0.0684196102576,0.0,0.123770724952,0.0,-1.81854685815,0.0,0.0345728580937,0.0,-0.000419474028129,0.0,-0.0230563879187,0.0,0.0693906657713,0.0,0.00727693350572,0.0,0.0,0.0,0.0,50.0,-0.0,15.24,0.00230154196664,0.0,-0.00383606751517,50.0,-0.0,0.0,-0.0,50.0,253628.8,0.0,0.0,0.0,0.0,0.0,0.0
1402752900786547557,3,-8.07384797072,-0.00591572024346,9.22759919825,-0.122189614607,-2.25293609936,0.10862951003,0.000772411580714,0.0,-0.0773856290584,0.0,0.130798178788,0.0,-1.81715313587,0.0,0.0408864867079,0.0,0.000607067404557,0.0,-0.0373183751094,0.0,0.0680448342068,0.0,0.00643708383387,0.0,0.0,0.0,0.0,50.0,-0.0,15.24,0.00230154196664,0.0,-0.00383606751517,50.0,-0.0,0.0,-0.0,50.0,253628.8,0.0,0.0,0.0,0.0,0.0,0.0
1402752900806352754,3,-8.07384797072,-0.00591572024346,9.22759919825,-0.122189614607,-2.25293609936,0.10862951003,0.000772411580714,0.0,-0.0773856290584,0.0,0.130798178788,0.0,-1.81715313587,0.0,0.0408864867079,0.0,0.000607067404557,0.0,-0.0373183751094,0.0,0.0680448342068,0.0,0.00643708383387,0.0,0.0,0.0,0.0,50.0,-0.0,15.24,0.00230154196664,0.0,-0.00383606751517,50.0,-0.0,0.0,-0.0,50.0,253628.8,0.0,0.0,0.0,0.0,0.0,0.0
1402752900826733111,3,-8.07405807422,-0.00591572024346,9.22857110957,-0.122189614607,-2.26767383491,0.10862951003,0.00253626474439,0.0,-0.0985740714845,0.0,0.14249141832,0.0,-1.81466299755,0.0,0.052319562922,0.0,0.000701561862436,0.0,-0.0312058554531,0.0,0.0679820496622,0.0,-0.00145564257581,0.0,0.0,0.0,0.0,50.0,-0.0,15.24,0.00230154196664,0.0,-0.00383606751517,50.0,-0.0,0.0,-0.0,50.0,253628.8,0.0,0.0,0.0,0.0,0.0,0.0
1402752900846603141,3,-8.07405807422,-0.00591572024346,9.22857110957,-0.122189614607,-2.26767383491,0.10862951003,0.00253626474439,0.0,-0.0985740714845,0.0,0.14249141832,0.0,-1.81466299755,0.0,0.052319562922,0.0,0.000701561862436,0.0,-0.0312058554531,0.0,0.0679820496622,0.0,-0.00145564257581,0.0,0.0,0.0,0.0,50.0,-0.0,15.24,0.00230154196664,0.0,-0.00383606751517,50.0,-0.0,0.0,-0.0,50.0,253628.8,0.0,0.0,0.0,0.0,0.0,0.0
1402752900867515685,3,-8.0739859884,-0.00591572024346,9.22429526748,-0.122189614607,-2.2619988732,0.10862951003,0.00108761463175,0.0,-0.111031272814,0.0,0.140350733344,0.0,-1.81237113964,0.0,0.059838024718,0.0,0.00117261176615,0.0,-0.0386997651624,0.0,0.0666077277096,0.0,0.0055786380974,0.0,0.0,0.0,0.0,50.0,-0.0,15.24,0.00230154196664,0.0,-0.00383606751517,50.0,-0.0,0.0,-0.0,50.0,253628.8,0.0,0.0,0.0,0.0,0.0,0.0
1402752900886390227,3,-8.0739859884,-0.00591572024346,9.22429526748,-0.122189614607,-2.2619988732,0.10862951003,0.00108761463175,0.0,-0.111031272814,0.0,0.140350733344,0.0,-1.81237113964,0.0,0.059838024718,0.0,0.00117261176615,0.0,-0.0386997651624,0.0,0.0666077277096,0.0,0.0055786380974,0.0,0.0,0.0,0.0,50.0,-0.0,15.24,0.00230154196664,0.0,-0.00383606751517,50.0,-0.0,0.0,-0.0,50.0,253628.8,0.0,0.0,0.0,0.0,0.0,0.0
1402752900907443694,3,-8.07698115086,-0.00591572024346,9.22493068928,-0.122189614607,-2.25981679116,0.10862951003,-0.0132101193512,0.0,-0.118076905914,0.0,0.14163408617,0.0,-1.81071038246,0.0,0.0688051861826,0.0,0.00334364217678,0.0,-0.0371928400167,0.0,0.0648875109261,0.0,-0.0113031313167,0.0,0.0,0.0,0.0,50.0,-0.0,15.24,0.00230154196664,0.0,-0.00383606751517,50.0,-0.0,0.0,-0.0,50.0,253628.8,0.0,0.0,0.0,0.0,0.0,0.0
1402752900926701093,3,-8.07698115086,-0.00591572024346,9.22493068928,-0.122189614607,-2.25981679116,0.10862951003,-0.0132101193512,0.0,-0.118076905914,0.0,0.14163408617,0.0,-1.81071038246,0.0,0.0688051861826,0.0,0.00334364217678,0.0,-0.0371928400167,0.0,0.0648875109261,0.0,-0.0113031313167,0.0,0.0,0.0,0.0,50.0,-0.0,15.24,0.00230154196664,0.0,-0.00383606751517,50.0,-0.0,0.0,-0.0,50.0,253628.8,0.0,0.0,0.0,0.0,0.0,0.0
1402752900946363899,3,-8.07985480608,-0.00591572024346,9.23243650115,-0.122189614607,-2.28347923399,0.10862951003,-0.0127726658522,0.0,-0.125537115305,0.0,0.13763959927,0.0,-1.80819970832,0.0,0.0666307886061,0.0,0.00392990983873,0.0,-0.0294347902809,0.0,0.0632615216187,0.0,-0.016879225567,0.0,0.0,0.0,0.0,50.0,-0.0,15.24,0.00230154196664,0.0,-0.00383606751517,50.0,-0.0,0.0,-0.0,50.0,253628.8,0.0,0.0,0.0,0.0,0.0,0.0
1402752900966940172,3,-8.07985480608,-0.00591572024346,9.23243650115,-0.122189614607,-2.28347923399,0.10862951003,-0.0127726658522,0.0,-0.125537115305,0.0,0.13763959927,0.0,-1.80819970832,0.0,0.0666307886061,0.0,0.00392990983873,0.0,-0.0294347902809,0.0,0.0632615216187,0.0,-0.016879225567,0.0,0.0,0.0,0.0,50.0,-0.0,15.24,0.00230154196664,0.0,-0.00383606751517,50.0,-0.0,0.0,-0.0,50.0,253628.8,0.0,0.0,0.0,0.0,0.0,0.0
1402752900986553035,3,-8.07245811796,-0.00591572024346,9.23163797066,-0.122189614607,-2.29129579302,0.10862951003,0.00587732073997,0.0,-0.142365776617,0.0,0.13674862265,0.0,-1.80395227978,0.0,0.0740294253549,0.0,0.0022289348829,0.0,-0.0169256184218,0.0,0.062445901326,0.0,-0.00331342004864,0.0,0.0,0.0,0.0,50.0,-0.0,15.24,0.00230154196664,0.0,-0.00383606751517,50.0,-0.0,0.0,-0.0,50.0,253628.8,0.0,0.0,0.0,0.0,0.0,0.0
1402752901006426359,3,-8.07245811796,-0.00591572024346,9.23163797066,-0.122189614607,-2.29129579302,0.10862951003,0.00587732073997,0.0,-0.142365776617,0.0,0.13674862265,0.0,-1.80395227978,0.0,0.0740294253549,0.0,0.0022289348829,0.0,-0.0169256184218,0.0,0.062445901326,0.0,-0.00331342004864,0.0,0.0,0.0,0.0,50.0,-0.0,15.24,0.00230154196664,0.0,-0.00383606751517,50.0,-0.0,0.0,-0.0,50.0,253628.8,0.0,0.0,0.0,0.0,0.0,0.0
1402752901026435770,3,-8.07710782844,-0.00591572024346,9.22676641765,-0.122189614607,-2.28721064432,0.10862951003,-0.00799687601724,0.0,-0.159979625932,0.0,0.137871028817,0.0,-1.80158847974,0.0,0.0856030218382,0.0,0.00391200086659,0.0,-0.00161887367791,0.0,0.0629136206724,0.0,0.00454325036005,0.0,0.0,0.0,0.0,50.0,-0.0,15.24,0.00230154196664,0.0,-0.00383606751517,50.0,-0.0,0.0,-0.0,50.0,253628.8,0.0,0.0,0.0,0.0,0.0,0.0
1402752901046714718,3,-8.07710782844,-0.00591572024346,9.22676641765,-0.122189614607,-2.28721064432,0.10862951003,-0.00799687601724,0.0,-0.159979625932,0.0,0.137871028817,0.0,-1.80158847974,0.0,0.0856030218382,0.0,0.00391200086659,0.0,-0.00161887367791,0.0,0.0629136206724,0.0,0.00454325036005,0.0,0.0,0.0,0.0,50.0,-0.0,15.24,0.00230154196664,0.0,-0.00383606751517,50.0,-0.0,0.0,-0.0,50.0,253628.8,0.0,0.0,0.0,0.0,0.0,0.0
1402752901066588235,3,-8.0773758384,-0.00591572024346,9.2200296112,-0.122189614607,-2.28165828716,0.10862951003,-0.00711549597244,0.0,-0.172840839602,0.0,0.136483568464,0.0,-1.79797915436,0.0,0.0912041656914,0.0,0.00390696651011,0.0,0.0067801548666,0.0,0.0629623384924,0.0,0.00131656072403,0.0,0.0,0.0,0.0,50.0,-0.0,15.24,0.00230154196664,0.0,-0.00383606751517,50.0,-0.0,0.0,-0.0,50.0,253628.8,0.0,0.0,0.0,0.0,0.0,0.0
1402752901086773334,3,-8.0773758384,-0.00591572024346,9.2200296112,-0.122189614607,-2.28165828716,0.10862951003,-0.00711549597244,0.0,-0.172840839602,0.0,0.136483568464,0.0,-1.79797915436,0.0,0.0912041656914,0.0,0.00390696651011,0.0,0.0067801548666,0.0,0.0629623384924,0.0,0.00131656072403,0.0,0.0,0.0,0.0,50.0,-0.0,15.24,0.00230154196664,0.0,-0.00383606751517,50.0,-0.0,0.0,-0.0,50.0,253628.8,0.0,0.0,0.0,0.0,0.0,0.0
1402752901106852338,3,-8.07828862548,-0.00591572024346,9.2424836575,-0.122189614607,-2.32110767916,0.10862951003,-0.00760158361107,0.0,-0.160272736878,0.0,0.130810021154,0.0,-1.79514284222,0.0,0.0923296351331,0.0,0.00449462441091,0.0,0.0222131986485,0.0,0.0607032520261,0.0,0.00669224976467,0.0,0.0,0.0,0.0,50.0,-0.0,15.24,0.00230154196664,0.0,-0.00383606751517,50.0,-0.0,0.0,-0.0,50.0,253628.8,0.0,0.0,0.0,0.0,0.0,0.0
1402752901126480318,3,-8.07828862548,-0.00591572024346,9.2424836575,-0.122189614607,-2.32110767916,0.10862951003,-0.00760158361107,0.0,-0.160272736878,0.0,0.130810021154,0.0,-1.79514284222,0.0,0.0923296351331,0.0,0.00449462441091,0.0,0.0222131986485,0.0,0.0607032520261,0.0,0.00669224976467,0.0,0.0,0.0,0.0,50.0,-0.0,15.24,0.00230154196664,0.0,-0.00383606751517,50.0,-0.0,0.0,-0.0,50.0,253628.8,0.0,0.0,0.0,0.0,0.0,0.0
1402752901146568515,3,-8.0785864781,-0.00591572024346,9.23738195148,-0.122189614607,-2.3170129769,0.10862951003,-0.00792899598369,0.0,-0.168525353981,0.0,0.131056755821,0.0,-1.79212176642,0.0,0.102492817873,0.0,0.00415266577458,0.0,0.0297278408119,0.0,0.061470236287,0.0,0.0116097772875,0.0,0.0,0.0,0.0,50.0,-0.0,15.24,0.00230154196664,0.0,-0.00383606751517,50.0,-0.0,0.0,-0.0,50.0,253628.8,0.0,0.0,0.0,0.0,0.0,0.0
1402752901166480798,3,-8.08369424992,-0.00591572024346,9.23834540598,-0.122189614607,-2.32860271888,0.10862951003,-0.0215204872044,0.0,-0.177631357826,0.0,0.128894321163,0.0,-1.79058798305,0.0,0.106206596283,0.0,0.005140611795,0.0,0.0266501935334,0.0,0.0628620390796,0.0,-0.00754991695518,0.0,0.0,0.0,0.0,50.0,-0.0,15.24,0.00230154196664,0.0,-0.00383606751517,50.0,-0.0,0.0,-0.0,50.0,253628.8,0.0,0.0,0.0,0.0,0.0,0.0
1402752901186486629,3,-8.08369424992,-0.00591572024346,9.23834540598,-0.122189614607,-2.32860271888,0.10862951003,-0.0215204872044,0.0,-0.177631357826,0.0,0.128894321163,0.0,-1.79058798305,0.0,0.106206596283,0.0,0.005140611795,0.0,0.0266501935334,0.0,0.0628620390796,0.0,-0.00754991695518,0.0,0.0,0.0,0.0,50.0,-0.0,15.24,0.00230154196664,0.0,-0.00383606751517,50.0,-0.0,0.0,-0.0,50.0,253628.8,0.0,0.0,0.0,0.0,0.0,0.0
1402752901207313866,3,-8.08406738642,-0.00591572024346,9.23456571999,-0.122189614607,-2.32584060158,0.10862951003,-0.0196106928653,0.0,-0.183483239722,0.0,0.127996358374,0.0,-1.78851047845,0.0,0.106300039816,0.0,0.00479090827559,0.0,0.0314040681446,0.0,0.0633893585704,0.0,0.0127027721834,0.0,0.0,0.0,0.0,50.0,-0.0,15.24,0.00230154196664,0.0,-0.00383606751517,50.0,-0.0,0.0,-0.0,50.0,253628.8,0.0,0.0,0.0,0.0,0.0,0.0
1402752901226528614,3,-8.08406738642,-0.00591572024346,9.23456571999,-0.122189614607,-2.32584060158,0.10862951003,-0.0196106928653,0.0,-0.183483239722,0.0,0.127996358374,0.0,-1.78851047845,0.0,0.106300039816,0.0,0.00479090827559,0.0,0.0314040681446,0.0,0.0633893585704,0.0,0.0127027721834,0.0,0.0,0.0,0.0,50.0,-0.0,15.24,0.00230154196664,0.0,-0.00383606751517,50.0,-0.0,0.0,-0.0,50.0,253628.8,0.0,0.0,0.0,0.0,0.0,0.0
1402752901246852047,3,-8.08426151381,-0.00591572024346,9.23300583324,-0.122189614607,-2.34091785888,0.10862951003,-0.0189369664931,0.0,-0.197055551054,0.0,0.125626351525,0.0,-1.78342330311,0.0,0.116806730769,0.0,0.00378032255733,0.0,0.0341318992468,0.0,0.0650072733488,0.0,0.00821558020905,0.0,0.0,0.0,0.0,50.0,-0.0,15.24,0.00230154196664,0.0,-0.00383606751517,50.0,-0.0,0.0,-0.0,50.0,253628.8,0.0,0.0,0.0,0.0,0.0,0.0
1402752901266445112,3,-8.08426151381,-0.00591572024346,9.23300583324,-0.122189614607,-2.34091785888,0.10862951003,-0.0189369664931,0.0,-0.197055551054,0.0,0.125626351525,0.0,-1.78342330311,0.0,0.116806730769,0.0,0.00378032255733,0.0,0.0341318992468,0.0,0.0650072733488,0.0,0.00821558020905,0.0,0.0,0.0,0.0,50.0,-0.0,15.24,0.00230154196664,0.0,-0.00383606751517,50.0,-0.0,0.0,-0.0,50.0,253628.8,0.0,0.0,0.0,0.0,0.0,0.0
1402752901287439689,3,-8.08516260953,-0.00591572024346,9.23547884506,-0.122189614607,-2.34214821886,0.10862951003,-0.0208658798846,0.0,-0.188924236859,0.0,0.127364644726,0.0,-1.77959970726,0.0,0.117230764971,0.0,0.00366819364882,0.0,0.0298910977285,0.0,0.0641897985641,0.0,0.0113426222606,0.0,0.0,0.0,0.0,50.0,-0.0,15.24,0.00230154196664,0.0,-0.00383606751517,50.0,-0.0,0.0,-0.0,50.0,253628.8,0.0,0.0,0.0,0.0,0.0,0.0
1402752901307241706,3,-8.08516260953,-0.00591572024346,9.23547884506,-0.122189614607,-2.34214821886,0.10862951003,-0.0208658798846,0.0,-0.188924236859,0.0,0.127364644726,0.0,-1.77959970726,0.0,0.117230764971,0.0,0.00366819364882,0.0,0.0298910977285,0.0,0.0641897985641,0.0,0.0113426222606,0.0,0.0,0.0,0.0,50.0,-0.0,15.24,0.00230154196664,0.0,-0.00383606751517,50.0,-0.0,0.0,-0.0,50.0,253628.8,0.0,0.0,0.0,0.0,0.0,0.0
1402752901326450656,3,-8.09633926981,-0.00591572024346,9.23401004003,-0.122189614607,-2.346962806,0.10862951003,-0.0445236901329,0.0,-0.191844385046,0.0,0.127804818773,0.0,-1.77627206879,0.0,0.122685850857,0.0,0.0055415563005,0.0,0.0210926804951,0.0,0.0650335142193,0.0,0.00635856288092,0.0,0.0,0.0,0.0,50.0,-0.0,15.24,0.00230154196664,0.0,-0.00383606751517,50.0,-0.0,0.0,-0.0,50.0,253628.8,0.0,0.0,0.0,0.0,0.0,0.0
1402752901346406733,3,-8.09633926981,-0.00591572024346,9.23401004003,-0.122189614607,-2.346962806,0.10862951003,-0.0445236901329,0.0,-0.191844385046,0.0,0.127804818773,0.0,-1.77627206879,0.0,0.122685850857,0.0,0.0055415563005,0.0,0.0210926804951,0.0,0.0650335142193,0.0,0.00635856288092,0.0,0.0,0.0,0.0,50.0,-0.0,15.24,0.00230154196664,0.0,-0.00383606751517,50.0,-0.0,0.0,-0.0,50.0,253628.8,0.0,0.0,0.0,0.0,0.0,0.0
1402752901366603420,3,-8.09819784522,-0.00591572024346,9.2260639636,-0.122189614607,-2.34180006729,0.10862951003,-0.0467411823107,0.0,-0.199532942417,0.0,0.129246204255,0.0,-1.77104175919,0.0,0.125668740725,0.0,0.00531921010272,0.0,0.010248676442,0.0,0.0656187965862,0.0,0.00590533375473,0.0,0.0,0.0,0.0,50.0,-0.0,15.24,0.00230154196664,0.0,-0.00383606751517,50.0,-0.0,0.0,-0.0,50.0,253628.8,0.0,0.0,0.0,0.0,0.0,0.0
1402752901386393222,3,-8.09819784522,-0.00591572024346,9.2260639636,-0.122189614607,-2.34180006729,0.10862951003,-0.0467411823107,0.0,-0.199532942417,0.0,0.129246204255,0.0,-1.77104175919,0.0,0.125668740725,0.0,0.00531921010272,0.0,0.010248676442,0.0,0.0656187965862,0.0,0.00590533375473,0.0,0.0,0.0,0.0,50.0,-0.0,15.24,0.00230154196664,0.0,-0.00383606751517,50.0,-0.0,0.0,-0.0,50.0,253628.8,0.0,0.0,0.0,0.0,0.0,0.0
1402752901406472430,3,-8.09286236177,-0.00591572024346,9.213645202,-0.122189614607,-2.34183409916,0.10862951003,-0.0331400926545,0.0,-0.222977136176,0.0,0.132862321126,0.0,-1.76400749571,0.0,0.128527532905,0.0,0.00298980309662,0.0,0.0110899549523,0.0,0.0674735952191,0.0,-0.00477900562344,0.0,0.0,0.0,0.0,50.0,-0.0,15.24,0.00230154196664,0.0,-0.00383606751517,50.0,-0.0,0.0,-0.0,50.0,253628.8,0.0,0.0,0.0,0.0,0.0,0.0
1402752901426490988,3,-8.09286236177,-0.00591572024346,9.213645202,-0.122189614607,-2.34183409916,0.10862951003,-0.0331400926545,0.0,-0.222977136176,0.0,0.132862321126,0.0,-1.76400749571,0.0,0.128527532905,0.0,0.00298980309662,0.0,0.0110899549523,0.0,0.0674735952191,0.0,-0.00477900562344,0.0,0.0,0.0,0.0,50.0,-0.0,15.24,0.00230154196664,0.0,-0.00383606751517,50.0,-0.0,0.0,-0.0,50.0,253628.8,0.0,0.0,0.0,0.0,0.0,0.0
1402752901446919995,3,-8.09282957594,-0.00591572024346,9.21177576912,-0.122189614607,-2.34426707471,0.10862951003,-0.0273788401965,0.0,-0.219074116907,0.0,0.136074619365,0.0,-1.75726751249,0.0,0.135038910353,0.0,0.00228539023409,0.0,-0.00153286619995,0.0,0.0659775587011,0.0,-0.00188247138555,0.0,0.0,0.0,0.0,50.0,-0.0,15.24,0.00230154196664,0.0,-0.00383606751517,50.0,-0.0,0.0,-0.0,50.0,253628.8,0.0,0.0,0.0,0.0,0.0,0.0
1402752901466471126,3,-8.09282957594,-0.00591572024346,9.21177576912,-0.122189614607,-2.34426707471,0.10862951003,-0.0273788401965,0.0,-0.219074116907,0.0,0.136074619365,0.0,-1.75726751249,0.0,0.135038910353,0.0,0.00228539023409,0.0,-0.00153286619995,0.0,0.0659775587011,0.0,-0.00188247138555,0.0,0.0,0.0,0.0,50.0,-0.0,15.24,0.00230154196664,0.0,-0.00383606751517,50.0,-0.0,0.0,-0.0,50.0,253628.8,0.0,0.0,0.0,0.0,0.0,0.0
1402752901487248338,3,-8.10345351387,-0.00591572024346,9.19405726475,-0.122189614607,-2.35974868972,0.10862951003,-0.0391002334808,0.0,-0.259309386296,0.0,0.133655076775,0.0,-1.74914917657,0.0,0.140481614438,0.0,0.0025373231308,0.0,-0.00527579088205,0.0,0.0693785026899,0.0,-0.00443142045558,0.0,0.0,0.0,0.0,50.0,-0.0,15.24,0.00230154196664,0.0,-0.00383606751517,50.0,-0.0,0.0,-0.0,50.0,253628.8,0.0,0.0,0.0,0.0,0.0,0.0
1402752901506291049,3,-8.10345351387,-0.00591572024346,9.19405726475,-0.122189614607,-2.35974868972,0.10862951003,-0.0391002334808,0.0,-0.259309386296,0.0,0.133655076775,0.0,-1.74914917657,0.0,0.140481614438,0.0,0.0025373231308,0.0,-0.00527579088205,0.0,0.0693785026899,0.0,-0.00443142045558,0.0,0.0,0.0,0.0,50.0,-0.0,15.24,0.00230154196664,0.0,-0.00383606751517,50.0,-0.0,0.0,-0.0,50.0,253628.8,0.0,0.0,0.0,0.0,0.0,0.0
1402752901526450711,3,-8.10427609233,-0.00591572024346,9.18856725008,-0.122189614607,-2.35694947439,0.10862951003,-0.0374310782164,0.0,-0.264319613493,0.0,0.135237634879,0.0,-1.74622095963,0.0,0.139554880748,0.0,0.00262946591475,0.0,-0.00927105820359,0.0,0.0691952102237,0.0,0.00400085663248,0.0,0.0,0.0,0.0,50.0,-0.0,15.24,0.00230154196664,0.0,-0.00383606751517,50.0,-0.0,0.0,-0.0,50.0,253628.8,0.0,0.0,0.0,0.0,0.0,0.0
1402752901546391547,3,-8.10427609233,-0.00591572024346,9.18856725008,-0.122189614607,-2.35694947439,0.10862951003,-0.0374310782164,0.0,-0.264319613493,0.0,0.135237634879,0.0,-1.74622095963,0.0,0.139554880748,0.0,0.00262946591475,0.0,-0.00927105820359,0.0,0.0691952102237,0.0,0.00400085663248,0.0,0.0,0.0,0.0,50.0,-0.0,15.24,0.00230154196664,0.0,-0.00383606751517,50.0,-0.0,0.0,-0.0,50.0,253628.8,0.0,0.0,0.0,0.0,0.0,0.0
1402752901566820806,3,-8.10585424887,-0.00591572024346,9.17705064955,-0.122189614607,-2.34976318382,0.10862951003,-0.039668722638,0.0,-0.27607845683,0.0,0.138773823789,0.0,-1.74020528478,0.0,0.14915310373,0.0,0.00278761915584,0.0,-0.0132002017864,0.0,0.069024380136,0.0,-0.00221363466934,0.0,0.0,0.0,0.0,50.0,-0.0,15.24,0.00230154196664,0.0,-0.00383606751517,50.0,-0.0,0.0,-0.0,50.0,253628.8,0.0,0.0,0.0,0.0,0.0,0.0
1402752901586485237,3,-8.10585424887,-0.00591572024346,9.17705064955,-0.122189614607,-2.34976318382,0.10862951003,-0.039668722638,0.0,-0.27607845683,0.0,0.138773823789,0.0,-1.74020528478,0.0,0.14915310373,0.0,0.00278761915584,0.0,-0.0132002017864,0.0,0.069024380136,0.0,-0.00221363466934,0.0,0.0,0.0,0.0,50.0,-0.0,15.24,0.00230154196664,0.0,-0.00383606751517,50.0,-0.0,0.0,-0.0,50.0,253628.8,0.0,0.0,0.0,0.0,0.0,0.0
1402752901606952752,3,-8.1083740238,-0.00591572024346,9.16455375822,-0.122189614607,-2.35064039991,0.10862951003,-0.0392373030873,0.0,-0.296074316478,0.0,0.140313807334,0.0,-1.73392068537,0.0,0.147729434883,0.0,0.00298180387139,0.0,-0.0113353920577,0.0,0.0695423213661,0.0,-0.00246671200327,0.0,0.0,0.0,0.0,50.0,-0.0,15.24,0.00230154196664,0.0,-0.00383606751517,50.0,-0.0,0.0,-0.0,50.0,253628.8,0.0,0.0,0.0,0.0,0.0,0.0
1402752901626680527,3,-8.1083740238,-0.00591572024346,9.16455375822,-0.122189614607,-2.35064039991,0.10862951003,-0.0392373030873,0.0,-0.296074316478,0.0,0.140313807334,0.0,-1.73392068537,0.0,0.147729434883,0.0,0.00298180387139,0.0,-0.0113353920577,0.0,0.0695423213661,0.0,-0.00246671200327,0.0,0.0,0.0,0.0,50.0,-0.0,15.24,0.00230154196664,0.0,-0.00383606751517,50.0,-0.0,0.0,-0.0,50.0,253628.8,0.0,0.0,0.0,0.0,0.0,0.0
1402752901646693833,3,-8.1144287918,-0.00591572024346,9.16044709449,-0.122189614607,-2.36827443692,0.10862951003,-0.0431135484781,0.0,-0.304048454519,0.0,0.136143454573,0.0,-1.72783105284,0.0,0.155328040926,0.0,0.00372683265489,0.0,-0.0212133143861,0.0,0.0689427160705,0.0,-0.00903299673669,0.0,0.0,0.0,0.0,50.0,-0.0,15.24,0.00230154196664,0.0,-0.00383606751517,50.0,-0.0,0.0,-0.0,50.0,253628.8,0.0,0.0,0.0,0.0,0.0,0.0
1402752901666412014,3,-8.1144287918,-0.00591572024346,9.16044709449,-0.122189614607,-2.36827443692,0.10862951003,-0.0431135484781,0.0,-0.304048454519,0.0,0.136143454573,0.0,-1.72783105284,0.0,0.155328040926,0.0,0.00372683265489,0.0,-0.0212133143861,0.0,0.0689427160705,0.0,-0.00903299673669,0.0,0.0,0.0,0.0,50.0,-0.0,15.24,0.00230154196664,0.0,-0.00383606751517,50.0,-0.0,0.0,-0.0,50.0,253628.8,0.0,0.0,0.0,0.0,0.0,0.0
1402752901686542756,3,-8.11648929783,-0.00591572024346,9.14974103842,-0.122189614607,-2.36275758665,0.10862951003,-0.0413886219633,0.0,-0.311969524645,0.0,0.137645210948,0.0,-1.72166451054,0.0,0.161279802845,0.0,0.00414535817489,0.0,-0.0137438407568,0.0,0.068159826466,0.0,-0.0127055570802,0.0,0.0,0.0,0.0,50.0,-0.0,15.24,0.00230154196664,0.0,-0.00383606751517,50.0,-0.0,0.0,-0.0,50.0,253628.8,0.0,0.0,0.0,0.0,0.0,0.0
1402752901706515385,3,-8.11648929783,-0.00591572024346,9.14974103842,-0.122189614607,-2.36275758665,0.10862951003,-0.0413886219633,0.0,-0.311969524645,0.0,0.137645210948,0.0,-1.72166451054,0.0,0.161279802845,0.0,0.00414535817489,0.0,-0.0137438407568,0.0,0.068159826466,0.0,-0.0127055570802,0.0,0.0,0.0,0.0,50.0,-0.0,15.24,0.00230154196664,0.0,-0.00383606751517,50.0,-0.0,0.0,-0.0,50.0,253628.8,0.0,0.0,0.0,0.0,0.0,0.0
1402752901726424201,3,-8.12267174991,-0.00591572024346,9.15004950042,-0.122189614607,-2.36706499768,0.10862951003,-0.0458128724029,0.0,-0.300672463126,0.0,0.136429016316,0.0,-1.71572088872,0.0,0.159207099143,0.0,0.00575828918512,0.0,-0.00348664784568,0.0,0.0654176466557,0.0,-0.00250160361108,0.0,0.0,0.0,0.0,50.0,-0.0,15.24,0.00230154196664,0.0,-0.00383606751517,50.0,-0.0,0.0,-0.0,50.0,253628.8,0.0,0.0,0.0,0.0,0.0,0.0
1402752901746486430,3,-8.12267174991,-0.00591572024346,9.15004950042,-0.122189614607,-2.36706499768,0.10862951003,-0.0458128724029,0.0,-0.300672463126,0.0,0.136429016316,0.0,-1.71572088872,0.0,0.159207099143,0.0,0.00575828918512,0.0,-0.00348664784568,0.0,0.0654176466557,0.0,-0.00250160361108,0.0,0.0,0.0,0.0,50.0,-0.0,15.24,0.00230154196664,0.0,-0.00383606751517,50.0,-0.0,0.0,-0.0,50.0,253628.8,0.0,0.0,0.0,0.0,0.0,0.0
1402752901766606755,3,-8.12463106375,-0.00591572024346,9.13749539179,-0.122189614607,-2.3614327853,0.10862951003,-0.0442639267477,0.0,-0.310003499927,0.0,0.135334565486,0.0,-1.70907421893,0.0,0.160882664547,0.0,0.00612765536132,0.0,-0.0032843521887,0.0,0.0652185448837,0.0,-0.00229374654192,0.0,0.0,0.0,0.0,50.0,-0.0,15.24,0.00230154196664,0.0,-0.00383606751517,50.0,-0.0,0.0,-0.0,50.0,253628.8,0.0,0.0,0.0,0.0,0.0,0.0
1402752901786495613,3,-8.12463106375,-0.00591572024346,9.13749539179,-0.122189614607,-2.3614327853,0.10862951003,-0.0442639267477,0.0,-0.310003499927,0.0,0.135334565486,0.0,-1.70907421893,0.0,0.160882664547,0.0,0.00612765536132,0.0,-0.0032843521887,0.0,0.0652185448837,0.0,-0.00229374654192,0.0,0.0,0.0,0.0,50.0,-0.0,15.24,0.00230154196664,0.0,-0.00383606751517,50.0,-0.0,0.0,-0.0,50.0,253628.8,0.0,0.0,0.0,0.0,0.0,0.0
1402752901806517164,3,-8.12147184727,-0.00591572024346,9.12676229808,-0.122189614607,-2.37476535514,0.10862951003,-0.0264932026966,0.0,-0.329000389071,0.0,0.130269716562,0.0,-1.70147923079,0.0,0.163987027113,0.0,0.00452418689417,0.0,-0.00174014054051,0.0,0.0662533993874,0.0,-0.00613122738018,0.0,0.0,0.0,0.0,50.0,-0.0,15.24,0.00230154196664,0.0,-0.00383606751517,50.0,-0.0,0.0,-0.0,50.0,253628.8,0.0,0.0,0.0,0.0,0.0,0.0
1402752901826664001,3,-8.12147184727,-0.00591572024346,9.12676229808,-0.122189614607,-2.37476535514,0.10862951003,-0.0264932026966,0.0,-0.329000389071,0.0,0.130269716562,0.0,-1.70147923079,0.0,0.163987027113,0.0,0.00452418689417,0.0,-0.00174014054051,0.0,0.0662533993874,0.0,-0.00613122738018,0.0,0.0,0.0,0.0,50.0,-0.0,15.24,0.00230154196664,0.0,-0.00383606751517,50.0,-0.0,0.0,-0.0,50.0,253628.8,0.0,0.0,0.0,0.0,0.0,0.0
1402752901846607162,3,-8.12909046263,-0.00591572024346,9.11762569193,-0.122189614607,-2.36199992065,0.10862951003,-0.0414757209209,0.0,-0.322028781639,0.0,0.132206004343,0.0,-1.69358581106,0.0,0.172764417795,0.0,0.0070038876818,0.0,0.00925846840214,0.0,0.0643624838023,0.0,0.000720478672521,0.0,0.0,0.0,0.0,50.0,-0.0,15.24,0.00230154196664,0.0,-0.00383606751517,50.0,-0.0,0.0,-0.0,50.0,253628.8,0.0,0.0,0.0,0.0,0.0,0.0
1402752901866507474,3,-8.12909046263,-0.00591572024346,9.11762569193,-0.122189614607,-2.36199992065,0.10862951003,-0.0414757209209,0.0,-0.322028781639,0.0,0.132206004343,0.0,-1.69358581106,0.0,0.172764417795,0.0,0.0070038876818,0.0,0.00925846840214,0.0,0.0643624838023,0.0,0.000720478672521,0.0,0.0,0.0,0.0,50.0,-0.0,15.24,0.00230154196664,0.0,-0.00383606751517,50.0,-0.0,0.0,-0.0,50.0,253628.8,0.0,0.0,0.0,0.0,0.0,0.0
1402752901887045852,3,-8.13789389077,-0.00591572024346,9.10801394307,-0.122189614607,-2.36593747475,0.10862951003,-0.0569875902798,0.0,-0.336728371001,0.0,0.129742348279,0.0,-1.68884953611,0.0,0.176970035811,0.0,0.00850237507775,0.0,0.0107074212812,0.0,0.0658183397771,0.0,0.00329117831831,0.0,0.0,0.0,0.0,50.0,-0.0,15.24,0.00230154196664,0.0,-0.00383606751517,50.0,-0.0,0.0,-0.0,50.0,253628.8,0.0,0.0,0.0,0.0,0.0,0.0
1402752901906582184,3,-8.14431957526,-0.00591572024346,9.09400224607,-0.122189614607,-2.37223081212,0.10862951003,-0.0629203607798,0.0,-0.356168103575,0.0,0.12729828616,0.0,-1.68179930322,0.0,0.176816806881,0.0,0.00884328507577,0.0,0.00701005907841,0.0,0.0675306322364,0.0,0.00481855722293,0.0,0.0,0.0,0.0,50.0,-0.0,15.24,0.00230154196664,0.0,-0.00383606751517,50.0,-0.0,0.0,-0.0,50.0,253628.8,0.0,0.0,0.0,0.0,0.0,0.0
1402752901926484616,3,-8.14431957526,-0.00591572024346,9.09400224607,-0.122189614607,-2.37223081212,0.10862951003,-0.0629203607798,0.0,-0.356168103575,0.0,0.12729828616,0.0,-1.68179930322,0.0,0.176816806881,0.0,0.00884328507577,0.0,0.00701005907841,0.0,0.0675306322364,0.0,0.00481855722293,0.0,0.0,0.0,0.0,50.0,-0.0,15.24,0.00230154196664,0.0,-0.00383606751517,50.0,-0.0,0.0,-0.0,50.0,253628.8,0.0,0.0,0.0,0.0,0.0,0.0
1402752901946858974,3,-8.14508708429,-0.00591572024346,9.08997613029,-0.122189614607,-2.37066531582,0.10862951003,-0.0646256339749,0.0,-0.358489034479,0.0,0.127205987845,0.0,-1.67980383391,0.0,0.180639320842,0.0,0.00888464861994,0.0,0.00803470790466,0.0,0.0676223064186,0.0,-0.00457765792154,0.0,0.0,0.0,0.0,50.0,-0.0,15.24,0.00230154196664,0.0,-0.00383606751517,50.0,-0.0,0.0,-0.0,50.0,253628.8,0.0,0.0,0.0,0.0,0.0,0.0
1402752901966576393,3,-8.14508708429,-0.00591572024346,9.08997613029,-0.122189614607,-2.37066531582,0.10862951003,-0.0646256339749,0.0,-0.358489034479,0.0,0.127205987845,0.0,-1.67980383391,0.0,0.180639320842,0.0,0.00888464861994,0.0,0.00803470790466,0.0,0.0676223064186,0.0,-0.00457765792154,0.0,0.0,0.0,0.0,50.0,-0.0,15.24,0.00230154196664,0.0,-0.00383606751517,50.0,-0.0,0.0,-0.0,50.0,253628.8,0.0,0.0,0.0,0.0,0.0,0.0
1402752901987073876,3,-8.14705502461,-0.00591572024346,9.0791954068,-0.122189614607,-2.36691346945,0.10862951003,-0.0650964467995,0.0,-0.364365357063,0.0,0.127909607054,0.0,-1.67443799287,0.0,0.184579432364,0.0,0.00890161202799,0.0,0.00488301853204,0.0,0.067806013389,0.0,0.000501929637175,0.0,0.0,0.0,0.0,50.0,-0.0,15.24,0.00230154196664,0.0,-0.00383606751517,50.0,-0.0,0.0,-0.0,50.0,253628.8,0.0,0.0,0.0,0.0,0.0,0.0
1402752902006590277,3,-8.14705502461,-0.00591572024346,9.0791954068,-0.122189614607,-2.36691346945,0.10862951003,-0.0650964467995,0.0,-0.364365357063,0.0,0.127909607054,0.0,-1.67443799287,0.0,0.184579432364,0.0,0.00890161202799,0.0,0.00488301853204,0.0,0.067806013389,0.0,0.000501929637175,0.0,0.0,0.0,0.0,50.0,-0.0,15.24,0.00230154196664,0.0,-0.00383606751517,50.0,-0.0,0.0,-0.0,50.0,253628.8,0.0,0.0,0.0,0.0,0.0,0.0
1402752902026410015,3,-8.14994448379,-0.00591572024346,9.06093369592,-0.122189614607,-2.37827752839,0.10862951003,-0.0623681206765,0.0,-0.394893585439,0.0,0.126471835517,0.0,-1.66676964454,0.0,0.18180867628,0.0,0.00797635779063,0.0,0.00699739384569,0.0,0.0705970045011,0.0,0.00435378654205,0.0,0.0,0.0,0.0,50.0,-0.0,15.24,0.00230154196664,0.0,-0.00383606751517,50.0,-0.0,0.0,-0.0,50.0,253628.8,0.0,0.0,0.0,0.0,0.0,0.0
1402752902046623611,3,-8.14994448379,-0.00591572024346,9.06093369592,-0.122189614607,-2.37827752839,0.10862951003,-0.0623681206765,0.0,-0.394893585439,0.0,0.126471835517,0.0,-1.66676964454,0.0,0.18180867628,0.0,0.00797635779063,0.0,0.00699739384569,0.0,0.0705970045011,0.0,0.00435378654205,0.0,0.0,0.0,0.0,50.0,-0.0,15.24,0.00230154196664,0.0,-0.00383606751517,50.0,-0.0,0.0,-0.0,50.0,253628.8,0.0,0.0,0.0,0.0,0.0,0.0
1402752902066659679,3,-8.14806527817,-0.00591572024346,9.04880359417,-0.122189614607,-2.38111787242,0.10862951003,-0.0511969380506,0.0,-0.402333164046,0.0,0.126641433242,0.0,-1.65912740717,0.0,0.173379719044,0.0,0.00673023073952,0.0,0.0015781536583,0.0,0.070478316231,0.0,0.0117285515523,0.0,0.0,0.0,0.0,50.0,-0.0,15.24,0.00230154196664,0.0,-0.00383606751517,50.0,-0.0,0.0,-0.0,50.0,253628.8,0.0,0.0,0.0,0.0,0.0,0.0
1402752902086467949,3,-8.14806527817,-0.00591572024346,9.04880359417,-0.122189614607,-2.38111787242,0.10862951003,-0.0511969380506,0.0,-0.402333164046,0.0,0.126641433242,0.0,-1.65912740717,0.0,0.173379719044,0.0,0.00673023073952,0.0,0.0015781536583,0.0,0.070478316231,0.0,0.0117285515523,0.0,0.0,0.0,0.0,50.0,-0.0,15.24,0.00230154196664,0.0,-0.00383606751517,50.0,-0.0,0.0,-0.0,50.0,253628.8,0.0,0.0,0.0,0.0,0.0,0.0
1402752902107046806,3,-8.15346505181,-0.00591572024346,9.03953518301,-0.122189614607,-2.37640054002,0.10862951003,-0.0629771716976,0.0,-0.393931472277,0.0,0.12987922383,0.0,-1.65166371263,0.0,0.183746737535,0.0,0.00764615115269,0.0,-0.00124543724796,0.0,0.0684387602461,0.0,0.0123781801883,0.0,0.0,0.0,0.0,50.0,-0.0,15.24,0.00230154196664,0.0,-0.00383606751517,50.0,-0.0,0.0,-0.0,50.0,253628.8,0.0,0.0,0.0,0.0,0.0,0.0
1402752902126607267,3,-8.15346505181,-0.00591572024346,9.03953518301,-0.122189614607,-2.37640054002,0.10862951003,-0.0629771716976,0.0,-0.393931472277,0.0,0.12987922383,0.0,-1.65166371263,0.0,0.183746737535,0.0,0.00764615115269,0.0,-0.00124543724796,0.0,0.0684387602461,0.0,0.0123781801883,0.0,0.0,0.0,0.0,50.0,-0.0,15.24,0.00230154196664,0.0,-0.00383606751517,50.0,-0.0,0.0,-0.0,50.0,253628.8,0.0,0.0,0.0,0.0,0.0,0.0
1402752902146547357,3,-8.1550028359,-0.00591572024346,9.02436622559,-0.122189614607,-2.38076754823,0.10862951003,-0.0592306512185,0.0,-0.40130525913,0.0,0.131338782426,0.0,-1.64223361041,0.0,0.18366178382,0.0,0.00676733947417,0.0,-0.00466525474084,0.0,0.0679918741612,0.0,0.0134671620255,0.0,0.0,0.0,0.0,50.0,-0.0,15.24,0.00230154196664,0.0,-0.00383606751517,50.0,-0.0,0.0,-0.0,50.0,253628.8,0.0,0.0,0.0,0.0,0.0,0.0
1402752902166638534,3,-8.1550028359,-0.00591572024346,9.02436622559,-0.122189614607,-2.38076754823,0.10862951003,-0.0592306512185,0.0,-0.40130525913,0.0,0.131338782426,0.0,-1.64223361041,0.0,0.18366178382,0.0,0.00676733947417,0.0,-0.00466525474084,0.0,0.0679918741612,0.0,0.0134671620255,0.0,0.0,0.0,0.0,50.0,-0.0,15.24,0.00230154196664,0.0,-0.00383606751517,50.0,-0.0,0.0,-0.0,50.0,253628.8,0.0,0.0,0.0,0.0,0.0,0.0
1402752902186518259,3,-8.16339642788,-0.00591572024346,9.00881134798,-0.122189614607,-2.3833697298,0.10862951003,-0.0716214817662,0.0,-0.404617530491,0.0,0.13297610389,0.0,-1.63295756381,0.0,0.189143311503,0.0,0.0077715984549,0.0,-0.00631322155806,0.0,0.0670197224946,0.0,0.00334455587191,0.0,0.0,0.0,0.0,50.0,-0.0,15.24,0.00230154196664,0.0,-0.00383606751517,50.0,-0.0,0.0,-0.0,50.0,253628.8,0.0,0.0,0.0,0.0,0.0,0.0
1402752902206517310,3,-8.16339642788,-0.00591572024346,9.00881134798,-0.122189614607,-2.3833697298,0.10862951003,-0.0716214817662,0.0,-0.404617530491,0.0,0.13297610389,0.0,-1.63295756381,0.0,0.189143311503,0.0,0.0077715984549,0.0,-0.00631322155806,0.0,0.0670197224946,0.0,0.00334455587191,0.0,0.0,0.0,0.0,50.0,-0.0,15.24,0.00230154196664,0.0,-0.00383606751517,50.0,-0.0,0.0,-0.0,50.0,253628.8,0.0,0.0,0.0,0.0,0.0,0.0
1402752902226442065,3,-8.16480037473,-0.00591572024346,9.0006638473,-0.122189614607,-2.38064722953,0.10862951003,-0.0705496798405,0.0,-0.40815746214,0.0,0.134702225465,0.0,-1.6292347728,0.0,0.186911369254,0.0,0.00769248898892,0.0,-0.00700188617497,0.0,0.0668944760321,0.0,0.00819123733806,0.0,0.0,0.0,0.0,50.0,-0.0,15.24,0.00230154196664,0.0,-0.00383606751517,50.0,-0.0,0.0,-0.0,50.0,253628.8,0.0,0.0,0.0,0.0,0.0,0.0
1402752902246663938,3,-8.16480037473,-0.00591572024346,9.0006638473,-0.122189614607,-2.38064722953,0.10862951003,-0.0705496798405,0.0,-0.40815746214,0.0,0.134702225465,0.0,-1.6292347728,0.0,0.186911369254,0.0,0.00769248898892,0.0,-0.00700188617497,0.0,0.0668944760321,0.0,0.00819123733806,0.0,0.0,0.0,0.0,50.0,-0.0,15.24,0.00230154196664,0.0,-0.00383606751517,50.0,-0.0,0.0,-0.0,50.0,253628.8,0.0,0.0,0.0,0.0,0.0,0.0
1402752902266910170,3,-8.16031224837,-0.00591572024346,8.98320829022,-0.122189614607,-2.38751377438,0.10862951003,-0.0513005480822,0.0,-0.430205281347,0.0,0.133522963854,0.0,-1.62165924309,0.0,0.185999586777,0.0,0.00536098672538,0.0,-0.00862905421777,0.0,0.0683268692486,0.0,0.00568676161477,0.0,0.0,0.0,0.0,50.0,-0.0,15.24,0.00230154196664,0.0,-0.00383606751517,50.0,-0.0,0.0,-0.0,50.0,253628.8,0.0,0.0,0.0,0.0,0.0,0.0
1402752902286457401,3,-8.16031224837,-0.00591572024346,8.98320829022,-0.122189614607,-2.38751377438,0.10862951003,-0.0513005480822,0.0,-0.430205281347,0.0,0.133522963854,0.0,-1.62165924309,0.0,0.185999586777,0.0,0.00536098672538,0.0,-0.00862905421777,0.0,0.0683268692486,0.0,0.00568676161477,0.0,0.0,0.0,0.0,50.0,-0.0,15.24,0.00230154196664,0.0,-0.00383606751517,50.0,-0.0,0.0,-0.0,50.0,253628.8,0.0,0.0,0.0,0.0,0.0,0.0
1402752902307076702,3,-8.16247022042,-0.00591572024346,8.96596396437,-0.122189614607,-2.39844782111,0.10862951003,-0.0449285288786,0.0,-0.449940715679,0.0,0.131819087893,0.0,-1.61429688541,0.0,0.184641992658,0.0,0.00473869399119,0.0,-0.00264970522036,0.0,0.0695324676633,0.0,-0.00862022190693,0.0,0.0,0.0,0.0,50.0,-0.0,15.24,0.00230154196664,0.0,-0.00383606751517,50.0,-0.0,0.0,-0.0,50.0,253628.8,0.0,0.0,0.0,0.0,0.0,0.0
1402752902326446800,3,-8.16247022042,-0.00591572024346,8.96596396437,-0.122189614607,-2.39844782111,0.10862951003,-0.0449285288786,0.0,-0.449940715679,0.0,0.131819087893,0.0,-1.61429688541,0.0,0.184641992658,0.0,0.00473869399119,0.0,-0.00264970522036,0.0,0.0695324676633,0.0,-0.00862022190693,0.0,0.0,0.0,0.0,50.0,-0.0,15.24,0.00230154196664,0.0,-0.00383606751517,50.0,-0.0,0.0,-0.0,50.0,253628.8,0.0,0.0,0.0,0.0,0.0,0.0
1402752902346524124,3,-8.16893303689,-0.00591572024346,8.94663945956,-0.122189614607,-2.39661162502,0.10862951003,-0.0520344649989,0.0,-0.461383882042,0.0,0.129822850378,0.0,-1.60709348403,0.0,0.185405459882,0.0,0.00586131203998,0.0,-0.0174448223352,0.0,0.0697053571382,0.0,-0.010179788721,0.0,0.0,0.0,0.0,50.0,-0.0,15.24,0.00230154196664,0.0,-0.00383606751517,50.0,-0.0,0.0,-0.0,50.0,253628.8,0.0,0.0,0.0,0.0,0.0,0.0
1402752902367190023,3,-8.16893303689,-0.00591572024346,8.94663945956,-0.122189614607,-2.39661162502,0.10862951003,-0.0520344649989,0.0,-0.461383882042,0.0,0.129822850378,0.0,-1.60709348403,0.0,0.185405459882,0.0,0.00586131203998,0.0,-0.0174448223352,0.0,0.0697053571382,0.0,-0.010179788721,0.0,0.0,0.0,0.0,50.0,-0.0,15.24,0.00230154196664,0.0,-0.00383606751517,50.0,-0.0,0.0,-0.0,50.0,253628.8,0.0,0.0,0.0,0.0,0.0,0.0
1402752902386526886,3,-8.16771887927,-0.00591572024346,8.93640075936,-0.122189614607,-2.39041860125,0.10862951003,-0.0448970899443,0.0,-0.447183373795,0.0,0.132902826964,0.0,-1.59843776132,0.0,0.186185520351,0.0,0.00600062145211,0.0,-0.00373159706531,0.0,0.0664520739194,0.0,-7.65942092474e-05,0.0,0.0,0.0,0.0,50.0,-0.0,15.24,0.00230154196664,0.0,-0.00383606751517,50.0,-0.0,0.0,-0.0,50.0,253628.8,0.0,0.0,0.0,0.0,0.0,0.0
1402752902406758274,3,-8.16771887927,-0.00591572024346,8.93640075936,-0.122189614607,-2.39041860125,0.10862951003,-0.0448970899443,0.0,-0.447183373795,0.0,0.132902826964,0.0,-1.59843776132,0.0,0.186185520351,0.0,0.00600062145211,0.0,-0.00373159706531,0.0,0.0664520739194,0.0,-7.65942092474e-05,0.0,0.0,0.0,0.0,50.0,-0.0,15.24,0.00230154196664,0.0,-0.00383606751517,50.0,-0.0,0.0,-0.0,50.0,253628.8,0.0,0.0,0.0,0.0,0.0,0.0
1402752902427012335,3,-8.16953741351,-0.00591572024346,8.91791171444,-0.122189614607,-2.38500600462,0.10862951003,-0.0447152197073,0.0,-0.453735398925,0.0,0.131479912568,0.0,-1.59059224067,0.0,0.191597000165,0.0,0.00624401163798,0.0,-0.00339640776899,0.0,0.0663163525309,0.0,-0.00697873499191,0.0,0.0,0.0,0.0,50.0,-0.0,15.24,0.00230154196664,0.0,-0.00383606751517,50.0,-0.0,0.0,-0.0,50.0,253628.8,0.0,0.0,0.0,0.0,0.0,0.0
1402752902446488111,3,-8.16953741351,-0.00591572024346,8.91791171444,-0.122189614607,-2.38500600462,0.10862951003,-0.0447152197073,0.0,-0.453735398925,0.0,0.131479912568,0.0,-1.59059224067,0.0,0.191597000165,0.0,0.00624401163798,0.0,-0.00339640776899,0.0,0.0663163525309,0.0,-0.00697873499191,0.0,0.0,0.0,0.0,50.0,-0.0,15.24,0.00230154196664,0.0,-0.00383606751517,50.0,-0.0,0.0,-0.0,50.0,253628.8,0.0,0.0,0.0,0.0,0.0,0.0
1402752902466528102,3,-8.17011261871,-0.00591572024346,8.90363555939,-0.122189614607,-2.38713479693,0.10862951003,-0.0401683517017,0.0,-0.45642507963,0.0,0.129267107362,0.0,-1.5827693643,0.0,0.190761190209,0.0,0.00612940472143,0.0,0.00280362011121,0.0,0.0658423213239,0.0,-0.00350079995432,0.0,0.0,0.0,0.0,50.0,-0.0,15.24,0.00230154196664,0.0,-0.00383606751517,50.0,-0.0,0.0,-0.0,50.0,253628.8,0.0,0.0,0.0,0.0,0.0,0.0
1402752902487093849,3,-8.17011261871,-0.00591572024346,8.90363555939,-0.122189614607,-2.38713479693,0.10862951003,-0.0401683517017,0.0,-0.45642507963,0.0,0.129267107362,0.0,-1.5827693643,0.0,0.190761190209,0.0,0.00612940472143,0.0,0.00280362011121,0.0,0.0658423213239,0.0,-0.00350079995432,0.0,0.0,0.0,0.0,50.0,-0.0,15.24,0.00230154196664,0.0,-0.00383606751517,50.0,-0.0,0.0,-0.0,50.0,253628.8,0.0,0.0,0.0,0.0,0.0,0.0
1402752902506701523,3,-8.17698358335,-0.00591572024346,8.88651014034,-0.122189614607,-2.39395129875,0.10862951003,-0.047085316379,0.0,-0.467135838629,0.0,0.125201562287,0.0,-1.57519253035,0.0,0.193000973723,0.0,0.007202266864,0.0,-0.000732796224123,0.0,0.0664964759522,0.0,-0.0094944511649,0.0,0.0,0.0,0.0,50.0,-0.0,15.24,0.00230154196664,0.0,-0.00383606751517,50.0,-0.0,0.0,-0.0,50.0,253628.8,0.0,0.0,0.0,0.0,0.0,0.0
1402752902526549866,3,-8.17698358335,-0.00591572024346,8.88651014034,-0.122189614607,-2.39395129875,0.10862951003,-0.047085316379,0.0,-0.467135838629,0.0,0.125201562287,0.0,-1.57519253035,0.0,0.193000973723,0.0,0.007202266864,0.0,-0.000732796224123,0.0,0.0664964759522,0.0,-0.0094944511649,0.0,0.0,0.0,0.0,50.0,-0.0,15.24,0.00230154196664,0.0,-0.00383606751517,50.0,-0.0,0.0,-0.0,50.0,253628.8,0.0,0.0,0.0,0.0,0.0,0.0
1402752902547270866,3,-8.17899099653,-0.00591572024346,8.86717039785,-0.122189614607,-2.38885035342,0.10862951003,-0.0448860381829,0.0,-0.474970483852,0.0,0.127077571554,0.0,-1.56733918033,0.0,0.195538289998,0.0,0.00742404618655,0.0,0.00677890456781,0.0,0.0666892870112,0.0,-0.00547461164572,0.0,0.0,0.0,0.0,50.0,-0.0,15.24,0.00230154196664,0.0,-0.00383606751517,50.0,-0.0,0.0,-0.0,50.0,253628.8,0.0,0.0,0.0,0.0,0.0,0.0
1402752902566593269,3,-8.17899099653,-0.00591572024346,8.86717039785,-0.122189614607,-2.38885035342,0.10862951003,-0.0448860381829,0.0,-0.474970483852,0.0,0.127077571554,0.0,-1.56733918033,0.0,0.195538289998,0.0,0.00742404618655,0.0,0.00677890456781,0.0,0.0666892870112,0.0,-0.00547461164572,0.0,0.0,0.0,0.0,50.0,-0.0,15.24,0.00230154196664,0.0,-0.00383606751517,50.0,-0.0,0.0,-0.0,50.0,253628.8,0.0,0.0,0.0,0.0,0.0,0.0
1402752902586500175,3,-8.17606282746,-0.00591572024346,8.83905351922,-0.122189614607,-2.37917483937,0.10862951003,-0.0311827995027,0.0,-0.491232317173,0.0,0.126226387435,0.0,-1.55819415549,0.0,0.188981147086,0.0,0.00638455784314,0.0,0.00762448526666,0.0,0.068130464929,0.0,0.00384218345246,0.0,0.0,0.0,0.0,50.0,-0.0,15.24,0.00230154196664,0.0,-0.00383606751517,50.0,-0.0,0.0,-0.0,50.0,253628.8,0.0,0.0,0.0,0.0,0.0,0.0
1402752902607018025,3,-8.17606282746,-0.00591572024346,8.83905351922,-0.122189614607,-2.37917483937,0.10862951003,-0.0311827995027,0.0,-0.491232317173,0.0,0.126226387435,0.0,-1.55819415549,0.0,0.188981147086,0.0,0.00638455784314,0.0,0.00762448526666,0.0,0.068130464929,0.0,0.00384218345246,0.0,0.0,0.0,0.0,50.0,-0.0,15.24,0.00230154196664,0.0,-0.00383606751517,50.0,-0.0,0.0,-0.0,50.0,253628.8,0.0,0.0,0.0,0.0,0.0,0.0
1402752902627182084,3,-8.17695642774,-0.00591572024346,8.82359898685,-0.122189614607,-2.37503552496,0.10862951003,-0.0286037572987,0.0,-0.496194295314,0.0,0.126296268172,0.0,-1.55239449991,0.0,0.184383267094,0.0,0.00621173523814,0.0,0.00781364738702,0.0,0.0684268929928,0.0,0.00780338638298,0.0,0.0,0.0,0.0,50.0,-0.0,15.24,0.00230154196664,0.0,-0.00383606751517,50.0,-0.0,0.0,-0.0,50.0,253628.8,0.0,0.0,0.0,0.0,0.0,0.0
1402752902646313982,3,-8.18088543954,-0.00591572024346,8.82923882181,-0.122189614607,-2.42793689501,0.10862951003,-0.0233124950311,0.0,-0.481604341984,0.0,0.116281108298,0.0,-1.54369149793,0.0,0.188250556677,0.0,0.00562900130111,0.0,0.00929891963583,0.0,0.0666795334416,0.0,-0.00165746033678,0.0,0.0,0.0,0.0,50.0,-0.0,15.24,0.00230154196664,0.0,-0.00383606751517,50.0,-0.0,0.0,-0.0,50.0,253628.8,0.0,0.0,0.0,0.0,0.0,0.0
1402752902666963990,3,-8.19369586593,-0.00591572024346,8.82786803542,-0.122189614607,-2.44384846885,0.10862951003,-0.0463988246032,0.0,-0.487335036894,0.0,0.113266964631,0.0,-1.54179169294,0.0,0.188773657415,0.0,0.00819371925645,0.0,0.00680540602693,0.0,0.0671805200719,0.0,0.010781045079,0.0,0.0,0.0,0.0,50.0,-0.0,15.24,0.00230154196664,0.0,-0.00383606751517,50.0,-0.0,0.0,-0.0,50.0,253628.8,0.0,0.0,0.0,0.0,0.0,0.0
1402752902686612312,3,-8.19369586593,-0.00591572024346,8.82786803542,-0.122189614607,-2.44384846885,0.10862951003,-0.0463988246032,0.0,-0.487335036894,0.0,0.113266964631,0.0,-1.54179169294,0.0,0.188773657415,0.0,0.00819371925645,0.0,0.00680540602693,0.0,0.0671805200719,0.0,0.010781045079,0.0,0.0,0.0,0.0,50.0,-0.0,15.24,0.00230154196664,0.0,-0.00383606751517,50.0,-0.0,0.0,-0.0,50.0,253628.8,0.0,0.0,0.0,0.0,0.0,0.0
1402752902706889983,3,-8.19510197285,-0.00591572024346,8.81260924537,-0.122189614607,-2.44029568001,0.10862951003,-0.0457586748904,0.0,-0.491173012678,0.0,0.113940870176,0.0,-1.53595010492,0.0,0.189347031195,0.0,0.00813552698857,0.0,9.32669889513e-05,0.0,0.067361001226,0.0,0.00508862272497,0.0,0.0,0.0,0.0,50.0,-0.0,15.24,0.00230154196664,0.0,-0.00383606751517,50.0,-0.0,0.0,-0.0,50.0,253628.8,0.0,0.0,0.0,0.0,0.0,0.0
1402752902726512391,3,-8.19510197285,-0.00591572024346,8.81260924537,-0.122189614607,-2.44029568001,0.10862951003,-0.0457586748904,0.0,-0.491173012678,0.0,0.113940870176,0.0,-1.53595010492,0.0,0.189347031195,0.0,0.00813552698857,0.0,9.32669889513e-05,0.0,0.067361001226,0.0,0.00508862272497,0.0,0.0,0.0,0.0,50.0,-0.0,15.24,0.00230154196664,0.0,-0.00383606751517,50.0,-0.0,0.0,-0.0,50.0,253628.8,0.0,0.0,0.0,0.0,0.0,0.0
1402752902746485218,3,-8.20681321199,-0.00591572024346,8.79480246555,-0.122189614607,-2.47070719217,0.10862951003,-0.0560536102385,0.0,-0.520606515701,0.0,0.109340046073,0.0,-1.52919032923,0.0,0.188575062479,0.0,0.00894180418072,0.0,0.00385751568072,0.0,0.0703669155392,0.0,0.00872197279148,0.0,0.0,0.0,0.0,50.0,-0.0,15.24,0.00230154196664,0.0,-0.00383606751517,50.0,-0.0,0.0,-0.0,50.0,253628.8,0.0,0.0,0.0,0.0,0.0,0.0
1402752902766499044,3,-8.20681321199,-0.00591572024346,8.79480246555,-0.122189614607,-2.47070719217,0.10862951003,-0.0560536102385,0.0,-0.520606515701,0.0,0.109340046073,0.0,-1.52919032923,0.0,0.188575062479,0.0,0.00894180418072,0.0,0.00385751568072,0.0,0.0703669155392,0.0,0.00872197279148,0.0,0.0,0.0,0.0,50.0,-0.0,15.24,0.00230154196664,0.0,-0.00383606751517,50.0,-0.0,0.0,-0.0,50.0,253628.8,0.0,0.0,0.0,0.0,0.0,0.0
1402752902786460129,3,-8.21554784984,-0.00591572024346,8.80117747316,-0.122189614607,-2.52993685184,0.10862951003,-0.0572308170695,0.0,-0.504538219357,0.0,0.0995455380758,0.0,-1.52052124499,0.0,0.187370590578,0.0,0.00891713241878,0.0,0.00491164282032,0.0,0.0681805355132,0.0,0.00631260531474,0.0,0.0,0.0,0.0,50.0,-0.0,15.24,0.00230154196664,0.0,-0.00383606751517,50.0,-0.0,0.0,-0.0,50.0,253628.8,0.0,0.0,0.0,0.0,0.0,0.0
1402752902807133802,3,-8.21554784984,-0.00591572024346,8.80117747316,-0.122189614607,-2.52993685184,0.10862951003,-0.0572308170695,0.0,-0.504538219357,0.0,0.0995455380758,0.0,-1.52052124499,0.0,0.187370590578,0.0,0.00891713241878,0.0,0.00491164282032,0.0,0.0681805355132,0.0,0.00631260531474,0.0,0.0,0.0,0.0,50.0,-0.0,15.24,0.00230154196664,0.0,-0.00383606751517,50.0,-0.0,0.0,-0.0,50.0,253628.8,0.0,0.0,0.0,0.0,0.0,0.0
1402752902826585551,3,-8.21072936445,-0.00591572024346,8.77887410479,-0.122189614607,-2.52107948932,0.10862951003,-0.0435680010975,0.0,-0.514899343383,0.0,0.104687962863,0.0,-1.51297217095,0.0,0.186277161597,0.0,0.00753765754934,0.0,0.00109498533879,0.0,0.068950977377,0.0,0.0130501328731,0.0,0.0,0.0,0.0,50.0,-0.0,15.24,0.00230154196664,0.0,-0.00383606751517,50.0,-0.0,0.0,-0.0,50.0,253628.8,0.0,0.0,0.0,0.0,0.0,0.0
1402752902847078499,3,-8.21072936445,-0.00591572024346,8.77887410479,-0.122189614607,-2.52107948932,0.10862951003,-0.0435680010975,0.0,-0.514899343383,0.0,0.104687962863,0.0,-1.51297217095,0.0,0.186277161597,0.0,0.00753765754934,0.0,0.00109498533879,0.0,0.068950977377,0.0,0.0130501328731,0.0,0.0,0.0,0.0,50.0,-0.0,15.24,0.00230154196664,0.0,-0.00383606751517,50.0,-0.0,0.0,-0.0,50.0,253628.8,0.0,0.0,0.0,0.0,0.0,0.0
1402752902866412453,3,-8.2175593669,-0.00591572024346,8.77019008451,-0.122189614607,-2.55966843709,0.10862951003,-0.0481546098165,0.0,-0.510242313267,0.0,0.100174869788,0.0,-1.50266476241,0.0,0.187936947669,0.0,0.00773028992095,0.0,0.00276316364012,0.0,0.0677700264278,0.0,0.00041853409407,0.0,0.0,0.0,0.0,50.0,-0.0,15.24,0.00230154196664,0.0,-0.00383606751517,50.0,-0.0,0.0,-0.0,50.0,253628.8,0.0,0.0,0.0,0.0,0.0,0.0
