rosbagTimestamp,header,seq,stamp,secs,nsecs,frame_id,child_frame_id,pose,pose,position,x,y,z,orientation,x,y,z,w,covariance,twist,twist,linear,x,y,z,angular,x,y,z,covariance
1402416126028024178,,167179,,1402416126,26937007,/enu,/imu,,,,5.09036554817,22.190429681,-27.5994188791,,0.845165259834,0.534350708159,0.00900207234589,0.00916334830857,"[0.033564869837058475, -0.004754388958295247, 0.0009187427523790649, 6.299164607259813e-06, -1.941470521834765e-05, -0.00028059319775160913, -0.004754388958295247, 0.037490920853286605, 0.007402318367461032, 1.3976200548053964e-05, -4.043246220283533e-06, 0.00013318911673559453, 0.0009187427523790649, 0.007402318367461032, 0.223997213672802, -2.5323026058043327e-06, 7.196103241881502e-07, 2.285565263485244e-05, 6.299164607259813e-06, 1.3976200548053964e-05, -2.5323026058043327e-06, 4.108016204724802e-06, -2.5293203116924077e-07, -4.96049608455354e-07, -1.941470521834765e-05, -4.043246220283533e-06, 7.196103241881502e-07, -2.5293203116924077e-07, 4.318235511667501e-06, 6.190504689278143e-07, -0.00028059319775160913, 0.00013318911673559453, 2.285565263485244e-05, -4.96049608455354e-07, 6.190504689278143e-07, 0.00011710699453899871]",,,,1.75867162833,-0.672881991365,-0.227942217392,,-0.0319710765425,-0.013260229203,-0.0309673604811,"[0.0002499411644948175, 0.00015867967654351224, 4.627323319946939e-05, -3.5973900592621764e-09, -1.1426183828927685e-08, -4.431301657738521e-08, 0.00015867967654351224, 0.0005144584548357186, 6.123766100151247e-06, -2.150105651205318e-09, -2.727733558510557e-09, -1.1925023608728023e-07, 4.627323319946939e-05, 6.123766100151247e-06, 0.00025923686431212055, 1.7067892846366411e-09, 2.3044791453894425e-09, -1.7161914421589578e-09, -3.5973900592621764e-09, -2.150105651205318e-09, 1.7067892846366411e-09, 2.4662498638634075e-09, -5.9209022547378785e-12, -9.917219773341918e-12, -1.1426183828927685e-08, -2.727733558510557e-09, 2.3044791453894425e-09, -5.9209022547378785e-12, 2.438570220433006e-09, 7.461782610990785e-13, -4.431301657738521e-08, -1.1925023608728023e-07, -1.7161914421589578e-09, -9.917219773341918e-12, 7.461782610990785e-13, 2.4678267642900525e-09]"
1402416126039005502,,167180,,1402416126,38074016,/enu,/imu,,,,5.11041794775,22.1849651165,-27.4946273335,,0.845038005725,0.534467011741,0.011709262639,0.010893824391,"[0.03353413415994919, -0.004764539810947223, 0.0009273698674132536, 6.096825443078117e-06, -1.8096444999841132e-05, -0.0002803397565748162, -0.004764539810947223, 0.03745832993805297, 0.007437143091155227, 1.291840087626247e-05, -3.843626387095888e-06, 0.00013309898139508911, 0.0009273698674132536, 0.007437143091155227, 0.2238492420044688, -2.479894893762682e-06, 7.032818003560553e-07, 2.2691285185664624e-05, 6.096825443078117e-06, 1.291840087626247e-05, -2.479894893762682e-06, 3.9232634852202495e-06, -2.492117248211153e-07, -5.028223590920015e-07, -1.8096444999841132e-05, -3.843626387095888e-06, 7.032818003560553e-07, -2.492117248211153e-07, 4.12916915544087e-06, 6.147295585987065e-07, -0.0002803397565748162, 0.00013309898139508911, 2.2691285185664624e-05, -5.028223590920015e-07, 6.147295585987065e-07, 0.00011713489803235308]",,,,1.73350828084,-0.719172663226,-0.268360364295,,0.0207089749514,0.0216429302103,-0.0259972346587,"[0.00024085097262105615, 0.0001655308472677192, 5.0238984902751616e-05, -3.994961189715632e-09, -1.0340019525525169e-08, -4.821366691228224e-08, 0.0001655308472677192, 0.0004863859885014295, 7.681949625810419e-06, -2.9864789123735738e-09, -2.587842831638407e-09, -1.1712574829059027e-07, 5.0238984902751616e-05, 7.681949625810419e-06, 0.00025558156321713407, 1.7042586247114687e-09, 1.9664910713786594e-09, -2.533245956889502e-09, -3.994961189715632e-09, -2.9864789123735738e-09, 1.7042586247114687e-09, 2.4661668027692834e-09, -5.9197759814670335e-12, -9.915971270105958e-12, -1.0340019525525169e-08, -2.587842831638407e-09, 1.9664910713786594e-09, -5.9197759814670335e-12, 2.438484095238293e-09, 7.463492360442668e-13, -4.821366691228224e-08, -1.1712574829059027e-07, -2.533245956889502e-09, -9.915971270105958e-12, 7.463492360442668e-13, 2.4678190454887203e-09]"
1402416126048900069,,167181,,1402416126,47939062,/enu,/imu,,,,5.11099055345,22.2035139414,-27.4921541219,,0.84494570877,0.534608546351,0.0117499224848,0.011063033973,"[0.03353284393499223, -0.004763809181779665, 0.0009238048674770438, 6.074944068783499e-06, -1.7915499374781368e-05, -0.00028030493103791163, -0.004763809181779665, 0.037459606822543276, 0.00742860402158666, 1.276082611532347e-05, -3.823208644791476e-06, 0.00013304155443201167, 0.0009238048674770438, 0.00742860402158666, 0.22387845469942638, -2.4687675407883263e-06, 6.995170629079163e-07, 2.270283396401336e-05, 6.074944068783499e-06, 1.276082611532347e-05, -2.4687675407883263e-06, 3.9621519380510234e-06, -2.492013474672385e-07, -5.026704212060515e-07, -1.7915499374781368e-05, -3.823208644791476e-06, 6.995170629079163e-07, -2.492013474672385e-07, 4.168062922422317e-06, 6.133827314237402e-07, -0.00028030493103791163, 0.00013304155443201167, 2.270283396401336e-05, -5.026704212060515e-07, 6.133827314237402e-07, 0.00011715466302626136]",,,,1.73021947702,-0.728498424693,-0.252828360643,,-0.03341042948,-0.010828712685,-0.0310778522068,"[0.00024450140667354526, 0.0001660175254764131, 4.97398978486084e-05, -3.990622982323085e-09, -1.0571050554916343e-08, -4.8224039715381546e-08, 0.0001660175254764131, 0.000489875393077715, 8.067515918579726e-06, -2.7720467512501974e-09, -2.611323908099698e-09, -1.171797726419372e-07, 4.97398978486084e-05, 8.067515918579726e-06, 0.0002560708084298005, 1.7282252655222248e-09, 2.0057314978771406e-09, -2.567153156677168e-09, -3.990622982323085e-09, -2.7720467512501974e-09, 1.7282252655222248e-09, 2.4661667774188194e-09, -5.919803243341212e-12, -9.916332341588562e-12, -1.0571050554916343e-08, -2.611323908099698e-09, 2.0057314978771406e-09, -5.919803243341212e-12, 2.438484061431725e-09, 7.460581927214939e-13, -4.8224039715381546e-08, -1.171797726419372e-07, -2.567153156677168e-09, -9.916332341588562e-12, 7.460581927214939e-13, 2.4678118870447007e-09]"
1402416126058893043,,167182,,1402416126,57923078,/enu,/imu,,,,5.11169046749,22.2223106805,-27.4896503195,,0.844847352528,0.534766747042,0.0117764815464,0.0108991589688,"[0.03353160831701211, -0.004763093706427492, 0.0009201140309299601, 6.052552260000867e-06, -1.7728305989237587e-05, -0.00028026972195788213, -0.004763093706427492, 0.03746089700351873, 0.007419909049879173, 1.2597508059080807e-05, -3.8023237992124605e-06, 0.00013298066968595452, 0.0009201140309299601, 0.007419909049879173, 0.22390813835032217, -2.4575345508183854e-06, 6.958470717737805e-07, 2.2714920915416475e-05, 6.052552260000867e-06, 1.2597508059080807e-05, -2.4575345508183854e-06, 4.001984329850746e-06, -2.4919091202118895e-07, -5.0251880349421e-07, -1.7728305989237587e-05, -3.8023237992124605e-06, 6.958470717737805e-07, -2.4919091202118895e-07, 4.207900942938736e-06, 6.120241577393303e-07, -0.00028026972195788213, 0.00013298066968595452, 2.2714920915416475e-05, -5.0251880349421e-07, 6.120241577393303e-07, 0.00011717538317813545]",,,,1.73117575751,-0.722758063811,-0.27025090423,,0.0249059878315,0.0226369583396,-0.0335077229789,"[0.00024823644610655934, 0.00016653574370858486, 4.912996083144037e-05, -3.986910315528844e-09, -1.0807370954697523e-08, -4.823099495738352e-08, 0.00016653574370858486, 0.0004935031776311581, 8.382585724674416e-06, -2.5521947788772295e-09, -2.6343433956451415e-09, -1.1723718455724159e-07, 4.912996083144037e-05, 8.382585724674416e-06, 0.00025659562081992745, 1.7527114665882565e-09, 2.043404192030373e-09, -2.5493672519061507e-09, -3.986910315528844e-09, -2.5521947788772295e-09, 1.7527114665882565e-09, 2.4661667521760878e-09, -5.919830716232127e-12, -9.9166898830268e-12, -1.0807370954697523e-08, -2.6343433956451415e-09, 2.043404192030373e-09, -5.919830716232127e-12, 2.4384840269651355e-09, 7.457650902334502e-13, -4.823099495738352e-08, -1.1723718455724159e-07, -2.5493672519061507e-09, -9.9166898830268e-12, 7.457650902334502e-13, 2.467804726241667e-09]"
1402416126069917068,,167183,,1402416126,68928956,/enu,/imu,,,,5.11221278304,22.2429647077,-27.4867212019,,0.844730078002,0.534949392135,0.0118361625279,0.0109612239206,"[0.03353022628418872, -0.004762261747300425, 0.0009161152421952768, 6.027682048293611e-06, -1.7517607775837987e-05, -0.00028023776055973316, -0.004762261747300425, 0.037462293277902646, 0.0074103074405200845, 1.2413039329373554e-05, -3.7789116142936743e-06, 0.00013291048986240793, 0.0009161152421952768, 0.0074103074405200845, 0.22394095771517672, -2.4450851600924948e-06, 6.920258778217616e-07, 2.2728528579408453e-05, 6.027682048293611e-06, 1.2413039329373554e-05, -2.4450851600924948e-06, 4.050399977319139e-06, -2.4918071525513973e-07, -5.023790368558358e-07, -1.7517607775837987e-05, -3.7789116142936743e-06, 6.920258778217616e-07, -2.4918071525513973e-07, 4.256322630871706e-06, 6.106487501088096e-07, -0.00028023776055973316, 0.00013291048986240793, 2.2728528579408453e-05, -5.023790368558358e-07, 6.106487501088096e-07, 0.00011720481781300992]",,,,1.72996944203,-0.736959091175,-0.250262738028,,-0.0152969985555,0.00375039016955,-0.0363793849925,"[0.0002525001860983322, 0.0001670953827802589, 4.852730057288315e-05, -3.982626998303989e-09, -1.1070574045993012e-08, -4.823720532323565e-08, 0.0001670953827802589, 0.0004976507653560394, 8.806583475185102e-06, -2.3076461203865523e-09, -2.661235025582703e-09, -1.1730293931563928e-07, 4.852730057288315e-05, 8.806583475185102e-06, 0.00025721805308038815, 1.7798540314832947e-09, 2.085893945568348e-09, -2.5716634385548967e-09, -3.982626998303989e-09, -2.3076461203865523e-09, 1.7798540314832947e-09, 2.4661667271828876e-09, -5.919858433476731e-12, -9.917043799672114e-12, -1.1070574045993012e-08, -2.661235025582703e-09, 2.085893945568348e-09, -5.919858433476731e-12, 2.438483991906585e-09, 7.454698825356469e-13, -4.823720532323565e-08, -1.1730293931563928e-07, -2.5716634385548967e-09, -9.917043799672114e-12, 7.454698825356469e-13, 2.4677975630898083e-09]"
1402416126079859299,,167184,,1402416126,78912973,/enu,/imu,,,,5.11276599071,22.261767577,-27.4842247117,,0.844630703253,0.535105607881,0.0118840059587,0.0109423003939,"[0.033528973988468005, -0.004761513126550434, 0.0009125014870935662, 6.004806604872741e-06, -1.732191757661324e-05, -0.0002802053222207988, -0.004761513126550434, 0.037463585348310395, 0.007401602182298563, 1.2241722602327126e-05, -3.7576060887085328e-06, 0.00013283944007906175, 0.0009125014870935662, 0.007401602182298563, 0.2239706289856054, -2.4337303741767486e-06, 6.887395022739144e-07, 2.274059659834023e-05, 6.004806604872741e-06, 1.2241722602327126e-05, -2.4337303741767486e-06, 4.090229502900173e-06, -2.4917005920484264e-07, -5.022246654317025e-07, -1.732191757661324e-05, -3.7576060887085328e-06, 6.887395022739144e-07, -2.4917005920484264e-07, 4.296158484314955e-06, 6.092647505619078e-07, -0.0002802053222207988, 0.00013283944007906175, 2.274059659834023e-05, -5.022246654317025e-07, 6.092647505619078e-07, 0.00011722552266883893]",,,,1.73074804854,-0.731965659012,-0.264612826539,,-0.00193282038324,0.0107085982994,-0.0333973164764,"[0.00025641124694528443, 0.00016761103540175772, 4.795039434978449e-05, -3.979041431338183e-09, -1.1311735920085734e-08, -4.824447178497608e-08, 0.00016761103540175772, 0.0005014290636148131, 9.175774613860555e-06, -2.083073499166329e-09, -2.685186353201225e-09, -1.1735942056248839e-07, 4.795039434978449e-05, 9.175774613860555e-06, 0.0002577358485681235, 1.8045036979857644e-09, 2.123975455652601e-09, -2.579526094869978e-09, -3.979041431338183e-09, -2.083073499166329e-09, 1.8045036979857644e-09, 2.466166702382769e-09, -5.919886387031735e-12, -9.917393739022815e-12, -1.1311735920085734e-08, -2.685186353201225e-09, 2.123975455652601e-09, -5.919886387031735e-12, 2.4384839561235714e-09, 7.451723677019211e-13, -4.824447178497608e-08, -1.1735942056248839e-07, -2.579526094869978e-09, -9.917393739022815e-12, 7.451723677019211e-13, 2.467790396913662e-09]"
1402416126089883249,,167185,,1402416126,88932037,/enu,/imu,,,,5.10071430786,22.2984070858,-27.5008676227,,0.844524682151,0.535348195228,0.011018840202,0.00767829833772,"[0.03349997214825417, -0.004771299450330759, 0.0009212354124819984, 5.81951860206945e-06, -1.6183498058099768e-05, -0.0002799716027663323, -0.004771299450330759, 0.03743200651544475, 0.007436894786158982, 1.1330736062514265e-05, -3.5641476787513693e-06, 0.00013272371124407772, 0.0009212354124819984, 0.007436894786158982, 0.22382093600449504, -2.381290059772592e-06, 6.756502946747476e-07, 2.2580038833774874e-05, 5.81951860206945e-06, 1.1330736062514265e-05, -2.381290059772592e-06, 3.8997386764718755e-06, -2.456675242605609e-07, -5.128741550653761e-07, -1.6183498058099768e-05, -3.5641476787513693e-06, 6.756502946747476e-07, -2.456675242605609e-07, 4.101751420501867e-06, 6.080371131157138e-07, -0.0002799716027663323, 0.00013272371124407772, 2.2580038833774874e-05, -5.128741550653761e-07, 6.080371131157138e-07, 0.00011724352841171058]",,,,1.71556352668,-0.685543676076,-0.239118774597,,-0.0205944773501,0.00850064449575,-0.0377048743034,"[0.0002298211258298239, 0.00015296908259310077, 4.872405175415378e-05, -3.5902868949674678e-09, -1.0222913091444274e-08, -4.4138131540564125e-08, 0.00015296908259310077, 0.00048101822528838603, 5.765720366286924e-06, -2.965469861619127e-09, -2.5427222111244005e-09, -1.1642806549792508e-07, 4.872405175415378e-05, 5.765720366286924e-06, 0.00025339583569269165, 1.5694207621222822e-09, 1.8973220986419337e-09, -1.8564559706328975e-09, -3.5902868949674678e-09, -2.965469861619127e-09, 1.5694207621222822e-09, 2.4660850469675966e-09, -5.918754900606736e-12, -9.91643863503926e-12, -1.0222913091444274e-08, -2.5427222111244005e-09, 1.8973220986419337e-09, -5.918754900606736e-12, 2.4383995185780655e-09, 7.470722020679115e-13, -4.4138131540564125e-08, -1.1642806549792508e-07, -1.8564559706328975e-09, -9.91643863503926e-12, 7.470722020679115e-13, 2.467782618773168e-09]"
1402416126126852602,,167186,,1402416126,99910020,/enu,/imu,,,,5.10169290394,22.3187330495,-27.49829755,,0.844420266434,0.535509008777,0.0111638097134,0.00773850805621,"[0.03349886341729784, -0.0047704810966506025, 0.0009173576421802531, 5.795510927706312e-06, -1.598447049420146e-05, -0.0002799428862004513, -0.0047704810966506025, 0.037433552867057726, 0.007427448012864452, 1.1156980894226186e-05, -3.5416083845087085e-06, 0.00013264221354992688, 0.0009173576421802531, 0.007427448012864452, 0.22385322069550143, -2.3686838511792612e-06, 6.720661282098609e-07, 2.2593186388256058e-05, 5.795510927706312e-06, 1.1156980894226186e-05, -2.3686838511792612e-06, 3.947911935248205e-06, -2.456575313739993e-07, -5.127327548135589e-07, -1.598447049420146e-05, -3.5416083845087085e-06, 6.720661282098609e-07, -2.456575313739993e-07, 4.14993021986919e-06, 6.066888773680152e-07, -0.0002799428862004513, 0.00013264221354992688, 2.2593186388256058e-05, -5.127327548135589e-07, 6.066888773680152e-07, 0.00011727269265963407]",,,,1.71678264065,-0.676926368094,-0.24745010855,,-0.0233556724651,0.0168946735266,-0.0317407155062,"[0.00023387600032222, 0.00015350713275944427, 4.8159288561285256e-05, -3.5859875392282663e-09, -1.047903064438275e-08, -4.415008656698202e-08, 0.00015350713275944427, 0.00048493997636050686, 6.171668558453609e-06, -2.727662615690573e-09, -2.56829417193282e-09, -1.1648895380413672e-07, 4.8159288561285256e-05, 6.171668558453609e-06, 0.0002540145890615149, 1.5923347379187518e-09, 1.9373001690259697e-09, -1.895169658077206e-09, -3.5859875392282663e-09, -2.727662615690573e-09, 1.5923347379187518e-09, 2.466085021561931e-09, -5.9187818851956604e-12, -9.916801068108922e-12, -1.047903064438275e-08, -2.56829417193282e-09, 1.9373001690259697e-09, -5.9187818851956604e-12, 2.438399485175934e-09, 7.467836423664153e-13, -4.415008656698202e-08, -1.1648895380413672e-07, -1.895169658077206e-09, -9.916801068108922e-12, 7.467836423664153e-13, 2.467775447996199e-09]"
1402416126126876159,,167187,,1402416126,109904050,/enu,/imu,,,,5.10304934288,22.3369821728,-27.4954748217,,0.844313156677,0.53567654317,0.0111821710133,0.00780343575831,"[0.033497855307619416, -0.004769729238369392, 0.0009137088441395265, 5.773296513815114e-06, -1.579829115276177e-05, -0.00027990834137832875, -0.004769729238369392, 0.03743497003840155, 0.007418835633854379, 1.0994367850602778e-05, -3.520909706971751e-06, 0.00013257434863318254, 0.0009137088441395265, 0.007418835633854379, 0.22388264264492008, -2.3572929301168938e-06, 6.68512501052198e-07, 2.2604494730989278e-05, 5.773296513815114e-06, 1.0994367850602778e-05, -2.3572929301168938e-06, 3.987824756939783e-06, -2.4564709995721133e-07, -5.125775866827181e-07, -1.579829115276177e-05, -3.520909706971751e-06, 6.68512501052198e-07, -2.4564709995721133e-07, 4.189848863087097e-06, 6.053322588195123e-07, -0.00027990834137832875, 0.00013257434863318254, 2.2604494730989278e-05, -5.125775866827181e-07, 6.053322588195123e-07, 0.00011729345767181205]",,,,1.71750461513,-0.669718341872,-0.258494568177,,-0.0128631360932,-0.00331726780791,-0.0367108838635,"[0.00023761275323083673, 0.000153987639818075, 4.762523902538208e-05, -3.5817280365152413e-09, -1.0713946205584838e-08, -4.415436382087319e-08, 0.000153987639818075, 0.0004885492739260184, 6.494735226301684e-06, -2.5087201737041422e-09, -2.5920144387105362e-09, -1.1654468079982464e-07, 4.762523902538208e-05, 6.494735226301684e-06, 0.00025450815988012354, 1.614174562729508e-09, 1.976024470082201e-09, -1.909269732347916e-09, -3.5817280365152413e-09, -2.5087201737041422e-09, 1.614174562729508e-09, 2.466084996437046e-09, -5.9188091082451794e-12, -9.917159542796801e-12, -1.0713946205584838e-08, -2.5920144387105362e-09, 1.976024470082201e-09, -5.9188091082451794e-12, 2.43839945108813e-09, 7.464927638753277e-13, -4.415436382087319e-08, -1.1654468079982464e-07, -1.909269732347916e-09, -9.917159542796801e-12, 7.464927638753277e-13, 2.4677682744017188e-09]"
1402416126126893930,,167188,,1402416126,120906114,/enu,/imu,,,,5.10408587044,22.3572310983,-27.492470466,,0.844202399885,0.53585131746,0.0112696444359,0.00765955087125,"[0.03349663358233579, -0.004768910543643659, 0.0009097415676158975, 5.7486349140232186e-06, -1.55886716858125e-05, -0.00027987730060100426, -0.004768910543643659, 0.03743658369935009, 0.007409244870945756, 1.0810629241191599e-05, -3.4977237748776363e-06, 0.00013249903483791018, 0.0009097415676158975, 0.007409244870945756, 0.22391524135058863, -2.344683600474875e-06, 6.647557831419767e-07, 2.261785246446227e-05, 5.7486349140232186e-06, 1.0810629241191599e-05, -2.344683600474875e-06, 4.036207148013249e-06, -2.4563689353436897e-07, -5.124338233824709e-07, -1.55886716858125e-05, -3.4977237748776363e-06, 6.647557831419767e-07, -2.4563689353436897e-07, 4.2382374824035466e-06, 6.039585156602451e-07, -0.00027987730060100426, 0.00013249903483791018, 2.261785246446227e-05, -5.124338233824709e-07, 6.039585156602451e-07, 0.00011732282175636449]",,,,1.71858882486,-0.681331745746,-0.25840666153,,0.0136443257919,0.0279394479714,-0.0342810522562,"[0.00024183700467107, 0.00015455004222898495, 4.6983244211145806e-05, -3.577911922639063e-09, -1.0975953812204958e-08, -4.416306343906826e-08, 0.00015455004222898495, 0.0004926630144033513, 6.837568901648772e-06, -2.2645863110651433e-09, -2.617532865806321e-09, -1.1660747941515156e-07, 4.6983244211145806e-05, 6.837568901648772e-06, 0.00025513613000472025, 1.6380922895605334e-09, 2.0156563856204107e-09, -1.9060279877774697e-09, -3.577911922639063e-09, -2.2645863110651433e-09, 1.6380922895605334e-09, 2.4660849714831206e-09, -5.91883654852143e-12, -9.91751439019925e-12, -1.0975953812204958e-08, -2.617532865806321e-09, 2.0156563856204107e-09, -5.91883654852143e-12, 2.438399416374069e-09, 7.461997769968521e-13, -4.416306343906826e-08, -1.1660747941515156e-07, -1.9060279877774697e-09, -9.91751439019925e-12, 7.461997769968521e-13, 2.4677610984601012e-09]"
1402416126166817548,,167189,,1402416126,130904912,/enu,/imu,,,,5.10509543352,22.3757274278,-27.4899238205,,0.844097984999,0.536014212699,0.0112781673076,0.007756187636,"[0.03349560438969968, -0.004768120746976916, 0.0009060812980610305, 5.725900172382334e-06, -1.5393637859070484e-05, -0.0002798463707429881, -0.004768120746976916, 0.037437994989037125, 0.007400664420190947, 1.0639662330371735e-05, -3.4765782632367113e-06, 0.00013242477417723704, 0.0009060812980610305, 0.007400664420190947, 0.2239446706928275, -2.3331466936698235e-06, 6.614684561368626e-07, 2.2629736351865082e-05, 5.725900172382334e-06, 1.0639662330371735e-05, -2.3331466936698235e-06, 4.0761552615049895e-06, -2.456262429500179e-07, -5.122759347024061e-07, -1.5393637859070484e-05, -3.4765782632367113e-06, 6.614684561368626e-07, -2.456262429500179e-07, 4.2781921187850195e-06, 6.025763652314205e-07, -0.0002798463707429881, 0.00013242477417723704, 2.2629736351865082e-05, -5.122759347024061e-07, 6.025763652314205e-07, 0.00011734361023999027]",,,,1.71887107577,-0.676699188365,-0.252951243897,,-0.0171706008107,-0.00839786661067,-0.035606445076,"[0.0002457471203242193, 0.00015504150642652357, 4.644332465568695e-05, -3.573931510879303e-09, -1.121598117753392e-08, -4.41686275210119e-08, 0.00015504150642652357, 0.0004964252282438023, 7.172643849103149e-06, -2.0403861869519644e-09, -2.641645794533674e-09, -1.1666247671153384e-07, 4.644332465568695e-05, 7.172643849103149e-06, 0.0002556266458484707, 1.6603854354802901e-09, 2.05477601375008e-09, -1.922919179512738e-09, -3.573931510879303e-09, -2.0403861869519644e-09, 1.6603854354802901e-09, 2.4660849467439844e-09, -5.918864264581532e-12, -9.917865240019207e-12, -1.121598117753392e-08, -2.641645794533674e-09, 2.05477601375008e-09, -5.918864264581532e-12, 2.438399380968715e-09, 7.459044777582624e-13, -4.41686275210119e-08, -1.1666247671153384e-07, -1.922919179512738e-09, -9.917865240019207e-12, 7.459044777582624e-13, 2.467753919663574e-09]"
1402416126166848084,,167190,,1402416126,141906023,/enu,/imu,,,,5.1068755032,22.4154887573,-27.5356597593,,0.843999906641,0.536198086422,0.0108842615791,0.00610758190418,"[0.03346783120560308, -0.004777546215553798, 0.0009142950871895358, 5.5465858533119205e-06, -1.4368629785253995e-05, -0.0002796130236490965, -0.004777546215553798, 0.037407572801923784, 0.007434575397349654, 9.829069907974646e-06, -3.289480434038347e-06, 0.00013230179875732285, 0.0009142950871895358, 0.007434575397349654, 0.2237995762582532, -2.276520203382451e-06, 6.495793360419174e-07, 2.247410529055455e-05, 5.5465858533119205e-06, 9.829069907974646e-06, -2.276520203382451e-06, 3.8945266115132925e-06, -2.424623750577003e-07, -5.245039110729286e-07, -1.4368629785253995e-05, -3.289480434038347e-06, 6.495793360419174e-07, -2.424623750577003e-07, 4.0932785581470125e-06, 5.994434688649437e-07, -0.0002796130236490965, 0.00013230179875732285, 2.247410529055455e-05, -5.245039110729286e-07, 5.994434688649437e-07, 0.00011736981895456044]",,,,1.7156978498,-0.662847170002,-0.242551473451,,0.0104432086613,0.0242951416245,-0.0301945598292,"[0.00022529310156673655, 0.00014771562228726006, 4.773496498524869e-05, -3.402981815433627e-09, -1.0182522572479386e-08, -4.2306531660953986e-08, 0.00014771562228726006, 0.0004807226576498674, 5.1370113976863684e-06, -2.964444514220639e-09, -2.5152983303140523e-09, -1.1643993291999917e-07, 4.773496498524869e-05, 5.1370113976863684e-06, 0.00025175922802509967, 1.50411015124477e-09, 1.8562470852206693e-09, -1.5712878917294586e-09, -3.402981815433627e-09, -2.964444514220639e-09, 1.50411015124477e-09, 2.4660038440340346e-09, -5.917700949550002e-12, -9.916045839459961e-12, -1.0182522572479386e-08, -2.5152983303140523e-09, 1.8562470852206693e-09, -5.917700949550002e-12, 2.4383155567322304e-09, 7.480100681787836e-13, -4.2306531660953986e-08, -1.1643993291999917e-07, -1.5712878917294586e-09, -9.916045839459961e-12, 7.480100681787836e-13, 2.4677460817673903e-09]"
1402416126166870789,,167191,,1402416126,151906013,/enu,/imu,,,,5.10804629115,22.4340670741,-27.5335635979,,0.843895887798,0.536360152711,0.0108948187901,0.00623057504141,"[0.03346699340951555, -0.004776718112492864, 0.0009107153862051758, 5.524822989155254e-06, -1.4187630490321669e-05, -0.0002795855959988932, -0.004776718112492864, 0.03740913309794534, 0.007426017210414173, 9.671106903731694e-06, -3.2692415335807116e-06, 0.00013222034756486069, 0.0009107153862051758, 0.007426017210414173, 0.2238287757521524, -2.264802893977249e-06, 6.463789851749986e-07, 2.248543828793854e-05, 5.524822989155254e-06, 9.671106903731694e-06, -2.264802893977249e-06, 3.9344887035976076e-06, -2.4245203021227615e-07, -5.243475237121198e-07, -1.4187630490321669e-05, -3.2692415335807116e-06, 6.463789851749986e-07, -2.4245203021227615e-07, 4.133246387783701e-06, 5.981017642678442e-07, -0.0002795855959988932, 0.00013222034756486069, 2.248543828793854e-05, -5.243475237121198e-07, 5.981017642678442e-07, 0.00011739060310835854]",,,,1.71515869834,-0.656980171983,-0.243203516955,,-0.0218075388851,-0.0109376953291,-0.0354960719298,"[0.0002289523441732705, 0.00014818335467351313, 4.722714194412776e-05, -3.3983800190761655e-09, -1.0414221793740345e-08, -4.2312794494649146e-08, 0.00014818335467351313, 0.00048423895702730187, 5.446440548210405e-06, -2.7481779953911532e-09, -2.538483132562851e-09, -1.1649374033049792e-07, 4.722714194412776e-05, 5.446440548210405e-06, 0.0002522424164578475, 1.524872093936878e-09, 1.8953097248043334e-09, -1.592690899884459e-09, -3.3983800190761655e-09, -2.7481779953911532e-09, 1.524872093936878e-09, 2.466003818738944e-09, -5.91772770500698e-12, -9.91640891205824e-12, -1.0414221793740345e-08, -2.538483132562851e-09, 1.8953097248043334e-09, -5.91772770500698e-12, 2.438315523612663e-09, 7.477233186652139e-13, -4.2312794494649146e-08, -1.1649374033049792e-07, -1.592690899884459e-09, -9.91640891205824e-12, 7.477233186652139e-13, 2.467738898240987e-09]"
1402416126166891159,,167192,,1402416126,161905050,/enu,/imu,,,,5.10924356324,22.4523427283,-27.5308569049,,0.843798429198,0.53651385574,0.0109598273987,0.00608076185351,"[0.03346616972418006, -0.004775887625310004, 0.0009071509701230215, 5.502795195127229e-06, -1.4002355544986159e-05, -0.00027955697657209417, -0.004775887625310004, 0.037410653059277814, 0.007417475683289286, 9.509130630788228e-06, -3.2487803919805997e-06, 0.00013213877362641338, 0.0009071509701230215, 0.007417475683289286, 0.2238579810579187, -2.2531217346848316e-06, 6.432093654825942e-07, 2.2496862965051814e-05, 5.502795195127229e-06, 9.509130630788228e-06, -2.2531217346848316e-06, 3.97444193045443e-06, -2.4244158499943553e-07, -5.241898590186987e-07, -1.4002355544986159e-05, -3.2487803919805997e-06, 6.432093654825942e-07, -2.4244158499943553e-07, 4.17320566505793e-06, 5.967485858578118e-07, -0.00027955697657209417, 0.00013213877362641338, 2.2496862965051814e-05, -5.241898590186987e-07, 5.967485858578118e-07, 0.000117411373298675]",,,,1.71502816127,-0.661579440445,-0.253027722919,,0.018395445474,0.0274981249683,-0.0328453444372,"[0.00023266015187885792, 0.00014867970325020135, 4.664637956795702e-05, -3.394595547555009e-09, -1.0648805352307961e-08, -4.232170021036428e-08, 0.00014867970325020135, 0.0004878236894626589, 5.721938495135656e-06, -2.5290725446264377e-09, -2.5607917039258856e-09, -1.1654689196587693e-07, 4.664637956795702e-05, 5.721938495135656e-06, 0.00025275748887932265, 1.5456003551245551e-09, 1.9313139630301023e-09, -1.5835357187432464e-09, -3.394595547555009e-09, -2.5290725446264377e-09, 1.5456003551245551e-09, 2.466003793627109e-09, -5.9177546943419346e-12, -9.916768344075009e-12, -1.0648805352307961e-08, -2.5607917039258856e-09, 1.9313139630301023e-09, -5.9177546943419346e-12, 2.4383154898553223e-09, 7.474344617038285e-13, -4.232170021036428e-08, -1.1654689196587693e-07, -1.5835357187432464e-09, -9.916768344075009e-12, 7.474344617038285e-13, 2.4677317124862283e-09]"
1402416126206823859,,167193,,1402416126,172867059,/enu,/imu,,,,5.11049715886,22.4725341838,-27.5280138422,,0.84369973955,0.536669773311,0.0110009979944,0.00593986036964,"[0.03346526604986931, -0.0047750500097094575, 0.0009032424958072159, 5.478404060945444e-06, -1.379422338305183e-05, -0.00027953259717483745, -0.0047750500097094575, 0.037412321237212554, 0.007408031315600099, 9.32649302059638e-06, -3.225915494041369e-06, 0.00013204889324988121, 0.0009032424958072159, 0.007408031315600099, 0.22389028667997318, -2.240220887821248e-06, 6.398523123389102e-07, 2.250979471829174e-05, 5.478404060945444e-06, 9.32649302059638e-06, -2.240220887821248e-06, 4.022472540513379e-06, -2.4243134207405395e-07, -5.240428214028709e-07, -1.379422338305183e-05, -3.225915494041369e-06, 6.398523123389102e-07, -2.4243134207405395e-07, 4.221242726777705e-06, 5.953782260351053e-07, -0.00027953259717483745, 0.00013204889324988121, 2.250979471829174e-05, -5.240428214028709e-07, 5.953782260351053e-07, 0.00011744034447745679]",,,,1.71768936229,-0.661722275824,-0.270295834752,,0.0177327578757,0.0205399150833,-0.0303050657681,"[0.00023687202421746867, 0.00014924366456583045, 4.601098342811841e-05, -3.3906312949226234e-09, -1.0908091438077546e-08, -4.233582837532661e-08, 0.00014924366456583045, 0.0004918879108655394, 6.0150573210984725e-06, -2.2867008706287403e-09, -2.585217947944402e-09, -1.1660603495901556e-07, 4.601098342811841e-05, 6.0150573210984725e-06, 0.0002533670337784866, 1.5685381777332118e-09, 1.9714990662209384e-09, -1.5711308631807277e-09, -3.3906312949226234e-09, -2.2867008706287403e-09, 1.5685381777332118e-09, 2.4660037687843034e-09, -5.917781915013829e-12, -9.9171241313968e-12, -1.0908091438077546e-08, -2.585217947944402e-09, 1.9714990662209384e-09, -5.917781915013829e-12, 2.4383154554732706e-09, 7.471435211220506e-13, -4.233582837532661e-08, -1.1660603495901556e-07, -1.5711308631807277e-09, -9.9171241313968e-12, 7.471435211220506e-13, 2.4677245243041563e-09]"
1402416126206854697,,167194,,1402416126,182868003,/enu,/imu,,,,5.10172527024,22.4829129517,-27.4974472764,,0.843619411953,0.536828971961,0.00976889781525,0.00505086861702,"[0.03343885048805401, -0.004784099807446457, 0.00091154154658892, 5.36466826797521e-06, -1.2953033025130348e-05, -0.0002793375460721991, -0.004784099807446457, 0.037382555280424376, 0.007442259859305087, 8.6303706138532e-06, -3.0399725511345933e-06, 0.00013186756729675406, 0.00091154154658892, 0.007442259859305087, 0.22374379289658974, -2.1954747087108895e-06, 6.284250344398976e-07, 2.2365217703061277e-05, 5.36466826797521e-06, 8.6303706138532e-06, -2.1954747087108895e-06, 3.845032670170084e-06, -2.3906746554074806e-07, -5.577939029255413e-07, -1.2953033025130348e-05, -3.0399725511345933e-06, 6.284250344398976e-07, -2.3906746554074806e-07, 4.040031714302664e-06, 6.028198124217242e-07, -0.0002793375460721991, 0.00013186756729675406, 2.2365217703061277e-05, -5.577939029255413e-07, 6.028198124217242e-07, 0.00011745307403163118]",,,,1.7269474241,-0.635706368214,-0.259660480255,,-0.033734051001,-0.017344315651,-0.0371528287225,"[0.00021691390793562333, 0.00014282373163351753, 4.7171189246649594e-05, -3.2223615818439167e-09, -9.887964030109762e-09, -4.047890172407219e-08, 0.00014282373163351753, 0.0004817267378015572, 3.7752493837963456e-06, -3.2953257830888966e-09, -2.4912127114110018e-09, -1.1731403063493752e-07, 4.7171189246649594e-05, 3.7752493837963456e-06, 0.00024947888193684796, 1.4273420312639242e-09, 1.8373148502385626e-09, -1.1555383983998942e-09, -3.2223615818439167e-09, -3.2953257830888966e-09, 1.4273420312639242e-09, 2.465927177294254e-09, -5.915553938679649e-12, -9.91513875715233e-12, -9.887964030109762e-09, -2.4912127114110018e-09, 1.8373148502385626e-09, -5.915553938679649e-12, 2.4382361989544918e-09, 7.577767180417486e-13, -4.047890172407219e-08, -1.1731403063493752e-07, -1.1555383983998942e-09, -9.91513875715233e-12, 7.577767180417486e-13, 2.4677151805358913e-09]"
1402416126206876652,,167195,,1402416126,192867994,/enu,/imu,,,,5.10330832116,22.5011145714,-27.4944822716,,0.843534752682,0.536962707457,0.00978979526265,0.00493272006616,"[0.033438153773143554, -0.004783290920293431, 0.000907947850570925, 5.343266381491192e-06, -1.2775966682438662e-05, -0.00027930985274068903, -0.004783290920293431, 0.0373841550112998, 0.0074337848139950456, 8.47586009967842e-06, -3.0201292875610824e-06, 0.0001317850534988843, 0.000907947850570925, 0.0074337848139950456, 0.22377283372297385, -2.1836478427074075e-06, 6.252205252843001e-07, 2.2376737803012777e-05, 5.343266381491192e-06, 8.47586009967842e-06, -2.1836478427074075e-06, 3.8849961930356695e-06, -2.390569469809522e-07, -5.576315875458533e-07, -1.2775966682438662e-05, -3.0201292875610824e-06, 6.252205252843001e-07, -2.390569469809522e-07, 4.080000759302193e-06, 6.01491418193985e-07, -0.00027930985274068903, 0.0001317850534988843, 2.2376737803012777e-05, -5.576315875458533e-07, 6.01491418193985e-07, 0.00011747382636050073]",,,,1.72549165159,-0.632468184278,-0.277003889237,,0.0177346050719,0.016563146443,-0.0282065790836,"[0.000220477075853528, 0.00014331836957148965, 4.6601322081082165e-05, -3.2182777694448662e-09, -1.011638977459889e-08, -4.049470530269918e-08, 0.00014331836957148965, 0.00048513729073021834, 4.004545623768495e-06, -3.0817059638926837e-09, -2.512300384224805e-09, -1.1736422891725599e-07, 4.6601322081082165e-05, 4.004545623768495e-06, 0.0002499831015372679, 1.4470166563846856e-09, 1.8750955523188405e-09, -1.1420935431901939e-09, -3.2182777694448662e-09, -3.0817059638926837e-09, 1.4470166563846856e-09, 2.4659271517806737e-09, -5.915580396949468e-12, -9.915506022936239e-12, -1.011638977459889e-08, -2.512300384224805e-09, 1.8750955523188405e-09, -5.915580396949468e-12, 2.4382361665150713e-09, 7.574919954458883e-13, -4.049470530269918e-08, -1.1736422891725599e-07, -1.1420935431901939e-09, -9.915506022936239e-12, 7.574919954458883e-13, 2.4677079857900857e-09]"
1402416126206898992,,167196,,1402416126,202866077,/enu,/imu,,,,5.10459741776,22.5193529998,-27.4915522098,,0.843434228483,0.537118221932,0.00982914141184,0.00510939046516,"[0.03343750605955261, -0.004782431839474356, 0.0009043807916673855, 5.321645177800254e-06, -1.2595013051027246e-05, -0.0002792797814218013, -0.004782431839474356, 0.03738583161324682, 0.007425167380466058, 8.317686565791112e-06, -3.0000881009274917e-06, 0.00013169787658890767, 0.0009043807916673855, 0.007425167380466058, 0.2238021052727424, -2.17190289238237e-06, 6.221850867201322e-07, 2.238759314920027e-05, 5.321645177800254e-06, 8.317686565791112e-06, -2.17190289238237e-06, 3.924943227896558e-06, -2.3904632534603326e-07, -5.574680157496e-07, -1.2595013051027246e-05, -3.0000881009274917e-06, 6.221850867201322e-07, -2.3904632534603326e-07, 4.119953625271175e-06, 6.001515880569272e-07, -0.0002792797814218013, 0.00013169787658890767, 2.238759314920027e-05, -5.574680157496e-07, 6.001515880569272e-07, 0.00011749455696070408]",,,,1.72054119755,-0.641558497848,-0.257022471834,,-0.0339549485328,-0.0119323769969,-0.0342812243032,"[0.00022412432900976949, 0.00014377914574423387, 4.6106560613502054e-05, -3.2137335030182382e-09, -1.0346943906883407e-08, -4.0503985555452207e-08, 0.00014377914574423387, 0.0004886300283937088, 4.321756833409509e-06, -2.866160874384144e-09, -2.5351181634965565e-09, -1.1741600865300025e-07, 4.6106560613502054e-05, 4.321756833409509e-06, 0.00025046451507756507, 1.4663175963129955e-09, 1.9142915778942467e-09, -1.1777825023302882e-09, -3.2137335030182382e-09, -2.866160874384144e-09, 1.4663175963129955e-09, 2.46592712650799e-09, -5.915607081135509e-12, -9.915869686997241e-12, -1.0346943906883407e-08, -2.5351181634965565e-09, 1.9142915778942467e-09, -5.915607081135509e-12, 2.4382361334676615e-09, 7.572051392558886e-13, -4.0503985555452207e-08, -1.1741600865300025e-07, -1.1777825023302882e-09, -9.915869686997241e-12, 7.572051392558886e-13, 2.4677007886678414e-09]"
1402416126246826216,,167197,,1402416126,213867902,/enu,/imu,,,,5.10602060762,22.5395295508,-27.4886087762,,0.843307821192,0.53731721598,0.00984824140686,0.00501400717136,"[0.03343677779483643, -0.004781514039594112, 0.0009004829324432712, 5.297639358493045e-06, -1.2391801679630009e-05, -0.00027924965125315093, -0.004781514039594112, 0.037387653642422206, 0.007415811011901341, 8.139471920553003e-06, -2.9776962611360222e-06, 0.00013159829671456435, 0.0009004829324432712, 0.007415811011901341, 0.2238341271186367, -2.1590625697545787e-06, 6.191178568619041e-07, 2.2400469368846286e-05, 5.297639358493045e-06, 8.139471920553003e-06, -2.1590625697545787e-06, 3.97332524732114e-06, -2.390359108630898e-07, -5.573154968345949e-07, -1.2391801679630009e-05, -2.9776962611360222e-06, 6.191178568619041e-07, -2.390359108630898e-07, 4.168341868533954e-06, 5.987945478712978e-07, -0.00027924965125315093, 0.00013159829671456435, 2.2400469368846286e-05, -5.573154968345949e-07, 5.987945478712978e-07, 0.00011752385176832999]",,,,1.71910572278,-0.638794063666,-0.266337178301,,0.0128749015362,0.0126974730736,-0.0396931841834,"[0.00022822706971679468, 0.00014430572895483487, 4.5477012128600504e-05, -3.209213578060137e-09, -1.0603396340123684e-08, -4.050779141575968e-08, 0.00014430572895483487, 0.0004926387088864316, 4.5932968079963205e-06, -2.626132407764441e-09, -2.5601545293386627e-09, -1.174780629542606e-07, 4.5477012128600504e-05, 4.5932968079963205e-06, 0.00025106914527383455, 1.4881891586440303e-09, 1.9558482570773043e-09, -1.1675420647538628e-09, -3.209213578060137e-09, -2.626132407764441e-09, 1.4881891586440303e-09, 2.4659271014884973e-09, -5.915634001794355e-12, -9.916229658333301e-12, -1.0603396340123684e-08, -2.5601545293386627e-09, 1.9558482570773043e-09, -5.915634001794355e-12, 2.4382360997868662e-09, 7.569161805024085e-13, -4.050779141575968e-08, -1.174780629542606e-07, -1.1675420647538628e-09, -9.916229658333301e-12, 7.569161805024085e-13, 2.467693589182501e-09]"
1402416126246855965,,167198,,1402416126,223840951,/enu,/imu,,,,5.10736511931,22.5579713706,-27.4864046718,,0.843198420538,0.537486851543,0.00986471806244,0.00519570566901,"[0.033436110096722316, -0.0047806361341847904, 0.0008969203197070454, 5.275562626153074e-06, -1.2203139130873778e-05, -0.0002792127112731632, -0.0047806361341847904, 0.03738926715809989, 0.007407418321842406, 7.974084833411306e-06, -2.9573424261521237e-06, 0.000131499992459255, 0.0008969203197070454, 0.007407418321842406, 0.223862877232172, -2.1475700810431137e-06, 6.165514799357395e-07, 2.2411916205406935e-05, 5.275562626153074e-06, 7.974084833411306e-06, -2.1475700810431137e-06, 4.013069374800033e-06, -2.3902505667516483e-07, -5.571488428944573e-07, -1.2203139130873778e-05, -2.9573424261521237e-06, 6.165514799357395e-07, -2.3902505667516483e-07, 4.208092519050961e-06, 5.974295227993737e-07, -0.0002792127112731632, 0.000131499992459255, 2.2411916205406935e-05, -5.571488428944573e-07, 5.974295227993737e-07, 0.00011754436361706728]",,,,1.71013736445,-0.647075877455,-0.249694929657,,-0.0324086818609,-0.0163502891861,-0.0377051430188,"[0.00023201786373910004, 0.00014476649811347522, 4.496775130743772e-05, -3.2048592531325626e-09, -1.0838299575219049e-08, -4.05129786022123e-08, 0.00014476649811347522, 0.0004962812343497721, 4.911523676450959e-06, -2.4060041088911053e-09, -2.58366781730552e-09, -1.1753056535669372e-07, 4.496775130743772e-05, 4.911523676450959e-06, 0.0002515435732376938, 1.5080472245610824e-09, 1.9951862517443846e-09, -1.1995706736761847e-09, -3.2048592531325626e-09, -2.4060041088911053e-09, 1.5080472245610824e-09, 2.4659270766971363e-09, -5.915661158697673e-12, -9.916585662917532e-12, -1.0838299575219049e-08, -2.58366781730552e-09, 1.9951862517443846e-09, -5.915661158697673e-12, 2.4382360654391376e-09, 7.566248830278953e-13, -4.05129786022123e-08, -1.1753056535669372e-07, -1.1995706736761847e-09, -9.916585662917532e-12, 7.566248830278953e-13, 2.4676863868986555e-09]"
1402416126246886823,,167199,,1402416126,233869075,/enu,/imu,,,,5.10855711672,22.5762019658,-27.4836149798,,0.843088284954,0.537662098335,0.00975823967076,0.00513697838953,"[0.033435435320956094, -0.004779755819788323, 0.0008933263900811402, 5.253089718991951e-06, -1.2009410521594955e-05, -0.0002791681600167545, -0.004779755819788323, 0.03739092067098874, 0.007398804711574869, 7.804018752642368e-06, -2.9366841621644736e-06, 0.00013139568664353643, 0.0008933263900811402, 0.007398804711574869, 0.2238922671250664, -2.1362859392466764e-06, 6.142135977549047e-07, 2.242359134254697e-05, 5.253089718991951e-06, 7.804018752642368e-06, -2.1362859392466764e-06, 4.053253132320848e-06, -2.390141198006674e-07, -5.569815655478169e-07, -1.2009410521594955e-05, -2.9366841621644736e-06, 6.142135977549047e-07, -2.390141198006674e-07, 4.248283129921315e-06, 5.960528925429845e-07, -0.0002791681600167545, 0.00013139568664353643, 2.242359134254697e-05, -5.569815655478169e-07, 5.960528925429845e-07, 0.00011756531764418029]",,,,1.70361052423,-0.641521250589,-0.260824299563,,0.0213793772447,-0.0111592452351,-0.0380365056754,"[0.00023590331985999465, 0.00014525671989429545, 4.437054596624477e-05, -3.200725929568715e-09, -1.1076667356593297e-08, -4.0517449228432496e-08, 0.00014525671989429545, 0.000500026963601969, 5.110590259182159e-06, -2.1817375727990155e-09, -2.606486868036353e-09, -1.1758398781494125e-07, 4.437054596624477e-05, 5.110590259182159e-06, 0.00025202194341593126, 1.529075683108894e-09, 2.0354473431279762e-09, -1.1704717718772606e-09, -3.200725929568715e-09, -2.1817375727990155e-09, 1.529075683108894e-09, 2.4659270520732503e-09, -5.915688536370225e-12, -9.91693802016345e-12, -1.1076667356593297e-08, -2.606486868036353e-09, 2.0354473431279762e-09, -5.915688536370225e-12, 2.4382360304302675e-09, 7.563314991037944e-13, -4.0517449228432496e-08, -1.1758398781494125e-07, -1.1704717718772606e-09, -9.91693802016345e-12, 7.563314991037944e-13, 2.4676791822891892e-09]"
1402416126246911584,,167200,,1402416126,244868993,/enu,/imu,,,,5.1099461128,22.596194009,-27.48081538,,0.842955328,0.537873894646,0.00960643114419,0.0050700035769,"[0.03343466479532756, -0.004778722126575935, 0.0008894535416628779, 5.228197602044742e-06, -1.1792510897633645e-05, -0.0002791132021254505, -0.004778722126575935, 0.037392730021026326, 0.00738943239232903, 7.613077286951452e-06, -2.9136732559823975e-06, 0.00013127370103201299, 0.0008894535416628779, 0.00738943239232903, 0.22392433825436348, -2.1242687577197766e-06, 6.120425998691333e-07, 2.243655763457478e-05, 5.228197602044742e-06, 7.613077286951452e-06, -2.1242687577197766e-06, 4.101614374596456e-06, -2.390033791161976e-07, -5.568246659970835e-07, -1.1792510897633645e-05, -2.9136732559823975e-06, 6.120425998691333e-07, -2.390033791161976e-07, 4.2966516391394e-06, 5.946591658889772e-07, -0.0002791132021254505, 0.00013127370103201299, 2.243655763457478e-05, -5.568246659970835e-07, 5.946591658889772e-07, 0.00011759457408712795]",,,,1.68916088922,-0.653665882012,-0.243892583208,,0.025245047961,-0.0162398431523,-0.0426753301725,"[0.00024028940629497615, 0.00014579734670158153, 4.3702379182879685e-05, -3.1962667754888364e-09, -1.1340995373089694e-08, -4.0518069649437966e-08, 0.00014579734670158153, 0.0005042923824419985, 5.3141437216944105e-06, -1.9328092768787545e-09, -2.6322664460257708e-09, -1.1764629429641448e-07, 4.3702379182879685e-05, 5.3141437216944105e-06, 0.0002525924665429972, 1.5526723917511367e-09, 2.0800173986442626e-09, -1.1313051834199418e-09, -3.1962667754888364e-09, -1.9328092768787545e-09, 1.5526723917511367e-09, 2.4659270277058086e-09, -5.915716158017879e-12, -9.917286719450891e-12, -1.1340995373089694e-08, -2.6322664460257708e-09, 2.0800173986442626e-09, -5.915716158017879e-12, 2.438235994805474e-09, 7.560359805724169e-13, -4.0518069649437966e-08, -1.1764629429641448e-07, -1.1313051834199418e-09, -9.917286719450891e-12, 7.560359805724169e-13, 2.467671975232959e-09]"
1402416126286831318,,167201,,1402416126,254837989,/enu,/imu,,,,5.11073349363,22.6140827674,-27.4782231814,,0.842826966335,0.538077988167,0.00943335615007,0.00507890346676,"[0.03343396613268302, -0.004777768452709883, 0.0008858738050806458, 5.205316594275956e-06, -1.1591799114815308e-05, -0.00027904794273843375, -0.004777768452709883, 0.037394361259945434, 0.00738086161665993, 7.436544504487878e-06, -2.8928407627240153e-06, 0.0001311441569119986, 0.0008858738050806458, 0.00738086161665993, 0.22395370504664552, -2.113764419874902e-06, 6.107066268314477e-07, 2.2447935190075655e-05, 5.205316594275956e-06, 7.436544504487878e-06, -2.113764419874902e-06, 4.141321942696222e-06, -2.389922005058856e-07, -5.566533736317352e-07, -1.1591799114815308e-05, -2.8928407627240153e-06, 6.107066268314477e-07, -2.389922005058856e-07, 4.336366794142423e-06, 5.932575152085566e-07, -0.00027904794273843375, 0.0001311441569119986, 2.2447935190075655e-05, -5.566533736317352e-07, 5.932575152085566e-07, 0.00011761503171345877]",,,,1.67518158015,-0.660247227191,-0.233358195842,,0.0172928081208,-0.0297144710073,-0.045326095709,"[0.00024430900353776904, 0.00014627334741056162, 4.309821050800129e-05, -3.1921065392432178e-09, -1.1582969519692114e-08, -4.0514319938087805e-08, 0.00014627334741056162, 0.0005081869478189181, 5.503337334623874e-06, -1.7044218506489858e-09, -2.6562897674386346e-09, -1.1770122076128007e-07, 4.309821050800129e-05, 5.503337334623874e-06, 0.0002530469297849421, 1.574432756450162e-09, 2.1214772698357187e-09, -1.0996362063655826e-09, -3.1921065392432178e-09, -1.7044218506489858e-09, 1.574432756450162e-09, 2.4659270034988316e-09, -5.915744017536659e-12, -9.917631423133157e-12, -1.1582969519692114e-08, -2.6562897674386346e-09, 2.1214772698357187e-09, -5.915744017536659e-12, 2.438235958439847e-09, 7.557381500527811e-13, -4.0514319938087805e-08, -1.1770122076128007e-07, -1.0996362063655826e-09, -9.917631423133157e-12, 7.557381500527811e-13, 2.4676647655008287e-09]"
1402416126286852129,,167202,,1402416126,264841079,/enu,/imu,,,,5.11172757404,22.6320387968,-27.4758378781,,0.842710616758,0.538262383211,0.00925201124009,0.00517914198992,"[0.03343309203148422, -0.0047767375746830855, 0.0008822709475724645, 5.182068277182473e-06, -1.1386317820584763e-05, -0.000278966736704701, -0.0047767375746830855, 0.03739597752118286, 0.007372322251657119, 7.25566914237398e-06, -2.871791747986533e-06, 0.00013100490553191382, 0.0008822709475724645, 0.007372322251657119, 0.223982993560624, -2.1037875664352077e-06, 6.097721257261221e-07, 2.246006692424179e-05, 5.182068277182473e-06, 7.25566914237398e-06, -2.1037875664352077e-06, 4.1813007331067364e-06, -2.3898093388571084e-07, -5.56481054679854e-07, -1.1386317820584763e-05, -2.871791747986533e-06, 6.097721257261221e-07, -2.3898093388571084e-07, 4.3763535182678855e-06, 5.918444656217603e-07, -0.000278966736704701, 0.00013100490553191382, 2.246006692424179e-05, -5.56481054679854e-07, 5.918444656217603e-07, 0.00011763576042893581]",,,,1.65921652726,-0.655941330262,-0.233849795979,,0.00271370256685,-0.04086969589,-0.0407977563781,"[0.00024844589793127753, 0.0001467612906348353, 4.25059664446915e-05, -3.1880359922164625e-09, -1.1827980329668716e-08, -4.051596196555818e-08, 0.0001467612906348353, 0.0005121564093443596, 5.7144901469629694e-06, -1.4729471953631966e-09, -2.6803997303583274e-09, -1.1775388012235919e-07, 4.25059664446915e-05, 5.7144901469629694e-06, 0.00025349500760111625, 1.5962645794472148e-09, 2.163750289654866e-09, -1.080489887002366e-09, -3.1880359922164625e-09, -1.4729471953631966e-09, 1.5962645794472148e-09, 2.465926979479305e-09, -5.915772075960753e-12, -9.917972491018537e-12, -1.1827980329668716e-08, -2.6803997303583274e-09, 2.163750289654866e-09, -5.915772075960753e-12, 2.438235921418635e-09, 7.554382382533819e-13, -4.051596196555818e-08, -1.1775388012235919e-07, -1.080489887002366e-09, -9.917972491018537e-12, 7.554382382533819e-13, 2.4676575533797204e-09]"
1402416126286919511,,167203,,1402416126,275830984,/enu,/imu,,,,5.12054385973,22.6690254513,-27.5288569864,,0.842585352596,0.538462743706,0.00892821228774,0.00529945816405,"[0.033406315836250366, -0.004784662362580138, 0.0008895438752703044, 5.177631460391513e-06, -1.039407363762117e-05, -0.00027837763833537887, -0.004784662362580138, 0.0373669707889173, 0.00740516727705744, 6.500459724862899e-06, -2.7852294121799377e-06, 0.00013060913808275612, 0.0008895438752703044, 0.00740516727705744, 0.22384302017013719, -1.705998670265711e-06, 5.981396292552443e-07, 2.2490377530576093e-05, 5.177631460391513e-06, 6.500459724862899e-06, -1.705998670265711e-06, 3.997890975413595e-06, -2.3380475390294032e-07, -6.585243115791949e-07, -1.039407363762117e-05, -2.7852294121799377e-06, 5.981396292552443e-07, -2.3380475390294032e-07, 4.163153352975947e-06, 4.9864896185638e-07, -0.00027837763833537887, 0.00013060913808275612, 2.2490377530576093e-05, -6.585243115791949e-07, 4.9864896185638e-07, 0.00011758364886316201]",,,,1.64869372004,-0.659051870199,-0.223390102825,,-0.0155099913604,-0.0408697684564,-0.0364903444644,"[0.00023192527645645513, 0.0001436612944379745, 4.4760813789907266e-05, -3.3182665988293563e-09, -1.0781878214642838e-08, -4.0544794237427707e-08, 0.0001436612944379745, 0.0004946139105547229, 4.179626867017986e-06, -2.62827513529595e-09, -2.535622998644085e-09, -1.1746318353350416e-07, 4.4760813789907266e-05, 4.179626867017986e-06, 0.00024966687148135583, 1.4966220635824068e-09, 1.954252892180789e-09, -9.299780935431271e-10, -3.3182665988293563e-09, -2.62827513529595e-09, 1.4966220635824068e-09, 2.465846995595552e-09, -5.908916553141312e-12, -9.876099694551442e-12, -1.0781878214642838e-08, -2.535622998644085e-09, 1.954252892180789e-09, -5.908916553141312e-12, 2.4381489588632543e-09, 7.707709877185362e-13, -4.0544794237427707e-08, -1.1746318353350416e-07, -9.299780935431271e-10, -9.876099694551442e-12, 7.707709877185362e-13, 2.4676230390397596e-09]"
1402416126287017572,,167204,,1402416126,285840034,/enu,/imu,,,,5.12139591891,22.6867671442,-27.5267316127,,0.8424808963,0.538626276614,0.00877903335973,0.00553191506252,"[0.033405562689632996, -0.004783622026061878, 0.0008860429576812053, 5.155238709312269e-06, -1.0205368329602134e-05, -0.00027827307711353387, -0.004783622026061878, 0.03736870269854186, 0.00739662358222948, 6.332811831869315e-06, -2.765315021518128e-06, 0.00013046047234026623, 0.0008860429576812053, 0.00739662358222948, 0.22387213064450986, -1.6963646965376286e-06, 5.975854276804623e-07, 2.2502241365261794e-05, 5.155238709312269e-06, 6.332811831869315e-06, -1.6963646965376286e-06, 4.0379219262602975e-06, -2.337930174676322e-07, -6.583391114007038e-07, -1.0205368329602134e-05, -2.765315021518128e-06, 5.975854276804623e-07, -2.337930174676322e-07, 4.203194369758386e-06, 4.973038142811682e-07, -0.00027827307711353387, 0.00013046047234026623, 2.2502241365261794e-05, -6.583391114007038e-07, 4.973038142811682e-07, 0.00011760448453859555]",,,,1.6341083911,-0.657661351219,-0.210158591691,,-0.0230204401777,-0.0497055902998,-0.0362694673263,"[0.00023582829471422963, 0.00014411189368535027, 4.423176339082842e-05, -3.3144002205603654e-09, -1.1018570354525166e-08, -4.055514683729905e-08, 0.00014411189368535027, 0.0004982476762910786, 4.42575137731557e-06, -2.4051378800220546e-09, -2.558054046621103e-09, -1.175060561590508e-07, 4.423176339082842e-05, 4.42575137731557e-06, 0.0002501067045211885, 1.5180548919463138e-09, 1.996312654417609e-09, -9.373715177635784e-10, -3.3144002205603654e-09, -2.4051378800220546e-09, 1.5180548919463138e-09, 2.4658469701020853e-09, -5.908944115459907e-12, -9.876461374516202e-12, -1.1018570354525166e-08, -2.558054046621103e-09, 1.996312654417609e-09, -5.908944115459907e-12, 2.4381489241054347e-09, 7.704785941667045e-13, -4.055514683729905e-08, -1.175060561590508e-07, -9.373715177635784e-10, -9.876461374516202e-12, 7.704785941667045e-13, 2.4676158477673483e-09]"
1402416126298141143,,167205,,1402416126,296832084,/enu,/imu,,,,5.12220167498,22.7062661442,-27.5247039849,,0.842346110044,0.538833894104,0.00871463087843,0.00592626921502,"[0.03340468492081944, -0.004782369994932981, 0.0008821886199098537, 5.130397643314544e-06, -9.993979520996402e-06, -0.00027814709072017363, -0.004782369994932981, 0.03737056682356412, 0.00738722878093748, 6.14454944211791e-06, -2.7431252589885154e-06, 0.0001302883655747757, 0.0008821886199098537, 0.00738722878093748, 0.22390403901587508, -1.6863660430100765e-06, 5.974348937310872e-07, 2.2515943844029572e-05, 5.130397643314544e-06, 6.14454944211791e-06, -1.6863660430100765e-06, 4.086214089260311e-06, -2.3378145498762464e-07, -6.581647510031131e-07, -9.993979520996402e-06, -2.7431252589885154e-06, 5.974348937310872e-07, -2.3378145498762464e-07, 4.251496999130119e-06, 4.959419863636871e-07, -0.00027814709072017363, 0.0001302883655747757, 2.2515943844029572e-05, -6.581647510031131e-07, 4.959419863636871e-07, 0.00011763370796133233]",,,,1.61925938487,-0.66340632471,-0.21073529837,,-0.0540562622998,-0.0480488747301,-0.0427859046227,"[0.00024022451080468168, 0.00014458608535091152, 4.3690698228560456e-05, -3.310257931698738e-09, -1.1280972785964848e-08, -4.055917681747556e-08, 0.00014458608535091152, 0.0005023966574562595, 4.792080401944567e-06, -2.158318390030545e-09, -2.584484174268612e-09, -1.1755738405582732e-07, 4.3690698228560456e-05, 4.792080401944567e-06, 0.0002506465140061053, 1.541124490540234e-09, 2.04126361605446e-09, -9.863064034016791e-10, -3.310257931698738e-09, -2.158318390030545e-09, 1.541124490540234e-09, 2.4658469448679874e-09, -5.90897196352699e-12, -9.87681939411903e-12, -1.1280972785964848e-08, -2.584484174268612e-09, 2.04126361605446e-09, -5.90897196352699e-12, 2.438148888767226e-09, 7.701841063814036e-13, -4.055917681747556e-08, -1.1755738405582732e-07, -9.863064034016791e-10, -9.87681939411903e-12, 7.701841063814036e-13, 2.4676086541223757e-09]"
1402416126334833622,,167206,,1402416126,306816101,/enu,/imu,,,,5.12283977367,22.7235147908,-27.5222854491,,0.842225416657,0.539024329392,0.00840493968122,0.00620297100627,"[0.03340382777177269, -0.0047811688537552945, 0.000878641439276414, 5.107444449393246e-06, -9.797292103919806e-06, -0.0002780131861753417, -0.0047811688537552945, 0.03737228057966664, 0.007378708835685369, 5.969486043255324e-06, -2.7229299688930134e-06, 0.00013012037466547828, 0.000878641439276414, 0.007378708835685369, 0.22393309155885507, -1.6777810748579656e-06, 5.976926072468071e-07, 2.2528554381956098e-05, 5.107444449393246e-06, 5.969486043255324e-06, -1.6777810748579656e-06, 4.126041804884412e-06, -2.3376948061819104e-07, -6.579764492201124e-07, -9.797292103919806e-06, -2.7229299688930134e-06, 5.976926072468071e-07, -2.3376948061819104e-07, 4.291335578561322e-06, 4.945725261280183e-07, -0.0002780131861753417, 0.00013012037466547828, 2.2528554381956098e-05, -6.579764492201124e-07, 4.945725261280183e-07, 0.00011765432482427532]",,,,1.60509378574,-0.661352701137,-0.212012963751,,-0.0131905913479,-0.0816249952755,-0.0428963709643,"[0.0002442876555729542, 0.0001450329444644246, 4.313070295114589e-05, -3.3061115087923272e-09, -1.1521096273586022e-08, -4.056186812541571e-08, 0.0001450329444644246, 0.0005061925135674918, 4.980048664197139e-06, -1.930812577902984e-09, -2.6078553327164303e-09, -1.17601919400539e-07, 4.313070295114589e-05, 4.980048664197139e-06, 0.0002510550483921983, 1.5642235408775932e-09, 2.0868700391453653e-09, -9.691688936466825e-10, -3.3061115087923272e-09, -1.930812577902984e-09, 1.5642235408775932e-09, 2.46584691982224e-09, -5.909000006613719e-12, -9.87717345891093e-12, -1.1521096273586022e-08, -2.6078553327164303e-09, 2.0868700391453653e-09, -5.909000006613719e-12, 2.4381488527230086e-09, 7.698872820489184e-13, -4.056186812541571e-08, -1.17601919400539e-07, -9.691688936466825e-10, -9.87717345891093e-12, 7.698872820489184e-13, 2.4676014576770083e-09]"
1402416126334862495,,167207,,1402416126,317846059,/enu,/imu,,,,5.12680472763,22.7486355427,-27.5338030537,,0.842045903338,0.539312960274,0.00791885149775,0.00612530344229,"[0.03337655785260354, -0.004788374920688486, 0.0008856927546271767, 5.211253776946048e-06, -8.77818329848367e-06, -0.00027703230627753445, -0.004788374920688486, 0.037343797508866454, 0.007410820812834028, 5.2783626628650845e-06, -2.724708339562222e-06, 0.0001295824210615118, 0.0008856927546271767, 0.007410820812834028, 0.22379509237661163, -1.3310589855998332e-06, 5.591681061257868e-07, 2.258572122900923e-05, 5.211253776946048e-06, 5.2783626628650845e-06, -1.3310589855998332e-06, 3.951277701650241e-06, -2.2787561141691074e-07, -7.995265857494997e-07, -8.77818329848367e-06, -2.724708339562222e-06, 5.591681061257868e-07, -2.2787561141691074e-07, 4.094084971004647e-06, 3.320787278515481e-07, -0.00027703230627753445, 0.0001295824210615118, 2.258572122900923e-05, -7.995265857494997e-07, 3.320787278515481e-07, 0.00011748111080573722]",,,,1.5889464151,-0.65656595858,-0.203279108998,,0.029884216757,-0.0709114966397,-0.0342816302062,"[0.0002282129614092924, 0.00014140016763471304, 4.527386492695059e-05, -3.4441035528776853e-09, -1.0508871265905334e-08, -4.0543178549633676e-08, 0.00014140016763471304, 0.0004848187716406335, 3.230960683813812e-06, -3.022868333840447e-09, -2.4837564973169713e-09, -1.1644663464875288e-07, 4.527386492695059e-05, 3.230960683813812e-06, 0.00024724460737472097, 1.4781521428801605e-09, 1.874371811848393e-09, -7.054094664336979e-10, -3.4441035528776853e-09, -3.022868333840447e-09, 1.4781521428801605e-09, 2.4657772895558146e-09, -5.902971776718887e-12, -9.811592874357262e-12, -1.0508871265905334e-08, -2.4837564973169713e-09, 1.874371811848393e-09, -5.902971776718887e-12, 2.4380652706896013e-09, 7.863890386642132e-13, -4.0543178549633676e-08, -1.1644663464875288e-07, -7.054094664336979e-10, -9.811592874357262e-12, 7.863890386642132e-13, 2.4675248178426184e-09]"
1402416126334899788,,167208,,1402416126,327800989,/enu,/imu,,,,5.12732621632,22.7655525202,-27.531546987,,0.841946543644,0.539474846179,0.00740997647574,0.00616443303366,"[0.03337576486509573, -0.004787179209271275, 0.0008822651849655143, 5.189116134317897e-06, -8.597664474936094e-06, -0.00027687876369404186, -0.004787179209271275, 0.03734555030162837, 0.0074023981546182125, 5.11655062014029e-06, -2.7055110509244e-06, 0.00012941409188212618, 0.0008822651849655143, 0.0074023981546182125, 0.2238237468166671, -1.3229166412840806e-06, 5.595396936470162e-07, 2.2598518598616934e-05, 5.189116134317897e-06, 5.11655062014029e-06, -1.3229166412840806e-06, 3.990877205148952e-06, -2.2786289495197492e-07, -7.993175458337278e-07, -8.597664474936094e-06, -2.7055110509244e-06, 5.595396936470162e-07, -2.2786289495197492e-07, 4.133698875352061e-06, 3.3078651863410716e-07, -0.00027687876369404186, 0.00012941409188212618, 2.2598518598616934e-05, -7.993175458337278e-07, 3.3078651863410716e-07, 0.00011750162764594364]",,,,1.57283157293,-0.657572643361,-0.195694516267,,0.0485498874947,-0.0899085125697,-0.0357174696786,"[0.00023204544952752816, 0.00014185517734882343, 4.4657602933815216e-05, -3.4402879832438955e-09, -1.0740366008028767e-08, -4.055788646172009e-08, 0.00014185517734882343, 0.00048825675260409093, 3.240243222309856e-06, -2.8019271625392044e-09, -2.5036580605484402e-09, -1.1647634550716712e-07, 4.4657602933815216e-05, 3.240243222309856e-06, 0.000247633360068261, 1.5028234315852976e-09, 1.921342260537929e-09, -6.13046048363964e-10, -3.4402879832438955e-09, -2.8019271625392044e-09, 1.5028234315852976e-09, 2.465777262675228e-09, -5.90299957220835e-12, -9.811969037789907e-12, -1.0740366008028767e-08, -2.5036580605484402e-09, 1.921342260537929e-09, -5.90299957220835e-12, 2.438065236733588e-09, 7.860989424883661e-13, -4.055788646172009e-08, -1.1647634550716712e-07, -6.13046048363964e-10, -9.811969037789907e-12, 7.860989424883661e-13, 2.467517669633012e-09]"
