rosbagTimestamp,transforms,-,header,seq,stamp,secs,nsecs,frame_id,child_frame_id,transform,translation,x,y,z,rotation,x,y,z,w
1402416126037684020,,errorv,,0,,1402416126,37515825,base_link,/z_drive,,,0.0,0.0,0.0,,0.0,0.0,0.0,1.0
1402416126037718591,,errorv,,0,,1402416126,37549382,/z_drive,port,,,-0.3,0.3048,0.0,,0.0,0.0,0.0,1.0
1402416126037736436,,errorv,,0,,1402416126,37554607,/z_drive,starboard,,,-0.3,-0.3048,0.0,,0.0,0.0,0.0,1.0
1402416126043116372,,errorv,,0,,1402416125,985963106,/enu,/base_link,,,5.02631525806,21.9966774779,-27.5100182777,,-0.00877764302765,-0.00890270131613,0.533718194328,0.845569975777
1402416126043141141,,errorv,,0,,1402416125,996965885,/enu,/base_link,,,5.02786646948,22.0172528388,-27.50722612,,-0.00895923786534,-0.00889107336258,0.533903314008,0.845451318624
1402416126057730012,,errorv,,0,,1402416126,57496269,base_link,/z_drive,,,0.0,0.0,0.0,,0.0,0.0,0.0,1.0
1402416126057764485,,errorv,,0,,1402416126,57513142,/z_drive,port,,,-0.3,0.3048,0.0,,0.0,0.0,0.0,1.0
1402416126057789820,,errorv,,0,,1402416126,57517453,/z_drive,starboard,,,-0.3,-0.3048,0.0,,0.0,0.0,0.0,1.0
1402416126077627786,,errorv,,0,,1402416126,77418274,base_link,/z_drive,,,0.0,0.0,0.0,,0.0,0.0,0.0,1.0
1402416126077656600,,errorv,,0,,1402416126,77466062,/z_drive,port,,,-0.3,0.3048,0.0,,0.0,0.0,0.0,1.0
1402416126077676448,,errorv,,0,,1402416126,77471753,/z_drive,starboard,,,-0.3,-0.3048,0.0,,0.0,0.0,0.0,1.0
1402416126083275407,,errorv,,0,,1402416126,6967067,/enu,/base_link,,,5.02948737139,22.0359133616,-27.5047407126,,-0.00879364609928,-0.00895381937329,0.534037195295,0.84536783411
1402416126083312170,,errorv,,0,,1402416126,16987085,/enu,/base_link,,,5.03090801866,22.0549957227,-27.5025799128,,-0.00899258347479,-0.00897486803634,0.534209097939,0.845256898738
1402416126083336640,,errorv,,0,,1402416126,26937007,/enu,/base_link,,,5.0321271848,22.0735824003,-27.5001573875,,-0.00916334830853,-0.00900207234575,0.534350708171,0.845165259827
1402416126083424446,,errorv,,0,,1402416126,38074016,/enu,/base_link,,,5.05158401679,22.0681008751,-27.3957377287,,-0.0108938243911,-0.0117092626388,0.534467011735,0.845038005728
1402416126097723582,,errorv,,0,,1402416126,97530112,base_link,/z_drive,,,0.0,0.0,0.0,,0.0,0.0,0.0,1.0
1402416126097818633,,errorv,,0,,1402416126,97563349,/z_drive,port,,,-0.3,0.3048,0.0,,0.0,0.0,0.0,1.0
1402416126097845012,,errorv,,0,,1402416126,97575161,/z_drive,starboard,,,-0.3,-0.3048,0.0,,0.0,0.0,0.0,1.0
1402416126117623050,,errorv,,0,,1402416126,117467332,base_link,/z_drive,,,0.0,0.0,0.0,,0.0,0.0,0.0,1.0
1402416126117648367,,errorv,,0,,1402416126,117495611,/z_drive,port,,,-0.3,0.3048,0.0,,0.0,0.0,0.0,1.0
1402416126117857719,,errorv,,0,,1402416126,117506676,/z_drive,starboard,,,-0.3,-0.3048,0.0,,0.0,0.0,0.0,1.0
1402416126118434460,,errorv,,0,,1402416126,218201457,/base_link,/gps,,,-0.84,0.0,-0.14,,0.0,0.0,0.0,1.0
1402416126118463230,,errorv,,0,,1402416126,218241176,base_link,imu,,,0.13,0.0,-0.1,,1.0,0.0,0.0,0.0
1402416126123055862,,errorv,,0,,1402416126,47939062,/enu,/base_link,,,5.05217115681,22.0866545191,-27.3932501848,,-0.0110630339733,-0.0117499224845,0.534608546349,0.844945708771
1402416126123233658,,errorv,,0,,1402416126,57923078,/enu,/base_link,,,5.0529281379,22.105399491,-27.3907736559,,-0.0108991589691,-0.0117764815461,0.534766747048,0.844847352525
1402416126123258508,,errorv,,0,,1402416126,68928956,/enu,/base_link,,,5.05348477306,22.1260327696,-27.3878486949,,-0.0109612239205,-0.0118361625279,0.534949392155,0.84473007799
1402416126123275717,,errorv,,0,,1402416126,78912973,/enu,/base_link,,,5.05407557279,22.1448061776,-27.3853647406,,-0.0109423003937,-0.0118840059587,0.535105607893,0.844630703246
1402416126137749843,,errorv,,0,,1402416126,137506534,base_link,/z_drive,,,0.0,0.0,0.0,,0.0,0.0,0.0,1.0
1402416126137814440,,errorv,,0,,1402416126,137529648,/z_drive,port,,,-0.3,0.3048,0.0,,0.0,0.0,0.0,1.0
1402416126137842999,,errorv,,0,,1402416126,137538218,/z_drive,starboard,,,-0.3,-0.3048,0.0,,0.0,0.0,0.0,1.0
1402416126157682257,,errorv,,0,,1402416126,157475520,base_link,/z_drive,,,0.0,0.0,0.0,,0.0,0.0,0.0,1.0
1402416126157713030,,errorv,,0,,1402416126,157509553,/z_drive,port,,,-0.3,0.3048,0.0,,0.0,0.0,0.0,1.0
1402416126157768364,,errorv,,0,,1402416126,157515311,/z_drive,starboard,,,-0.3,-0.3048,0.0,,0.0,0.0,0.0,1.0
1402416126163171674,,errorv,,0,,1402416126,88932037,/enu,/base_link,,,5.04258154254,22.180959521,-27.4022548427,,-0.00767829833784,-0.0110188402022,0.535348195231,0.844524682148
1402416126163201453,,errorv,,0,,1402416126,99910020,/enu,/base_link,,,5.04357480178,22.2012583801,-27.3997084285,,-0.00773850805596,-0.0111638097139,0.535509008764,0.844420266442
1402416126163233790,,errorv,,0,,1402416126,109904050,/enu,/base_link,,,5.04496792978,22.2194938742,-27.3968803288,,-0.00780343575827,-0.0111821710134,0.535676543163,0.844313156682
1402416126163274417,,errorv,,0,,1402416126,120906114,/enu,/base_link,,,5.0460542851,22.2396858841,-27.3939144942,,-0.00765955087107,-0.011269644436,0.535851317462,0.844202399884
1402416126177655281,,errorv,,0,,1402416126,177491798,base_link,/z_drive,,,0.0,0.0,0.0,,0.0,0.0,0.0,1.0
1402416126177677386,,errorv,,0,,1402416126,177505356,/z_drive,port,,,-0.3,0.3048,0.0,,0.0,0.0,0.0,1.0
1402416126177691788,,errorv,,0,,1402416126,177509514,/z_drive,starboard,,,-0.3,-0.3048,0.0,,0.0,0.0,0.0,1.0
1402416126197686354,,errorv,,0,,1402416126,197495234,base_link,/z_drive,,,0.0,0.0,0.0,,0.0,0.0,0.0,1.0
1402416126197719606,,errorv,,0,,1402416126,197514996,/z_drive,port,,,-0.3,0.3048,0.0,,0.0,0.0,0.0,1.0
1402416126197743367,,errorv,,0,,1402416126,197523309,/z_drive,starboard,,,-0.3,-0.3048,0.0,,0.0,0.0,0.0,1.0
1402416126203317737,,errorv,,0,,1402416126,130904912,/enu,/base_link,,,5.04709748137,22.2581755877,-27.3913559611,,-0.00775618763591,-0.0112781673078,0.536014212701,0.844097984998
1402416126203414638,,errorv,,0,,1402416126,141906023,/enu,/base_link,,,5.04916974074,22.2976790939,-27.4372283014,,-0.00610758190407,-0.0108842615792,0.536198086416,0.843999906645
1402416126203440965,,errorv,,0,,1402416126,151906013,/enu,/base_link,,,5.05037083602,22.3162551378,-27.4351171063,,-0.0062305750412,-0.0108948187902,0.536360152711,0.843895887798
1402416126203464300,,errorv,,0,,1402416126,161905050,/enu,/base_link,,,5.05161647664,22.3344782766,-27.4324449669,,-0.00608076185352,-0.0109598273988,0.536513855744,0.843798429196
1402416126203487742,,errorv,,0,,1402416126,172867059,/enu,/base_link,,,5.05292201503,22.3546209841,-27.4296299157,,-0.00593986036956,-0.0110009979946,0.536669773309,0.843699739551
1402416126217695270,,errorv,,0,,1402416126,217469517,base_link,/z_drive,,,0.0,0.0,0.0,,0.0,0.0,0.0,1.0
1402416126217725860,,errorv,,0,,1402416126,217482765,/z_drive,port,,,-0.3,0.3048,0.0,,0.0,0.0,0.0,1.0
1402416126217748234,,errorv,,0,,1402416126,217486915,/z_drive,starboard,,,-0.3,-0.3048,0.0,,0.0,0.0,0.0,1.0
1402416126218514474,,errorv,,0,,1402416126,318337958,base_link,imu,,,0.13,0.0,-0.1,,1.0,0.0,0.0,0.0
1402416126218543065,,errorv,,0,,1402416126,318308564,/base_link,/gps,,,-0.84,0.0,-0.14,,0.0,0.0,0.0,1.0
1402416126237684456,,errorv,,0,,1402416126,237455860,base_link,/z_drive,,,0.0,0.0,0.0,,0.0,0.0,0.0,1.0
1402416126237712265,,errorv,,0,,1402416126,237468863,/z_drive,port,,,-0.3,0.3048,0.0,,0.0,0.0,0.0,1.0
1402416126237733947,,errorv,,0,,1402416126,237473483,/z_drive,starboard,,,-0.3,-0.3048,0.0,,0.0,0.0,0.0,1.0
1402416126242988181,,errorv,,0,,1402416126,182868003,/enu,/base_link,,,5.04449119895,22.3649620411,-27.3989096154,,-0.00505086861707,-0.00976889781523,0.536828971958,0.843619411956
1402416126243080145,,errorv,,0,,1402416126,192867994,/enu,/base_link,,,5.04612088524,22.3831239031,-27.3959651481,,-0.00493272006612,-0.00978979526286,0.536962707462,0.843534752678
1402416126243103934,,errorv,,0,,1402416126,202866077,/enu,/base_link,,,5.04742803965,22.4013669345,-27.3930190992,,-0.00510939046527,-0.00982914141174,0.537118221926,0.843434228487
1402416126251227561,,errorv,,0,,1402416126,213867902,/enu,/base_link,,,5.04891398942,22.4214990731,-27.3900924781,,-0.0050140071714,-0.00984824140687,0.537317215984,0.84330782119
1402416126251241539,,errorv,,0,,1402416126,223840951,/enu,/base_link,,,5.05028372488,22.4399469289,-27.3878665328,,-0.00519570566887,-0.0098647180625,0.537486851549,0.843198420535
1402416126257633874,,errorv,,0,,1402416126,257499815,base_link,/z_drive,,,0.0,0.0,0.0,,0.0,0.0,0.0,1.0
1402416126257816733,,errorv,,0,,1402416126,257521176,/z_drive,port,,,-0.3,0.3048,0.0,,0.0,0.0,0.0,1.0
1402416126257846365,,errorv,,0,,1402416126,257667451,/z_drive,starboard,,,-0.3,-0.3048,0.0,,0.0,0.0,0.0,1.0
1402416126277790214,,errorv,,0,,1402416126,277561938,base_link,/z_drive,,,0.0,0.0,0.0,,0.0,0.0,0.0,1.0
1402416126277821191,,errorv,,0,,1402416126,277580582,/z_drive,port,,,-0.3,0.3048,0.0,,0.0,0.0,0.0,1.0
1402416126277843545,,errorv,,0,,1402416126,277587153,/z_drive,starboard,,,-0.3,-0.3048,0.0,,0.0,0.0,0.0,1.0
1402416126291058474,,errorv,,0,,1402416126,233869075,/enu,/base_link,,,5.05154846886,22.4581558857,-27.3850606566,,-0.00513697838937,-0.00975823967055,0.537662098337,0.843088284952
1402416126291086010,,errorv,,0,,1402416126,244868993,/enu,/base_link,,,5.05302876416,22.4781249619,-27.382235812,,-0.00507000357721,-0.00960643114433,0.537873894648,0.842955327998
1402416126297712596,,errorv,,0,,1402416126,297536368,base_link,/z_drive,,,0.0,0.0,0.0,,0.0,0.0,0.0,1.0
1402416126297783181,,errorv,,0,,1402416126,297562198,/z_drive,port,,,-0.3,0.3048,0.0,,0.0,0.0,0.0,1.0
1402416126297808145,,errorv,,0,,1402416126,297573553,/z_drive,starboard,,,-0.3,-0.3048,0.0,,0.0,0.0,0.0,1.0
1402416126317711399,,errorv,,0,,1402416126,317487405,base_link,/z_drive,,,0.0,0.0,0.0,,0.0,0.0,0.0,1.0
1402416126317783727,,errorv,,0,,1402416126,317514657,/z_drive,port,,,-0.3,0.3048,0.0,,0.0,0.0,0.0,1.0
1402416126317850783,,errorv,,0,,1402416126,317525121,/z_drive,starboard,,,-0.3,-0.3048,0.0,,0.0,0.0,0.0,1.0
1402416126318602032,,errorv,,0,,1402416126,418413251,/base_link,/gps,,,-0.84,0.0,-0.14,,0.0,0.0,0.0,1.0
1402416126318685198,,errorv,,0,,1402416126,418443618,base_link,imu,,,0.13,0.0,-0.1,,1.0,0.0,0.0,0.0
1402416126331145846,,errorv,,0,,1402416126,254837989,/enu,/base_link,,,5.05390063566,22.4960067597,-27.3796032139,,-0.00507890346653,-0.00943335615015,0.538077988174,0.84282696633
1402416126331202054,,errorv,,0,,1402416126,264841079,/enu,/base_link,,,5.05496524076,22.5139746167,-27.377163152,,-0.00517914198985,-0.0092520112402,0.538262383209,0.842710616759
1402416126331226520,,errorv,,0,,1402416126,275830984,/enu,/base_link,,,5.06387770047,22.5509896898,-27.4300929561,,-0.00529945816406,-0.00892821228793,0.538462743714,0.842585352591
1402416126331289260,,errorv,,0,,1402416126,285840034,/enu,/base_link,,,5.06477497609,22.5687646989,-27.4279018637,,-0.0055319150626,-0.00877903335982,0.538626276617,0.842480896298
1402416126337742332,,errorv,,0,,1402416126,337533656,base_link,/z_drive,,,0.0,0.0,0.0,,0.0,0.0,0.0,1.0
1402416126337776912,,errorv,,0,,1402416126,337557572,/z_drive,port,,,-0.3,0.3048,0.0,,0.0,0.0,0.0,1.0
1402416126337804173,,errorv,,0,,1402416126,337594639,/z_drive,starboard,,,-0.3,-0.3048,0.0,,0.0,0.0,0.0,1.0
1402416126357830522,,errorv,,0,,1402416126,357482446,base_link,/z_drive,,,0.0,0.0,0.0,,0.0,0.0,0.0,1.0
1402416126357865765,,errorv,,0,,1402416126,357502872,/z_drive,port,,,-0.3,0.3048,0.0,,0.0,0.0,0.0,1.0
1402416126357889685,,errorv,,0,,1402416126,357511151,/z_drive,starboard,,,-0.3,-0.3048,0.0,,0.0,0.0,0.0,1.0
1402416126371086728,,errorv,,0,,1402416126,296832084,/enu,/base_link,,,5.06560696005,22.5883091688,-27.4258049604,,-0.00592626921507,-0.00871463087861,0.538833894108,0.842346110042
1402416126371137261,,errorv,,0,,1402416126,306816101,/enu,/base_link,,,5.06631936664,22.6056124153,-27.4232788781,,-0.00620297100612,-0.00840493968121,0.539024329391,0.842225416658
1402416126371162442,,errorv,,0,,1402416126,317846059,/enu,/base_link,,,5.07045333495,22.6307346924,-27.434698286,,-0.00612530344214,-0.00791885149799,0.53931296029,0.842045903328
1402416126371183608,,errorv,,0,,1402416126,327800989,/enu,/base_link,,,5.07109962234,22.6476920168,-27.4323234135,,-0.00616443303356,-0.00740997647559,0.539474846179,0.841946543644
1402416126377625677,,errorv,,0,,1402416126,377478147,base_link,/z_drive,,,0.0,0.0,0.0,,0.0,0.0,0.0,1.0
1402416126377689870,,errorv,,0,,1402416126,377496229,/z_drive,port,,,-0.3,0.3048,0.0,,0.0,0.0,0.0,1.0
1402416126377758669,,errorv,,0,,1402416126,377506283,/z_drive,starboard,,,-0.3,-0.3048,0.0,,0.0,0.0,0.0,1.0
1402416126397743949,,errorv,,0,,1402416126,397460034,base_link,/z_drive,,,0.0,0.0,0.0,,0.0,0.0,0.0,1.0
1402416126397823278,,errorv,,0,,1402416126,397573821,/z_drive,port,,,-0.3,0.3048,0.0,,0.0,0.0,0.0,1.0
1402416126397845773,,errorv,,0,,1402416126,397584362,/z_drive,starboard,,,-0.3,-0.3048,0.0,,0.0,0.0,0.0,1.0
1402416126411012566,,errorv,,0,,1402416126,337956905,/enu,/base_link,,,5.07160187749,22.6651793977,-27.4305630099,,-0.00637339606433,-0.00693152600566,0.53961255827,0.841860808404
1402416126411119880,,errorv,,0,,1402416126,348790884,/enu,/base_link,,,5.07189930113,22.6833094373,-27.4280585621,,-0.00681489582313,-0.00660111879626,0.539754127833,0.841769246239
1402416126411142226,,errorv,,0,,1402416126,358799934,/enu,/base_link,,,5.05441167333,22.6953163828,-27.3960945403,,-0.00581309445008,-0.00443234595302,0.542056706088,0.840310115153
1402416126411154458,,errorv,,0,,1402416126,368786096,/enu,/base_link,,,5.05510364731,22.7120390497,-27.3942406962,,-0.00615852146508,-0.00408392840254,0.54216862229,0.840237215997
1402416126417625884,,errorv,,0,,1402416126,417483752,base_link,/z_drive,,,0.0,0.0,0.0,,0.0,0.0,0.0,1.0
1402416126417690916,,errorv,,0,,1402416126,417496512,/z_drive,port,,,-0.3,0.3048,0.0,,0.0,0.0,0.0,1.0
1402416126417754729,,errorv,,0,,1402416126,417500757,/z_drive,starboard,,,-0.3,-0.3048,0.0,,0.0,0.0,0.0,1.0
1402416126418719116,,errorv,,0,,1402416126,518523578,/base_link,/gps,,,-0.84,0.0,-0.14,,0.0,0.0,0.0,1.0
1402416126418753690,,errorv,,0,,1402416126,518555052,base_link,imu,,,0.13,0.0,-0.1,,1.0,0.0,0.0,0.0
1402416126437693767,,errorv,,0,,1402416126,437501168,base_link,/z_drive,,,0.0,0.0,0.0,,0.0,0.0,0.0,1.0
1402416126437727600,,errorv,,0,,1402416126,437520967,/z_drive,port,,,-0.3,0.3048,0.0,,0.0,0.0,0.0,1.0
1402416126437834676,,errorv,,0,,1402416126,437527281,/z_drive,starboard,,,-0.3,-0.3048,0.0,,0.0,0.0,0.0,1.0
1402416126451190732,,errorv,,0,,1402416126,379786968,/enu,/base_link,,,5.05580822342,22.7299825354,-27.3918554252,,-0.00648531530338,-0.00358081548607,0.542299385376,0.840152661762
1402416126451217096,,errorv,,0,,1402416126,389784097,/enu,/base_link,,,5.05647846063,22.7463819203,-27.3901056958,,-0.00673607245053,-0.00303431852367,0.542376313595,0.840103179788
1402416126451247718,,errorv,,0,,1402416126,399787902,/enu,/base_link,,,5.04361649494,22.7703255697,-27.3866240557,,-0.00483964112043,-0.00244373929963,0.545463585039,0.838116986708
1402416126451279836,,errorv,,0,,1402416126,410845041,/enu,/base_link,,,5.04437122873,22.7876559481,-27.3844025342,,-0.00530352794537,-0.00194030928913,0.545527082111,0.838074167646
1402416126451302552,,errorv,,0,,1402416126,420785903,/enu,/base_link,,,5.04505223596,22.8032206654,-27.3827157309,,-0.00572675005184,-0.00153560749135,0.545572867889,0.838042416628
1402416126457648420,,errorv,,0,,1402416126,457515427,base_link,/z_drive,,,0.0,0.0,0.0,,0.0,0.0,0.0,1.0
1402416126457735296,,errorv,,0,,1402416126,457532215,/z_drive,port,,,-0.3,0.3048,0.0,,0.0,0.0,0.0,1.0
1402416126457767282,,errorv,,0,,1402416126,457538676,/z_drive,starboard,,,-0.3,-0.3048,0.0,,0.0,0.0,0.0,1.0
1402416126477649402,,errorv,,0,,1402416126,477470418,base_link,/z_drive,,,0.0,0.0,0.0,,0.0,0.0,0.0,1.0
1402416126477679124,,errorv,,0,,1402416126,477482538,/z_drive,port,,,-0.3,0.3048,0.0,,0.0,0.0,0.0,1.0
1402416126477755843,,errorv,,0,,1402416126,477486792,/z_drive,starboard,,,-0.3,-0.3048,0.0,,0.0,0.0,0.0,1.0
1402416126494790717,,errorv,,0,,1402416126,431787014,/enu,/base_link,,,5.04560030745,22.8201408676,-27.3805623195,,-0.00617261250405,-0.00105223082078,0.545615247047,0.838012406743
1402416126494818858,,errorv,,0,,1402416126,441761016,/enu,/base_link,,,5.05363256548,22.8465134397,-27.4115603406,,-0.00671062224506,3.23413060145e-05,0.545539069211,0.838058524488
1402416126494837129,,errorv,,0,,1402416126,451761960,/enu,/base_link,,,5.05424651498,22.861644606,-27.4095941278,,-0.00702349000751,0.000576591614881,0.545548119394,0.83804987176
1402416126497860172,,errorv,,0,,1402416126,497732401,base_link,/z_drive,,,0.0,0.0,0.0,,0.0,0.0,0.0,1.0
1402416126497930197,,errorv,,0,,1402416126,497758171,/z_drive,port,,,-0.3,0.3048,0.0,,0.0,0.0,0.0,1.0
1402416126497994176,,errorv,,0,,1402416126,497788997,/z_drive,starboard,,,-0.3,-0.3048,0.0,,0.0,0.0,0.0,1.0
1402416126499239817,,errorv,,0,,1402416126,462762117,/enu,/base_link,,,5.05485295179,22.8785575167,-27.4080246208,,-0.00741538537372,0.00113805643904,0.545531516058,0.838056729509
1402416126499264372,,errorv,,0,,1402416126,472760915,/enu,/base_link,,,5.05544502913,22.8936483388,-27.4064182387,,-0.0078108803913,0.0015175815776,0.545529063544,0.838054131857
1402416126517629013,,errorv,,0,,1402416126,517464957,base_link,/z_drive,,,0.0,0.0,0.0,,0.0,0.0,0.0,1.0
1402416126517656114,,errorv,,0,,1402416126,517482207,/z_drive,port,,,-0.3,0.3048,0.0,,0.0,0.0,0.0,1.0
1402416126517678930,,errorv,,0,,1402416126,517492119,/z_drive,starboard,,,-0.3,-0.3048,0.0,,0.0,0.0,0.0,1.0
1402416126518804068,,errorv,,0,,1402416126,618629068,/base_link,/gps,,,-0.84,0.0,-0.14,,0.0,0.0,0.0,1.0
1402416126518881631,,errorv,,0,,1402416126,618662813,base_link,imu,,,0.13,0.0,-0.1,,1.0,0.0,0.0,0.0
1402416126537810032,,errorv,,0,,1402416126,537640977,base_link,/z_drive,,,0.0,0.0,0.0,,0.0,0.0,0.0,1.0
1402416126537837874,,errorv,,0,,1402416126,537663412,/z_drive,port,,,-0.3,0.3048,0.0,,0.0,0.0,0.0,1.0
1402416126537861889,,errorv,,0,,1402416126,537669778,/z_drive,starboard,,,-0.3,-0.3048,0.0,,0.0,0.0,0.0,1.0
1402416126539043479,,errorv,,0,,1402416126,482760906,/enu,/base_link,,,5.05567135572,22.9083830501,-27.4042489136,,-0.00816232556911,0.00195880083721,0.545512274372,0.838060796154
1402416126539106115,,errorv,,0,,1402416126,493761062,/enu,/base_link,,,5.06473514308,22.938259074,-27.438805592,,-0.00850226414904,0.00239595612242,0.545474925786,0.838080590538
1402416126557842666,,errorv,,0,,1402416126,557692373,base_link,/z_drive,,,0.0,0.0,0.0,,0.0,0.0,0.0,1.0
1402416126557867893,,errorv,,0,,1402416126,557710977,/z_drive,port,,,-0.3,0.3048,0.0,,0.0,0.0,0.0,1.0
1402416126557934279,,errorv,,0,,1402416126,557715575,/z_drive,starboard,,,-0.3,-0.3048,0.0,,0.0,0.0,0.0,1.0
1402416126577844061,,errorv,,0,,1402416126,577684236,base_link,/z_drive,,,0.0,0.0,0.0,,0.0,0.0,0.0,1.0
1402416126577878761,,errorv,,0,,1402416126,577707714,/z_drive,port,,,-0.3,0.3048,0.0,,0.0,0.0,0.0,1.0
1402416126577904046,,errorv,,0,,1402416126,577717396,/z_drive,starboard,,,-0.3,-0.3048,0.0,,0.0,0.0,0.0,1.0
1402416126579059512,,errorv,,0,,1402416126,503761053,/enu,/base_link,,,5.06504407784,22.9528199835,-27.4367903542,,-0.00880225113049,0.00289554555518,0.545447905516,0.838093502277
1402416126579273097,,errorv,,0,,1402416126,513756990,/enu,/base_link,,,5.06519386101,22.9672846986,-27.4349191087,,-0.00908553580266,0.00337145271073,0.545422092246,0.838105499108
1402416126579357989,,errorv,,0,,1402416126,524761915,/enu,/base_link,,,5.06539341225,22.9831265053,-27.4329062342,,-0.00942777984813,0.00383063453948,0.545396073452,0.838116678195
1402416126579384200,,errorv,,0,,1402416126,534761905,/enu,/base_link,,,5.05039429293,22.9867263202,-27.370715336,,-0.00895649020655,0.00567240315443,0.547991333274,0.836416824187
1402416126597707144,,errorv,,0,,1402416126,597514007,base_link,/z_drive,,,0.0,0.0,0.0,,0.0,0.0,0.0,1.0
1402416126597735111,,errorv,,0,,1402416126,597535606,/z_drive,port,,,-0.3,0.3048,0.0,,0.0,0.0,0.0,1.0
1402416126597767171,,errorv,,0,,1402416126,597540737,/z_drive,starboard,,,-0.3,-0.3048,0.0,,0.0,0.0,0.0,1.0
1402416126617699219,,errorv,,0,,1402416126,617476960,base_link,/z_drive,,,0.0,0.0,0.0,,0.0,0.0,0.0,1.0
1402416126617728851,,errorv,,0,,1402416126,617489409,/z_drive,port,,,-0.3,0.3048,0.0,,0.0,0.0,0.0,1.0
1402416126617756593,,errorv,,0,,1402416126,617493515,/z_drive,starboard,,,-0.3,-0.3048,0.0,,0.0,0.0,0.0,1.0
1402416126619119997,,errorv,,0,,1402416126,718768924,base_link,imu,,,0.13,0.0,-0.1,,1.0,0.0,0.0,0.0
1402416126619146811,,errorv,,0,,1402416126,718721840,/base_link,/gps,,,-0.84,0.0,-0.14,,0.0,0.0,0.0,1.0
1402416126619186014,,errorv,,0,,1402416126,545759916,/enu,/base_link,,,5.0507823833,23.0022655851,-27.3683772384,,-0.00929635687257,0.005976208994,0.54803064634,0.836385242186
1402416126619209327,,errorv,,0,,1402416126,555761098,/enu,/base_link,,,5.0510340225,23.0164137244,-27.3666256808,,-0.00958164622558,0.00630284705983,0.548019718966,0.836386784806
1402416126619267856,,errorv,,0,,1402416126,565761089,/enu,/base_link,,,5.05143439496,23.0302777779,-27.364406813,,-0.00981996112407,0.00665644203448,0.548044964193,0.836364739432
1402416126619290669,,errorv,,0,,1402416126,576757907,/enu,/base_link,,,5.05168614614,23.0454306822,-27.3620178105,,-0.0100926048736,0.00699094041614,0.548048089779,0.83635671658
1402416126637725503,,errorv,,0,,1402416126,637509174,base_link,/z_drive,,,0.0,0.0,0.0,,0.0,0.0,0.0,1.0
1402416126637751096,,errorv,,0,,1402416126,637532064,/z_drive,port,,,-0.3,0.3048,0.0,,0.0,0.0,0.0,1.0
1402416126637818409,,errorv,,0,,1402416126,637537079,/z_drive,starboard,,,-0.3,-0.3048,0.0,,0.0,0.0,0.0,1.0
1402416126657618946,,errorv,,0,,1402416126,657476014,base_link,/z_drive,,,0.0,0.0,0.0,,0.0,0.0,0.0,1.0
1402416126657710944,,errorv,,0,,1402416126,657488478,/z_drive,port,,,-0.3,0.3048,0.0,,0.0,0.0,0.0,1.0
1402416126657724397,,errorv,,0,,1402416126,657492673,/z_drive,starboard,,,-0.3,-0.3048,0.0,,0.0,0.0,0.0,1.0
1402416126659072928,,errorv,,0,,1402416126,586756944,/enu,/base_link,,,5.04654676915,23.0774345912,-27.396959408,,-0.00859610421711,0.00745329381036,0.551553611935,0.834061849365
1402416126659164581,,errorv,,0,,1402416126,597906112,/enu,/base_link,,,5.04704707262,23.0922732904,-27.3946008675,,-0.00885794230557,0.0077083211356,0.551583323351,0.834037143084
1402416126659224687,,errorv,,0,,1402416126,607757091,/enu,/base_link,,,5.04734617665,23.1052946944,-27.3923629835,,-0.00903724094231,0.00791668164568,0.551632301478,0.834000874336
1402416126659288669,,errorv,,0,,1402416126,617758035,/enu,/base_link,,,5.04768444377,23.118442806,-27.3901828461,,-0.00919174146232,0.00810987263926,0.551653240393,0.833983479584
1402416126677642809,,errorv,,0,,1402416126,677461067,base_link,/z_drive,,,0.0,0.0,0.0,,0.0,0.0,0.0,1.0
1402416126677678788,,errorv,,0,,1402416126,677475641,/z_drive,port,,,-0.3,0.3048,0.0,,0.0,0.0,0.0,1.0
1402416126677707962,,errorv,,0,,1402416126,677480170,/z_drive,starboard,,,-0.3,-0.3048,0.0,,0.0,0.0,0.0,1.0
1402416126697672973,,errorv,,0,,1402416126,697473331,base_link,/z_drive,,,0.0,0.0,0.0,,0.0,0.0,0.0,1.0
1402416126697744577,,errorv,,0,,1402416126,697490313,/z_drive,port,,,-0.3,0.3048,0.0,,0.0,0.0,0.0,1.0
1402416126697767241,,errorv,,0,,1402416126,697495040,/z_drive,starboard,,,-0.3,-0.3048,0.0,,0.0,0.0,0.0,1.0
1402416126699208579,,errorv,,0,,1402416126,628704071,/enu,/base_link,,,5.04807133111,23.1326383919,-27.3876343336,,-0.00934265548894,0.00830503856332,0.551683775189,0.833959683268
1402416126699230533,,errorv,,0,,1402416126,638761997,/enu,/base_link,,,5.05166095117,23.1594436958,-27.4127226855,,-0.00884297990495,0.00876684024024,0.553256946944,0.832917579882
1402416126699252011,,errorv,,0,,1402416126,649698972,/enu,/base_link,,,5.05214402845,23.1735180117,-27.410542359,,-0.00898408281251,0.00885951015633,0.553308874548,0.832880594492
1402416126699285347,,errorv,,0,,1402416126,659668922,/enu,/base_link,,,5.05225449796,23.1860891296,-27.408174398,,-0.00912014700946,0.00892524129152,0.553353916268,0.832848489425
1402416126699313274,,errorv,,0,,1402416126,670664072,/enu,/base_link,,,5.05254599593,23.1999250519,-27.4056861728,,-0.00920888830306,0.00897434762241,0.553433775545,0.832793920215
1402416126717683654,,errorv,,0,,1402416126,717470264,base_link,/z_drive,,,0.0,0.0,0.0,,0.0,0.0,0.0,1.0
1402416126717714502,,errorv,,0,,1402416126,717484852,/z_drive,port,,,-0.3,0.3048,0.0,,0.0,0.0,0.0,1.0
1402416126717758863,,errorv,,0,,1402416126,717517253,/z_drive,starboard,,,-0.3,-0.3048,0.0,,0.0,0.0,0.0,1.0
1402416126719015239,,errorv,,0,,1402416126,818825165,/base_link,/gps,,,-0.84,0.0,-0.14,,0.0,0.0,0.0,1.0
1402416126719103908,,errorv,,0,,1402416126,818872551,base_link,imu,,,0.13,0.0,-0.1,,1.0,0.0,0.0,0.0
1402416126737645602,,errorv,,0,,1402416126,737426960,base_link,/z_drive,,,0.0,0.0,0.0,,0.0,0.0,0.0,1.0
1402416126737727709,,errorv,,0,,1402416126,737482306,/z_drive,port,,,-0.3,0.3048,0.0,,0.0,0.0,0.0,1.0
1402416126737755865,,errorv,,0,,1402416126,737487827,/z_drive,starboard,,,-0.3,-0.3048,0.0,,0.0,0.0,0.0,1.0
1402416126739142760,,errorv,,0,,1402416126,680653095,/enu,/base_link,,,5.05266844068,23.2122396985,-27.4031271446,,-0.00929177739042,0.00900959624652,0.553514286728,0.832739109468
1402416126739180429,,errorv,,0,,1402416126,690654039,/enu,/base_link,,,5.05137281861,23.2219965235,-27.3766240068,,-0.00884138578428,0.0094005392273,0.554784256755,0.831894156859
1402416126739208406,,errorv,,0,,1402416126,701652050,/enu,/base_link,,,5.05158584216,23.2353810888,-27.3737954927,,-0.00884996805328,0.00943512679718,0.554860196671,0.831843025215
1402416126751288566,,errorv,,0,,1402416126,711654901,/enu,/base_link,,,5.0517330291,23.247468965,-27.3711967802,,-0.00887391958701,0.00941338727346,0.554938881386,0.831790526285
1402416126751412175,,errorv,,0,,1402416126,721652984,/enu,/base_link,,,5.05198401516,23.2596255839,-27.3690050142,,-0.00889591911916,0.00940559936929,0.555015378562,0.831739338305
1402416126757655624,,errorv,,0,,1402416126,757438541,base_link,/z_drive,,,0.0,0.0,0.0,,0.0,0.0,0.0,1.0
1402416126757685194,,errorv,,0,,1402416126,757490961,/z_drive,port,,,-0.3,0.3048,0.0,,0.0,0.0,0.0,1.0
1402416126757773329,,errorv,,0,,1402416126,757496511,/z_drive,starboard,,,-0.3,-0.3048,0.0,,0.0,0.0,0.0,1.0
1402416126777683012,,errorv,,0,,1402416126,777428240,base_link,/z_drive,,,0.0,0.0,0.0,,0.0,0.0,0.0,1.0
1402416126777708978,,errorv,,0,,1402416126,777471568,/z_drive,port,,,-0.3,0.3048,0.0,,0.0,0.0,0.0,1.0
1402416126777762010,,errorv,,0,,1402416126,777476732,/z_drive,starboard,,,-0.3,-0.3048,0.0,,0.0,0.0,0.0,1.0
1402416126791125652,,errorv,,0,,1402416126,732664108,/enu,/base_link,,,5.06327444645,23.2870132305,-27.4034204649,,-0.00906383643686,0.00941153421477,0.554837433886,0.831856172576
1402416126791194574,,errorv,,0,,1402416126,742665052,/enu,/base_link,,,5.06341880586,23.2990473615,-27.4011597361,,-0.00903762107475,0.00943128174012,0.554926797819,0.831796622614
1402416126797685289,,errorv,,0,,1402416126,797491266,base_link,/z_drive,,,0.0,0.0,0.0,,0.0,0.0,0.0,1.0
1402416126797713273,,errorv,,0,,1402416126,797506581,/z_drive,port,,,-0.3,0.3048,0.0,,0.0,0.0,0.0,1.0
1402416126797735120,,errorv,,0,,1402416126,797510719,/z_drive,starboard,,,-0.3,-0.3048,0.0,,0.0,0.0,0.0,1.0
1402416126817684817,,errorv,,0,,1402416126,817491339,base_link,/z_drive,,,0.0,0.0,0.0,,0.0,0.0,0.0,1.0
1402416126817755434,,errorv,,0,,1402416126,817508108,/z_drive,port,,,-0.3,0.3048,0.0,,0.0,0.0,0.0,1.0
1402416126817787363,,errorv,,0,,1402416126,817518241,/z_drive,starboard,,,-0.3,-0.3048,0.0,,0.0,0.0,0.0,1.0
1402416126819099580,,errorv,,0,,1402416126,918919774,/base_link,/gps,,,-0.84,0.0,-0.14,,0.0,0.0,0.0,1.0
1402416126819190564,,errorv,,0,,1402416126,918978735,base_link,imu,,,0.13,0.0,-0.1,,1.0,0.0,0.0,0.0
1402416126831294518,,errorv,,0,,1402416126,753639936,/enu,/base_link,,,5.06343568995,23.3119418782,-27.3982583583,,-0.00899672695244,0.00947340789369,0.555037128619,0.831722970286
1402416126831364721,,errorv,,0,,1402416126,763652086,/enu,/base_link,,,5.0635946935,23.3237789568,-27.3958175817,,-0.00893074296334,0.0094972149547,0.555155412514,0.831644462913
1402416126831392238,,errorv,,0,,1402416126,773654937,/enu,/base_link,,,5.06347582854,23.3355282641,-27.3933864651,,-0.00890989703004,0.00949749893386,0.555256253725,0.831577358968
1402416126831425296,,errorv,,0,,1402416126,783621072,/enu,/base_link,,,5.05828751922,23.3499420076,-27.3728964601,,-0.00761142422739,0.0106931928421,0.558593239149,0.829337877481
1402416126837705118,,errorv,,0,,1402416126,837497847,base_link,/z_drive,,,0.0,0.0,0.0,,0.0,0.0,0.0,1.0
1402416126837773069,,errorv,,0,,1402416126,837517428,/z_drive,port,,,-0.3,0.3048,0.0,,0.0,0.0,0.0,1.0
1402416126837788150,,errorv,,0,,1402416126,837552046,/z_drive,starboard,,,-0.3,-0.3048,0.0,,0.0,0.0,0.0,1.0
1402416126857648275,,errorv,,0,,1402416126,857455825,base_link,/z_drive,,,0.0,0.0,0.0,,0.0,0.0,0.0,1.0
1402416126857672045,,errorv,,0,,1402416126,857477831,/z_drive,port,,,-0.3,0.3048,0.0,,0.0,0.0,0.0,1.0
1402416126857730186,,errorv,,0,,1402416126,857485309,/z_drive,starboard,,,-0.3,-0.3048,0.0,,0.0,0.0,0.0,1.0
1402416126871120239,,errorv,,0,,1402416126,793620109,/enu,/base_link,,,5.05862098196,23.3611124317,-27.3698445324,,-0.00753801246823,0.0107460279387,0.55869512638,0.829269230715
1402416126871317086,,errorv,,0,,1402416126,804626941,/enu,/base_link,,,5.05894107758,23.3737368146,-27.367261366,,-0.00750026467388,0.0107420527308,0.558806802763,0.829194374992
1402416126871344425,,errorv,,0,,1402416126,814606904,/enu,/base_link,,,5.05901330351,23.3849240802,-27.3645414406,,-0.00747042936476,0.0107635418011,0.558906826651,0.829126949252
1402416126871370506,,errorv,,0,,1402416126,824611902,/enu,/base_link,,,5.05943823553,23.396220754,-27.3620571916,,-0.00745552921118,0.0107922985791,0.558998866654,0.82906465879
1402416126877629447,,errorv,,0,,1402416126,877483273,base_link,/z_drive,,,0.0,0.0,0.0,,0.0,0.0,0.0,1.0
1402416126877761425,,errorv,,0,,1402416126,877506088,/z_drive,port,,,-0.3,0.3048,0.0,,0.0,0.0,0.0,1.0
1402416126877826660,,errorv,,0,,1402416126,877513691,/z_drive,starboard,,,-0.3,-0.3048,0.0,,0.0,0.0,0.0,1.0
1402416126897724264,,errorv,,0,,1402416126,897499365,base_link,/z_drive,,,0.0,0.0,0.0,,0.0,0.0,0.0,1.0
1402416126897857175,,errorv,,0,,1402416126,897615637,/z_drive,port,,,-0.3,0.3048,0.0,,0.0,0.0,0.0,1.0
1402416126897884282,,errorv,,0,,1402416126,897643811,/z_drive,starboard,,,-0.3,-0.3048,0.0,,0.0,0.0,0.0,1.0
1402416126911170177,,errorv,,0,,1402416126,834609985,/enu,/base_link,,,5.06564994815,23.42341053,-27.4064787692,,-0.00623719810102,0.0110235563418,0.561051881205,0.827683734987
1402416126911193056,,errorv,,0,,1402416126,844597101,/enu,/base_link,,,5.065900051,23.4342635022,-27.4038866118,,-0.00620004463965,0.0110792525007,0.561147341348,0.82761855399
1402416126911296126,,errorv,,0,,1402416126,854587078,/enu,/base_link,,,5.06637134355,23.44530376,-27.4017903519,,-0.00620057262923,0.0111360654764,0.56126400902,0.827538671679
1402416126911320292,,errorv,,0,,1402416126,864583969,/enu,/base_link,,,5.06670259695,23.4562445722,-27.3996048563,,-0.00619394188732,0.0111944114168,0.561388680677,0.827453363909
1402416126917777451,,errorv,,0,,1402416126,917624982,base_link,/z_drive,,,0.0,0.0,0.0,,0.0,0.0,0.0,1.0
1402416126917802817,,errorv,,0,,1402416126,917645197,/z_drive,port,,,-0.3,0.3048,0.0,,0.0,0.0,0.0,1.0
1402416126917916934,,errorv,,0,,1402416126,917653780,/z_drive,starboard,,,-0.3,-0.3048,0.0,,0.0,0.0,0.0,1.0
1402416126919233380,,errorv,,0,,1402416127,19014719,/base_link,/gps,,,-0.84,0.0,-0.14,,0.0,0.0,0.0,1.0
1402416126919262365,,errorv,,0,,1402416127,19075507,base_link,imu,,,0.13,0.0,-0.1,,1.0,0.0,0.0,0.0
1402416126937790036,,errorv,,0,,1402416126,937516667,base_link,/z_drive,,,0.0,0.0,0.0,,0.0,0.0,0.0,1.0
1402416126937819883,,errorv,,0,,1402416126,937537263,/z_drive,port,,,-0.3,0.3048,0.0,,0.0,0.0,0.0,1.0
1402416126937894878,,errorv,,0,,1402416126,937541993,/z_drive,starboard,,,-0.3,-0.3048,0.0,,0.0,0.0,0.0,1.0
1402416126951101017,,errorv,,0,,1402416126,875581979,/enu,/base_link,,,5.06698773552,23.4680088885,-27.3968922785,,-0.00617787523197,0.0112623167611,0.561500839822,0.827376456614
1402416126951143028,,errorv,,0,,1402416126,885587930,/enu,/base_link,,,5.06854093561,23.4787430748,-27.3766574061,,-0.00545965560283,0.0121088846656,0.563286695115,0.826154747114
1402416126951216350,,errorv,,0,,1402416126,895585060,/enu,/base_link,,,5.06896691334,23.4892349279,-27.3741001862,,-0.00546267612402,0.0122474578453,0.56339610873,0.826078073558
1402416126951295538,,errorv,,0,,1402416126,905591011,/enu,/base_link,,,5.06939657259,23.4999503757,-27.3720393885,,-0.0054600433627,0.0123839361236,0.5635018185,0.826003950717
1402416126957942877,,errorv,,0,,1402416126,957671640,base_link,/z_drive,,,0.0,0.0,0.0,,0.0,0.0,0.0,1.0
1402416126958058098,,errorv,,0,,1402416126,957701891,/z_drive,port,,,-0.3,0.3048,0.0,,0.0,0.0,0.0,1.0
1402416126958094305,,errorv,,0,,1402416126,957717960,/z_drive,starboard,,,-0.3,-0.3048,0.0,,0.0,0.0,0.0,1.0
1402416126977683275,,errorv,,0,,1402416126,977460561,base_link,/z_drive,,,0.0,0.0,0.0,,0.0,0.0,0.0,1.0
1402416126977776999,,errorv,,0,,1402416126,977475743,/z_drive,port,,,-0.3,0.3048,0.0,,0.0,0.0,0.0,1.0
1402416126977804985,,errorv,,0,,1402416126,977482701,/z_drive,starboard,,,-0.3,-0.3048,0.0,,0.0,0.0,0.0,1.0
1402416126991124178,,errorv,,0,,1402416126,915596961,/enu,/base_link,,,5.06971330519,23.510504065,-27.3697951367,,-0.00551133470915,0.0125324909685,0.563606403526,0.82593001142
1402416126991148238,,errorv,,0,,1402416126,925565958,/enu,/base_link,,,5.07027163688,23.5209050546,-27.3674242018,,-0.00560490053426,0.0126874876636,0.563725859063,0.825845487105
1402416126991271926,,errorv,,0,,1402416126,936556100,/enu,/base_link,,,5.07168364893,23.5290949112,-27.3443552223,,-0.00418724043194,0.0136021185937,0.566254771571,0.824107385636
1402416126991298242,,errorv,,0,,1402416126,946574926,/enu,/base_link,,,5.07246784334,23.5394208871,-27.3422676409,,-0.00425036986323,0.0138109724214,0.566388455799,0.82401171626
1402416126997761321,,errorv,,0,,1402416126,997556594,base_link,/z_drive,,,0.0,0.0,0.0,,0.0,0.0,0.0,1.0
1402416126997830527,,errorv,,0,,1402416126,997605815,/z_drive,port,,,-0.3,0.3048,0.0,,0.0,0.0,0.0,1.0
1402416126997854284,,errorv,,0,,1402416126,997617869,/z_drive,starboard,,,-0.3,-0.3048,0.0,,0.0,0.0,0.0,1.0
1402416127017657188,,errorv,,0,,1402416127,17451824,base_link,/z_drive,,,0.0,0.0,0.0,,0.0,0.0,0.0,1.0
1402416127017686967,,errorv,,0,,1402416127,17467837,/z_drive,port,,,-0.3,0.3048,0.0,,0.0,0.0,0.0,1.0
1402416127017708586,,errorv,,0,,1402416127,17477588,/z_drive,starboard,,,-0.3,-0.3048,0.0,,0.0,0.0,0.0,1.0
1402416127019336128,,errorv,,0,,1402416127,119119761,/base_link,/gps,,,-0.84,0.0,-0.14,,0.0,0.0,0.0,1.0
1402416127019457501,,errorv,,0,,1402416127,119173421,base_link,imu,,,0.13,0.0,-0.1,,1.0,0.0,0.0,0.0
1402416127031231152,,errorv,,0,,1402416126,956563949,/enu,/base_link,,,5.0731307734,23.5494506985,-27.3399440378,,-0.00426749515714,0.014058898272,0.566495685608,0.823933719453
1402416127031259052,,errorv,,0,,1402416126,966553926,/enu,/base_link,,,5.07357647638,23.5598334837,-27.3380935648,,-0.00430927330237,0.0143200915618,0.566595469529,0.823860388082
1402416127031361397,,errorv,,0,,1402416126,976527929,/enu,/base_link,,,5.07445019669,23.5698675223,-27.3360199943,,-0.00436909363098,0.0145703923837,0.566699905729,0.823783850008
1402416127031451808,,errorv,,0,,1402416126,986527919,/enu,/base_link,,,5.08523684777,23.5927461446,-27.3572019031,,-0.00537035567056,0.0149670067126,0.566030563041,0.82423088373
1402416127037746001,,errorv,,0,,1402416127,37489905,base_link,/z_drive,,,0.0,0.0,0.0,,0.0,0.0,0.0,1.0
1402416127037851452,,errorv,,0,,1402416127,37511577,/z_drive,port,,,-0.3,0.3048,0.0,,0.0,0.0,0.0,1.0
1402416127037963063,,errorv,,0,,1402416127,37521599,/z_drive,starboard,,,-0.3,-0.3048,0.0,,0.0,0.0,0.0,1.0
1402416127057616150,,errorv,,0,,1402416127,57464821,base_link,/z_drive,,,0.0,0.0,0.0,,0.0,0.0,0.0,1.0
1402416127057711482,,errorv,,0,,1402416127,57479947,/z_drive,port,,,-0.3,0.3048,0.0,,0.0,0.0,0.0,1.0
1402416127057736603,,errorv,,0,,1402416127,57522144,/z_drive,starboard,,,-0.3,-0.3048,0.0,,0.0,0.0,0.0,1.0
1402416127071218750,,errorv,,0,,1402416126,996536970,/enu,/base_link,,,5.08580868116,23.6027124037,-27.3547178279,,-0.00554796482578,0.0151957107291,0.566139786825,0.824150503388
1402416127071293573,,errorv,,0,,1402416127,7957935,/enu,/base_link,,,5.0864511146,23.614314071,-27.3524227318,,-0.00569192205541,0.0155355939069,0.566310986713,0.824025554017
1402416127071319549,,errorv,,0,,1402416127,17513990,/enu,/base_link,,,5.08697608675,23.6240681043,-27.3505828655,,-0.00577013237917,0.0158597818704,0.56639558957,0.823960684139
1402416127071383536,,errorv,,0,,1402416127,27896881,/enu,/base_link,,,5.08758972745,23.6345639866,-27.3485470658,,-0.00584302959042,0.0162354671468,0.566501185374,0.823880255609
1402416127077815181,,errorv,,0,,1402416127,77508864,base_link,/z_drive,,,0.0,0.0,0.0,,0.0,0.0,0.0,1.0
1402416127077843481,,errorv,,0,,1402416127,77624736,/z_drive,port,,,-0.3,0.3048,0.0,,0.0,0.0,0.0,1.0
1402416127077864304,,errorv,,0,,1402416127,77638691,/z_drive,starboard,,,-0.3,-0.3048,0.0,,0.0,0.0,0.0,1.0
1402416127097700105,,errorv,,0,,1402416127,97534398,base_link,/z_drive,,,0.0,0.0,0.0,,0.0,0.0,0.0,1.0
1402416127097803170,,errorv,,0,,1402416127,97559130,/z_drive,port,,,-0.3,0.3048,0.0,,0.0,0.0,0.0,1.0
1402416127097828322,,errorv,,0,,1402416127,97605205,/z_drive,starboard,,,-0.3,-0.3048,0.0,,0.0,0.0,0.0,1.0
1402416127111122170,,errorv,,0,,1402416127,37513017,/enu,/base_link,,,5.09355852714,23.6420497298,-27.337526209,,-0.00491945896314,0.0168239924497,0.567646137618,0.823086031134
1402416127111322105,,errorv,,0,,1402416127,47513008,/enu,/base_link,,,5.09426205143,23.6518237804,-27.3353545114,,-0.00509294517321,0.0171327116233,0.567758421928,0.82300115822
1402416127111351048,,errorv,,0,,1402416127,57511091,/enu,/base_link,,,5.09467234117,23.6616606174,-27.3333546551,,-0.00535676398455,0.0174126577115,0.567865474869,0.822919745104
1402416127111500010,,errorv,,0,,1402416127,68484067,/enu,/base_link,,,5.09564017038,23.6723754675,-27.331057914,,-0.00567565903128,0.0176967431111,0.567964865562,0.822842952005
1402416127117726476,,errorv,,0,,1402416127,117498070,base_link,/z_drive,,,0.0,0.0,0.0,,0.0,0.0,0.0,1.0
1402416127117752938,,errorv,,0,,1402416127,117517232,/z_drive,port,,,-0.3,0.3048,0.0,,0.0,0.0,0.0,1.0
1402416127117876864,,errorv,,0,,1402416127,117541638,/z_drive,starboard,,,-0.3,-0.3048,0.0,,0.0,0.0,0.0,1.0
1402416127119421527,,errorv,,0,,1402416127,219223770,/base_link,/gps,,,-0.84,0.0,-0.14,,0.0,0.0,0.0,1.0
1402416127119466344,,errorv,,0,,1402416127,219282708,base_link,imu,,,0.13,0.0,-0.1,,1.0,0.0,0.0,0.0
1402416127137695498,,errorv,,0,,1402416127,137501115,base_link,/z_drive,,,0.0,0.0,0.0,,0.0,0.0,0.0,1.0
1402416127137753183,,errorv,,0,,1402416127,137535789,/z_drive,port,,,-0.3,0.3048,0.0,,0.0,0.0,0.0,1.0
1402416127137821482,,errorv,,0,,1402416127,137588019,/z_drive,starboard,,,-0.3,-0.3048,0.0,,0.0,0.0,0.0,1.0
1402416127151355492,,errorv,,0,,1402416127,78493118,/enu,/base_link,,,5.09633377508,23.6821629653,-27.3291468246,,-0.00582108524893,0.0181402335636,0.568055160478,0.822769944484
1402416127151383415,,errorv,,0,,1402416127,88495969,/enu,/base_link,,,5.10795428413,23.6965576369,-27.3432798497,,-0.00434437337624,0.019247067792,0.569648611727,0.821651468665
1402416127151415443,,errorv,,0,,1402416127,98495960,/enu,/base_link,,,5.10896122024,23.7060241606,-27.341251207,,-0.00444386412632,0.0196941904529,0.569762276087,0.821561525196
1402416127151438774,,errorv,,0,,1402416127,109483957,/enu,/base_link,,,5.11008902381,23.7166141741,-27.3393975835,,-0.00466546787222,0.0200821013473,0.569907334095,0.821450286481
1402416127157628036,,errorv,,0,,1402416127,157481448,base_link,/z_drive,,,0.0,0.0,0.0,,0.0,0.0,0.0,1.0
1402416127157689900,,errorv,,0,,1402416127,157498012,/z_drive,port,,,-0.3,0.3048,0.0,,0.0,0.0,0.0,1.0
1402416127157759037,,errorv,,0,,1402416127,157507119,/z_drive,starboard,,,-0.3,-0.3048,0.0,,0.0,0.0,0.0,1.0
1402416127177608086,,errorv,,0,,1402416127,177456466,base_link,/z_drive,,,0.0,0.0,0.0,,0.0,0.0,0.0,1.0
1402416127177634745,,errorv,,0,,1402416127,177473801,/z_drive,port,,,-0.3,0.3048,0.0,,0.0,0.0,0.0,1.0
1402416127177666545,,errorv,,0,,1402416127,177483593,/z_drive,starboard,,,-0.3,-0.3048,0.0,,0.0,0.0,0.0,1.0
1402416127191167296,,errorv,,0,,1402416127,119474887,/enu,/base_link,,,5.11096037071,23.7259081874,-27.3371628203,,-0.00498898574689,0.0204101424723,0.570039575393,0.82134853661
1402416127191199931,,errorv,,0,,1402416127,129467010,/enu,/base_link,,,5.11205995403,23.735351186,-27.335293863,,-0.00531867168683,0.0206836939275,0.57016096567,0.821255362091
1402416127191224850,,errorv,,0,,1402416127,139468908,/enu,/base_link,,,5.12114186108,23.7683855691,-27.3778586281,,-0.00732720188995,0.0208427439721,0.569399800375,0.821763810026
1402416127191301920,,errorv,,0,,1402416127,150465965,/enu,/base_link,,,5.12208674469,23.7788437728,-27.3756553063,,-0.00762733513789,0.0212344561584,0.569575372572,0.821629366922
1402416127191325451,,errorv,,0,,1402416127,160468101,/enu,/base_link,,,5.12280479615,23.7883263119,-27.3735594031,,-0.00781776173017,0.02170888103,0.569686264765,0.821538292975
1402416127197695618,,errorv,,0,,1402416127,197528066,base_link,/z_drive,,,0.0,0.0,0.0,,0.0,0.0,0.0,1.0
1402416127197756469,,errorv,,0,,1402416127,197547906,/z_drive,port,,,-0.3,0.3048,0.0,,0.0,0.0,0.0,1.0
1402416127197832836,,errorv,,0,,1402416127,197559717,/z_drive,starboard,,,-0.3,-0.3048,0.0,,0.0,0.0,0.0,1.0
1402416127217637553,,errorv,,0,,1402416127,217463763,base_link,/z_drive,,,0.0,0.0,0.0,,0.0,0.0,0.0,1.0
1402416127217665551,,errorv,,0,,1402416127,217498283,/z_drive,port,,,-0.3,0.3048,0.0,,0.0,0.0,0.0,1.0
1402416127217710797,,errorv,,0,,1402416127,217504100,/z_drive,starboard,,,-0.3,-0.3048,0.0,,0.0,0.0,0.0,1.0
1402416127219524282,,errorv,,0,,1402416127,319329830,/base_link,/gps,,,-0.84,0.0,-0.14,,0.0,0.0,0.0,1.0
1402416127219585845,,errorv,,0,,1402416127,319392666,base_link,imu,,,0.13,0.0,-0.1,,1.0,0.0,0.0,0.0
1402416127231052074,,errorv,,0,,1402416127,170466899,/enu,/base_link,,,5.1236633907,23.797958487,-27.3718516263,,-0.00794969497181,0.02216198269,0.5697780512,0.821461271908
1402416127231121972,,errorv,,0,,1402416127,180466890,/enu,/base_link,,,5.12453953466,23.8076203372,-27.3702179388,,-0.00813448844033,0.0225407946262,0.569885102101,0.821374891921
1402416127231183903,,errorv,,0,,1402416127,191437959,/enu,/base_link,,,5.13205990299,23.8315100063,-27.3687949609,,-0.00934035457796,0.0236415308415,0.570140125648,0.821154110336
1402416127237632794,,errorv,,0,,1402416127,237496441,base_link,/z_drive,,,0.0,0.0,0.0,,0.0,0.0,0.0,1.0
1402416127237808477,,errorv,,0,,1402416127,237518625,/z_drive,port,,,-0.3,0.3048,0.0,,0.0,0.0,0.0,1.0
1402416127237838694,,errorv,,0,,1402416127,237565729,/z_drive,starboard,,,-0.3,-0.3048,0.0,,0.0,0.0,0.0,1.0
1402416127239323256,,errorv,,0,,1402416127,201438903,/enu,/base_link,,,5.13288896493,23.8411765026,-27.3667782257,,-0.00966908927551,0.0239471631209,0.57027149377,0.821050221049
1402416127239347179,,errorv,,0,,1402416127,212440013,/enu,/base_link,,,5.13369863996,23.8517165552,-27.3644507562,,-0.0100341469103,0.0242837410515,0.570401771271,0.820945451992
1402416127257662185,,errorv,,0,,1402416127,257478067,base_link,/z_drive,,,0.0,0.0,0.0,,0.0,0.0,0.0,1.0
1402416127257699196,,errorv,,0,,1402416127,257496761,/z_drive,port,,,-0.3,0.3048,0.0,,0.0,0.0,0.0,1.0
1402416127257912424,,errorv,,0,,1402416127,257506361,/z_drive,starboard,,,-0.3,-0.3048,0.0,,0.0,0.0,0.0,1.0
1402416127277589209,,errorv,,0,,1402416127,277446880,base_link,/z_drive,,,0.0,0.0,0.0,,0.0,0.0,0.0,1.0
1402416127277620137,,errorv,,0,,1402416127,277459695,/z_drive,port,,,-0.3,0.3048,0.0,,0.0,0.0,0.0,1.0
1402416127277643089,,errorv,,0,,1402416127,277464020,/z_drive,starboard,,,-0.3,-0.3048,0.0,,0.0,0.0,0.0,1.0
1402416127278983294,,errorv,,0,,1402416127,222438097,/enu,/base_link,,,5.13457946447,23.861506388,-27.3628111724,,-0.0103557171488,0.0245816482675,0.570509290337,0.820857875232
1402416127279235819,,errorv,,0,,1402416127,232413053,/enu,/base_link,,,5.13545646194,23.8709977177,-27.3606398211,,-0.0105145000834,0.0249867161484,0.570618327037,0.820767832066
1402416127297725210,,errorv,,0,,1402416127,297493468,base_link,/z_drive,,,0.0,0.0,0.0,,0.0,0.0,0.0,1.0
1402416127297899886,,errorv,,0,,1402416127,297524057,/z_drive,port,,,-0.3,0.3048,0.0,,0.0,0.0,0.0,1.0
1402416127297930972,,errorv,,0,,1402416127,297532443,/z_drive,starboard,,,-0.3,-0.3048,0.0,,0.0,0.0,0.0,1.0
1402416127317769356,,errorv,,0,,1402416127,317481884,base_link,/z_drive,,,0.0,0.0,0.0,,0.0,0.0,0.0,1.0
1402416127317818574,,errorv,,0,,1402416127,317506048,/z_drive,port,,,-0.3,0.3048,0.0,,0.0,0.0,0.0,1.0
1402416127317883418,,errorv,,0,,1402416127,317513050,/z_drive,starboard,,,-0.3,-0.3048,0.0,,0.0,0.0,0.0,1.0
1402416127319079757,,errorv,,0,,1402416127,242408990,/enu,/base_link,,,5.13633590022,23.8805421436,-27.3586025862,,-0.010669965304,0.0253821764901,0.570755651784,0.820658201028
1402416127319187984,,errorv,,0,,1402416127,252403974,/enu,/base_link,,,5.13731594587,23.8901335249,-27.3567431824,,-0.0108740188382,0.0257310942395,0.570887345651,0.820553048303
1402416127319212456,,errorv,,0,,1402416127,263406991,/enu,/base_link,,,5.13800864463,23.9003648844,-27.3540613925,,-0.0110903207935,0.0260996662794,0.57100608534,0.82045588712
1402416127319232748,,errorv,,0,,1402416127,273405075,/enu,/base_link,,,5.13877550634,23.9100004373,-27.3522816235,,-0.0113728513119,0.0263659223284,0.571135858254,0.820353172609
1402416127319607811,,errorv,,0,,1402416127,419425436,/base_link,/gps,,,-0.84,0.0,-0.14,,0.0,0.0,0.0,1.0
1402416127319684683,,errorv,,0,,1402416127,419489827,base_link,imu,,,0.13,0.0,-0.1,,1.0,0.0,0.0,0.0
1402416127337780197,,errorv,,0,,1402416127,337534072,base_link,/z_drive,,,0.0,0.0,0.0,,0.0,0.0,0.0,1.0
1402416127337810566,,errorv,,0,,1402416127,337564315,/z_drive,port,,,-0.3,0.3048,0.0,,0.0,0.0,0.0,1.0
1402416127337838553,,errorv,,0,,1402416127,337573306,/z_drive,starboard,,,-0.3,-0.3048,0.0,,0.0,0.0,0.0,1.0
1402416127357716797,,errorv,,0,,1402416127,357538720,base_link,/z_drive,,,0.0,0.0,0.0,,0.0,0.0,0.0,1.0
1402416127357801695,,errorv,,0,,1402416127,357563386,/z_drive,port,,,-0.3,0.3048,0.0,,0.0,0.0,0.0,1.0
1402416127357824852,,errorv,,0,,1402416127,357572603,/z_drive,starboard,,,-0.3,-0.3048,0.0,,0.0,0.0,0.0,1.0
1402416127359146782,,errorv,,0,,1402416127,283404111,/enu,/base_link,,,5.13969727992,23.919381122,-27.3499791738,,-0.0116348007575,0.0266559309748,0.571268284671,0.820247913551
1402416127359174078,,errorv,,0,,1402416127,294404029,/enu,/base_link,,,5.14054245964,23.9296787143,-27.3475172606,,-0.0118409370264,0.0269729899605,0.571393802541,0.820147165112
1402416127359222156,,errorv,,0,,1402416127,304384946,/enu,/base_link,,,5.14142809891,23.9390466919,-27.3453084606,,-0.0120433692738,0.0272392817965,0.571507866229,0.820055935667
1402416127359248982,,errorv,,0,,1402416127,314384937,/enu,/base_link,,,5.15713955504,23.9547673229,-27.3815091285,,-0.0110714649347,0.0272222573445,0.571478863245,0.820090409792
1402416127377721630,,errorv,,0,,1402416127,377522077,base_link,/z_drive,,,0.0,0.0,0.0,,0.0,0.0,0.0,1.0
1402416127377864902,,errorv,,0,,1402416127,377540367,/z_drive,port,,,-0.3,0.3048,0.0,,0.0,0.0,0.0,1.0
1402416127377882079,,errorv,,0,,1402416127,377548431,/z_drive,starboard,,,-0.3,-0.3048,0.0,,0.0,0.0,0.0,1.0
1402416127397643031,,errorv,,0,,1402416127,397487376,base_link,/z_drive,,,0.0,0.0,0.0,,0.0,0.0,0.0,1.0
1402416127399076715,,errorv,,0,,1402416127,397507987,/z_drive,port,,,-0.3,0.3048,0.0,,0.0,0.0,0.0,1.0
1402416127399098489,,errorv,,0,,1402416127,398794718,/z_drive,starboard,,,-0.3,-0.3048,0.0,,0.0,0.0,0.0,1.0
1402416127399385346,,errorv,,0,,1402416127,325388908,/enu,/base_link,,,5.15805355655,23.9648699133,-27.3792141028,,-0.0112689235313,0.0275069937324,0.571596195063,0.819996442948
1402416127399458483,,errorv,,0,,1402416127,335386037,/enu,/base_link,,,5.15898566786,23.9740038972,-27.3771823711,,-0.0114515734012,0.0277136498874,0.571708955141,0.819908339809
1402416127399479628,,errorv,,0,,1402416127,345371961,/enu,/base_link,,,5.1598135054,23.9830314682,-27.3749099754,,-0.0116011191273,0.0279510602577,0.57182152863,0.819819670208
1402416127399552100,,errorv,,0,,1402416127,355367898,/enu,/base_link,,,5.16041271979,24.0103694264,-27.3941078436,,-0.0132161722196,0.0278050422289,0.57184456476,0.819784121689
1402416127417621320,,errorv,,0,,1402416127,417492846,base_link,/z_drive,,,0.0,0.0,0.0,,0.0,0.0,0.0,1.0
1402416127417789795,,errorv,,0,,1402416127,417511938,/z_drive,port,,,-0.3,0.3048,0.0,,0.0,0.0,0.0,1.0
1402416127417860694,,errorv,,0,,1402416127,417545510,/z_drive,starboard,,,-0.3,-0.3048,0.0,,0.0,0.0,0.0,1.0
1402416127419760975,,errorv,,0,,1402416127,519536774,/base_link,/gps,,,-0.84,0.0,-0.14,,0.0,0.0,0.0,1.0
1402416127419811642,,errorv,,0,,1402416127,519606438,base_link,imu,,,0.13,0.0,-0.1,,1.0,0.0,0.0,0.0
1402416127437658158,,errorv,,0,,1402416127,437460315,base_link,/z_drive,,,0.0,0.0,0.0,,0.0,0.0,0.0,1.0
1402416127437689507,,errorv,,0,,1402416127,437480937,/z_drive,port,,,-0.3,0.3048,0.0,,0.0,0.0,0.0,1.0
1402416127437711962,,errorv,,0,,1402416127,437490521,/z_drive,starboard,,,-0.3,-0.3048,0.0,,0.0,0.0,0.0,1.0
1402416127439175442,,errorv,,0,,1402416127,366389989,/enu,/base_link,,,5.16107386185,24.0205541665,-27.3917414671,,-0.0134130434178,0.0279949450783,0.572021602363,0.819650937745
1402416127439205226,,errorv,,0,,1402416127,376359939,/enu,/base_link,,,5.16182235782,24.0297561058,-27.389684245,,-0.013558389622,0.0281507925764,0.572171801366,0.819538365587
1402416127439233752,,errorv,,0,,1402416127,386372089,/enu,/base_link,,,5.16246567005,24.0389368227,-27.38735283,,-0.0136972663587,0.028314376685,0.57230418326,0.819437979831
1402416127439261019,,errorv,,0,,1402416127,397367954,/enu,/base_link,,,5.15758507272,24.0560572535,-27.3908161946,,-0.0148649580392,0.027442076479,0.572214845616,0.819509692388
1402416127457644122,,errorv,,0,,1402416127,457485392,base_link,/z_drive,,,0.0,0.0,0.0,,0.0,0.0,0.0,1.0
1402416127457672638,,errorv,,0,,1402416127,457505207,/z_drive,port,,,-0.3,0.3048,0.0,,0.0,0.0,0.0,1.0
1402416127457741438,,errorv,,0,,1402416127,457515179,/z_drive,starboard,,,-0.3,-0.3048,0.0,,0.0,0.0,0.0,1.0
1402416127477611240,,errorv,,0,,1402416127,477456892,base_link,/z_drive,,,0.0,0.0,0.0,,0.0,0.0,0.0,1.0
1402416127477643431,,errorv,,0,,1402416127,477472154,/z_drive,port,,,-0.3,0.3048,0.0,,0.0,0.0,0.0,1.0
1402416127477670883,,errorv,,0,,1402416127,477481331,/z_drive,starboard,,,-0.3,-0.3048,0.0,,0.0,0.0,0.0,1.0
1402416127479026361,,errorv,,0,,1402416127,407349109,/enu,/base_link,,,5.15813866659,24.0652256886,-27.3886067302,,-0.015002544907,0.0275918981596,0.572355912254,0.81940363711
1402416127479190866,,errorv,,0,,1402416127,417334079,/enu,/base_link,,,5.15854257152,24.0744244427,-27.3864501511,,-0.01512474828,0.0277411419118,0.572499100908,0.81929631422
1402416127479213137,,errorv,,0,,1402416127,428339004,/enu,/base_link,,,5.15903667234,24.0844438526,-27.3838208597,,-0.0153227704509,0.0278583638886,0.572642634116,0.819188340896
1402416127479270651,,errorv,,0,,1402416127,438319921,/enu,/base_link,,,5.17339916449,24.0844134481,-27.3280721589,,-0.0145316616724,0.0297027357288,0.573127498623,0.818798783964
1402416127479303487,,errorv,,0,,1402416127,448321104,/enu,/base_link,,,5.17421458181,24.0936839626,-27.3258212654,,-0.0146795317485,0.0297900901038,0.573281508374,0.818685149514
1402416127497763095,,errorv,,0,,1402416127,497535701,base_link,/z_drive,,,0.0,0.0,0.0,,0.0,0.0,0.0,1.0
1402416127497792320,,errorv,,0,,1402416127,497560184,/z_drive,port,,,-0.3,0.3048,0.0,,0.0,0.0,0.0,1.0
1402416127497814286,,errorv,,0,,1402416127,497599680,/z_drive,starboard,,,-0.3,-0.3048,0.0,,0.0,0.0,0.0,1.0
1402416127517678024,,errorv,,0,,1402416127,517465003,base_link,/z_drive,,,0.0,0.0,0.0,,0.0,0.0,0.0,1.0
1402416127517706355,,errorv,,0,,1402416127,517488748,/z_drive,port,,,-0.3,0.3048,0.0,,0.0,0.0,0.0,1.0
1402416127517729466,,errorv,,0,,1402416127,517499542,/z_drive,starboard,,,-0.3,-0.3048,0.0,,0.0,0.0,0.0,1.0
1402416127519072752,,errorv,,0,,1402416127,458308935,/enu,/base_link,,,5.17510205071,24.1028616156,-27.3236085013,,-0.0147628428018,0.029863895998,0.573430440984,0.818576652208
1402416127519106410,,errorv,,0,,1402416127,469305992,/enu,/base_link,,,5.1758586884,24.1127503725,-27.3209294828,,-0.0148589892031,0.0299636353037,0.57356871152,0.818474388216
1402416127519131728,,errorv,,0,,1402416127,479329109,/enu,/base_link,,,5.17681349487,24.1218868838,-27.3185076747,,-0.0149013426229,0.0300571326083,0.573719297577,0.818364641437
1402416127519844640,,errorv,,0,,1402416127,619645118,/base_link,/gps,,,-0.84,0.0,-0.14,,0.0,0.0,0.0,1.0
1402416127519874389,,errorv,,0,,1402416127,619700784,base_link,imu,,,0.13,0.0,-0.1,,1.0,0.0,0.0,0.0
1402416127527473763,,errorv,,0,,1402416127,489285945,/enu,/base_link,,,5.18488193731,24.1458940994,-27.3561209192,,-0.0149928990814,0.0300199311602,0.573837328788,0.818281575498
1402416127527498417,,errorv,,0,,1402416127,499320030,/enu,/base_link,,,5.18571292573,24.1548425755,-27.3536005017,,-0.0150584692697,0.0300957756997,0.574007332899,0.818158339545
1402416127537706224,,errorv,,0,,1402416127,537470621,base_link,/z_drive,,,0.0,0.0,0.0,,0.0,0.0,0.0,1.0
1402416127537777033,,errorv,,0,,1402416127,537510658,/z_drive,port,,,-0.3,0.3048,0.0,,0.0,0.0,0.0,1.0
1402416127537801246,,errorv,,0,,1402416127,537520184,/z_drive,starboard,,,-0.3,-0.3048,0.0,,0.0,0.0,0.0,1.0
1402416127557710768,,errorv,,0,,1402416127,557479131,base_link,/z_drive,,,0.0,0.0,0.0,,0.0,0.0,0.0,1.0
1402416127557779652,,errorv,,0,,1402416127,557495827,/z_drive,port,,,-0.3,0.3048,0.0,,0.0,0.0,0.0,1.0
1402416127557847420,,errorv,,0,,1402416127,557537132,/z_drive,starboard,,,-0.3,-0.3048,0.0,,0.0,0.0,0.0,1.0
1402416127567095646,,errorv,,0,,1402416127,510291099,/enu,/base_link,,,5.18685720926,24.1650103578,-27.3514552104,,-0.0151578899899,0.0301114248427,0.574161694679,0.818047607923
1402416127567119600,,errorv,,0,,1402416127,520301103,/enu,/base_link,,,5.1875423273,24.1741286272,-27.3493323148,,-0.0152417590013,0.0301217321694,0.574302361653,0.817946922137
1402416127577632967,,errorv,,0,,1402416127,577490238,base_link,/z_drive,,,0.0,0.0,0.0,,0.0,0.0,0.0,1.0
1402416127577767002,,errorv,,0,,1402416127,577504859,/z_drive,port,,,-0.3,0.3048,0.0,,0.0,0.0,0.0,1.0
1402416127577786069,,errorv,,0,,1402416127,577509205,/z_drive,starboard,,,-0.3,-0.3048,0.0,,0.0,0.0,0.0,1.0
1402416127597673438,,errorv,,0,,1402416127,597492739,base_link,/z_drive,,,0.0,0.0,0.0,,0.0,0.0,0.0,1.0
1402416127597699247,,errorv,,0,,1402416127,597508489,/z_drive,port,,,-0.3,0.3048,0.0,,0.0,0.0,0.0,1.0
1402416127597730507,,errorv,,0,,1402416127,597512619,/z_drive,starboard,,,-0.3,-0.3048,0.0,,0.0,0.0,0.0,1.0
1402416127607277441,,errorv,,0,,1402416127,531307935,/enu,/base_link,,,5.18836460881,24.184024542,-27.3466740722,,-0.0153217792751,0.0301087647774,0.574478252424,0.817822378549
1402416127607347560,,errorv,,0,,1402416127,541321039,/enu,/base_link,,,5.19076021328,24.2156407676,-27.3885891562,,-0.0162742056858,0.0299776259845,0.574921157426,0.817497495356
1402416127607371334,,errorv,,0,,1402416127,551287889,/enu,/base_link,,,5.19155188377,24.2245950013,-27.3861873399,,-0.0163079698068,0.029924509063,0.575111502884,0.81736487148
1402416127607425705,,errorv,,0,,1402416127,561290025,/enu,/base_link,,,5.19215217792,24.2335580263,-27.383782192,,-0.0163242917933,0.0298370211198,0.575294061008,0.81723926303
1402416127617873413,,errorv,,0,,1402416127,617704932,base_link,/z_drive,,,0.0,0.0,0.0,,0.0,0.0,0.0,1.0
1402416127617952607,,errorv,,0,,1402416127,617723942,/z_drive,port,,,-0.3,0.3048,0.0,,0.0,0.0,0.0,1.0
1402416127617978758,,errorv,,0,,1402416127,617795732,/z_drive,starboard,,,-0.3,-0.3048,0.0,,0.0,0.0,0.0,1.0
1402416127619923494,,errorv,,0,,1402416127,719749230,/base_link,/gps,,,-0.84,0.0,-0.14,,0.0,0.0,0.0,1.0
1402416127619971617,,errorv,,0,,1402416127,719758078,base_link,imu,,,0.13,0.0,-0.1,,1.0,0.0,0.0,0.0
1402416127637775732,,errorv,,0,,1402416127,637602739,base_link,/z_drive,,,0.0,0.0,0.0,,0.0,0.0,0.0,1.0
1402416127637806376,,errorv,,0,,1402416127,637622045,/z_drive,port,,,-0.3,0.3048,0.0,,0.0,0.0,0.0,1.0
1402416127637824278,,errorv,,0,,1402416127,637628314,/z_drive,starboard,,,-0.3,-0.3048,0.0,,0.0,0.0,0.0,1.0
1402416127647158213,,errorv,,0,,1402416127,571290969,/enu,/base_link,,,5.192998381,24.2427738673,-27.3817060993,,-0.0163336917977,0.0297827864994,0.57547526905,0.817113462655
1402416127647181440,,errorv,,0,,1402416127,581288099,/enu,/base_link,,,5.19375770309,24.2519513563,-27.3797352665,,-0.0163568805915,0.0297120651586,0.575660561896,0.816985044612
1402416127647300296,,errorv,,0,,1402416127,592293024,/enu,/base_link,,,5.18824161941,24.2665106873,-27.3399445929,,-0.0175389390594,0.0300237855523,0.576463504822,0.816382744506
1402416127647323916,,errorv,,0,,1402416127,602261066,/enu,/base_link,,,5.18896895587,24.2756831902,-27.3376754718,,-0.0174900701225,0.0299590908751,0.576640743078,0.816260989968
1402416127657693266,,errorv,,0,,1402416127,657506927,base_link,/z_drive,,,0.0,0.0,0.0,,0.0,0.0,0.0,1.0
1402416127657857307,,errorv,,0,,1402416127,657524414,/z_drive,port,,,-0.3,0.3048,0.0,,0.0,0.0,0.0,1.0
1402416127657879006,,errorv,,0,,1402416127,657593058,/z_drive,starboard,,,-0.3,-0.3048,0.0,,0.0,0.0,0.0,1.0
1402416127677625695,,errorv,,0,,1402416127,677469534,base_link,/z_drive,,,0.0,0.0,0.0,,0.0,0.0,0.0,1.0
1402416127677760332,,errorv,,0,,1402416127,677491418,/z_drive,port,,,-0.3,0.3048,0.0,,0.0,0.0,0.0,1.0
1402416127677784110,,errorv,,0,,1402416127,677502146,/z_drive,starboard,,,-0.3,-0.3048,0.0,,0.0,0.0,0.0,1.0
1402416127687271976,,errorv,,0,,1402416127,612260103,/enu,/base_link,,,5.18963673279,24.2848670395,-27.3352906315,,-0.0174500157311,0.0298594175573,0.576838478904,0.816125775472
1402416127687309070,,errorv,,0,,1402416127,622262954,/enu,/base_link,,,5.19032314741,24.2941398272,-27.3330775867,,-0.0173963453927,0.0297162293884,0.577008650996,0.816011844003
1402416127687337055,,errorv,,0,,1402416127,633766889,/enu,/base_link,,,5.19448359174,24.3454726382,-27.2997575547,,-0.0204075339259,0.032680124374,0.579008019024,0.814410987116
1402416127687357875,,errorv,,0,,1402416127,643264055,/enu,/base_link,,,5.19543380547,24.3550835988,-27.2976901787,,-0.0203464339914,0.0325427645225,0.579189982688,0.814288619014
1402416127697665027,,errorv,,0,,1402416127,697520054,base_link,/z_drive,,,0.0,0.0,0.0,,0.0,0.0,0.0,1.0
1402416127697686640,,errorv,,0,,1402416127,697537867,/z_drive,port,,,-0.3,0.3048,0.0,,0.0,0.0,0.0,1.0
1402416127697832488,,errorv,,0,,1402416127,697544030,/z_drive,starboard,,,-0.3,-0.3048,0.0,,0.0,0.0,0.0,1.0
1402416127717607050,,errorv,,0,,1402416127,717473110,base_link,/z_drive,,,0.0,0.0,0.0,,0.0,0.0,0.0,1.0
1402416127717686714,,errorv,,0,,1402416127,717485219,/z_drive,port,,,-0.3,0.3048,0.0,,0.0,0.0,0.0,1.0
1402416127717822427,,errorv,,0,,1402416127,717489719,/z_drive,starboard,,,-0.3,-0.3048,0.0,,0.0,0.0,0.0,1.0
1402416127720020425,,errorv,,0,,1402416127,819855582,/base_link,/gps,,,-0.84,0.0,-0.14,,0.0,0.0,0.0,1.0
1402416127720113330,,errorv,,0,,1402416127,819854587,base_link,imu,,,0.13,0.0,-0.1,,1.0,0.0,0.0,0.0
1402416127727299966,,errorv,,0,,1402416127,653265953,/enu,/base_link,,,5.19625953493,24.3651521017,-27.2955190384,,-0.0202653335966,0.0323645688148,0.579387541201,0.814157188779
1402416127727357155,,errorv,,0,,1402416127,663250923,/enu,/base_link,,,5.19719553917,24.3750633699,-27.2929127413,,-0.0201676969401,0.0321708295144,0.579585633818,0.814026286308
