rosbagTimestamp,control_method,x_current,x_desired,y_current,y_desired,x_velocity_current,x_velocity_desired,y_velocity_current,y_velocity_desired,yaw_current,yaw_desired,required_force_x,required_force_y,required_moment_z,resultant_force_x,resultant_force_y,resultant_moment_z,current_port_servo_angle,current_port_thruster_force,current_starboard_servo_angle,current_starboard_thruster_force,estimated_port_servo_angle,estimated_port_thruster_force,estimated_starboard_servo_angle,estimated_starboard_thruster_force,cost_value,step,user_defined_1,user_defined_2,user_defined_3,user_defined_4,user_defined_5
1402598484262881375,0,6.29173637806,-0.114322152727,-10.2412602933,0.043815185726,0.0390002598525,0.0,0.201599494046,0.0,2.1961242811,0.0,0.0,0.0,0.0,-0.0,0.0,0.0,-0.180286796885,-0.0,0.00230154196664,-0.0,-0.186463408346,-0.0,0.0,-0.0,2.1723812279e-07,0.0,0.0,0.0,0.0,0.0,0.0
1402598484283232912,0,6.28415731926,-0.114322152727,-10.2334842371,0.043815185726,0.042798436476,0.0,0.204650734678,0.0,2.1944560435,0.0,0.0,0.0,0.0,-0.0,0.0,0.0,-0.180286796885,-0.0,0.00230154196664,-0.0,-0.186463408346,-0.0,0.0,-0.0,2.1723812279e-07,0.0,0.0,0.0,0.0,0.0,0.0
1402598484303079716,0,6.28415731926,-0.114322152727,-10.2334842371,0.043815185726,0.042798436476,0.0,0.204650734678,0.0,2.1944560435,0.0,0.0,0.0,0.0,-0.0,0.0,0.0,-0.180286796885,-0.0,0.00230154196664,-0.0,-0.186463408346,-0.0,0.0,-0.0,2.1723812279e-07,0.0,0.0,0.0,0.0,0.0,0.0
1402598484323701558,0,6.27347582229,-0.114322152727,-10.2270980843,0.043815185726,0.0396601452279,0.0,0.199103958149,0.0,2.19289509698,0.0,0.0,0.0,0.0,-0.0,0.0,0.0,-0.180286796885,-0.0,0.00230154196664,-0.0,-0.186463408346,-0.0,0.0,-0.0,2.1723812279e-07,0.0,0.0,0.0,0.0,0.0,0.0
1402598484343973005,0,6.27347582229,-0.114322152727,-10.2270980843,0.043815185726,0.0396601452279,0.0,0.199103958149,0.0,2.19289509698,0.0,0.0,0.0,0.0,-0.0,0.0,0.0,-0.180286796885,-0.0,0.00230154196664,-0.0,-0.186463408346,-0.0,0.0,-0.0,2.1723812279e-07,0.0,0.0,0.0,0.0,0.0,0.0
1402598484363476387,0,6.27530584867,-0.114322152727,-10.2189203758,0.043815185726,0.0423992711303,0.0,0.202214059194,0.0,2.19153669955,0.0,0.0,0.0,0.0,-0.0,0.0,0.0,-0.180286796885,-0.0,0.00230154196664,-0.0,-0.186463408346,-0.0,0.0,-0.0,2.1723812279e-07,0.0,0.0,0.0,0.0,0.0,0.0
1402598484382753213,0,6.27530584867,-0.114322152727,-10.2189203758,0.043815185726,0.0423992711303,0.0,0.202214059194,0.0,2.19153669955,0.0,0.0,0.0,0.0,-0.0,0.0,0.0,-0.180286796885,-0.0,0.00230154196664,-0.0,-0.186463408346,-0.0,0.0,-0.0,2.1723812279e-07,0.0,0.0,0.0,0.0,0.0,0.0
1402598484403415890,0,6.27801903895,-0.114322152727,-10.2043566884,0.043815185726,0.064612710957,0.0,0.217343613267,0.0,2.19036824923,0.0,0.0,0.0,0.0,-0.0,0.0,0.0,-0.180286796885,-0.0,0.00230154196664,-0.0,-0.186463408346,-0.0,0.0,-0.0,2.1723812279e-07,0.0,0.0,0.0,0.0,0.0,0.0
1402598484422807012,0,6.27801903895,-0.114322152727,-10.2043566884,0.043815185726,0.064612710957,0.0,0.217343613267,0.0,2.19036824923,0.0,0.0,0.0,0.0,-0.0,0.0,0.0,-0.178752573329,-0.0,0.00230154196664,-0.0,-0.186463408346,-0.0,0.0,-0.0,3.23770360418e-07,0.0,0.0,0.0,0.0,0.0,0.0
1402598484443431232,0,6.27462279997,-0.114322152727,-10.2002195039,0.043815185726,0.0655293323456,0.0,0.209201521712,0.0,2.18882125453,0.0,0.0,0.0,0.0,-0.0,0.0,0.0,-0.180286796885,-0.0,0.00230154196664,-0.0,-0.186463408346,-0.0,0.0,-0.0,2.1723812279e-07,0.0,0.0,0.0,0.0,0.0,0.0
1402598484462827875,0,6.27462279997,-0.114322152727,-10.2002195039,0.043815185726,0.0655293323456,0.0,0.209201521712,0.0,2.18882125453,0.0,0.0,0.0,0.0,-0.0,0.0,0.0,-0.180286796885,-0.0,0.00230154196664,-0.0,-0.186463408346,-0.0,0.0,-0.0,2.1723812279e-07,0.0,0.0,0.0,0.0,0.0,0.0
1402598484483399772,0,6.2709878132,-0.114322152727,-10.1934924536,0.043815185726,0.0694356035047,0.0,0.204529056941,0.0,2.18744064131,0.0,0.0,0.0,0.0,-0.0,0.0,0.0,-0.178752573329,-0.0,0.00230154196664,-0.0,-0.186463408346,-0.0,0.0,-0.0,3.23770360418e-07,0.0,0.0,0.0,0.0,0.0,0.0
1402598484502816596,0,6.2709878132,-0.114322152727,-10.1934924536,0.043815185726,0.0694356035047,0.0,0.204529056941,0.0,2.18744064131,0.0,0.0,0.0,0.0,-0.0,0.0,0.0,-0.180286796885,-0.0,0.00230154196664,-0.0,-0.186463408346,-0.0,0.0,-0.0,2.1723812279e-07,0.0,0.0,0.0,0.0,0.0,0.0
1402598484523333091,0,6.27365018742,-0.114322152727,-10.1853067043,0.043815185726,0.0687181771403,0.0,0.201646499477,0.0,2.18614619506,0.0,0.0,0.0,0.0,-0.0,0.0,0.0,-0.180286796885,-0.0,0.00230154196664,-0.0,-0.186463408346,-0.0,0.0,-0.0,2.1723812279e-07,0.0,0.0,0.0,0.0,0.0,0.0
1402598484542668610,0,6.27365018742,-0.114322152727,-10.1853067043,0.043815185726,0.0687181771403,0.0,0.201646499477,0.0,2.18614619506,0.0,0.0,0.0,0.0,-0.0,0.0,0.0,-0.180286796885,-0.0,0.00230154196664,-0.0,-0.186463408346,-0.0,0.0,-0.0,2.1723812279e-07,0.0,0.0,0.0,0.0,0.0,0.0
1402598484563283643,0,6.27646722289,-0.114322152727,-10.1772970388,0.043815185726,0.0653296940856,0.0,0.198062871731,0.0,2.18474771423,0.0,0.0,0.0,0.0,-0.0,0.0,0.0,-0.180286796885,-0.0,0.00230154196664,-0.0,-0.186463408346,-0.0,0.0,-0.0,2.1723812279e-07,0.0,0.0,0.0,0.0,0.0,0.0
1402598484582744159,0,6.27646722289,-0.114322152727,-10.1772970388,0.043815185726,0.0653296940856,0.0,0.198062871731,0.0,2.18474771423,0.0,0.0,0.0,0.0,-0.0,0.0,0.0,-0.180286796885,-0.0,0.00230154196664,-0.0,-0.186463408346,-0.0,0.0,-0.0,2.1723812279e-07,0.0,0.0,0.0,0.0,0.0,0.0
1402598484603455761,0,6.26644195944,-0.114322152727,-10.1654729129,0.043815185726,0.0648953161466,0.0,0.199792808402,0.0,2.18333159296,0.0,0.0,0.0,0.0,-0.0,0.0,0.0,-0.180286796885,-0.0,0.00230154196664,-0.0,-0.186463408346,-0.0,0.0,-0.0,2.1723812279e-07,0.0,0.0,0.0,0.0,0.0,0.0
1402598484622870248,0,6.26644195944,-0.114322152727,-10.1654729129,0.043815185726,0.0648953161466,0.0,0.199792808402,0.0,2.18333159296,0.0,0.0,0.0,0.0,-0.0,0.0,0.0,-0.180286796885,-0.0,0.00230154196664,-0.0,-0.186463408346,-0.0,0.0,-0.0,2.1723812279e-07,0.0,0.0,0.0,0.0,0.0,0.0
1402598484643608133,0,6.26896257001,-0.114322152727,-10.1574909257,0.043815185726,0.0625352016321,0.0,0.197060280615,0.0,2.18175319987,0.0,0.0,0.0,0.0,-0.0,0.0,0.0,-0.180286796885,-0.0,0.000767318410122,-0.0,-0.186463408346,-0.0,0.0,-0.0,1.93696533381e-07,0.0,0.0,0.0,0.0,0.0,0.0
1402598484662704340,0,6.26896257001,-0.114322152727,-10.1574909257,0.043815185726,0.0625352016321,0.0,0.197060280615,0.0,2.18175319987,0.0,0.0,0.0,0.0,-0.0,0.0,0.0,-0.180286796885,-0.0,0.00230154196664,-0.0,-0.186463408346,-0.0,0.0,-0.0,2.1723812279e-07,0.0,0.0,0.0,0.0,0.0,0.0
1402598484683428527,0,6.27125556924,-0.114322152727,-10.1472951376,0.043815185726,0.0682692525516,0.0,0.205101237808,0.0,2.18007856377,0.0,0.0,0.0,0.0,-0.0,0.0,0.0,-0.178752573329,-0.0,0.00230154196664,-0.0,-0.186463408346,-0.0,0.0,-0.0,3.23770360418e-07,0.0,0.0,0.0,0.0,0.0,0.0
1402598484702676700,0,6.27125556924,-0.114322152727,-10.1472951376,0.043815185726,0.0682692525516,0.0,0.205101237808,0.0,2.18007856377,0.0,0.0,0.0,0.0,-0.0,0.0,0.0,-0.180286796885,-0.0,0.00230154196664,-0.0,-0.186463408346,-0.0,0.0,-0.0,2.1723812279e-07,0.0,0.0,0.0,0.0,0.0,0.0
1402598484723206269,0,6.26936397683,-0.114322152727,-10.1434490713,0.043815185726,0.0633817165756,0.0,0.201837397737,0.0,2.17836414375,0.0,0.0,0.0,0.0,-0.0,0.0,0.0,-0.180286796885,-0.0,0.00230154196664,-0.0,-0.186463408346,-0.0,0.0,-0.0,2.1723812279e-07,0.0,0.0,0.0,0.0,0.0,0.0
1402598484742868063,0,6.26936397683,-0.114322152727,-10.1434490713,0.043815185726,0.0633817165756,0.0,0.201837397737,0.0,2.17836414375,0.0,0.0,0.0,0.0,-0.0,0.0,0.0,-0.180286796885,-0.0,0.00230154196664,-0.0,-0.192630914923,-0.0,0.0,-0.0,7.88371727809e-07,0.0,0.0,0.0,0.0,0.0,0.0
1402598484762741282,0,6.27213016499,-0.114322152727,-10.1353341535,0.043815185726,0.0627206385367,0.0,0.200624964325,0.0,2.17683509024,0.0,0.0,0.0,0.0,1.20021101811,-0.234100498171,-0.196358967694,-0.180286796885,-0.0,0.00230154196664,-0.0,-0.192630914923,1.22282849625,0.0,-0.0,126.181816563,0.0,0.0,0.0,0.0,0.0,0.0
1402598484782772559,0,6.27213016499,-0.114322152727,-10.1353341535,0.043815185726,0.0627206385367,0.0,0.200624964325,0.0,2.17683509024,0.0,0.0,0.0,0.0,30.1106276625,-1.36444829356,-8.18999519184,-0.180286796885,1.22282849625,0.000767318410122,-0.0,-0.0452835303296,30.1415264606,0.0207256318136,-0.0,84343.9232857,0.0,0.0,0.0,0.0,0.0,0.0
1402598484802974921,0,6.27463011199,-0.114322152727,-10.1273254857,0.043815185726,0.0616432559603,0.0,0.200946597893,0.0,2.17541122203,0.0,0.0,0.0,0.0,-16.0376834106,-2.07241480567,-54.558400748,-0.180286796885,30.1415264606,0.00230154196664,-0.0,0.0,83.9408397675,0.0207256318136,-100.0,1588547.68518,0.0,0.0,0.0,0.0,0.0,0.0
1402598484822683700,0,6.27463011199,-0.114322152727,-10.1273254857,0.043815185726,0.0616432559603,0.0,0.200946597893,0.0,2.17541122203,0.0,0.0,0.0,0.0,-0.353775462952,-11.489498979,-52.5131527293,-0.178752573329,83.9408397675,0.00230154196664,-100.0,-0.0882878863065,100.0,0.0267249369469,-100.0,1544826.15608,0.0,0.0,0.0,0.0,0.0,0.0
1402598484842877290,0,6.28041654162,-0.114322152727,-10.1249867764,0.043815185726,0.0605038537785,0.0,0.201525196508,0.0,2.17387593135,0.0,0.0,0.0,0.0,-0.408993512114,-12.0925120697,-52.0598010916,-0.169546278315,100.0,0.00843891302987,-100.0,-0.0943432553369,100.0,0.0267249369469,-100.0,1528234.23274,0.0,0.0,0.0,0.0,0.0,0.0
1402598484863346106,0,6.28041654162,-0.114322152727,-10.1249867764,0.043815185726,0.0605038537785,0.0,0.201525196508,0.0,2.17387593135,0.0,0.0,0.0,0.0,-0.468986639321,-12.7063376107,-51.5971668773,-0.144996555644,100.0,0.0176449696247,-100.0,-0.100510768416,100.0,0.0267249369469,-100.0,1511870.32005,0.0,0.0,0.0,0.0,0.0,0.0
1402598484882759336,0,6.28293141253,-0.114322152727,-10.1169638385,0.043815185726,0.0618288338526,0.0,0.201451382934,0.0,2.17277396207,0.0,0.0,0.0,0.0,-0.468986639321,-12.7063376107,-51.5971668773,-0.117378385859,100.0,0.0207138935749,-100.0,-0.100510768416,100.0,0.0267249369469,-100.0,1511870.32004,0.0,0.0,0.0,0.0,0.0,0.0
1402598484903400497,0,6.28293141253,-0.114322152727,-10.1169638385,0.043815185726,0.0618288338526,0.0,0.201451382934,0.0,2.17277396207,0.0,0.0,0.0,0.0,-0.468986639321,-12.7063376107,-51.5971668773,-0.106637867289,100.0,0.0222481171314,-100.0,-0.100510768416,100.0,0.0267249369469,-100.0,1511870.32004,0.0,0.0,0.0,0.0,0.0,0.0
1402598484922784743,0,6.28606942348,-0.114322152727,-10.1065973593,0.043815185726,0.0649420533474,0.0,0.203977133215,0.0,2.17129216197,0.0,0.0,0.0,0.0,-0.468986639321,-12.7063376107,-51.5971668773,-0.106637867289,100.0,0.0268512646381,-100.0,-0.100510768416,100.0,0.0267249369469,-100.0,1511870.32004,0.0,0.0,0.0,0.0,0.0,0.0
1402598484943374973,0,6.28606942348,-0.114322152727,-10.1065973593,0.043815185726,0.0649420533474,0.0,0.203977133215,0.0,2.17129216197,0.0,0.0,0.0,0.0,-0.468986639321,-12.7063376107,-51.5971668773,-0.106637867289,100.0,0.0253168026631,-100.0,-0.100510768416,100.0,0.0267249369469,-100.0,1511870.32004,0.0,0.0,0.0,0.0,0.0,0.0
1402598484962781150,0,6.28822574711,-0.114322152727,-10.100328411,0.043815185726,0.0657501044012,0.0,0.208293452011,0.0,2.17043948531,0.0,0.0,0.0,0.0,-0.468986639321,-12.7063376107,-51.5971668773,-0.106637867289,100.0,0.0268512646381,-100.0,-0.100510768416,100.0,0.0267249369469,-100.0,1511870.32004,0.0,0.0,0.0,0.0,0.0,0.0
1402598484983952517,0,6.28369193511,-0.114322152727,-10.0989957094,0.043815185726,0.0681930292636,0.0,0.2070806855,0.0,2.16963967193,0.0,0.0,0.0,0.0,-0.468986639321,-12.7063376107,-51.5971668773,-0.106637867289,100.0,0.0207138935749,-100.0,-0.100510768416,100.0,0.0267249369469,-100.0,1511870.32004,0.0,0.0,0.0,0.0,0.0,0.0
1402598485002748771,0,6.28369193511,-0.114322152727,-10.0989957094,0.043815185726,0.0681930292636,0.0,0.2070806855,0.0,2.16963967193,0.0,0.0,0.0,0.0,-0.468986639321,-12.7063376107,-51.5971668773,-0.106637867289,100.0,0.0207138935749,-100.0,-0.100510768416,100.0,0.0267249369469,-100.0,1511870.32004,0.0,0.0,0.0,0.0,0.0,0.0
1402598485023365094,0,6.28509517956,-0.114322152727,-10.094848788,0.043815185726,0.0710582522361,0.0,0.214390593451,0.0,2.16825632445,0.0,0.0,0.0,0.0,-0.468986639321,-12.7063376107,-51.5971668773,-0.106637867289,100.0,0.0191794315998,-100.0,-0.100510768416,100.0,0.0267249369469,-100.0,1511870.32004,0.0,0.0,0.0,0.0,0.0,0.0
1402598485042773088,0,6.28509517956,-0.114322152727,-10.094848788,0.043815185726,0.0710582522361,0.0,0.214390593451,0.0,2.16825632445,0.0,0.0,0.0,0.0,-0.468986639321,-12.7063376107,-51.5971668773,-0.106637867289,100.0,0.0191794315998,-100.0,-0.100510768416,100.0,0.0267249369469,-100.0,1511870.32004,0.0,0.0,0.0,0.0,0.0,0.0
1402598485063180071,0,6.2775842071,-0.114322152727,-10.0798154398,0.043815185726,0.055181242608,0.0,0.248473108655,0.0,2.16333697338,0.0,0.0,0.0,0.0,-0.468986639321,-12.7063376107,-51.5971668773,-0.106637867289,100.0,0.0191794315998,-100.0,-0.100510768416,100.0,0.0267249369469,-100.0,1511870.32004,0.0,0.0,0.0,0.0,0.0,0.0
1402598485082786456,0,6.2775842071,-0.114322152727,-10.0798154398,0.043815185726,0.055181242608,0.0,0.248473108655,0.0,2.16333697338,0.0,0.0,0.0,0.0,-0.468986639321,-12.7063376107,-51.5971668773,-0.106637867289,100.0,0.0191794315998,-100.0,-0.100510768416,100.0,0.0267249369469,-100.0,1511870.32004,0.0,0.0,0.0,0.0,0.0,0.0
1402598485103287340,0,6.27969169848,-0.114322152727,-10.0691480682,0.043815185726,0.0576026654602,0.0,0.268007972181,0.0,2.1567879541,0.0,0.0,0.0,0.0,-0.468986639321,-12.7063376107,-51.5971668773,-0.106637867289,100.0,0.0176449696247,-100.0,-0.100510768416,100.0,0.0267249369469,-100.0,1511870.32004,0.0,0.0,0.0,0.0,0.0,0.0
1402598485122893692,0,6.27969169848,-0.114322152727,-10.0691480682,0.043815185726,0.0576026654602,0.0,0.268007972181,0.0,2.1567879541,0.0,0.0,0.0,0.0,-0.468986639321,-12.7063376107,-51.5971668773,-0.106637867289,100.0,0.0176449696247,-100.0,-0.100510768416,100.0,0.0267249369469,-100.0,1511870.32004,0.0,0.0,0.0,0.0,0.0,0.0
1402598485143486228,0,6.29021332476,-0.114322152727,-10.0710981887,0.043815185726,0.0735933034368,0.0,0.268341942593,0.0,2.14976523665,0.0,0.0,0.0,0.0,-0.468986639321,-12.7063376107,-51.5971668773,-0.106637867289,100.0,0.0176449696247,-100.0,-0.100510768416,100.0,0.0267249369469,-100.0,1511870.32004,0.0,0.0,0.0,0.0,0.0,0.0
1402598485162879551,0,6.29021332476,-0.114322152727,-10.0710981887,0.043815185726,0.0735933034368,0.0,0.268341942593,0.0,2.14976523665,0.0,0.0,0.0,0.0,-0.468986639321,-12.7063376107,-51.5971668773,-0.106637867289,100.0,0.0176449696247,-100.0,-0.100510768416,100.0,0.0267249369469,-100.0,1511870.32004,0.0,0.0,0.0,0.0,0.0,0.0
1402598485183510810,0,6.29328376247,-0.114322152727,-10.0599201512,0.043815185726,0.0766361799381,0.0,0.281602968082,0.0,2.13907039633,0.0,0.0,0.0,0.0,-0.468986639321,-12.7063376107,-51.5971668773,-0.106637867289,100.0,0.0176449696247,-100.0,-0.100510768416,100.0,0.0267249369469,-100.0,1511870.32004,0.0,0.0,0.0,0.0,0.0,0.0
1402598485202765209,0,6.29328376247,-0.114322152727,-10.0599201512,0.043815185726,0.0766361799381,0.0,0.281602968082,0.0,2.13907039633,0.0,0.0,0.0,0.0,-0.468986639321,-12.7063376107,-51.5971668773,-0.106637867289,100.0,0.0161107460682,-100.0,-0.100510768416,100.0,0.0267249369469,-100.0,1511870.32004,0.0,0.0,0.0,0.0,0.0,0.0
1402598485223573780,0,6.28782984788,-0.114322152727,-10.0535973165,0.043815185726,0.0644235603509,0.0,0.287644050518,0.0,2.12666572095,0.0,0.0,0.0,0.0,-0.468986639321,-12.7063376107,-51.5971668773,-0.106637867289,100.0,0.0161107460682,-100.0,-0.100510768416,100.0,0.0267249369469,-100.0,1511870.32004,0.0,0.0,0.0,0.0,0.0,0.0
1402598485242985751,0,6.28782984788,-0.114322152727,-10.0535973165,0.043815185726,0.0644235603509,0.0,0.287644050518,0.0,2.12666572095,0.0,0.0,0.0,0.0,-0.468986639321,-12.7063376107,-51.5971668773,-0.106637867289,100.0,0.0161107460682,-100.0,-0.100510768416,100.0,0.0267249369469,-100.0,1511870.32004,0.0,0.0,0.0,0.0,0.0,0.0
1402598485263495456,0,6.2913090724,-0.114322152727,-10.0454583195,0.043815185726,0.0696706971777,0.0,0.302778212939,0.0,2.11267945448,0.0,0.0,0.0,0.0,-0.468986639321,-12.7063376107,-51.5971668773,-0.106637867289,100.0,0.0145762840931,-100.0,-0.100510768416,100.0,0.0267249369469,-100.0,1511870.32004,0.0,0.0,0.0,0.0,0.0,0.0
1402598485282839132,0,6.2913090724,-0.114322152727,-10.0454583195,0.043815185726,0.0696706971777,0.0,0.302778212939,0.0,2.11267945448,0.0,0.0,0.0,0.0,-0.468986639321,-12.7063376107,-51.5971668773,-0.106637867289,100.0,0.0145762840931,-100.0,-0.100510768416,100.0,0.0267249369469,-100.0,1511870.32004,0.0,0.0,0.0,0.0,0.0,0.0
1402598485303340722,0,6.28204473507,-0.114322152727,-10.0319059524,0.043815185726,0.055152997084,0.0,0.315196716122,0.0,2.09620556647,0.0,0.0,0.0,0.0,-0.468986639321,-12.7063376107,-51.5971668773,-0.106637867289,100.0,0.0145762840931,-100.0,-0.100510768416,100.0,0.0267249369469,-100.0,1511870.32004,0.0,0.0,0.0,0.0,0.0,0.0
1402598485323136597,0,6.28204473507,-0.114322152727,-10.0319059524,0.043815185726,0.055152997084,0.0,0.315196716122,0.0,2.09620556647,0.0,0.0,0.0,0.0,-0.468986639321,-12.7063376107,-51.5971668773,-0.106637867289,100.0,0.0145762840931,-100.0,-0.100510768416,100.0,0.0267249369469,-100.0,1511870.32004,0.0,0.0,0.0,0.0,0.0,0.0
1402598485343634367,0,6.28411147036,-0.114322152727,-10.0189731988,0.043815185726,0.0528386000509,0.0,0.329001394662,0.0,2.07860533416,0.0,0.0,0.0,0.0,-0.468986639321,-12.7063376107,-51.5971668773,-0.106637867289,100.0,0.0130420605366,-100.0,-0.100510768416,100.0,0.0267249369469,-100.0,1511870.32004,0.0,0.0,0.0,0.0,0.0,0.0
1402598485363187235,0,6.28411147036,-0.114322152727,-10.0189731988,0.043815185726,0.0528386000509,0.0,0.329001394662,0.0,2.07860533416,0.0,0.0,0.0,0.0,-0.468986639321,-12.7063376107,-51.5971668773,-0.106637867289,100.0,0.0130420605366,-100.0,-0.100510768416,100.0,0.0267249369469,-100.0,1511870.32004,0.0,0.0,0.0,0.0,0.0,0.0
1402598485383944609,0,6.27803707956,-0.114322152727,-10.0181534797,0.043815185726,0.0523440964346,0.0,0.323041660042,0.0,2.06439157961,0.0,0.0,0.0,0.0,-0.468986639321,-12.7063376107,-51.5971668773,-0.106637867289,100.0,0.0130420605366,-100.0,-0.100510768416,100.0,0.0267249369469,-100.0,1511870.32004,0.0,0.0,0.0,0.0,0.0,0.0
1402598485403545965,0,6.27803707956,-0.114322152727,-10.0181534797,0.043815185726,0.0523440964346,0.0,0.323041660042,0.0,2.06439157961,0.0,0.0,0.0,0.0,-0.468986639321,-12.7063376107,-51.5971668773,-0.106637867289,100.0,0.0130420605366,-100.0,-0.100510768416,100.0,0.0267249369469,-100.0,1511870.32004,0.0,0.0,0.0,0.0,0.0,0.0
1402598485423426869,0,6.2806182262,-0.114322152727,-10.0044832126,0.043815185726,0.0600830532216,0.0,0.336648868091,0.0,2.04404113273,0.0,0.0,0.0,0.0,-0.468986639321,-12.7063376107,-51.5971668773,-0.106637867289,100.0,0.0130420605366,-100.0,-0.100510768416,100.0,0.0267249369469,-100.0,1511870.32004,0.0,0.0,0.0,0.0,0.0,0.0
1402598485442808687,0,6.2806182262,-0.114322152727,-10.0044832126,0.043815185726,0.0600830532216,0.0,0.336648868091,0.0,2.04404113273,0.0,0.0,0.0,0.0,-0.468986639321,-12.7063376107,-51.5971668773,-0.106637867289,100.0,0.0130420605366,-100.0,-0.100510768416,100.0,0.0267249369469,-100.0,1511870.32004,0.0,0.0,0.0,0.0,0.0,0.0
1402598485463686317,0,6.27175649149,-0.114322152727,-9.99923174871,0.043815185726,0.0470814418565,0.0,0.334990011412,0.0,2.02658782636,0.0,0.0,0.0,0.0,-0.468986639321,-12.7063376107,-51.5971668773,-0.106637867289,100.0,0.0130420605366,-100.0,-0.100510768416,100.0,0.0267249369469,-100.0,1511870.32004,0.0,0.0,0.0,0.0,0.0,0.0
1402598485482919732,0,6.27175649149,-0.114322152727,-9.99923174871,0.043815185726,0.0470814418565,0.0,0.334990011412,0.0,2.02658782636,0.0,0.0,0.0,0.0,-0.468986639321,-12.7063376107,-51.5971668773,-0.106637867289,100.0,0.0130420605366,-100.0,-0.100510768416,100.0,0.0267249369469,-100.0,1511870.32004,0.0,0.0,0.0,0.0,0.0,0.0
1402598485503323307,0,6.27381630403,-0.114322152727,-9.98551633983,0.043815185726,0.0547349309415,0.0,0.347421537485,0.0,2.00455383071,0.0,0.0,0.0,0.0,-0.468986639321,-12.7063376107,-51.5971668773,-0.106637867289,100.0,0.0130420605366,-100.0,-0.100510768416,100.0,0.0267249369469,-100.0,1511870.32004,0.0,0.0,0.0,0.0,0.0,0.0
1402598485522729842,0,6.27381630403,-0.114322152727,-9.98551633983,0.043815185726,0.0547349309415,0.0,0.347421537485,0.0,2.00455383071,0.0,0.0,0.0,0.0,-0.468986639321,-12.7063376107,-51.5971668773,-0.106637867289,100.0,0.0130420605366,-100.0,-0.100510768416,100.0,0.0267249369469,-100.0,1511870.32004,0.0,0.0,0.0,0.0,0.0,0.0
1402598485543159201,0,6.27621087748,-0.114322152727,-9.97100313655,0.043815185726,0.0538860129153,0.0,0.35653208673,0.0,1.98169409696,0.0,0.0,0.0,0.0,-0.468986639321,-12.7063376107,-51.5971668773,-0.106637867289,100.0,0.0130420605366,-100.0,-0.100510768416,100.0,0.0267249369469,-100.0,1511870.32004,0.0,0.0,0.0,0.0,0.0,0.0
1402598485564434860,0,6.27621087748,-0.114322152727,-9.97100313655,0.043815185726,0.0538860129153,0.0,0.35653208673,0.0,1.98169409696,0.0,0.0,0.0,0.0,-0.468986639321,-12.7063376107,-51.5971668773,-0.106637867289,100.0,0.0130420605366,-100.0,-0.100510768416,100.0,0.0267249369469,-100.0,1511870.32004,0.0,0.0,0.0,0.0,0.0,0.0
1402598485583308279,0,6.27835554709,-0.114322152727,-9.95651605179,0.043815185726,0.0562560037912,0.0,0.363101981952,0.0,1.95853083795,0.0,0.0,0.0,0.0,-0.468986639321,-12.7063376107,-51.5971668773,-0.106637867289,100.0,0.0130420605366,-100.0,-0.100510768416,100.0,0.0267249369469,-100.0,1511870.32004,0.0,0.0,0.0,0.0,0.0,0.0
1402598485602831475,0,6.27835554709,-0.114322152727,-9.95651605179,0.043815185726,0.0562560037912,0.0,0.363101981952,0.0,1.95853083795,0.0,0.0,0.0,0.0,-0.468986639321,-12.7063376107,-51.5971668773,-0.106637867289,100.0,0.0115078369801,-100.0,-0.100510768416,100.0,0.0267249369469,-100.0,1511870.32004,0.0,0.0,0.0,0.0,0.0,0.0
1402598485623349447,0,6.28079296748,-0.114322152727,-9.94159175642,0.043815185726,0.054778542632,0.0,0.37212682058,0.0,1.93429451233,0.0,0.0,0.0,0.0,-0.468986639321,-12.7063376107,-51.5971668773,-0.106637867289,100.0,0.0130420605366,-100.0,-0.100510768416,100.0,0.0267249369469,-100.0,1511870.32004,0.0,0.0,0.0,0.0,0.0,0.0
1402598485642877557,0,6.28079296748,-0.114322152727,-9.94159175642,0.043815185726,0.054778542632,0.0,0.37212682058,0.0,1.93429451233,0.0,0.0,0.0,0.0,-0.468986639321,-12.7063376107,-51.5971668773,-0.106637867289,100.0,0.0130420605366,-100.0,-0.100510768416,100.0,0.0267249369469,-100.0,1511870.32004,0.0,0.0,0.0,0.0,0.0,0.0
1402598485663810996,0,6.27593205678,-0.114322152727,-9.93088718214,0.043815185726,0.0587173910753,0.0,0.374714875694,0.0,1.91110967085,0.0,0.0,0.0,0.0,-0.468986639321,-12.7063376107,-51.5971668773,-0.106637867289,100.0,0.0130420605366,-100.0,-0.100510768416,100.0,0.0267249369469,-100.0,1511870.32004,0.0,0.0,0.0,0.0,0.0,0.0
1402598485682826556,0,6.27593205678,-0.114322152727,-9.93088718214,0.043815185726,0.0587173910753,0.0,0.374714875694,0.0,1.91110967085,0.0,0.0,0.0,0.0,-0.468986639321,-12.7063376107,-51.5971668773,-0.106637867289,100.0,0.0130420605366,-100.0,-0.100510768416,100.0,0.0267249369469,-100.0,1511870.32004,0.0,0.0,0.0,0.0,0.0,0.0
1402598485703374057,0,6.28226277857,-0.114322152727,-9.91756662256,0.043815185726,0.0643167305471,0.0,0.383511141329,0.0,1.87776952487,0.0,0.0,0.0,0.0,-0.468986639321,-12.7063376107,-51.5971668773,-0.106637867289,100.0,0.0130420605366,-100.0,-0.100510768416,100.0,0.0267249369469,-100.0,1511870.32004,0.0,0.0,0.0,0.0,0.0,0.0
1402598485722780665,0,6.28226277857,-0.114322152727,-9.91756662256,0.043815185726,0.0643167305471,0.0,0.383511141329,0.0,1.87776952487,0.0,0.0,0.0,0.0,-0.468986639321,-12.7063376107,-51.5971668773,-0.106637867289,100.0,0.0130420605366,-100.0,-0.100510768416,100.0,0.0267249369469,-100.0,1511870.32004,0.0,0.0,0.0,0.0,0.0,0.0
1402598485743820895,0,6.27402641685,-0.114322152727,-9.8946699016,0.043815185726,0.0482312735875,0.0,0.407255868182,0.0,1.82452740782,0.0,0.0,0.0,0.0,-0.468986639321,-12.7063376107,-51.5971668773,-0.106637867289,100.0,0.0115078369801,-100.0,-0.100510768416,100.0,0.0267249369469,-100.0,1511870.32004,0.0,0.0,0.0,0.0,0.0,0.0
1402598485762776304,0,6.27447216281,-0.114322152727,-9.89139532971,0.043815185726,0.0453362247914,0.0,0.409631361495,0.0,1.81891790561,0.0,0.0,0.0,0.0,-0.468986639321,-12.7063376107,-51.5971668773,-0.106637867289,100.0,0.0130420605366,-100.0,-0.100510768416,100.0,0.0267249369469,-100.0,1511870.32004,0.0,0.0,0.0,0.0,0.0,0.0
1402598485783346253,0,6.27447216281,-0.114322152727,-9.89139532971,0.043815185726,0.0453362247914,0.0,0.409631361495,0.0,1.81891790561,0.0,0.0,0.0,0.0,-0.468986639321,-12.7063376107,-51.5971668773,-0.106637867289,100.0,0.0115078369801,-100.0,-0.100510768416,100.0,0.0267249369469,-100.0,1511870.32004,0.0,0.0,0.0,0.0,0.0,0.0
1402598485802778349,0,6.27482773512,-0.114322152727,-9.88722976633,0.043815185726,0.0528506901925,0.0,0.413808986909,0.0,1.81210868587,0.0,0.0,0.0,0.0,-0.468986639321,-12.7063376107,-51.5971668773,-0.106637867289,100.0,0.0130420605366,-100.0,-0.100510768416,100.0,0.0267249369469,-100.0,1511870.32004,0.0,0.0,0.0,0.0,0.0,0.0
1402598485822871158,0,6.27482773512,-0.114322152727,-9.88722976633,0.043815185726,0.0528506901925,0.0,0.413808986909,0.0,1.81210868587,0.0,0.0,0.0,0.0,-0.468986639321,-12.7063376107,-51.5971668773,-0.106637867289,100.0,0.0130420605366,-100.0,-0.100510768416,100.0,0.0267249369469,-100.0,1511870.32004,0.0,0.0,0.0,0.0,0.0,0.0
1402598485843488542,0,6.26867518626,-0.114322152727,-9.88858342874,0.043815185726,0.0387918089682,0.0,0.405170230317,0.0,1.80039375117,0.0,0.0,0.0,0.0,-0.468986639321,-12.7063376107,-51.5971668773,-0.106637867289,100.0,0.0130420605366,-100.0,-0.100510768416,100.0,0.0267249369469,-100.0,1511870.32004,0.0,0.0,0.0,0.0,0.0,0.0
1402598485862752990,0,6.26867518626,-0.114322152727,-9.88858342874,0.043815185726,0.0387918089682,0.0,0.405170230317,0.0,1.80039375117,0.0,0.0,0.0,0.0,-0.468986639321,-12.7063376107,-51.5971668773,-0.106637867289,100.0,0.0130420605366,-100.0,-0.100510768416,100.0,0.0267249369469,-100.0,1511870.32004,0.0,0.0,0.0,0.0,0.0,0.0
1402598485883460361,0,6.27041723252,-0.114322152727,-9.87195006163,0.043815185726,0.0468560693775,0.0,0.406062943829,0.0,1.77146351161,0.0,0.0,0.0,0.0,-0.468986639321,-12.7063376107,-51.5971668773,-0.106637867289,100.0,0.0130420605366,-100.0,-0.100510768416,100.0,0.0267249369469,-100.0,1511870.32004,0.0,0.0,0.0,0.0,0.0,0.0
1402598485902882257,0,6.27041723252,-0.114322152727,-9.87195006163,0.043815185726,0.0468560693775,0.0,0.406062943829,0.0,1.77146351161,0.0,0.0,0.0,0.0,-0.468986639321,-12.7063376107,-51.5971668773,-0.106637867289,100.0,0.0115078369801,-100.0,-0.100510768416,100.0,0.0267249369469,-100.0,1511870.32004,0.0,0.0,0.0,0.0,0.0,0.0
1402598485923798425,0,6.27703737535,-0.114322152727,-9.8568494689,0.043815185726,0.0486473807524,0.0,0.417349145163,0.0,1.74150779409,0.0,0.0,0.0,0.0,-0.468986639321,-12.7063376107,-51.5971668773,-0.106637867289,100.0,0.00997313658639,-100.0,-0.100510768416,100.0,0.0267249369469,-100.0,1511870.32004,0.0,0.0,0.0,0.0,0.0,0.0
1402598485942714215,0,6.27703737535,-0.114322152727,-9.8568494689,0.043815185726,0.0486473807524,0.0,0.417349145163,0.0,1.74150779409,0.0,0.0,0.0,0.0,-0.468986639321,-12.7063376107,-51.5971668773,-0.106637867289,100.0,0.0115078369801,-100.0,-0.100510768416,100.0,0.0267249369469,-100.0,1511870.32004,0.0,0.0,0.0,0.0,0.0,0.0
1402598485963333713,0,6.27943667681,-0.114322152727,-9.83954682241,0.043815185726,0.066757697079,0.0,0.421689354139,0.0,1.71152259769,0.0,0.0,0.0,0.0,-0.468986639321,-12.7063376107,-51.5971668773,-0.105103166896,100.0,0.0115078369801,-100.0,-0.100510768416,100.0,0.0267249369469,-100.0,1511870.32004,0.0,0.0,0.0,0.0,0.0,0.0
1402598485982918893,0,6.27943667681,-0.114322152727,-9.83954682241,0.043815185726,0.066757697079,0.0,0.421689354139,0.0,1.71152259769,0.0,0.0,0.0,0.0,-0.468986639321,-12.7063376107,-51.5971668773,-0.106637867289,100.0,0.0130420605366,-100.0,-0.100510768416,100.0,0.0267249369469,-100.0,1511870.32004,0.0,0.0,0.0,0.0,0.0,0.0
1402598486003574885,0,6.29706556,-0.114322152727,-9.82817279144,0.043815185726,0.0824038741765,0.0,0.428613640775,0.0,1.67950453476,0.0,0.0,0.0,0.0,-0.468986639321,-12.7063376107,-51.5971668773,-0.105103166896,100.0,0.0115078369801,-100.0,-0.100510768416,100.0,0.0267249369469,-100.0,1511870.32004,0.0,0.0,0.0,0.0,0.0,0.0
1402598486022751933,0,6.29706556,-0.114322152727,-9.82817279144,0.043815185726,0.0824038741765,0.0,0.428613640775,0.0,1.67950453476,0.0,0.0,0.0,0.0,-0.468986639321,-12.7063376107,-51.5971668773,-0.106637867289,100.0,0.0115078369801,-100.0,-0.100510768416,100.0,0.0267249369469,-100.0,1511870.32004,0.0,0.0,0.0,0.0,0.0,0.0
1402598486043345501,0,6.3003918605,-0.114322152727,-9.81049216027,0.043815185726,0.09067858379,0.0,0.428858751504,0.0,1.64846286789,0.0,0.0,0.0,0.0,-0.468986639321,-12.7063376107,-51.5971668773,-0.106637867289,100.0,0.00997313658639,-100.0,-0.100510768416,100.0,0.0267249369469,-100.0,1511870.32004,0.0,0.0,0.0,0.0,0.0,0.0
1402598486062747765,0,6.3003918605,-0.114322152727,-9.81049216027,0.043815185726,0.09067858379,0.0,0.428858751504,0.0,1.64846286789,0.0,0.0,0.0,0.0,-0.468986639321,-12.7063376107,-51.5971668773,-0.106637867289,100.0,0.00997313658639,-100.0,-0.100510768416,100.0,0.0267249369469,-100.0,1511870.32004,0.0,0.0,0.0,0.0,0.0,0.0
1402598486083116003,0,6.30437315298,-0.114322152727,-9.79287850048,0.043815185726,0.0920575469681,0.0,0.432437154212,0.0,1.61730604999,0.0,0.0,0.0,0.0,-0.468986639321,-12.7063376107,-51.5971668773,-0.106637867289,100.0,0.00997313658639,-100.0,-0.100510768416,100.0,0.0267249369469,-100.0,1511870.32004,0.0,0.0,0.0,0.0,0.0,0.0
1402598486102860108,0,6.30437315298,-0.114322152727,-9.79287850048,0.043815185726,0.0920575469681,0.0,0.432437154212,0.0,1.61730604999,0.0,0.0,0.0,0.0,-0.468986639321,-12.7063376107,-51.5971668773,-0.106637867289,100.0,0.00997313658639,-100.0,-0.100510768416,100.0,0.0267249369469,-100.0,1511870.32004,0.0,0.0,0.0,0.0,0.0,0.0
1402598486123361951,0,6.30826319271,-0.114322152727,-9.77533123774,0.043815185726,0.103185020335,0.0,0.427499884156,0.0,1.5860133439,0.0,0.0,0.0,0.0,-0.468986639321,-12.7063376107,-51.5971668773,-0.106637867289,100.0,0.00997313658639,-100.0,-0.100510768416,100.0,0.0267249369469,-100.0,1511870.32004,0.0,0.0,0.0,0.0,0.0,0.0
1402598486142884071,0,6.30826319271,-0.114322152727,-9.77533123774,0.043815185726,0.103185020335,0.0,0.427499884156,0.0,1.5860133439,0.0,0.0,0.0,0.0,-0.468986639321,-12.7063376107,-51.5971668773,-0.106637867289,100.0,0.00997313658639,-100.0,-0.100510768416,100.0,0.0267249369469,-100.0,1511870.32004,0.0,0.0,0.0,0.0,0.0,0.0
1402598486163377584,0,6.31206433487,-0.114322152727,-9.75367950343,0.043815185726,0.115155501176,0.0,0.429165926543,0.0,1.55518498059,0.0,0.0,0.0,0.0,-0.468986639321,-12.7063376107,-51.5971668773,-0.106637867289,100.0,0.0115078369801,-100.0,-0.100510768416,100.0,0.0267249369469,-100.0,1511870.32004,0.0,0.0,0.0,0.0,0.0,0.0
1402598486182823823,0,6.31206433487,-0.114322152727,-9.75367950343,0.043815185726,0.115155501176,0.0,0.429165926543,0.0,1.55518498059,0.0,0.0,0.0,0.0,-0.468986639321,-12.7063376107,-51.5971668773,-0.106637867289,100.0,0.00997313658639,-100.0,-0.100510768416,100.0,0.0267249369469,-100.0,1511870.32004,0.0,0.0,0.0,0.0,0.0,0.0
1402598486203388721,0,6.32130677891,-0.114322152727,-9.72127498338,0.043815185726,0.144103324498,0.0,0.451826604804,0.0,1.52361566367,0.0,0.0,0.0,0.0,-0.468986639321,-12.7063376107,-51.5971668773,-0.106637867289,100.0,0.00843891302987,-100.0,-0.100510768416,100.0,0.0267249369469,-100.0,1511870.32004,0.0,0.0,0.0,0.0,0.0,0.0
1402598486222794611,0,6.32130677891,-0.114322152727,-9.72127498338,0.043815185726,0.144103324498,0.0,0.451826604804,0.0,1.52361566367,0.0,0.0,0.0,0.0,-0.468986639321,-12.7063376107,-51.5971668773,-0.106637867289,100.0,0.00843891302987,-100.0,-0.100510768416,100.0,0.0267249369469,-100.0,1511870.32004,0.0,0.0,0.0,0.0,0.0,0.0
1402598486243428616,0,6.31918049081,-0.114322152727,-9.69653928361,0.043815185726,0.137997805365,0.0,0.468215817707,0.0,1.4934145106,0.0,0.0,0.0,0.0,-0.468986639321,-12.7063376107,-51.5971668773,-0.106637867289,100.0,0.00843891302987,-100.0,-0.100510768416,100.0,0.0267249369469,-100.0,1511870.32004,0.0,0.0,0.0,0.0,0.0,0.0
1402598486262760583,0,6.31918049081,-0.114322152727,-9.69653928361,0.043815185726,0.137997805365,0.0,0.468215817707,0.0,1.4934145106,0.0,0.0,0.0,0.0,-0.468986639321,-12.7063376107,-51.5971668773,-0.106637867289,100.0,0.00843891302987,-100.0,-0.100510768416,100.0,0.0267249369469,-100.0,1511870.32004,0.0,0.0,0.0,0.0,0.0,0.0
1402598486283340108,0,6.32647799316,-0.114322152727,-9.672858887,0.043815185726,0.155623915821,0.0,0.464252622828,0.0,1.45413823134,0.0,0.0,0.0,0.0,-0.468986639321,-12.7063376107,-51.5971668773,-0.106637867289,100.0,0.00997313658639,-100.0,-0.100510768416,100.0,0.0267249369469,-100.0,1511870.32004,0.0,0.0,0.0,0.0,0.0,0.0
1402598486302960324,0,6.32647799316,-0.114322152727,-9.672858887,0.043815185726,0.155623915821,0.0,0.464252622828,0.0,1.45413823134,0.0,0.0,0.0,0.0,-0.468986639321,-12.7063376107,-51.5971668773,-0.106637867289,100.0,0.00997313658639,-100.0,-0.100510768416,100.0,0.0267249369469,-100.0,1511870.32004,0.0,0.0,0.0,0.0,0.0,0.0
1402598486323415118,0,6.34883896689,-0.114322152727,-9.64820620032,0.043815185726,0.201098484082,0.0,0.447880872395,0.0,1.41076925081,0.0,0.0,0.0,0.0,-0.468986639321,-12.7063376107,-51.5971668773,-0.106637867289,100.0,0.00997313658639,-100.0,-0.100510768416,100.0,0.0267249369469,-100.0,1511870.32004,0.0,0.0,0.0,0.0,0.0,0.0
1402598486342768900,0,6.34883896689,-0.114322152727,-9.64820620032,0.043815185726,0.201098484082,0.0,0.447880872395,0.0,1.41076925081,0.0,0.0,0.0,0.0,-0.468986639321,-12.7063376107,-51.5971668773,-0.106637867289,100.0,0.00997313658639,-100.0,-0.100510768416,100.0,0.0267249369469,-100.0,1511870.32004,0.0,0.0,0.0,0.0,0.0,0.0
1402598486363416352,0,6.35312411788,-0.114322152727,-9.63873810939,0.043815185726,0.203919519474,0.0,0.445929807058,0.0,1.39435181784,0.0,0.0,0.0,0.0,-0.468986639321,-12.7063376107,-51.5971668773,-0.106637867289,100.0,0.00997313658639,-100.0,-0.100510768416,100.0,0.0267249369469,-100.0,1511870.32004,0.0,0.0,0.0,0.0,0.0,0.0
1402598486382804336,0,6.35312411788,-0.114322152727,-9.63873810939,0.043815185726,0.203919519474,0.0,0.445929807058,0.0,1.39435181784,0.0,0.0,0.0,0.0,-0.468986639321,-12.7063376107,-51.5971668773,-0.105103166896,100.0,0.00843891302987,-100.0,-0.100510768416,100.0,0.0267249369469,-100.0,1511870.32004,0.0,0.0,0.0,0.0,0.0,0.0
1402598486403426585,0,6.33415191118,-0.114322152727,-9.60233123898,0.043815185726,0.196238830269,0.0,0.484145831306,0.0,1.36792601959,0.0,0.0,0.0,0.0,-0.468986639321,-12.7063376107,-51.5971668773,-0.103568943339,100.0,0.00997313658639,-100.0,-0.100510768416,100.0,0.0267249369469,-100.0,1511870.32004,0.0,0.0,0.0,0.0,0.0,0.0
1402598486422775351,0,6.33415191118,-0.114322152727,-9.60233123898,0.043815185726,0.196238830269,0.0,0.484145831306,0.0,1.36792601959,0.0,0.0,0.0,0.0,-0.468986639321,-12.7063376107,-51.5971668773,-0.105103166896,100.0,0.00843891302987,-100.0,-0.100510768416,100.0,0.0267249369469,-100.0,1511870.32004,0.0,0.0,0.0,0.0,0.0,0.0
1402598486443393551,0,6.3453532492,-0.114322152727,-9.58675347568,0.043815185726,0.208758829235,0.0,0.469103640892,0.0,1.33370965849,0.0,0.0,0.0,0.0,-0.468986639321,-12.7063376107,-51.5971668773,-0.103568943339,100.0,0.00997313658639,-100.0,-0.100510768416,100.0,0.0267249369469,-100.0,1511870.32004,0.0,0.0,0.0,0.0,0.0,0.0
1402598486462751716,0,6.3453532492,-0.114322152727,-9.58675347568,0.043815185726,0.208758829235,0.0,0.469103640892,0.0,1.33370965849,0.0,0.0,0.0,0.0,-0.468986639321,-12.7063376107,-51.5971668773,-0.103568943339,100.0,0.00843891302987,-100.0,-0.100510768416,100.0,0.0267249369469,-100.0,1511870.32004,0.0,0.0,0.0,0.0,0.0,0.0
1402598486483363175,0,6.33702789835,-0.114322152727,-9.56601979719,0.043815185726,0.203578144452,0.0,0.466480869072,0.0,1.30322652104,0.0,0.0,0.0,0.0,-0.468986639321,-12.7063376107,-51.5971668773,-0.102034719783,100.0,0.00843891302987,-100.0,-0.100510768416,100.0,0.0267249369469,-100.0,1511870.32004,0.0,0.0,0.0,0.0,0.0,0.0
1402598486502855654,0,6.33702789835,-0.114322152727,-9.56601979719,0.043815185726,0.203578144452,0.0,0.466480869072,0.0,1.30322652104,0.0,0.0,0.0,0.0,-0.468986639321,-12.7063376107,-51.5971668773,-0.100500257808,100.0,0.00843891302987,-100.0,-0.100510768416,100.0,0.0267249369469,-100.0,1511870.32004,0.0,0.0,0.0,0.0,0.0,0.0
1402598486523427973,0,6.34522034927,-0.114322152727,-9.5468286898,0.043815185726,0.204536886382,0.0,0.464320481446,0.0,1.27042136982,0.0,0.0,0.0,0.0,-0.468986639321,-12.7063376107,-51.5971668773,-0.102034719783,100.0,0.00843891302987,-100.0,-0.100510768416,100.0,0.0267249369469,-100.0,1511870.32004,0.0,0.0,0.0,0.0,0.0,0.0
1402598486542830167,0,6.34522034927,-0.114322152727,-9.5468286898,0.043815185726,0.204536886382,0.0,0.464320481446,0.0,1.27042136982,0.0,0.0,0.0,0.0,-0.468986639321,-12.7063376107,-51.5971668773,-0.100500257808,100.0,0.00997313658639,-100.0,-0.100510768416,100.0,0.0267249369469,-100.0,1511870.32004,0.0,0.0,0.0,0.0,0.0,0.0
1402598486563383604,0,6.35376266018,-0.114322152727,-9.5277340827,0.043815185726,0.21037023992,0.0,0.465181866767,0.0,1.23736951011,0.0,0.0,0.0,0.0,-0.468986639321,-12.7063376107,-51.5971668773,-0.098966034251,100.0,0.00997313658639,-100.0,-0.100510768416,100.0,0.0267249369469,-100.0,1511870.32004,0.0,0.0,0.0,0.0,0.0,0.0
1402598486582810325,0,6.35376266018,-0.114322152727,-9.5277340827,0.043815185726,0.21037023992,0.0,0.465181866767,0.0,1.23736951011,0.0,0.0,0.0,0.0,-0.468986639321,-12.7063376107,-51.5971668773,-0.098966034251,100.0,0.00997313658639,-100.0,-0.100510768416,100.0,0.0267249369469,-100.0,1511870.32004,0.0,0.0,0.0,0.0,0.0,0.0
1402598486603232580,0,6.37250495636,-0.114322152727,-9.5075551977,0.043815185726,0.250835610879,0.0,0.436224439188,0.0,1.19119340751,0.0,0.0,0.0,0.0,-0.468986639321,-12.7063376107,-51.5971668773,-0.098966034251,100.0,0.00997313658639,-100.0,-0.100510768416,100.0,0.0267249369469,-100.0,1511870.32004,0.0,0.0,0.0,0.0,0.0,0.0
1402598486622805527,0,6.37250495636,-0.114322152727,-9.5075551977,0.043815185726,0.250835610879,0.0,0.436224439188,0.0,1.19119340751,0.0,0.0,0.0,0.0,-0.468986639321,-12.7063376107,-51.5971668773,-0.098966034251,100.0,0.00997313658639,-100.0,-0.100510768416,100.0,0.0267249369469,-100.0,1511870.32004,0.0,0.0,0.0,0.0,0.0,0.0
1402598486643450056,0,6.38318970419,-0.114322152727,-9.49157119394,0.043815185726,0.261476513772,0.0,0.448735170859,0.0,1.16616029804,0.0,0.0,0.0,0.0,-0.468986639321,-12.7063376107,-51.5971668773,-0.0974315722759,100.0,0.00997313658639,-100.0,-0.100510768416,100.0,0.0267249369469,-100.0,1511870.32004,0.0,0.0,0.0,0.0,0.0,0.0
1402598486662802405,0,6.39602788927,-0.114322152727,-9.48238397902,0.043815185726,0.280401625645,0.0,0.443976992263,0.0,1.1480962864,0.0,0.0,0.0,0.0,-0.468986639321,-12.7063376107,-51.5971668773,-0.0974315722759,100.0,0.00997313658639,-100.0,-0.100510768416,100.0,0.0267249369469,-100.0,1511870.32004,0.0,0.0,0.0,0.0,0.0,0.0
1402598486683355388,0,6.39602788927,-0.114322152727,-9.48238397902,0.043815185726,0.280401625645,0.0,0.443976992263,0.0,1.1480962864,0.0,0.0,0.0,0.0,-0.468986639321,-12.7063376107,-51.5971668773,-0.0974315722759,100.0,0.00997313658639,-100.0,-0.100510768416,100.0,0.0267249369469,-100.0,1511870.32004,0.0,0.0,0.0,0.0,0.0,0.0
1402598486702982167,0,6.4018232896,-0.114322152727,-9.47349492359,0.043815185726,0.289369960587,0.0,0.439467105624,0.0,1.13166336194,0.0,0.0,0.0,0.0,-0.468986639321,-12.7063376107,-51.5971668773,-0.098966034251,100.0,0.00997313658639,-100.0,-0.100510768416,100.0,0.0267249369469,-100.0,1511870.32004,0.0,0.0,0.0,0.0,0.0,0.0
1402598486723544605,0,6.4018232896,-0.114322152727,-9.47349492359,0.043815185726,0.289369960587,0.0,0.439467105624,0.0,1.13166336194,0.0,0.0,0.0,0.0,-0.468986639321,-12.7063376107,-51.5971668773,-0.098966034251,100.0,0.00997313658639,-100.0,-0.100510768416,100.0,0.0267249369469,-100.0,1511870.32004,0.0,0.0,0.0,0.0,0.0,0.0
1402598486743380460,0,6.41447250561,-0.114322152727,-9.45512225732,0.043815185726,0.299500671342,0.0,0.427255802232,0.0,1.09707354328,0.0,0.0,0.0,0.0,-0.468986639321,-12.7063376107,-51.5971668773,-0.0974315722759,100.0,0.00997313658639,-100.0,-0.100510768416,100.0,0.0267249369469,-100.0,1511870.32004,0.0,0.0,0.0,0.0,0.0,0.0
1402598486763414168,0,6.41447250561,-0.114322152727,-9.45512225732,0.043815185726,0.299500671342,0.0,0.427255802232,0.0,1.09707354328,0.0,0.0,0.0,0.0,-0.468986639321,-12.7063376107,-51.5971668773,-0.098966034251,100.0,0.00997313658639,-100.0,-0.100510768416,100.0,0.0267249369469,-100.0,1511870.32004,0.0,0.0,0.0,0.0,0.0,0.0
1402598486782703896,0,6.41893886345,-0.114322152727,-9.43593408595,0.043815185726,0.296585032184,0.0,0.430390925884,0.0,1.06422648226,0.0,0.0,0.0,0.0,-0.468986639321,-12.7063376107,-51.5971668773,-0.0974315722759,100.0,0.00997313658639,-100.0,-0.100510768416,100.0,0.0267249369469,-100.0,1511870.32004,0.0,0.0,0.0,0.0,0.0,0.0
1402598486803566444,0,6.41893886345,-0.114322152727,-9.43593408595,0.043815185726,0.296585032184,0.0,0.430390925884,0.0,1.06422648226,0.0,0.0,0.0,0.0,-0.468986639321,-12.7063376107,-51.5971668773,-0.0974315722759,100.0,0.00997313658639,-100.0,-0.100510768416,100.0,0.0267249369469,-100.0,1511870.32004,0.0,0.0,0.0,0.0,0.0,0.0
1402598486822723788,0,6.43859161746,-0.114322152727,-9.41885464643,0.043815185726,0.314428177295,0.0,0.417620378681,0.0,1.02842141919,0.0,0.0,0.0,0.0,-0.468986639321,-12.7063376107,-51.5971668773,-0.098966034251,100.0,0.00997313658639,-100.0,-0.100510768416,100.0,0.0267249369469,-100.0,1511870.32004,0.0,0.0,0.0,0.0,0.0,0.0
1402598486843370711,0,6.43859161746,-0.114322152727,-9.41885464643,0.043815185726,0.314428177295,0.0,0.417620378681,0.0,1.02842141919,0.0,0.0,0.0,0.0,-0.468986639321,-12.7063376107,-51.5971668773,-0.098966034251,100.0,0.00997313658639,-100.0,-0.100510768416,100.0,0.0267249369469,-100.0,1511870.32004,0.0,0.0,0.0,0.0,0.0,0.0
1402598486862821570,0,6.4445695736,-0.114322152727,-9.39364247869,0.043815185726,0.320033688471,0.0,0.41689786673,0.0,0.987536533826,0.0,0.0,0.0,0.0,-0.468986639321,-12.7063376107,-51.5971668773,-0.0974315722759,100.0,0.0115078369801,-100.0,-0.100510768416,100.0,0.0267249369469,-100.0,1511870.32004,0.0,0.0,0.0,0.0,0.0,0.0
1402598486883334486,0,6.4445695736,-0.114322152727,-9.39364247869,0.043815185726,0.320033688471,0.0,0.41689786673,0.0,0.987536533826,0.0,0.0,0.0,0.0,-0.468986639321,-12.7063376107,-51.5971668773,-0.098966034251,100.0,0.0115078369801,-100.0,-0.100510768416,100.0,0.0267249369469,-100.0,1511870.32004,0.0,0.0,0.0,0.0,0.0,0.0
1402598486902747991,0,6.46184888669,-0.114322152727,-9.36452892772,0.043815185726,0.354533834441,0.0,0.415523258158,0.0,0.947451192059,0.0,0.0,0.0,0.0,-0.468986639321,-12.7063376107,-51.5971668773,-0.098966034251,100.0,0.0115078369801,-100.0,-0.100510768416,100.0,0.0267249369469,-100.0,1511870.32004,0.0,0.0,0.0,0.0,0.0,0.0
1402598486923254449,0,6.46184888669,-0.114322152727,-9.36452892772,0.043815185726,0.354533834441,0.0,0.415523258158,0.0,0.947451192059,0.0,0.0,0.0,0.0,-0.468986639321,-12.7063376107,-51.5971668773,-0.0974315722759,100.0,0.0115078369801,-100.0,-0.100510768416,100.0,0.0267249369469,-100.0,1511870.32004,0.0,0.0,0.0,0.0,0.0,0.0
1402598486942776394,0,6.47055427852,-0.114322152727,-9.35672921704,0.043815185726,0.364310660463,0.0,0.408173916002,0.0,0.928126019443,0.0,0.0,0.0,0.0,-0.468986639321,-12.7063376107,-51.5971668773,-0.098966034251,100.0,0.0115078369801,-100.0,-0.100510768416,100.0,0.0267249369469,-100.0,1511870.32004,0.0,0.0,0.0,0.0,0.0,0.0
1402598486963276996,0,6.47055427852,-0.114322152727,-9.35672921704,0.043815185726,0.364310660463,0.0,0.408173916002,0.0,0.928126019443,0.0,0.0,0.0,0.0,-0.468986639321,-12.7063376107,-51.5971668773,-0.098966034251,100.0,0.0115078369801,-100.0,-0.100510768416,100.0,0.0267249369469,-100.0,1511870.32004,0.0,0.0,0.0,0.0,0.0,0.0
1402598486982800413,0,6.48550922968,-0.114322152727,-9.34020372329,0.043815185726,0.37563446794,0.0,0.400418478277,0.0,0.894508032542,0.0,0.0,0.0,0.0,-0.468986639321,-12.7063376107,-51.5971668773,-0.098966034251,100.0,0.0115078369801,-100.0,-0.100510768416,100.0,0.0267249369469,-100.0,1511870.32004,0.0,0.0,0.0,0.0,0.0,0.0
1402598487003334020,0,6.48550922968,-0.114322152727,-9.34020372329,0.043815185726,0.37563446794,0.0,0.400418478277,0.0,0.894508032542,0.0,0.0,0.0,0.0,-0.468986639321,-12.7063376107,-51.5971668773,-0.098966034251,100.0,0.0130420605366,-100.0,-0.100510768416,100.0,0.0267249369469,-100.0,1511870.32004,0.0,0.0,0.0,0.0,0.0,0.0
1402598487022894091,0,6.50141604499,-0.114322152727,-9.32434547714,0.043815185726,0.388128349674,0.0,0.387344046586,0.0,0.860865886117,0.0,0.0,0.0,0.0,-0.468986639321,-12.7063376107,-51.5971668773,-0.098966034251,100.0,0.0130420605366,-100.0,-0.100510768416,100.0,0.0267249369469,-100.0,1511870.32004,0.0,0.0,0.0,0.0,0.0,0.0
1402598487043338623,0,6.50141604499,-0.114322152727,-9.32434547714,0.043815185726,0.388128349674,0.0,0.387344046586,0.0,0.860865886117,0.0,0.0,0.0,0.0,-0.468986639321,-12.7063376107,-51.5971668773,-0.098966034251,100.0,0.0130420605366,-100.0,-0.100510768416,100.0,0.0267249369469,-100.0,1511870.32004,0.0,0.0,0.0,0.0,0.0,0.0
1402598487062867189,0,6.51293117295,-0.114322152727,-9.3022019071,0.043815185726,0.397241374632,0.0,0.38859686004,0.0,0.827616091965,0.0,0.0,0.0,0.0,-0.468986639321,-12.7063376107,-51.5971668773,-0.098966034251,100.0,0.0130420605366,-100.0,-0.100510768416,100.0,0.0267249369469,-100.0,1511870.32004,0.0,0.0,0.0,0.0,0.0,0.0
1402598487083460275,0,6.51293117295,-0.114322152727,-9.3022019071,0.043815185726,0.397241374632,0.0,0.38859686004,0.0,0.827616091965,0.0,0.0,0.0,0.0,-0.468986639321,-12.7063376107,-51.5971668773,-0.098966034251,100.0,0.0145762840931,-100.0,-0.100510768416,100.0,0.0267249369469,-100.0,1511870.32004,0.0,0.0,0.0,0.0,0.0,0.0
1402598487103567608,0,6.52805065686,-0.114322152727,-9.27851607489,0.043815185726,0.411411256357,0.0,0.374708996073,0.0,0.786478393977,0.0,0.0,0.0,0.0,-0.468986639321,-12.7063376107,-51.5971668773,-0.098966034251,100.0,0.0145762840931,-100.0,-0.100510768416,100.0,0.0267249369469,-100.0,1511870.32004,0.0,0.0,0.0,0.0,0.0,0.0
1402598487123278080,0,6.52805065686,-0.114322152727,-9.27851607489,0.043815185726,0.411411256357,0.0,0.374708996073,0.0,0.786478393977,0.0,0.0,0.0,0.0,-0.468986639321,-12.7063376107,-51.5971668773,-0.098966034251,100.0,0.0145762840931,-100.0,-0.100510768416,100.0,0.0267249369469,-100.0,1511870.32004,0.0,0.0,0.0,0.0,0.0,0.0
1402598487142796910,0,6.55572811387,-0.114322152727,-9.2456953784,0.043815185726,0.432677650507,0.0,0.356260096448,0.0,0.728498354436,0.0,0.0,0.0,0.0,-0.468986639321,-12.7063376107,-51.5971668773,-0.098966034251,100.0,0.0145762840931,-100.0,-0.100510768416,100.0,0.0267249369469,-100.0,1511870.32004,0.0,0.0,0.0,0.0,0.0,0.0
1402598487163306799,0,6.55572811387,-0.114322152727,-9.2456953784,0.043815185726,0.432677650507,0.0,0.356260096448,0.0,0.728498354436,0.0,0.0,0.0,0.0,-0.468986639321,-12.7063376107,-51.5971668773,-0.0974315722759,100.0,0.0161107460682,-100.0,-0.100510768416,100.0,0.0267249369469,-100.0,1511870.32004,0.0,0.0,0.0,0.0,0.0,0.0
1402598487182844184,0,6.56482868522,-0.114322152727,-9.23815460385,0.043815185726,0.435370920176,0.0,0.352697571705,0.0,0.71092321982,0.0,0.0,0.0,0.0,-0.468986639321,-12.7063376107,-51.5971668773,-0.098966034251,100.0,0.0161107460682,-100.0,-0.100510768416,100.0,0.0267249369469,-100.0,1511870.32004,0.0,0.0,0.0,0.0,0.0,0.0
1402598487203351148,0,6.56482868522,-0.114322152727,-9.23815460385,0.043815185726,0.435370920176,0.0,0.352697571705,0.0,0.71092321982,0.0,0.0,0.0,0.0,-0.468986639321,-12.7063376107,-51.5971668773,-0.098966034251,100.0,0.0161107460682,-100.0,-0.100510768416,100.0,0.0267249369469,-100.0,1511870.32004,0.0,0.0,0.0,0.0,0.0,0.0
1402598487223042333,0,6.5736651741,-0.114322152727,-9.23114303672,0.043815185726,0.441003765523,0.0,0.345998104508,0.0,0.694151976048,0.0,0.0,0.0,0.0,-0.468986639321,-12.7063376107,-51.5971668773,-0.098966034251,100.0,0.0161107460682,-100.0,-0.100510768416,100.0,0.0267249369469,-100.0,1511870.32004,0.0,0.0,0.0,0.0,0.0,0.0
1402598487243420106,0,6.5736651741,-0.114322152727,-9.23114303672,0.043815185726,0.441003765523,0.0,0.345998104508,0.0,0.694151976048,0.0,0.0,0.0,0.0,-0.468986639321,-12.7063376107,-51.5971668773,-0.098966034251,100.0,0.0161107460682,-100.0,-0.100510768416,100.0,0.0267249369469,-100.0,1511870.32004,0.0,0.0,0.0,0.0,0.0,0.0
1402598487263539585,0,6.58961245946,-0.114322152727,-9.2063319657,0.043815185726,0.454460273898,0.0,0.347921931257,0.0,0.66171361066,0.0,0.0,0.0,0.0,-0.468986639321,-12.7063376107,-51.5971668773,-0.098966034251,100.0,0.0145762840931,-100.0,-0.100510768416,100.0,0.0267249369469,-100.0,1511870.32004,0.0,0.0,0.0,0.0,0.0,0.0
1402598487283487559,0,6.58961245946,-0.114322152727,-9.2063319657,0.043815185726,0.454460273898,0.0,0.347921931257,0.0,0.66171361066,0.0,0.0,0.0,0.0,-0.468986639321,-12.7063376107,-51.5971668773,-0.098966034251,100.0,0.0161107460682,-100.0,-0.100510768416,100.0,0.0267249369469,-100.0,1511870.32004,0.0,0.0,0.0,0.0,0.0,0.0
1402598487303006106,0,6.61471834055,-0.114322152727,-9.18964213085,0.043815185726,0.465066351152,0.0,0.335803287054,0.0,0.626534279765,0.0,0.0,0.0,0.0,-0.468986639321,-12.7063376107,-51.5971668773,-0.098966034251,100.0,0.0145762840931,-100.0,-0.100510768416,100.0,0.0267249369469,-100.0,1511870.32004,0.0,0.0,0.0,0.0,0.0,0.0
1402598487323663411,0,6.61471834055,-0.114322152727,-9.18964213085,0.043815185726,0.465066351152,0.0,0.335803287054,0.0,0.626534279765,0.0,0.0,0.0,0.0,-0.468986639321,-12.7063376107,-51.5971668773,-0.098966034251,100.0,0.0161107460682,-100.0,-0.100510768416,100.0,0.0267249369469,-100.0,1511870.32004,0.0,0.0,0.0,0.0,0.0,0.0
1402598487342852546,0,6.64287218222,-0.114322152727,-9.16959571609,0.043815185726,0.482700973042,0.0,0.33928155182,0.0,0.593655789695,0.0,0.0,0.0,0.0,-0.468986639321,-12.7063376107,-51.5971668773,-0.098966034251,100.0,0.0145762840931,-100.0,-0.100510768416,100.0,0.0267249369469,-100.0,1511870.32004,0.0,0.0,0.0,0.0,0.0,0.0
1402598487363364400,0,6.64287218222,-0.114322152727,-9.16959571609,0.043815185726,0.482700973042,0.0,0.33928155182,0.0,0.593655789695,0.0,0.0,0.0,0.0,-0.468986639321,-12.7063376107,-51.5971668773,-0.098966034251,100.0,0.0161107460682,-100.0,-0.100510768416,100.0,0.0267249369469,-100.0,1511870.32004,0.0,0.0,0.0,0.0,0.0,0.0
1402598487382770940,0,6.67364139966,-0.114322152727,-9.16167321239,0.043815185726,0.484374136729,0.0,0.317153811387,0.0,0.556685002297,0.0,0.0,0.0,0.0,-0.468986639321,-12.7063376107,-51.5971668773,-0.098966034251,100.0,0.0145762840931,-100.0,-0.100510768416,100.0,0.0267249369469,-100.0,1511870.32004,0.0,0.0,0.0,0.0,0.0,0.0
1402598487403352613,0,6.67364139966,-0.114322152727,-9.16167321239,0.043815185726,0.484374136729,0.0,0.317153811387,0.0,0.556685002297,0.0,0.0,0.0,0.0,-0.468986639321,-12.7063376107,-51.5971668773,-0.098966034251,100.0,0.0161107460682,-100.0,-0.100510768416,100.0,0.0267249369469,-100.0,1511870.32004,0.0,0.0,0.0,0.0,0.0,0.0
1402598487422950125,0,6.69877898623,-0.114322152727,-9.145731482,0.043815185726,0.491687206765,0.0,0.298024706164,0.0,0.512192259261,0.0,0.0,0.0,0.0,-0.468986639321,-12.7063376107,-51.5971668773,-0.098966034251,100.0,0.0145762840931,-100.0,-0.100510768416,100.0,0.0267249369469,-100.0,1511870.32004,0.0,0.0,0.0,0.0,0.0,0.0
1402598487443439999,0,6.69877898623,-0.114322152727,-9.145731482,0.043815185726,0.491687206765,0.0,0.298024706164,0.0,0.512192259261,0.0,0.0,0.0,0.0,-0.468986639321,-12.7063376107,-51.5971668773,-0.098966034251,100.0,0.0145762840931,-100.0,-0.100510768416,100.0,0.0267249369469,-100.0,1511870.32004,0.0,0.0,0.0,0.0,0.0,0.0
1402598487462688247,0,6.71435338968,-0.114322152727,-9.13675614499,0.043815185726,0.497294696344,0.0,0.288512668213,0.0,0.485620418552,0.0,0.0,0.0,0.0,-0.468986639321,-12.7063376107,-51.5971668773,-0.098966034251,100.0,0.0161107460682,-100.0,-0.100510768416,100.0,0.0267249369469,-100.0,1511870.32004,0.0,0.0,0.0,0.0,0.0,0.0
1402598487483414819,0,6.7244054289,-0.114322152727,-9.13086241146,0.043815185726,0.496079496664,0.0,0.280799236526,0.0,0.468420181288,0.0,0.0,0.0,0.0,-0.468986639321,-12.7063376107,-51.5971668773,-0.098966034251,100.0,0.0161107460682,-100.0,-0.100510768416,100.0,0.0267249369469,-100.0,1511870.32004,0.0,0.0,0.0,0.0,0.0,0.0
1402598487502935309,0,6.7244054289,-0.114322152727,-9.13086241146,0.043815185726,0.496079496664,0.0,0.280799236526,0.0,0.468420181288,0.0,0.0,0.0,0.0,-0.468986639321,-12.7063376107,-51.5971668773,-0.098966034251,100.0,0.0161107460682,-100.0,-0.100510768416,100.0,0.0267249369469,-100.0,1511870.32004,0.0,0.0,0.0,0.0,0.0,0.0
1402598487523477664,0,6.73487690814,-0.114322152727,-9.12532300381,0.043815185726,0.500849188648,0.0,0.274796158264,0.0,0.450390349023,0.0,0.0,0.0,0.0,-0.468986639321,-12.7063376107,-51.5971668773,-0.098966034251,100.0,0.0161107460682,-100.0,-0.100510768416,100.0,0.0267249369469,-100.0,1511870.32004,0.0,0.0,0.0,0.0,0.0,0.0
1402598487542700069,0,6.73487690814,-0.114322152727,-9.12532300381,0.043815185726,0.500849188648,0.0,0.274796158264,0.0,0.450390349023,0.0,0.0,0.0,0.0,-0.468986639321,-12.7063376107,-51.5971668773,-0.098966034251,100.0,0.0161107460682,-100.0,-0.100510768416,100.0,0.0267249369469,-100.0,1511870.32004,0.0,0.0,0.0,0.0,0.0,0.0
1402598487563182875,0,6.75497577792,-0.114322152727,-9.11467948253,0.043815185726,0.505762362153,0.0,0.256209478695,0.0,0.41604720453,0.0,0.0,0.0,0.0,-0.468986639321,-12.7063376107,-51.5971668773,-0.098966034251,100.0,0.0145762840931,-100.0,-0.100510768416,100.0,0.0267249369469,-100.0,1511870.32004,0.0,0.0,0.0,0.0,0.0,0.0
1402598487583442448,0,6.75497577792,-0.114322152727,-9.11467948253,0.043815185726,0.505762362153,0.0,0.256209478695,0.0,0.41604720453,0.0,0.0,0.0,0.0,-0.468986639321,-12.7063376107,-51.5971668773,-0.098966034251,100.0,0.0161107460682,-100.0,-0.100510768416,100.0,0.0267249369469,-100.0,1511870.32004,0.0,0.0,0.0,0.0,0.0,0.0
1402598487603367992,0,6.79926747101,-0.114322152727,-9.12087483777,0.043815185726,0.521149934101,0.0,0.211738415618,0.0,0.377814705474,0.0,0.0,0.0,0.0,-0.468986639321,-12.7063376107,-51.5971668773,-0.098966034251,100.0,0.0161107460682,-100.0,-0.100510768416,100.0,0.0267249369469,-100.0,1511870.32004,0.0,0.0,0.0,0.0,0.0,0.0
1402598487622743347,0,6.79926747101,-0.114322152727,-9.12087483777,0.043815185726,0.521149934101,0.0,0.211738415618,0.0,0.377814705474,0.0,0.0,0.0,0.0,-0.468986639321,-12.7063376107,-51.5971668773,-0.098966034251,100.0,0.0176449696247,-100.0,-0.100510768416,100.0,0.0267249369469,-100.0,1511870.32004,0.0,0.0,0.0,0.0,0.0,0.0
1402598487643920916,0,6.82391508492,-0.114322152727,-9.10098124689,0.043815185726,0.51630508531,0.0,0.216086180204,0.0,0.345745858632,0.0,0.0,0.0,0.0,-0.468986639321,-12.7063376107,-51.5971668773,-0.098966034251,100.0,0.0161107460682,-100.0,-0.100510768416,100.0,0.0267249369469,-100.0,1511870.32004,0.0,0.0,0.0,0.0,0.0,0.0
1402598487662843703,0,6.82391508492,-0.114322152727,-9.10098124689,0.043815185726,0.51630508531,0.0,0.216086180204,0.0,0.345745858632,0.0,0.0,0.0,0.0,-0.468986639321,-12.7063376107,-51.5971668773,-0.098966034251,100.0,0.0176449696247,-100.0,-0.100510768416,100.0,0.0267249369469,-100.0,1511870.32004,0.0,0.0,0.0,0.0,0.0,0.0
1402598487683366528,0,6.86520359612,-0.114322152727,-9.09024700062,0.043815185726,0.542926369307,0.0,0.204141059681,0.0,0.313374589332,0.0,0.0,0.0,0.0,-0.468986639321,-12.7063376107,-51.5971668773,-0.098966034251,100.0,0.0191794315998,-100.0,-0.100510768416,100.0,0.0267249369469,-100.0,1511870.32004,0.0,0.0,0.0,0.0,0.0,0.0
1402598487702890011,0,6.86520359612,-0.114322152727,-9.09024700062,0.043815185726,0.542926369307,0.0,0.204141059681,0.0,0.313374589332,0.0,0.0,0.0,0.0,-0.468986639321,-12.7063376107,-51.5971668773,-0.098966034251,100.0,0.0237825791065,-100.0,-0.100510768416,100.0,0.0267249369469,-100.0,1511870.32004,0.0,0.0,0.0,0.0,0.0,0.0
1402598487723347930,0,6.90509991289,-0.114322152727,-9.0951052783,0.043815185726,0.547328144525,0.0,0.168049930034,0.0,0.27731505879,0.0,0.0,0.0,0.0,-0.468986639321,-12.7063376107,-51.5971668773,-0.098966034251,100.0,0.0253168026631,-100.0,-0.100510768416,100.0,0.0267249369469,-100.0,1511870.32004,0.0,0.0,0.0,0.0,0.0,0.0
1402598487743007778,0,6.90509991289,-0.114322152727,-9.0951052783,0.043815185726,0.547328144525,0.0,0.168049930034,0.0,0.27731505879,0.0,0.0,0.0,0.0,-0.468986639321,-12.7063376107,-51.5971668773,-0.098966034251,100.0,0.0314544121449,-100.0,-0.100510768416,100.0,0.0267249369469,-100.0,1511870.32004,0.0,0.0,0.0,0.0,0.0,0.0
1402598487763445330,0,6.94145178934,-0.114322152727,-9.08012635929,0.043815185726,0.541220050283,0.0,0.171691231799,0.0,0.23561912434,0.0,0.0,0.0,0.0,-0.468986639321,-12.7063376107,-51.5971668773,-0.098966034251,100.0,0.0314544121449,-100.0,-0.100510768416,100.0,0.0267249369469,-100.0,1511870.32004,0.0,0.0,0.0,0.0,0.0,0.0
1402598487782839492,0,6.94145178934,-0.114322152727,-9.08012635929,0.043815185726,0.541220050283,0.0,0.171691231799,0.0,0.23561912434,0.0,0.0,0.0,0.0,-0.468986639321,-12.7063376107,-51.5971668773,-0.098966034251,100.0,0.0314544121449,-100.0,-0.100510768416,100.0,0.0267249369469,-100.0,1511870.32004,0.0,0.0,0.0,0.0,0.0,0.0
1402598487803444117,0,6.96924081613,-0.114322152727,-9.07166400799,0.043815185726,0.537515031777,0.0,0.157337978462,0.0,0.192873576302,0.0,0.0,0.0,0.0,-0.468986639321,-12.7063376107,-51.5971668773,-0.098966034251,100.0,0.0299197117512,-100.0,-0.100510768416,100.0,0.0267249369469,-100.0,1511870.32004,0.0,0.0,0.0,0.0,0.0,0.0
1402598487823077654,0,6.96924081613,-0.114322152727,-9.07166400799,0.043815185726,0.537515031777,0.0,0.157337978462,0.0,0.192873576302,0.0,0.0,0.0,0.0,-0.468986639321,-12.7063376107,-51.5971668773,-0.098966034251,100.0,0.0314544121449,-100.0,-0.100510768416,100.0,0.0267249369469,-100.0,1511870.32004,0.0,0.0,0.0,0.0,0.0,0.0
1402598487843504264,0,6.9903162912,-0.114322152727,-9.06194623845,0.043815185726,0.541292732269,0.0,0.152883004897,0.0,0.176145990749,0.0,0.0,0.0,0.0,-0.468986639321,-12.7063376107,-51.5971668773,-0.098966034251,100.0,0.0299197117512,-100.0,-0.100510768416,100.0,0.0267249369469,-100.0,1511870.32004,0.0,0.0,0.0,0.0,0.0,0.0
1402598487862910341,0,6.9903162912,-0.114322152727,-9.06194623845,0.043815185726,0.541292732269,0.0,0.152883004897,0.0,0.176145990749,0.0,0.0,0.0,0.0,-0.468986639321,-12.7063376107,-51.5971668773,-0.098966034251,100.0,0.0283854881947,-100.0,-0.100510768416,100.0,0.0267249369469,-100.0,1511870.32004,0.0,0.0,0.0,0.0,0.0,0.0
1402598487883499056,0,7.0115280462,-0.114322152727,-9.05048633798,0.043815185726,0.517650868884,0.0,0.142382182488,0.0,0.140904527829,0.0,0.0,0.0,0.0,-0.468986639321,-12.7063376107,-51.5971668773,-0.098966034251,100.0,0.0283854881947,-100.0,-0.100510768416,100.0,0.0267249369469,-100.0,1511870.32004,0.0,0.0,0.0,0.0,0.0,0.0
1402598487902801433,0,7.0115280462,-0.114322152727,-9.05048633798,0.043815185726,0.517650868884,0.0,0.142382182488,0.0,0.140904527829,0.0,0.0,0.0,0.0,-0.468986639321,-12.7063376107,-51.5971668773,-0.098966034251,100.0,0.0253168026631,-100.0,-0.100510768416,100.0,0.0267249369469,-100.0,1511870.32004,0.0,0.0,0.0,0.0,0.0,0.0
1402598487923503011,0,7.03263624853,-0.114322152727,-9.04479143934,0.043815185726,0.516940671483,0.0,0.132108581587,0.0,0.106778429683,0.0,0.0,0.0,0.0,-0.468986639321,-12.7063376107,-51.5971668773,-0.098966034251,100.0,0.0268512646381,-100.0,-0.100510768416,100.0,0.0267249369469,-100.0,1511870.32004,0.0,0.0,0.0,0.0,0.0,0.0
1402598487942789895,0,7.03263624853,-0.114322152727,-9.04479143934,0.043815185726,0.516940671483,0.0,0.132108581587,0.0,0.106778429683,0.0,0.0,0.0,0.0,-0.468986639321,-12.7063376107,-51.5971668773,-0.098966034251,100.0,0.0191794315998,-100.0,-0.100510768416,100.0,0.0267249369469,-100.0,1511870.32004,0.0,0.0,0.0,0.0,0.0,0.0
1402598487963461678,0,7.06722499373,-0.114322152727,-9.02891126007,0.043815185726,0.537243533529,0.0,0.124762240602,0.0,0.0752486925062,0.0,0.0,0.0,0.0,-0.468986639321,-12.7063376107,-51.5971668773,-0.098966034251,100.0,0.0222481171314,-100.0,-0.100510768416,100.0,0.0267249369469,-100.0,1511870.32004,0.0,0.0,0.0,0.0,0.0,0.0
