rosbagTimestamp,control_method,x_current,x_desired,y_current,y_desired,x_velocity_current,x_velocity_desired,y_velocity_current,y_velocity_desired,yaw_current,yaw_desired,required_force_x,required_force_y,required_moment_z,resultant_force_x,resultant_force_y,resultant_moment_z,current_port_servo_angle,current_port_thruster_force,current_starboard_servo_angle,current_starboard_thruster_force,estimated_port_servo_angle,estimated_port_thruster_force,estimated_starboard_servo_angle,estimated_starboard_thruster_force,cost_value,step,user_defined_1,user_defined_2,user_defined_3,user_defined_4,user_defined_5
1402599132744686082,0,7.76899664759,-0.114322152727,-64.8892840751,0.043815185726,0.162477676117,0.0,-0.0816278965958,0.0,-0.772329845207,0.0,0.0,0.0,0.0,100.0,0.0,30.48,-0.098966034251,-0.0,-0.00383606751517,100.0,-0.0943432553369,-0.0,0.0,100.0,1014515.2,0.0,0.0,0.0,0.0,0.0,0.0
1402599132763718544,0,7.76899664759,-0.114322152727,-64.8892840751,0.043815185726,0.162477676117,0.0,-0.0816278965958,0.0,-0.772329845207,0.0,0.0,0.0,0.0,100.0,0.0,30.48,-0.098966034251,-0.0,-0.00383606751517,100.0,-0.0943432553369,-0.0,0.0,100.0,1014515.2,0.0,0.0,0.0,0.0,0.0,0.0
1402599132784753931,0,7.78499822842,-0.114322152727,-64.8932060541,0.043815185726,0.173701404617,0.0,-0.0763334980743,0.0,-0.771076608723,0.0,0.0,0.0,0.0,100.0,0.0,30.48,-0.098966034251,-0.0,-0.00383606751517,100.0,-0.0943432553369,-0.0,0.0,100.0,1014515.2,0.0,0.0,0.0,0.0,0.0,0.0
1402599132803790517,0,7.78499822842,-0.114322152727,-64.8932060541,0.043815185726,0.173701404617,0.0,-0.0763334980743,0.0,-0.771076608723,0.0,0.0,0.0,0.0,100.0,0.0,30.48,-0.098966034251,-0.0,-0.00383606751517,100.0,-0.0943432553369,-0.0,0.0,100.0,1014515.2,0.0,0.0,0.0,0.0,0.0,0.0
1402599132824510403,0,7.78526015175,-0.114322152727,-64.8930063327,0.043815185726,0.169501327771,0.0,-0.0733314398392,0.0,-0.770762996277,0.0,0.0,0.0,0.0,100.0,0.0,30.48,-0.0974315722759,-0.0,-0.00383606751517,100.0,-0.0943432553369,-0.0,0.0,100.0,1014515.2,0.0,0.0,0.0,0.0,0.0,0.0
1402599132843662830,0,7.78526015175,-0.114322152727,-64.8930063327,0.043815185726,0.169501327771,0.0,-0.0733314398392,0.0,-0.770762996277,0.0,0.0,0.0,0.0,100.0,0.0,30.48,-0.098966034251,-0.0,-0.00383606751517,100.0,-0.0943432553369,-0.0,0.0,100.0,1014515.2,0.0,0.0,0.0,0.0,0.0,0.0
1402599132864210116,0,7.79044838655,-0.114322152727,-64.8955715455,0.043815185726,0.1706774092,0.0,-0.0741324254832,0.0,-0.770003952671,0.0,0.0,0.0,0.0,100.0,0.0,30.48,-0.0974315722759,-0.0,-0.00383606751517,100.0,-0.0943432553369,-0.0,0.0,100.0,1014515.2,0.0,0.0,0.0,0.0,0.0,0.0
1402599132883658772,0,7.79044838655,-0.114322152727,-64.8955715455,0.043815185726,0.1706774092,0.0,-0.0741324254832,0.0,-0.770003952671,0.0,0.0,0.0,0.0,100.0,0.0,30.48,-0.098966034251,-0.0,-0.00383606751517,100.0,-0.0943432553369,-0.0,0.0,100.0,1014515.2,0.0,0.0,0.0,0.0,0.0,0.0
1402599132904137413,0,7.79933778774,-0.114322152727,-64.9033429448,0.043815185726,0.204274596408,0.0,-0.101671513786,0.0,-0.76835370916,0.0,0.0,0.0,0.0,100.0,0.0,30.48,-0.098966034251,-0.0,-0.00383606751517,100.0,-0.0943432553369,-0.0,0.0,100.0,1014515.2,0.0,0.0,0.0,0.0,0.0,0.0
1402599132923685206,0,7.79933778774,-0.114322152727,-64.9033429448,0.043815185726,0.204274596408,0.0,-0.101671513786,0.0,-0.76835370916,0.0,0.0,0.0,0.0,100.0,0.0,30.48,-0.098966034251,-0.0,-0.00383606751517,100.0,-0.0943432553369,-0.0,0.0,100.0,1014515.2,0.0,0.0,0.0,0.0,0.0,0.0
1402599132944247260,0,7.80185323389,-0.114322152727,-64.9080523058,0.043815185726,0.209618488864,0.0,-0.128925419003,0.0,-0.765169423767,0.0,0.0,0.0,0.0,100.0,0.0,30.48,-0.098966034251,-0.0,-0.00383606751517,100.0,-0.0943432553369,-0.0,0.0,100.0,1014515.2,0.0,0.0,0.0,0.0,0.0,0.0
1402599132963627352,0,7.80185323389,-0.114322152727,-64.9080523058,0.043815185726,0.209618488864,0.0,-0.128925419003,0.0,-0.765169423767,0.0,0.0,0.0,0.0,100.0,0.0,30.48,-0.098966034251,-0.0,-0.00383606751517,100.0,-0.0943432553369,-0.0,0.0,100.0,1014515.2,0.0,0.0,0.0,0.0,0.0,0.0
1402599132984120734,0,7.8158752185,-0.114322152727,-64.9082074545,0.043815185726,0.247415320751,0.0,-0.136673466678,0.0,-0.760211315053,0.0,0.0,0.0,0.0,100.0,0.0,30.48,-0.0974315722759,-0.0,-0.00383606751517,100.0,-0.0943432553369,-0.0,0.0,100.0,1014515.2,0.0,0.0,0.0,0.0,0.0,0.0
1402599133003566112,0,7.82088455743,-0.114322152727,-64.9110186708,0.043815185726,0.262891407391,0.0,-0.145057385415,0.0,-0.758000186473,0.0,0.0,0.0,0.0,100.0,0.0,30.48,-0.0974315722759,-0.0,-0.00383606751517,100.0,-0.0943432553369,-0.0,0.0,100.0,1014515.2,0.0,0.0,0.0,0.0,0.0,0.0
1402599133024406141,0,7.82088455743,-0.114322152727,-64.9110186708,0.043815185726,0.262891407391,0.0,-0.145057385415,0.0,-0.758000186473,0.0,0.0,0.0,0.0,100.0,0.0,30.48,-0.0974315722759,-0.0,-0.00383606751517,100.0,-0.0943432553369,-0.0,0.0,100.0,1014515.2,0.0,0.0,0.0,0.0,0.0,0.0
1402599133043680676,0,7.82462822239,-0.114322152727,-64.9170874615,0.043815185726,0.270582468318,0.0,-0.161637483298,0.0,-0.756587069087,0.0,0.0,0.0,0.0,100.0,0.0,30.48,-0.0974315722759,-0.0,-0.00383606751517,100.0,-0.0943432553369,-0.0,0.0,100.0,1014515.2,0.0,0.0,0.0,0.0,0.0,0.0
1402599133064443167,0,7.82462822239,-0.114322152727,-64.9170874615,0.043815185726,0.270582468318,0.0,-0.161637483298,0.0,-0.756587069087,0.0,0.0,0.0,0.0,100.0,0.0,30.48,-0.0974315722759,-0.0,-0.00383606751517,100.0,-0.0943432553369,-0.0,0.0,100.0,1014515.2,0.0,0.0,0.0,0.0,0.0,0.0
1402599133083574254,0,7.83670873951,-0.114322152727,-64.9244341502,0.043815185726,0.302246602765,0.0,-0.17890595066,0.0,-0.750781781263,0.0,0.0,0.0,0.0,100.0,0.0,30.48,-0.0974315722759,-0.0,-0.00383606751517,100.0,-0.0943432553369,-0.0,0.0,100.0,1014515.2,0.0,0.0,0.0,0.0,0.0,0.0
1402599133104205813,0,7.83670873951,-0.114322152727,-64.9244341502,0.043815185726,0.302246602765,0.0,-0.17890595066,0.0,-0.750781781263,0.0,0.0,0.0,0.0,100.0,0.0,30.48,-0.0974315722759,-0.0,-0.00383606751517,100.0,-0.0943432553369,-0.0,0.0,100.0,1014515.2,0.0,0.0,0.0,0.0,0.0,0.0
1402599133123720405,0,7.84713467723,-0.114322152727,-64.9314012491,0.043815185726,0.329252227749,0.0,-0.194904913929,0.0,-0.744822684105,0.0,0.0,0.0,0.0,100.0,0.0,30.48,-0.098966034251,-0.0,-0.00383606751517,100.0,-0.0943432553369,-0.0,0.0,100.0,1014515.2,0.0,0.0,0.0,0.0,0.0,0.0
1402599133145847435,0,7.84713467723,-0.114322152727,-64.9314012491,0.043815185726,0.329252227749,0.0,-0.194904913929,0.0,-0.744822684105,0.0,0.0,0.0,0.0,100.0,0.0,30.48,-0.0974315722759,-0.0,-0.00383606751517,100.0,-0.0943432553369,-0.0,0.0,100.0,1014515.2,0.0,0.0,0.0,0.0,0.0,0.0
1402599133163716842,0,7.86424853259,-0.114322152727,-64.9387653021,0.043815185726,0.36650705148,0.0,-0.208752131538,0.0,-0.73461674904,0.0,0.0,0.0,0.0,100.0,0.0,30.48,-0.0974315722759,-0.0,-0.00383606751517,100.0,-0.0943432553369,-0.0,0.0,100.0,1014515.2,0.0,0.0,0.0,0.0,0.0,0.0
1402599133184567651,0,7.86424853259,-0.114322152727,-64.9387653021,0.043815185726,0.36650705148,0.0,-0.208752131538,0.0,-0.73461674904,0.0,0.0,0.0,0.0,100.0,0.0,30.48,-0.0974315722759,-0.0,-0.00383606751517,100.0,-0.0943432553369,-0.0,0.0,100.0,1014515.2,0.0,0.0,0.0,0.0,0.0,0.0
1402599133203724602,0,7.88092100113,-0.114322152727,-64.943830633,0.043815185726,0.397920149116,0.0,-0.206026884563,0.0,-0.722861939393,0.0,0.0,0.0,0.0,100.0,0.0,30.48,-0.0974315722759,-0.0,-0.00383606751517,100.0,-0.0943432553369,-0.0,0.0,100.0,1014515.2,0.0,0.0,0.0,0.0,0.0,0.0
1402599133224377682,0,7.88092100113,-0.114322152727,-64.943830633,0.043815185726,0.397920149116,0.0,-0.206026884563,0.0,-0.722861939393,0.0,0.0,0.0,0.0,100.0,0.0,30.48,-0.0974315722759,-0.0,-0.00383606751517,100.0,-0.0943432553369,-0.0,0.0,100.0,1014515.2,0.0,0.0,0.0,0.0,0.0,0.0
1402599133243610184,0,7.887402706,-0.114322152727,-64.9507914023,0.043815185726,0.407552773074,0.0,-0.212386973532,0.0,-0.719905539208,0.0,0.0,0.0,0.0,100.0,0.0,30.48,-0.0974315722759,-0.0,-0.00383606751517,100.0,-0.0943432553369,-0.0,0.0,100.0,1014515.2,0.0,0.0,0.0,0.0,0.0,0.0
1402599133264381703,0,7.887402706,-0.114322152727,-64.9507914023,0.043815185726,0.407552773074,0.0,-0.212386973532,0.0,-0.719905539208,0.0,0.0,0.0,0.0,100.0,0.0,30.48,-0.0974315722759,-0.0,-0.00383606751517,100.0,-0.0943432553369,-0.0,0.0,100.0,1014515.2,0.0,0.0,0.0,0.0,0.0,0.0
1402599133283731475,0,7.90467208498,-0.114322152727,-64.9738823422,0.043815185726,0.435682851376,0.0,-0.258197786029,0.0,-0.71987309819,0.0,0.0,0.0,0.0,100.0,0.0,30.48,-0.0974315722759,-0.0,-0.00383606751517,100.0,-0.0943432553369,-0.0,0.0,100.0,1014515.2,0.0,0.0,0.0,0.0,0.0,0.0
1402599133303723208,0,7.90467208498,-0.114322152727,-64.9738823422,0.043815185726,0.435682851376,0.0,-0.258197786029,0.0,-0.71987309819,0.0,0.0,0.0,0.0,100.0,0.0,30.48,-0.0974315722759,-0.0,-0.00383606751517,100.0,-0.0943432553369,-0.0,0.0,100.0,1014515.2,0.0,0.0,0.0,0.0,0.0,0.0
1402599133324484108,0,7.9235171389,-0.114322152727,-64.9849420639,0.043815185726,0.466746746515,0.0,-0.26662857124,0.0,-0.711010930685,0.0,0.0,0.0,0.0,100.0,0.0,30.48,-0.098966034251,-0.0,-0.00383606751517,100.0,-0.0943432553369,-0.0,0.0,100.0,1014515.2,0.0,0.0,0.0,0.0,0.0,0.0
1402599133343675260,0,7.9235171389,-0.114322152727,-64.9849420639,0.043815185726,0.466746746515,0.0,-0.26662857124,0.0,-0.711010930685,0.0,0.0,0.0,0.0,100.0,0.0,30.48,-0.0974315722759,-0.0,-0.00383606751517,100.0,-0.0943432553369,-0.0,0.0,100.0,1014515.2,0.0,0.0,0.0,0.0,0.0,0.0
1402599133364300263,0,7.93916126503,-0.114322152727,-64.9918494821,0.043815185726,0.491147373801,0.0,-0.267089845419,0.0,-0.701033597979,0.0,0.0,0.0,0.0,100.0,0.0,30.48,-0.098966034251,-0.0,-0.00383606751517,100.0,-0.0943432553369,-0.0,0.0,100.0,1014515.2,0.0,0.0,0.0,0.0,0.0,0.0
1402599133383685623,0,7.93916126503,-0.114322152727,-64.9918494821,0.043815185726,0.491147373801,0.0,-0.267089845419,0.0,-0.701033597979,0.0,0.0,0.0,0.0,100.0,0.0,30.48,-0.0974315722759,-0.0,-0.00383606751517,100.0,-0.0943432553369,-0.0,0.0,100.0,1014515.2,0.0,0.0,0.0,0.0,0.0,0.0
1402599133404380480,0,7.96960647849,-0.114322152727,-65.0053146753,0.043815185726,0.540398018253,0.0,-0.283295773219,0.0,-0.689450336594,0.0,0.0,0.0,0.0,100.0,0.0,30.48,-0.0974315722759,-0.0,-0.00383606751517,100.0,-0.0943432553369,-0.0,0.0,100.0,1014515.2,0.0,0.0,0.0,0.0,0.0,0.0
1402599133423757617,0,7.96960647849,-0.114322152727,-65.0053146753,0.043815185726,0.540398018253,0.0,-0.283295773219,0.0,-0.689450336594,0.0,0.0,0.0,0.0,100.0,0.0,30.48,-0.0974315722759,-0.0,-0.00383606751517,100.0,-0.0943432553369,-0.0,0.0,100.0,1014515.2,0.0,0.0,0.0,0.0,0.0,0.0
1402599133444275877,0,7.98856377743,-0.114322152727,-65.0219860663,0.043815185726,0.555357994124,0.0,-0.294692841664,0.0,-0.67988050798,0.0,0.0,0.0,0.0,100.0,0.0,30.48,-0.0974315722759,-0.0,-0.00383606751517,100.0,-0.0943432553369,-0.0,0.0,100.0,1014515.2,0.0,0.0,0.0,0.0,0.0,0.0
1402599133463696013,0,7.98856377743,-0.114322152727,-65.0219860663,0.043815185726,0.555357994124,0.0,-0.294692841664,0.0,-0.67988050798,0.0,0.0,0.0,0.0,100.0,0.0,30.48,-0.0974315722759,-0.0,-0.00383606751517,100.0,-0.0943432553369,-0.0,0.0,100.0,1014515.2,0.0,0.0,0.0,0.0,0.0,0.0
1402599133484211209,0,8.00834443621,-0.114322152727,-65.025246111,0.043815185726,0.581973897192,0.0,-0.291663785966,0.0,-0.668917383813,0.0,0.0,0.0,0.0,100.0,0.0,30.48,-0.0974315722759,-0.0,-0.00383606751517,100.0,-0.0943432553369,-0.0,0.0,100.0,1014515.2,0.0,0.0,0.0,0.0,0.0,0.0
1402599133503929216,0,8.02075605584,-0.114322152727,-65.031472244,0.043815185726,0.595646744856,0.0,-0.294443123147,0.0,-0.663496550961,0.0,0.0,0.0,0.0,100.0,0.0,30.48,-0.0974315722759,-0.0,-0.00383606751517,100.0,-0.0943432553369,-0.0,0.0,100.0,1014515.2,0.0,0.0,0.0,0.0,0.0,0.0
1402599133523984485,0,8.02075605584,-0.114322152727,-65.031472244,0.043815185726,0.595646744856,0.0,-0.294443123147,0.0,-0.663496550961,0.0,0.0,0.0,0.0,100.0,0.0,30.48,-0.0974315722759,-0.0,-0.00383606751517,100.0,-0.0943432553369,-0.0,0.0,100.0,1014515.2,0.0,0.0,0.0,0.0,0.0,0.0
1402599133543552619,0,8.03325205464,-0.114322152727,-65.0377373943,0.043815185726,0.610208062897,0.0,-0.299229108645,0.0,-0.658055397827,0.0,0.0,0.0,0.0,100.0,0.0,30.48,-0.0974315722759,-0.0,-0.00383606751517,100.0,-0.0943432553369,-0.0,0.0,100.0,1014515.2,0.0,0.0,0.0,0.0,0.0,0.0
1402599133564193225,0,8.03325205464,-0.114322152727,-65.0377373943,0.043815185726,0.610208062897,0.0,-0.299229108645,0.0,-0.658055397827,0.0,0.0,0.0,0.0,100.0,0.0,30.48,-0.0974315722759,-0.0,-0.00383606751517,100.0,-0.0943432553369,-0.0,0.0,100.0,1014515.2,0.0,0.0,0.0,0.0,0.0,0.0
1402599133583817251,0,8.05951286184,-0.114322152727,-65.0506948009,0.043815185726,0.634310747895,0.0,-0.30893024439,0.0,-0.646675752877,0.0,0.0,0.0,0.0,100.0,0.0,30.48,-0.0974315722759,-0.0,-0.00383606751517,100.0,-0.0943432553369,-0.0,0.0,100.0,1014515.2,0.0,0.0,0.0,0.0,0.0,0.0
1402599133604217666,0,8.05951286184,-0.114322152727,-65.0506948009,0.043815185726,0.634310747895,0.0,-0.30893024439,0.0,-0.646675752877,0.0,0.0,0.0,0.0,100.0,0.0,30.48,-0.0974315722759,-0.0,-0.00383606751517,100.0,-0.0943432553369,-0.0,0.0,100.0,1014515.2,0.0,0.0,0.0,0.0,0.0,0.0
1402599133623729953,0,8.08547396225,-0.114322152727,-65.068783683,0.043815185726,0.652574907889,0.0,-0.332255461528,0.0,-0.637733924625,0.0,0.0,0.0,0.0,100.0,0.0,30.48,-0.098966034251,-0.0,-0.00383606751517,100.0,-0.0943432553369,-0.0,0.0,100.0,1014515.2,0.0,0.0,0.0,0.0,0.0,0.0
1402599133644220172,0,8.08547396225,-0.114322152727,-65.068783683,0.043815185726,0.652574907889,0.0,-0.332255461528,0.0,-0.637733924625,0.0,0.0,0.0,0.0,100.0,0.0,30.48,-0.098966034251,-0.0,-0.00383606751517,100.0,-0.0943432553369,-0.0,0.0,100.0,1014515.2,0.0,0.0,0.0,0.0,0.0,0.0
1402599133663665165,0,8.10729625706,-0.114322152727,-65.0883148915,0.043815185726,0.661710455732,0.0,-0.353026559801,0.0,-0.629396139559,0.0,0.0,0.0,0.0,100.0,0.0,30.48,-0.0974315722759,-0.0,-0.00383606751517,100.0,-0.0943432553369,-0.0,0.0,100.0,1014515.2,0.0,0.0,0.0,0.0,0.0,0.0
1402599133685834584,0,8.10729625706,-0.114322152727,-65.0883148915,0.043815185726,0.661710455732,0.0,-0.353026559801,0.0,-0.629396139559,0.0,0.0,0.0,0.0,100.0,0.0,30.48,-0.0974315722759,-0.0,-0.00383606751517,100.0,-0.0943432553369,-0.0,0.0,100.0,1014515.2,0.0,0.0,0.0,0.0,0.0,0.0
1402599133703700818,0,8.13648903278,-0.114322152727,-65.1138013075,0.043815185726,0.668046245377,0.0,-0.385501559719,0.0,-0.618298260768,0.0,0.0,0.0,0.0,100.0,0.0,30.48,-0.0974315722759,-0.0,-0.00383606751517,100.0,-0.0943432553369,-0.0,0.0,100.0,1014515.2,0.0,0.0,0.0,0.0,0.0,0.0
1402599133724314137,0,8.13648903278,-0.114322152727,-65.1138013075,0.043815185726,0.668046245377,0.0,-0.385501559719,0.0,-0.618298260768,0.0,0.0,0.0,0.0,100.0,0.0,30.48,-0.0974315722759,-0.0,-0.00383606751517,100.0,-0.0943432553369,-0.0,0.0,100.0,1014515.2,0.0,0.0,0.0,0.0,0.0,0.0
1402599133743594552,0,8.17626599674,-0.114322152727,-65.1365386538,0.043815185726,0.692642438037,0.0,-0.412073699442,0.0,-0.602698395909,0.0,0.0,0.0,0.0,100.0,0.0,30.48,-0.0974315722759,-0.0,-0.00383606751517,100.0,-0.0943432553369,-0.0,0.0,100.0,1014515.2,0.0,0.0,0.0,0.0,0.0,0.0
1402599133764148874,0,8.17626599674,-0.114322152727,-65.1365386538,0.043815185726,0.692642438037,0.0,-0.412073699442,0.0,-0.602698395909,0.0,0.0,0.0,0.0,100.0,0.0,30.48,-0.0974315722759,-0.0,-0.00383606751517,100.0,-0.0943432553369,-0.0,0.0,100.0,1014515.2,0.0,0.0,0.0,0.0,0.0,0.0
1402599133783652479,0,8.19100287986,-0.114322152727,-65.1453381206,0.043815185726,0.701625162292,0.0,-0.418320907809,0.0,-0.596254763431,0.0,0.0,0.0,0.0,100.0,0.0,30.48,-0.0974315722759,-0.0,-0.00383606751517,100.0,-0.0943432553369,-0.0,0.0,100.0,1014515.2,0.0,0.0,0.0,0.0,0.0,0.0
1402599133803668952,0,8.19100287986,-0.114322152727,-65.1453381206,0.043815185726,0.701625162292,0.0,-0.418320907809,0.0,-0.596254763431,0.0,0.0,0.0,0.0,100.0,0.0,30.48,-0.0974315722759,-0.0,-0.00383606751517,100.0,-0.0943432553369,-0.0,0.0,100.0,1014515.2,0.0,0.0,0.0,0.0,0.0,0.0
1402599133824394092,0,8.22438020004,-0.114322152727,-65.1573146952,0.043815185726,0.710905613926,0.0,-0.412194420009,0.0,-0.577349067961,0.0,0.0,0.0,0.0,100.0,0.0,30.48,-0.0974315722759,-0.0,-0.00383606751517,100.0,-0.0943432553369,-0.0,0.0,100.0,1014515.2,0.0,0.0,0.0,0.0,0.0,0.0
1402599133843666359,0,8.22438020004,-0.114322152727,-65.1573146952,0.043815185726,0.710905613926,0.0,-0.412194420009,0.0,-0.577349067961,0.0,0.0,0.0,0.0,100.0,0.0,30.48,-0.0974315722759,-0.0,-0.00383606751517,100.0,-0.0943432553369,-0.0,0.0,100.0,1014515.2,0.0,0.0,0.0,0.0,0.0,0.0
1402599133864373790,0,8.24631750989,-0.114322152727,-65.1703661272,0.043815185726,0.722378304938,0.0,-0.419187591284,0.0,-0.567375746166,0.0,0.0,0.0,0.0,100.0,0.0,30.48,-0.0974315722759,-0.0,-0.00383606751517,100.0,-0.0943432553369,-0.0,0.0,100.0,1014515.2,0.0,0.0,0.0,0.0,0.0,0.0
1402599133883690719,0,8.26165635201,-0.114322152727,-65.1792231736,0.043815185726,0.732395872004,0.0,-0.420911837012,0.0,-0.560464989228,0.0,0.0,0.0,0.0,100.0,0.0,30.48,-0.098966034251,-0.0,-0.00383606751517,100.0,-0.0943432553369,-0.0,0.0,100.0,1014515.2,0.0,0.0,0.0,0.0,0.0,0.0
1402599133904209364,0,8.26165635201,-0.114322152727,-65.1792231736,0.043815185726,0.732395872004,0.0,-0.420911837012,0.0,-0.560464989228,0.0,0.0,0.0,0.0,100.0,0.0,30.48,-0.0974315722759,-0.0,-0.00383606751517,100.0,-0.0943432553369,-0.0,0.0,100.0,1014515.2,0.0,0.0,0.0,0.0,0.0,0.0
1402599133923699412,0,8.27640477377,-0.114322152727,-65.1875675602,0.043815185726,0.742047829668,0.0,-0.422712787872,0.0,-0.553928897756,0.0,0.0,0.0,0.0,100.0,0.0,30.48,-0.0974315722759,-0.0,-0.00383606751517,100.0,-0.0943432553369,-0.0,0.0,100.0,1014515.2,0.0,0.0,0.0,0.0,0.0,0.0
1402599133944225975,0,8.27640477377,-0.114322152727,-65.1875675602,0.043815185726,0.742047829668,0.0,-0.422712787872,0.0,-0.553928897756,0.0,0.0,0.0,0.0,100.0,0.0,30.48,-0.0974315722759,-0.0,-0.00383606751517,100.0,-0.0943432553369,-0.0,0.0,100.0,1014515.2,0.0,0.0,0.0,0.0,0.0,0.0
1402599133963705226,0,8.30263607335,-0.114322152727,-65.2211933238,0.043815185726,0.750335960478,0.0,-0.464463108836,0.0,-0.546093567207,0.0,0.0,0.0,0.0,100.0,0.0,30.48,-0.0974315722759,-0.0,-0.00383606751517,100.0,-0.0943432553369,-0.0,0.0,100.0,1014515.2,0.0,0.0,0.0,0.0,0.0,0.0
1402599133984285694,0,8.30263607335,-0.114322152727,-65.2211933238,0.043815185726,0.750335960478,0.0,-0.464463108836,0.0,-0.546093567207,0.0,0.0,0.0,0.0,100.0,0.0,30.48,-0.0974315722759,-0.0,-0.00383606751517,100.0,-0.0943432553369,-0.0,0.0,100.0,1014515.2,0.0,0.0,0.0,0.0,0.0,0.0
1402599134003756845,0,8.33383465853,-0.114322152727,-65.2327356639,0.043815185726,0.774871760014,0.0,-0.448816045717,0.0,-0.531390162754,0.0,0.0,0.0,0.0,100.0,0.0,30.48,-0.0974315722759,-0.0,-0.00383606751517,100.0,-0.0943432553369,-0.0,0.0,100.0,1014515.2,0.0,0.0,0.0,0.0,0.0,0.0
1402599134023328281,0,8.33383465853,-0.114322152727,-65.2327356639,0.043815185726,0.774871760014,0.0,-0.448816045717,0.0,-0.531390162754,0.0,0.0,0.0,0.0,100.0,0.0,30.48,-0.0974315722759,-0.0,-0.00383606751517,100.0,-0.0943432553369,-0.0,0.0,100.0,1014515.2,0.0,0.0,0.0,0.0,0.0,0.0
1402599134044167423,0,8.3684643104,-0.114322152727,-65.2564716258,0.043815185726,0.803385358053,0.0,-0.456957760149,0.0,-0.519362501757,0.0,0.0,0.0,0.0,100.0,0.0,30.48,-0.0974315722759,-0.0,-0.00383606751517,100.0,-0.0943432553369,-0.0,0.0,100.0,1014515.2,0.0,0.0,0.0,0.0,0.0,0.0
1402599134063636012,0,8.3684643104,-0.114322152727,-65.2564716258,0.043815185726,0.803385358053,0.0,-0.456957760149,0.0,-0.519362501757,0.0,0.0,0.0,0.0,100.0,0.0,30.48,-0.0974315722759,-0.0,-0.00383606751517,100.0,-0.0943432553369,-0.0,0.0,100.0,1014515.2,0.0,0.0,0.0,0.0,0.0,0.0
1402599134084384410,0,8.40541048015,-0.114322152727,-65.2819701726,0.043815185726,0.823176942458,0.0,-0.461886434772,0.0,-0.505709792396,0.0,0.0,0.0,0.0,100.0,0.0,30.48,-0.0974315722759,-0.0,-0.00383606751517,100.0,-0.0943432553369,-0.0,0.0,100.0,1014515.2,0.0,0.0,0.0,0.0,0.0,0.0
1402599134103762827,0,8.40541048015,-0.114322152727,-65.2819701726,0.043815185726,0.823176942458,0.0,-0.461886434772,0.0,-0.505709792396,0.0,0.0,0.0,0.0,100.0,0.0,30.48,-0.0974315722759,-0.0,-0.00383606751517,100.0,-0.0943432553369,-0.0,0.0,100.0,1014515.2,0.0,0.0,0.0,0.0,0.0,0.0
1402599134124166879,0,8.44965868933,-0.114322152727,-65.2900239032,0.043815185726,0.858064045632,0.0,-0.416481218848,0.0,-0.485986854092,0.0,0.0,0.0,0.0,100.0,0.0,30.48,-0.0974315722759,-0.0,-0.00383606751517,100.0,-0.0943432553369,-0.0,0.0,100.0,1014515.2,0.0,0.0,0.0,0.0,0.0,0.0
1402599134144254759,0,8.44965868933,-0.114322152727,-65.2900239032,0.043815185726,0.858064045632,0.0,-0.416481218848,0.0,-0.485986854092,0.0,0.0,0.0,0.0,100.0,0.0,30.48,-0.0974315722759,-0.0,-0.00383606751517,100.0,-0.0943432553369,-0.0,0.0,100.0,1014515.2,0.0,0.0,0.0,0.0,0.0,0.0
1402599134164198712,0,8.46797144472,-0.114322152727,-65.2987787471,0.043815185726,0.869440547279,0.0,-0.412473275633,0.0,-0.480085836268,0.0,0.0,0.0,0.0,100.0,0.0,30.48,-0.0974315722759,-0.0,-0.00383606751517,100.0,-0.0943432553369,-0.0,0.0,100.0,1014515.2,0.0,0.0,0.0,0.0,0.0,0.0
1402599134183631884,0,8.46797144472,-0.114322152727,-65.2987787471,0.043815185726,0.869440547279,0.0,-0.412473275633,0.0,-0.480085836268,0.0,0.0,0.0,0.0,100.0,0.0,30.48,-0.0974315722759,-0.0,-0.00383606751517,100.0,-0.0943432553369,-0.0,0.0,100.0,1014515.2,0.0,0.0,0.0,0.0,0.0,0.0
1402599134204289926,0,8.50643163033,-0.114322152727,-65.3088959393,0.043815185726,0.895082982324,0.0,-0.386481625889,0.0,-0.466261882066,0.0,0.0,0.0,0.0,100.0,0.0,30.48,-0.0974315722759,-0.0,-0.00383606751517,100.0,-0.0943432553369,-0.0,0.0,100.0,1014515.2,0.0,0.0,0.0,0.0,0.0,0.0
1402599134223711579,0,8.50643163033,-0.114322152727,-65.3088959393,0.043815185726,0.895082982324,0.0,-0.386481625889,0.0,-0.466261882066,0.0,0.0,0.0,0.0,100.0,0.0,30.48,-0.0974315722759,-0.0,-0.00383606751517,100.0,-0.0943432553369,-0.0,0.0,100.0,1014515.2,0.0,0.0,0.0,0.0,0.0,0.0
1402599134244250643,0,8.5529202571,-0.114322152727,-65.3411744418,0.043815185726,0.932408846265,0.0,-0.418858746883,0.0,-0.459049341913,0.0,0.0,0.0,0.0,100.0,0.0,30.48,-0.0974315722759,-0.0,-0.00383606751517,100.0,-0.0943432553369,-0.0,0.0,100.0,1014515.2,0.0,0.0,0.0,0.0,0.0,0.0
1402599134263712182,0,8.5529202571,-0.114322152727,-65.3411744418,0.043815185726,0.932408846265,0.0,-0.418858746883,0.0,-0.459049341913,0.0,0.0,0.0,0.0,100.0,0.0,30.48,-0.0974315722759,-0.0,-0.00383606751517,100.0,-0.0943432553369,-0.0,0.0,100.0,1014515.2,0.0,0.0,0.0,0.0,0.0,0.0
1402599134284268290,0,8.59577942052,-0.114322152727,-65.3696031202,0.043815185726,0.941518540501,0.0,-0.432915676009,0.0,-0.44546358599,0.0,0.0,0.0,0.0,100.0,0.0,30.48,-0.0974315722759,-0.0,-0.00383606751517,100.0,-0.0943432553369,-0.0,0.0,100.0,1014515.2,0.0,0.0,0.0,0.0,0.0,0.0
1402599134303650258,0,8.59577942052,-0.114322152727,-65.3696031202,0.043815185726,0.941518540501,0.0,-0.432915676009,0.0,-0.44546358599,0.0,0.0,0.0,0.0,100.0,0.0,30.48,-0.0974315722759,-0.0,-0.00383606751517,100.0,-0.0943432553369,-0.0,0.0,100.0,1014515.2,0.0,0.0,0.0,0.0,0.0,0.0
1402599134324393349,0,8.64509116068,-0.114322152727,-65.390613339,0.043815185726,0.962493331158,0.0,-0.428689556346,0.0,-0.43080489247,0.0,0.0,0.0,0.0,100.0,0.0,30.48,-0.0974315722759,-0.0,-0.00383606751517,100.0,-0.0943432553369,-0.0,0.0,100.0,1014515.2,0.0,0.0,0.0,0.0,0.0,0.0
1402599134343697958,0,8.64509116068,-0.114322152727,-65.390613339,0.043815185726,0.962493331158,0.0,-0.428689556346,0.0,-0.43080489247,0.0,0.0,0.0,0.0,100.0,0.0,30.48,-0.0974315722759,-0.0,-0.00383606751517,100.0,-0.0943432553369,-0.0,0.0,100.0,1014515.2,0.0,0.0,0.0,0.0,0.0,0.0
1402599134364266062,0,8.66522183017,-0.114322152727,-65.3996761348,0.043815185726,0.96927705404,0.0,-0.428070124035,0.0,-0.424887641402,0.0,0.0,0.0,0.0,100.0,0.0,30.48,-0.0974315722759,-0.0,-0.00383606751517,100.0,-0.0943432553369,-0.0,0.0,100.0,1014515.2,0.0,0.0,0.0,0.0,0.0,0.0
1402599134383652546,0,8.66522183017,-0.114322152727,-65.3996761348,0.043815185726,0.96927705404,0.0,-0.428070124035,0.0,-0.424887641402,0.0,0.0,0.0,0.0,100.0,0.0,30.48,-0.0974315722759,-0.0,-0.00383606751517,100.0,-0.0943432553369,-0.0,0.0,100.0,1014515.2,0.0,0.0,0.0,0.0,0.0,0.0
1402599134404284172,0,8.71158639383,-0.114322152727,-65.4200002652,0.043815185726,0.994072693713,0.0,-0.434463477475,0.0,-0.414071153721,0.0,0.0,0.0,0.0,100.0,0.0,30.48,-0.0974315722759,-0.0,-0.00383606751517,100.0,-0.0943432553369,-0.0,0.0,100.0,1014515.2,0.0,0.0,0.0,0.0,0.0,0.0
1402599134423701864,0,8.71158639383,-0.114322152727,-65.4200002652,0.043815185726,0.994072693713,0.0,-0.434463477475,0.0,-0.414071153721,0.0,0.0,0.0,0.0,100.0,0.0,30.48,-0.0974315722759,-0.0,-0.00383606751517,100.0,-0.0943432553369,-0.0,0.0,100.0,1014515.2,0.0,0.0,0.0,0.0,0.0,0.0
1402599134444250915,0,8.75363931373,-0.114322152727,-65.4381201566,0.043815185726,1.01011281067,0.0,-0.432204451904,0.0,-0.402436165297,0.0,0.0,0.0,0.0,100.0,0.0,30.48,-0.0974315722759,-0.0,-0.00383606751517,100.0,-0.0943432553369,-0.0,0.0,100.0,1014515.2,0.0,0.0,0.0,0.0,0.0,0.0
1402599134463643021,0,8.75363931373,-0.114322152727,-65.4381201566,0.043815185726,1.01011281067,0.0,-0.432204451904,0.0,-0.402436165297,0.0,0.0,0.0,0.0,100.0,0.0,30.48,-0.0974315722759,-0.0,-0.00383606751517,100.0,-0.0943432553369,-0.0,0.0,100.0,1014515.2,0.0,0.0,0.0,0.0,0.0,0.0
1402599134484229359,0,8.80848548625,-0.114322152727,-65.4608802647,0.043815185726,1.02532931928,0.0,-0.442156377837,0.0,-0.388212756474,0.0,0.0,0.0,0.0,100.0,0.0,30.48,-0.0974315722759,-0.0,-0.00383606751517,100.0,-0.0943432553369,-0.0,0.0,100.0,1014515.2,0.0,0.0,0.0,0.0,0.0,0.0
1402599134503712555,0,8.80848548625,-0.114322152727,-65.4608802647,0.043815185726,1.02532931928,0.0,-0.442156377837,0.0,-0.388212756474,0.0,0.0,0.0,0.0,100.0,0.0,30.48,-0.0974315722759,-0.0,-0.00383606751517,100.0,-0.0943432553369,-0.0,0.0,100.0,1014515.2,0.0,0.0,0.0,0.0,0.0,0.0
1402599134524301978,0,8.84059945299,-0.114322152727,-65.4746180039,0.043815185726,1.0335701151,0.0,-0.44537916193,0.0,-0.380129952415,0.0,0.0,0.0,0.0,100.0,0.0,30.48,-0.0974315722759,-0.0,-0.00383606751517,100.0,-0.0943432553369,-0.0,0.0,100.0,1014515.2,0.0,0.0,0.0,0.0,0.0,0.0
1402599134543690770,0,8.86225705405,-0.114322152727,-65.4840539822,0.043815185726,1.03926532682,0.0,-0.447078531681,0.0,-0.374792560849,0.0,0.0,0.0,0.0,100.0,0.0,30.48,-0.0974315722759,-0.0,-0.00383606751517,100.0,-0.0943432553369,-0.0,0.0,100.0,1014515.2,0.0,0.0,0.0,0.0,0.0,0.0
1402599134564238529,0,8.86225705405,-0.114322152727,-65.4840539822,0.043815185726,1.03926532682,0.0,-0.447078531681,0.0,-0.374792560849,0.0,0.0,0.0,0.0,100.0,0.0,30.48,-0.0974315722759,-0.0,-0.00383606751517,100.0,-0.0943432553369,-0.0,0.0,100.0,1014515.2,0.0,0.0,0.0,0.0,0.0,0.0
1402599134583691437,0,8.88518103779,-0.114322152727,-65.4938086505,0.043815185726,1.047682159,0.0,-0.444228831312,0.0,-0.369384889473,0.0,0.0,0.0,0.0,100.0,0.0,30.48,-0.0974315722759,-0.0,-0.00383606751517,100.0,-0.0943432553369,-0.0,0.0,100.0,1014515.2,0.0,0.0,0.0,0.0,0.0,0.0
1402599134604203722,0,8.88518103779,-0.114322152727,-65.4938086505,0.043815185726,1.047682159,0.0,-0.444228831312,0.0,-0.369384889473,0.0,0.0,0.0,0.0,100.0,0.0,30.48,-0.0974315722759,-0.0,-0.00383606751517,100.0,-0.0943432553369,-0.0,0.0,100.0,1014515.2,0.0,0.0,0.0,0.0,0.0,0.0
1402599134623760071,0,8.93017602956,-0.114322152727,-65.5165411425,0.043815185726,1.05696321075,0.0,-0.461785113743,0.0,-0.358979924714,0.0,0.0,0.0,0.0,100.0,0.0,30.48,-0.0974315722759,-0.0,-0.00383606751517,100.0,-0.0943432553369,-0.0,0.0,100.0,1014515.2,0.0,0.0,0.0,0.0,0.0,0.0
1402599134644282862,0,8.93017602956,-0.114322152727,-65.5165411425,0.043815185726,1.05696321075,0.0,-0.461785113743,0.0,-0.358979924714,0.0,0.0,0.0,0.0,100.0,0.0,30.48,-0.0974315722759,-0.0,-0.00383606751517,100.0,-0.0943432553369,-0.0,0.0,100.0,1014515.2,0.0,0.0,0.0,0.0,0.0,0.0
1402599134663653508,0,8.973784867,-0.114322152727,-65.5279702907,0.043815185726,1.06260807932,0.0,-0.448086330244,0.0,-0.349121715214,0.0,0.0,0.0,0.0,100.0,0.0,30.48,-0.0974315722759,-0.0,-0.00383606751517,100.0,-0.0943432553369,-0.0,0.0,100.0,1014515.2,0.0,0.0,0.0,0.0,0.0,0.0
1402599134684948321,0,8.973784867,-0.114322152727,-65.5279702907,0.043815185726,1.06260807932,0.0,-0.448086330244,0.0,-0.349121715214,0.0,0.0,0.0,0.0,100.0,0.0,30.48,-0.0974315722759,-0.0,-0.00383606751517,100.0,-0.0943432553369,-0.0,0.0,100.0,1014515.2,0.0,0.0,0.0,0.0,0.0,0.0
1402599134703685467,0,9.04645936273,-0.114322152727,-65.5467879163,0.043815185726,1.10439885836,0.0,-0.433875458408,0.0,-0.340853345592,0.0,0.0,0.0,0.0,100.0,0.0,30.48,-0.0974315722759,-0.0,-0.00383606751517,100.0,-0.0943432553369,-0.0,0.0,100.0,1014515.2,0.0,0.0,0.0,0.0,0.0,0.0
1402599134724399383,0,9.04645936273,-0.114322152727,-65.5467879163,0.043815185726,1.10439885836,0.0,-0.433875458408,0.0,-0.340853345592,0.0,0.0,0.0,0.0,100.0,0.0,30.48,-0.098966034251,-0.0,-0.00383606751517,100.0,-0.0943432553369,-0.0,0.0,100.0,1014515.2,0.0,0.0,0.0,0.0,0.0,0.0
1402599134743889518,0,9.11036311497,-0.114322152727,-65.5703923128,0.043815185726,1.12411245802,0.0,-0.435605376746,0.0,-0.329554709508,0.0,0.0,0.0,0.0,100.0,0.0,30.48,-0.0974315722759,-0.0,-0.00383606751517,100.0,-0.0943432553369,-0.0,0.0,100.0,1014515.2,0.0,0.0,0.0,0.0,0.0,0.0
1402599134764236060,0,9.11036311497,-0.114322152727,-65.5703923128,0.043815185726,1.12411245802,0.0,-0.435605376746,0.0,-0.329554709508,0.0,0.0,0.0,0.0,100.0,0.0,30.48,-0.0974315722759,-0.0,-0.00383606751517,100.0,-0.0943432553369,-0.0,0.0,100.0,1014515.2,0.0,0.0,0.0,0.0,0.0,0.0
1402599134784130106,0,9.13420548635,-0.114322152727,-65.5795978862,0.043815185726,1.12957821345,0.0,-0.436966274458,0.0,-0.324937667189,0.0,0.0,0.0,0.0,100.0,0.0,30.48,-0.0974315722759,-0.0,-0.00383606751517,100.0,-0.0943432553369,-0.0,0.0,100.0,1014515.2,0.0,0.0,0.0,0.0,0.0,0.0
1402599134804488669,0,9.13420548635,-0.114322152727,-65.5795978862,0.043815185726,1.12957821345,0.0,-0.436966274458,0.0,-0.324937667189,0.0,0.0,0.0,0.0,100.0,0.0,30.48,-0.0974315722759,-0.0,-0.00383606751517,100.0,-0.0943432553369,-0.0,0.0,100.0,1014515.2,0.0,0.0,0.0,0.0,0.0,0.0
1402599134823758064,0,9.17853350149,-0.114322152727,-65.5958299931,0.043815185726,1.13381642312,0.0,-0.438887835725,0.0,-0.31487739556,0.0,0.0,0.0,0.0,100.0,0.0,30.48,-0.0974315722759,-0.0,-0.00383606751517,100.0,-0.0943432553369,-0.0,0.0,100.0,1014515.2,0.0,0.0,0.0,0.0,0.0,0.0
1402599134844296585,0,9.17853350149,-0.114322152727,-65.5958299931,0.043815185726,1.13381642312,0.0,-0.438887835725,0.0,-0.31487739556,0.0,0.0,0.0,0.0,100.0,0.0,30.48,-0.0974315722759,-0.0,-0.00383606751517,100.0,-0.0943432553369,-0.0,0.0,100.0,1014515.2,0.0,0.0,0.0,0.0,0.0,0.0
1402599134863684796,0,9.23318971726,-0.114322152727,-65.6113580097,0.043815185726,1.15840522336,0.0,-0.431389939011,0.0,-0.307173544946,0.0,0.0,0.0,0.0,100.0,0.0,30.48,-0.0974315722759,-0.0,-0.00383606751517,100.0,-0.0943432553369,-0.0,0.0,100.0,1014515.2,0.0,0.0,0.0,0.0,0.0,0.0
1402599134884263543,0,9.23318971726,-0.114322152727,-65.6113580097,0.043815185726,1.15840522336,0.0,-0.431389939011,0.0,-0.307173544946,0.0,0.0,0.0,0.0,100.0,0.0,30.48,-0.0974315722759,-0.0,-0.00383606751517,100.0,-0.0943432553369,-0.0,0.0,100.0,1014515.2,0.0,0.0,0.0,0.0,0.0,0.0
1402599134903768330,0,9.27507162694,-0.114322152727,-65.6260699576,0.043815185726,1.1578169911,0.0,-0.415665158841,0.0,-0.297013037732,0.0,0.0,0.0,0.0,100.0,0.0,30.48,-0.0974315722759,-0.0,-0.00383606751517,100.0,-0.0943432553369,-0.0,0.0,100.0,1014515.2,0.0,0.0,0.0,0.0,0.0,0.0
1402599134924391560,0,9.27507162694,-0.114322152727,-65.6260699576,0.043815185726,1.1578169911,0.0,-0.415665158841,0.0,-0.297013037732,0.0,0.0,0.0,0.0,100.0,0.0,30.48,-0.0974315722759,-0.0,-0.00383606751517,100.0,-0.0943432553369,-0.0,0.0,100.0,1014515.2,0.0,0.0,0.0,0.0,0.0,0.0
1402599134943784892,0,9.34211665236,-0.114322152727,-65.6440878594,0.043815185726,1.18510604587,0.0,-0.38956527963,0.0,-0.288257646159,0.0,0.0,0.0,0.0,100.0,0.0,30.48,-0.0974315722759,-0.0,-0.00383606751517,100.0,-0.0943432553369,-0.0,0.0,100.0,1014515.2,0.0,0.0,0.0,0.0,0.0,0.0
1402599134964369494,0,9.34211665236,-0.114322152727,-65.6440878594,0.043815185726,1.18510604587,0.0,-0.38956527963,0.0,-0.288257646159,0.0,0.0,0.0,0.0,100.0,0.0,30.48,-0.0974315722759,-0.0,-0.00383606751517,100.0,-0.0943432553369,-0.0,0.0,100.0,1014515.2,0.0,0.0,0.0,0.0,0.0,0.0
1402599134983772052,0,9.38327864015,-0.114322152727,-65.6575951007,0.043815185726,1.20411511437,0.0,-0.393207171168,0.0,-0.282314237593,0.0,0.0,0.0,0.0,100.0,0.0,30.48,-0.0974315722759,-0.0,-0.00383606751517,100.0,-0.0943432553369,-0.0,0.0,100.0,1014515.2,0.0,0.0,0.0,0.0,0.0,0.0
1402599135004272698,0,9.40733181289,-0.114322152727,-65.6656096162,0.043815185726,1.21079319358,0.0,-0.387925842804,0.0,-0.278408010093,0.0,0.0,0.0,0.0,100.0,0.0,30.48,-0.0974315722759,-0.0,-0.00383606751517,100.0,-0.0943432553369,-0.0,0.0,100.0,1014515.2,0.0,0.0,0.0,0.0,0.0,0.0
1402599135023625850,0,9.40733181289,-0.114322152727,-65.6656096162,0.043815185726,1.21079319358,0.0,-0.387925842804,0.0,-0.278408010093,0.0,0.0,0.0,0.0,100.0,0.0,30.48,-0.0974315722759,-0.0,-0.00383606751517,100.0,-0.0943432553369,-0.0,0.0,100.0,1014515.2,0.0,0.0,0.0,0.0,0.0,0.0
1402599135044442590,0,9.43306279894,-0.114322152727,-65.676744878,0.043815185726,1.21729184678,0.0,-0.401385031862,0.0,-0.273371635006,0.0,0.0,0.0,0.0,100.0,0.0,30.48,-0.0974315722759,-0.0,-0.00383606751517,100.0,-0.0943432553369,-0.0,0.0,100.0,1014515.2,0.0,0.0,0.0,0.0,0.0,0.0
1402599135063696275,0,9.43306279894,-0.114322152727,-65.676744878,0.043815185726,1.21729184678,0.0,-0.401385031862,0.0,-0.273371635006,0.0,0.0,0.0,0.0,100.0,0.0,30.48,-0.098966034251,-0.0,-0.00383606751517,100.0,-0.0943432553369,-0.0,0.0,100.0,1014515.2,0.0,0.0,0.0,0.0,0.0,0.0
1402599135083910254,0,9.48332654173,-0.114322152727,-65.6931309781,0.043815185726,1.2290688141,0.0,-0.396478134219,0.0,-0.265482045825,0.0,0.0,0.0,0.0,100.0,0.0,30.48,-0.0974315722759,-0.0,-0.00383606751517,100.0,-0.0943432553369,-0.0,0.0,100.0,1014515.2,0.0,0.0,0.0,0.0,0.0,0.0
1402599135103620758,0,9.48332654173,-0.114322152727,-65.6931309781,0.043815185726,1.2290688141,0.0,-0.396478134219,0.0,-0.265482045825,0.0,0.0,0.0,0.0,100.0,0.0,30.48,-0.0974315722759,-0.0,-0.00383606751517,100.0,-0.0943432553369,-0.0,0.0,100.0,1014515.2,0.0,0.0,0.0,0.0,0.0,0.0
1402599135124290130,0,9.53487829956,-0.114322152727,-65.709172699,0.043815185726,1.23543052183,0.0,-0.395756483326,0.0,-0.256655411052,0.0,0.0,0.0,0.0,100.0,0.0,30.48,-0.0974315722759,-0.0,-0.00383606751517,100.0,-0.0943432553369,-0.0,0.0,100.0,1014515.2,0.0,0.0,0.0,0.0,0.0,0.0
1402599135144231854,0,9.53487829956,-0.114322152727,-65.709172699,0.043815185726,1.23543052183,0.0,-0.395756483326,0.0,-0.256655411052,0.0,0.0,0.0,0.0,100.0,0.0,30.48,-0.098966034251,-0.0,-0.00383606751517,100.0,-0.0943432553369,-0.0,0.0,100.0,1014515.2,0.0,0.0,0.0,0.0,0.0,0.0
1402599135164842637,0,9.5862858387,-0.114322152727,-65.7219263984,0.043815185726,1.24370059452,0.0,-0.37881726814,0.0,-0.24906256973,0.0,0.0,0.0,0.0,100.0,0.0,30.48,-0.0974315722759,-0.0,-0.00383606751517,100.0,-0.0943432553369,-0.0,0.0,100.0,1014515.2,0.0,0.0,0.0,0.0,0.0,0.0
1402599135183728634,0,9.5862858387,-0.114322152727,-65.7219263984,0.043815185726,1.24370059452,0.0,-0.37881726814,0.0,-0.24906256973,0.0,0.0,0.0,0.0,100.0,0.0,30.48,-0.0974315722759,-0.0,-0.00383606751517,100.0,-0.0943432553369,-0.0,0.0,100.0,1014515.2,0.0,0.0,0.0,0.0,0.0,0.0
1402599135204246959,0,9.65431281967,-0.114322152727,-65.7373576163,0.043815185726,1.25731264091,0.0,-0.35578779191,0.0,-0.239996410903,0.0,0.0,0.0,0.0,100.0,0.0,30.48,-0.0974315722759,-0.0,-0.00383606751517,100.0,-0.0943432553369,-0.0,0.0,100.0,1014515.2,0.0,0.0,0.0,0.0,0.0,0.0
1402599135223676342,0,9.65431281967,-0.114322152727,-65.7373576163,0.043815185726,1.25731264091,0.0,-0.35578779191,0.0,-0.239996410903,0.0,0.0,0.0,0.0,100.0,0.0,30.48,-0.0974315722759,-0.0,-0.00383606751517,100.0,-0.0943432553369,-0.0,0.0,100.0,1014515.2,0.0,0.0,0.0,0.0,0.0,0.0
1402599135244690206,0,9.71948317896,-0.114322152727,-65.7504207123,0.043815185726,1.26535950046,0.0,-0.325894367934,0.0,-0.230618140088,0.0,0.0,0.0,0.0,100.0,0.0,30.48,-0.0974315722759,-0.0,-0.00383606751517,100.0,-0.0943432553369,-0.0,0.0,100.0,1014515.2,0.0,0.0,0.0,0.0,0.0,0.0
1402599135264012706,0,9.71948317896,-0.114322152727,-65.7504207123,0.043815185726,1.26535950046,0.0,-0.325894367934,0.0,-0.230618140088,0.0,0.0,0.0,0.0,100.0,0.0,30.48,-0.0974315722759,-0.0,-0.00383606751517,100.0,-0.0943432553369,-0.0,0.0,100.0,1014515.2,0.0,0.0,0.0,0.0,0.0,0.0
1402599135284343777,0,9.74922974726,-0.114322152727,-65.7587217603,0.043815185726,1.27277354094,0.0,-0.320506663775,0.0,-0.226434319105,0.0,0.0,0.0,0.0,100.0,0.0,30.48,-0.0974315722759,-0.0,-0.00383606751517,100.0,-0.0943432553369,-0.0,0.0,100.0,1014515.2,0.0,0.0,0.0,0.0,0.0,0.0
1402599135303992029,0,9.74922974726,-0.114322152727,-65.7587217603,0.043815185726,1.27277354094,0.0,-0.320506663775,0.0,-0.226434319105,0.0,0.0,0.0,0.0,100.0,0.0,30.48,-0.0974315722759,-0.0,-0.00383606751517,100.0,-0.0943432553369,-0.0,0.0,100.0,1014515.2,0.0,0.0,0.0,0.0,0.0,0.0
1402599135324295704,0,9.80155711087,-0.114322152727,-65.7715643942,0.043815185726,1.28095450698,0.0,-0.302307687625,0.0,-0.21765460801,0.0,0.0,0.0,0.0,100.0,0.0,30.48,-0.0974315722759,-0.0,-0.00383606751517,100.0,-0.0943432553369,-0.0,0.0,100.0,1014515.2,0.0,0.0,0.0,0.0,0.0,0.0
1402599135343746918,0,9.80155711087,-0.114322152727,-65.7715643942,0.043815185726,1.28095450698,0.0,-0.302307687625,0.0,-0.21765460801,0.0,0.0,0.0,0.0,100.0,0.0,30.48,-0.0974315722759,-0.0,-0.00383606751517,100.0,-0.0943432553369,-0.0,0.0,100.0,1014515.2,0.0,0.0,0.0,0.0,0.0,0.0
1402599135364209260,0,9.86059340878,-0.114322152727,-65.7768815771,0.043815185726,1.29338093758,0.0,-0.257915773456,0.0,-0.212600022328,0.0,0.0,0.0,0.0,100.0,0.0,30.48,-0.0974315722759,-0.0,-0.00383606751517,100.0,-0.0943432553369,-0.0,0.0,100.0,1014515.2,0.0,0.0,0.0,0.0,0.0,0.0
1402599135383641320,0,9.86059340878,-0.114322152727,-65.7768815771,0.043815185726,1.29338093758,0.0,-0.257915773456,0.0,-0.212600022328,0.0,0.0,0.0,0.0,100.0,0.0,30.48,-0.0974315722759,-0.0,-0.00383606751517,100.0,-0.0943432553369,-0.0,0.0,100.0,1014515.2,0.0,0.0,0.0,0.0,0.0,0.0
1402599135404299808,0,9.94292482507,-0.114322152727,-65.7754889549,0.043815185726,1.32543151529,0.0,-0.146830596943,0.0,-0.214613912208,0.0,0.0,0.0,0.0,100.0,0.0,30.48,-0.0974315722759,-0.0,-0.00383606751517,100.0,-0.0943432553369,-0.0,0.0,100.0,1014515.2,0.0,0.0,0.0,0.0,0.0,0.0
1402599135423683957,0,9.94292482507,-0.114322152727,-65.7754889549,0.043815185726,1.32543151529,0.0,-0.146830596943,0.0,-0.214613912208,0.0,0.0,0.0,0.0,100.0,0.0,30.48,-0.0974315722759,-0.0,-0.00383606751517,100.0,-0.0943432553369,-0.0,0.0,100.0,1014515.2,0.0,0.0,0.0,0.0,0.0,0.0
1402599135444419495,0,10.0003720188,-0.114322152727,-65.7800566086,0.043815185726,1.36153250066,0.0,-0.11306789484,0.0,-0.214772256834,0.0,0.0,0.0,0.0,100.0,0.0,30.48,-0.0974315722759,-0.0,-0.00383606751517,100.0,-0.0943432553369,-0.0,0.0,100.0,1014515.2,0.0,0.0,0.0,0.0,0.0,0.0
1402599135463682520,0,10.0290636075,-0.114322152727,-65.7822539917,0.043815185726,1.36486312462,0.0,-0.106718984445,0.0,-0.210449861872,0.0,0.0,0.0,0.0,100.0,0.0,30.48,-0.0974315722759,-0.0,-0.00383606751517,100.0,-0.0943432553369,-0.0,0.0,100.0,1014515.2,0.0,0.0,0.0,0.0,0.0,0.0
1402599135484197206,0,10.0290636075,-0.114322152727,-65.7822539917,0.043815185726,1.36486312462,0.0,-0.106718984445,0.0,-0.210449861872,0.0,0.0,0.0,0.0,100.0,0.0,30.48,-0.0974315722759,-0.0,-0.00383606751517,100.0,-0.0943432553369,-0.0,0.0,100.0,1014515.2,0.0,0.0,0.0,0.0,0.0,0.0
1402599135503562287,0,10.0496033702,-0.114322152727,-65.7827518809,0.043815185726,1.34908962905,0.0,-0.0986479424148,0.0,-0.203473812247,0.0,0.0,0.0,0.0,100.0,0.0,30.48,-0.0974315722759,-0.0,-0.00383606751517,100.0,-0.0943432553369,-0.0,0.0,100.0,1014515.2,0.0,0.0,0.0,0.0,0.0,0.0
1402599135524086886,0,10.0496033702,-0.114322152727,-65.7827518809,0.043815185726,1.34908962905,0.0,-0.0986479424148,0.0,-0.203473812247,0.0,0.0,0.0,0.0,100.0,0.0,30.48,-0.0974315722759,-0.0,-0.00383606751517,100.0,-0.0943432553369,-0.0,0.0,100.0,1014515.2,0.0,0.0,0.0,0.0,0.0,0.0
1402599135543802783,0,10.1049726285,-0.114322152727,-65.786572373,0.043815185726,1.35517704259,0.0,-0.0883138626132,0.0,-0.195361626513,0.0,0.0,0.0,0.0,100.0,0.0,30.48,-0.0974315722759,-0.0,-0.00383606751517,100.0,-0.0943432553369,-0.0,0.0,100.0,1014515.2,0.0,0.0,0.0,0.0,0.0,0.0
1402599135564509132,0,10.1049726285,-0.114322152727,-65.786572373,0.043815185726,1.35517704259,0.0,-0.0883138626132,0.0,-0.195361626513,0.0,0.0,0.0,0.0,100.0,0.0,30.48,-0.0974315722759,-0.0,-0.00383606751517,100.0,-0.0943432553369,-0.0,0.0,100.0,1014515.2,0.0,0.0,0.0,0.0,0.0,0.0
1402599135583723011,0,10.160751995,-0.114322152727,-65.790334975,0.043815185726,1.36129066688,0.0,-0.0822749065983,0.0,-0.187358305165,0.0,0.0,0.0,0.0,100.0,0.0,30.48,-0.0974315722759,-0.0,-0.00383606751517,100.0,-0.0943432553369,-0.0,0.0,100.0,1014515.2,0.0,0.0,0.0,0.0,0.0,0.0
1402599135604218693,0,10.160751995,-0.114322152727,-65.790334975,0.043815185726,1.36129066688,0.0,-0.0822749065983,0.0,-0.187358305165,0.0,0.0,0.0,0.0,100.0,0.0,30.48,-0.0974315722759,-0.0,-0.00383606751517,100.0,-0.0943432553369,-0.0,0.0,100.0,1014515.2,0.0,0.0,0.0,0.0,0.0,0.0
1402599135623679237,0,10.2366106445,-0.114322152727,-65.8082051353,0.043815185726,1.37840173944,0.0,-0.120387974576,0.0,-0.174354578542,0.0,0.0,0.0,0.0,100.0,0.0,30.48,-0.0974315722759,-0.0,-0.00383606751517,100.0,-0.0943432553369,-0.0,0.0,100.0,1014515.2,0.0,0.0,0.0,0.0,0.0,0.0
1402599135644086375,0,10.2366106445,-0.114322152727,-65.8082051353,0.043815185726,1.37840173944,0.0,-0.120387974576,0.0,-0.174354578542,0.0,0.0,0.0,0.0,100.0,0.0,30.48,-0.0974315722759,-0.0,-0.00383606751517,100.0,-0.0943432553369,-0.0,0.0,100.0,1014515.2,0.0,0.0,0.0,0.0,0.0,0.0
1402599135663773245,0,10.298388604,-0.114322152727,-65.8277452193,0.043815185726,1.36291731269,0.0,-0.191146717771,0.0,-0.154131322454,0.0,0.0,0.0,0.0,100.0,0.0,30.48,-0.0974315722759,-0.0,-0.00383606751517,100.0,-0.0943432553369,-0.0,0.0,100.0,1014515.2,0.0,0.0,0.0,0.0,0.0,0.0
1402599135685026812,0,10.298388604,-0.114322152727,-65.8277452193,0.043815185726,1.36291731269,0.0,-0.191146717771,0.0,-0.154131322454,0.0,0.0,0.0,0.0,100.0,0.0,30.48,-0.0974315722759,-0.0,-0.00383606751517,100.0,-0.0943432553369,-0.0,0.0,100.0,1014515.2,0.0,0.0,0.0,0.0,0.0,0.0
1402599135703765938,0,10.3271882062,-0.114322152727,-65.8318550508,0.043815185726,1.36650279635,0.0,-0.1937006366,0.0,-0.150081218406,0.0,0.0,0.0,0.0,100.0,0.0,30.48,-0.0974315722759,-0.0,-0.00383606751517,100.0,-0.0943432553369,-0.0,0.0,100.0,1014515.2,0.0,0.0,0.0,0.0,0.0,0.0
1402599135724239443,0,10.3271882062,-0.114322152727,-65.8318550508,0.043815185726,1.36650279635,0.0,-0.1937006366,0.0,-0.150081218406,0.0,0.0,0.0,0.0,100.0,0.0,30.48,-0.0974315722759,-0.0,-0.00383606751517,100.0,-0.0943432553369,-0.0,0.0,100.0,1014515.2,0.0,0.0,0.0,0.0,0.0,0.0
1402599135743933916,0,10.3792848935,-0.114322152727,-65.8435564818,0.043815185726,1.36027190621,0.0,-0.223652179486,0.0,-0.138799855667,0.0,0.0,0.0,0.0,100.0,0.0,30.48,-0.0974315722759,-0.0,-0.00383606751517,100.0,-0.0943432553369,-0.0,0.0,100.0,1014515.2,0.0,0.0,0.0,0.0,0.0,0.0
1402599135764372288,0,10.3792848935,-0.114322152727,-65.8435564818,0.043815185726,1.36027190621,0.0,-0.223652179486,0.0,-0.138799855667,0.0,0.0,0.0,0.0,100.0,0.0,30.48,-0.0974315722759,-0.0,-0.00383606751517,100.0,-0.0943432553369,-0.0,0.0,100.0,1014515.2,0.0,0.0,0.0,0.0,0.0,0.0
1402599135783880997,0,10.4328861199,-0.114322152727,-65.8521716636,0.043815185726,1.3580180451,0.0,-0.226554442376,0.0,-0.129750032277,0.0,0.0,0.0,0.0,100.0,0.0,30.48,-0.0974315722759,-0.0,-0.00383606751517,100.0,-0.0943432553369,-0.0,0.0,100.0,1014515.2,0.0,0.0,0.0,0.0,0.0,0.0
1402599135804232577,0,10.4328861199,-0.114322152727,-65.8521716636,0.043815185726,1.3580180451,0.0,-0.226554442376,0.0,-0.129750032277,0.0,0.0,0.0,0.0,100.0,0.0,30.48,-0.0974315722759,-0.0,-0.00383606751517,100.0,-0.0943432553369,-0.0,0.0,100.0,1014515.2,0.0,0.0,0.0,0.0,0.0,0.0
1402599135824454334,0,10.4903217517,-0.114322152727,-65.8623917125,0.043815185726,1.36470096141,0.0,-0.218195400588,0.0,-0.12219335167,0.0,0.0,0.0,0.0,100.0,0.0,30.48,-0.0974315722759,-0.0,-0.00383606751517,100.0,-0.0943432553369,-0.0,0.0,100.0,1014515.2,0.0,0.0,0.0,0.0,0.0,0.0
1402599135844212263,0,10.4903217517,-0.114322152727,-65.8623917125,0.043815185726,1.36470096141,0.0,-0.218195400588,0.0,-0.12219335167,0.0,0.0,0.0,0.0,100.0,0.0,30.48,-0.0974315722759,-0.0,-0.00383606751517,100.0,-0.0943432553369,-0.0,0.0,100.0,1014515.2,0.0,0.0,0.0,0.0,0.0,0.0
1402599135863748345,0,10.5466864768,-0.114322152727,-65.8728534274,0.043815185726,1.36885081253,0.0,-0.204258044522,0.0,-0.115054832109,0.0,0.0,0.0,0.0,100.0,0.0,30.48,-0.0974315722759,-0.0,-0.00383606751517,100.0,-0.0943432553369,-0.0,0.0,100.0,1014515.2,0.0,0.0,0.0,0.0,0.0,0.0
1402599135884220976,0,10.5466864768,-0.114322152727,-65.8728534274,0.043815185726,1.36885081253,0.0,-0.204258044522,0.0,-0.115054832109,0.0,0.0,0.0,0.0,100.0,0.0,30.48,-0.0974315722759,-0.0,-0.00383606751517,100.0,-0.0943432553369,-0.0,0.0,100.0,1014515.2,0.0,0.0,0.0,0.0,0.0,0.0
1402599135903762616,0,10.6065563832,-0.114322152727,-65.8819205876,0.043815185726,1.38487219664,0.0,-0.189493005753,0.0,-0.108266019815,0.0,0.0,0.0,0.0,100.0,0.0,30.48,-0.0974315722759,-0.0,-0.00383606751517,100.0,-0.0943432553369,-0.0,0.0,100.0,1014515.2,0.0,0.0,0.0,0.0,0.0,0.0
1402599135924230198,0,10.6065563832,-0.114322152727,-65.8819205876,0.043815185726,1.38487219664,0.0,-0.189493005753,0.0,-0.108266019815,0.0,0.0,0.0,0.0,100.0,0.0,30.48,-0.0974315722759,-0.0,-0.00383606751517,100.0,-0.0943432553369,-0.0,0.0,100.0,1014515.2,0.0,0.0,0.0,0.0,0.0,0.0
1402599135943699864,0,10.6788687349,-0.114322152727,-65.8907874736,0.043815185726,1.39437031379,0.0,-0.162764603657,0.0,-0.0999899592523,0.0,0.0,0.0,0.0,100.0,0.0,30.48,-0.0974315722759,-0.0,-0.00383606751517,100.0,-0.0943432553369,-0.0,0.0,100.0,1014515.2,0.0,0.0,0.0,0.0,0.0,0.0
1402599135964302985,0,10.6788687349,-0.114322152727,-65.8907874736,0.043815185726,1.39437031379,0.0,-0.162764603657,0.0,-0.0999899592523,0.0,0.0,0.0,0.0,100.0,0.0,30.48,-0.0974315722759,-0.0,-0.00383606751517,100.0,-0.0943432553369,-0.0,0.0,100.0,1014515.2,0.0,0.0,0.0,0.0,0.0,0.0
1402599135983672655,0,10.7480488327,-0.114322152727,-65.8970239253,0.043815185726,1.39025564279,0.0,-0.131908924773,0.0,-0.0914086383764,0.0,0.0,0.0,0.0,100.0,0.0,30.48,-0.0974315722759,-0.0,-0.00383606751517,100.0,-0.0943432553369,-0.0,0.0,100.0,1014515.2,0.0,0.0,0.0,0.0,0.0,0.0
1402599136004228988,0,10.7480488327,-0.114322152727,-65.8970239253,0.043815185726,1.39025564279,0.0,-0.131908924773,0.0,-0.0914086383764,0.0,0.0,0.0,0.0,100.0,0.0,30.48,-0.0974315722759,-0.0,-0.00383606751517,100.0,-0.0943432553369,-0.0,0.0,100.0,1014515.2,0.0,0.0,0.0,0.0,0.0,0.0
1402599136023597780,0,10.7759980704,-0.114322152727,-65.8996068568,0.043815185726,1.3919421964,0.0,-0.120179666679,0.0,-0.0885910907827,0.0,0.0,0.0,0.0,100.0,0.0,30.48,-0.0974315722759,-0.0,-0.00383606751517,100.0,-0.0943432553369,-0.0,0.0,100.0,1014515.2,0.0,0.0,0.0,0.0,0.0,0.0
1402599136044282912,0,10.7759980704,-0.114322152727,-65.8996068568,0.043815185726,1.3919421964,0.0,-0.120179666679,0.0,-0.0885910907827,0.0,0.0,0.0,0.0,100.0,0.0,30.48,-0.0974315722759,-0.0,-0.00383606751517,100.0,-0.0943432553369,-0.0,0.0,100.0,1014515.2,0.0,0.0,0.0,0.0,0.0,0.0
1402599136063956115,0,10.8385603568,-0.114322152727,-65.9009813695,0.043815185726,1.39984917062,0.0,-0.0878941836529,0.0,-0.0845546832878,0.0,0.0,0.0,0.0,100.0,0.0,30.48,-0.0974315722759,-0.0,-0.00383606751517,100.0,-0.0943432553369,-0.0,0.0,100.0,1014515.2,0.0,0.0,0.0,0.0,0.0,0.0
1402599136084188463,0,10.8385603568,-0.114322152727,-65.9009813695,0.043815185726,1.39984917062,0.0,-0.0878941836529,0.0,-0.0845546832878,0.0,0.0,0.0,0.0,100.0,0.0,30.48,-0.0974315722759,-0.0,-0.00383606751517,100.0,-0.0943432553369,-0.0,0.0,100.0,1014515.2,0.0,0.0,0.0,0.0,0.0,0.0
1402599136103659412,0,10.9017767371,-0.114322152727,-65.8962054437,0.043815185726,1.40791891546,0.0,-0.0366203306761,0.0,-0.0828954193492,0.0,0.0,0.0,0.0,100.0,0.0,30.48,-0.0974315722759,-0.0,-0.00383606751517,100.0,-0.0943432553369,-0.0,0.0,100.0,1014515.2,0.0,0.0,0.0,0.0,0.0,0.0
1402599136124183944,0,10.9017767371,-0.114322152727,-65.8962054437,0.043815185726,1.40791891546,0.0,-0.0366203306761,0.0,-0.0828954193492,0.0,0.0,0.0,0.0,100.0,0.0,30.48,-0.0974315722759,-0.0,-0.00383606751517,100.0,-0.0943432553369,-0.0,0.0,100.0,1014515.2,0.0,0.0,0.0,0.0,0.0,0.0
1402599136144302976,0,10.9593982094,-0.114322152727,-65.9001969889,0.043815185726,1.40587921448,0.0,-0.0371166736615,0.0,-0.0759265325329,0.0,0.0,0.0,0.0,100.0,0.0,30.48,-0.0974315722759,-0.0,-0.00383606751517,100.0,-0.0943432553369,-0.0,0.0,100.0,1014515.2,0.0,0.0,0.0,0.0,0.0,0.0
1402599136164939437,0,10.9593982094,-0.114322152727,-65.9001969889,0.043815185726,1.40587921448,0.0,-0.0371166736615,0.0,-0.0759265325329,0.0,0.0,0.0,0.0,100.0,0.0,30.48,-0.0974315722759,-0.0,-0.00383606751517,100.0,-0.0943432553369,-0.0,0.0,100.0,1014515.2,0.0,0.0,0.0,0.0,0.0,0.0
1402599136183739587,0,11.0296166928,-0.114322152727,-65.9048097678,0.043815185726,1.4005135124,0.0,-0.0479513222828,0.0,-0.0665209240354,0.0,0.0,0.0,0.0,100.0,0.0,30.48,-0.0974315722759,-0.0,-0.00383606751517,100.0,-0.0943432553369,-0.0,0.0,100.0,1014515.2,0.0,0.0,0.0,0.0,0.0,0.0
1402599136204630977,0,11.0296166928,-0.114322152727,-65.9048097678,0.043815185726,1.4005135124,0.0,-0.0479513222828,0.0,-0.0665209240354,0.0,0.0,0.0,0.0,100.0,0.0,30.48,-0.0974315722759,-0.0,-0.00383606751517,100.0,-0.0943432553369,-0.0,0.0,100.0,1014515.2,0.0,0.0,0.0,0.0,0.0,0.0
1402599136223717997,0,11.072214811,-0.114322152727,-65.9085194024,0.043815185726,1.39747138121,0.0,-0.0525310156219,0.0,-0.0610788342517,0.0,0.0,0.0,0.0,100.0,0.0,30.48,-0.0974315722759,-0.0,-0.00383606751517,100.0,-0.0943432553369,-0.0,0.0,100.0,1014515.2,0.0,0.0,0.0,0.0,0.0,0.0
1402599136244183418,0,11.1016300739,-0.114322152727,-65.9095879621,0.043815185726,1.39801828611,0.0,-0.0521743623809,0.0,-0.0581216712953,0.0,0.0,0.0,0.0,100.0,0.0,30.48,-0.0974315722759,-0.0,-0.00383606751517,100.0,-0.0943432553369,-0.0,0.0,100.0,1014515.2,0.0,0.0,0.0,0.0,0.0,0.0
1402599136263707078,0,11.1016300739,-0.114322152727,-65.9095879621,0.043815185726,1.39801828611,0.0,-0.0521743623809,0.0,-0.0581216712953,0.0,0.0,0.0,0.0,100.0,0.0,30.48,-0.0974315722759,-0.0,-0.00383606751517,100.0,-0.0943432553369,-0.0,0.0,100.0,1014515.2,0.0,0.0,0.0,0.0,0.0,0.0
1402599136284265016,0,11.1308077484,-0.114322152727,-65.9106563727,0.043815185726,1.39825072989,0.0,-0.0520151222468,0.0,-0.0550827817416,0.0,0.0,0.0,0.0,100.0,0.0,30.48,-0.0974315722759,-0.0,-0.00383606751517,100.0,-0.0943432553369,-0.0,0.0,100.0,1014515.2,0.0,0.0,0.0,0.0,0.0,0.0
1402599136303680243,0,11.1308077484,-0.114322152727,-65.9106563727,0.043815185726,1.39825072989,0.0,-0.0520151222468,0.0,-0.0550827817416,0.0,0.0,0.0,0.0,100.0,0.0,30.48,-0.0974315722759,-0.0,-0.00383606751517,100.0,-0.0943432553369,-0.0,0.0,100.0,1014515.2,0.0,0.0,0.0,0.0,0.0,0.0
1402599136324211416,0,11.1883026427,-0.114322152727,-65.9133369377,0.043815185726,1.39809908529,0.0,-0.0532134152379,0.0,-0.0486124803531,0.0,0.0,0.0,0.0,100.0,0.0,30.48,-0.0974315722759,-0.0,-0.00383606751517,100.0,-0.0943432553369,-0.0,0.0,100.0,1014515.2,0.0,0.0,0.0,0.0,0.0,0.0
1402599136343725242,0,11.1883026427,-0.114322152727,-65.9133369377,0.043815185726,1.39809908529,0.0,-0.0532134152379,0.0,-0.0486124803531,0.0,0.0,0.0,0.0,100.0,0.0,30.48,-0.0974315722759,-0.0,-0.00383606751517,100.0,-0.0943432553369,-0.0,0.0,100.0,1014515.2,0.0,0.0,0.0,0.0,0.0,0.0
1402599136364314146,0,11.2479444874,-0.114322152727,-65.920113245,0.043815185726,1.40817403164,0.0,-0.0715759486198,0.0,-0.0404999092659,0.0,0.0,0.0,0.0,100.0,0.0,30.48,-0.0974315722759,-0.0,-0.00383606751517,100.0,-0.0943432553369,-0.0,0.0,100.0,1014515.2,0.0,0.0,0.0,0.0,0.0,0.0
1402599136383688925,0,11.2479444874,-0.114322152727,-65.920113245,0.043815185726,1.40817403164,0.0,-0.0715759486198,0.0,-0.0404999092659,0.0,0.0,0.0,0.0,100.0,0.0,30.48,-0.0974315722759,-0.0,-0.00383606751517,100.0,-0.0943432553369,-0.0,0.0,100.0,1014515.2,0.0,0.0,0.0,0.0,0.0,0.0
1402599136404294414,0,11.31204589,-0.114322152727,-65.9270723371,0.043815185726,1.38499188989,0.0,-0.0905648489345,0.0,-0.0303554072503,0.0,0.0,0.0,0.0,100.0,0.0,30.48,-0.0974315722759,-0.0,-0.00383606751517,100.0,-0.0943432553369,-0.0,0.0,100.0,1014515.2,0.0,0.0,0.0,0.0,0.0,0.0
1402599136423736621,0,11.31204589,-0.114322152727,-65.9270723371,0.043815185726,1.38499188989,0.0,-0.0905648489345,0.0,-0.0303554072503,0.0,0.0,0.0,0.0,100.0,0.0,30.48,-0.0974315722759,-0.0,-0.00383606751517,100.0,-0.0943432553369,-0.0,0.0,100.0,1014515.2,0.0,0.0,0.0,0.0,0.0,0.0
1402599136444287487,0,11.3847035878,-0.114322152727,-65.9371387668,0.043815185726,1.39852558686,0.0,-0.110049913058,0.0,-0.0186861859624,0.0,0.0,0.0,0.0,100.0,0.0,30.48,-0.0974315722759,-0.0,-0.00383606751517,100.0,-0.0943432553369,-0.0,0.0,100.0,1014515.2,0.0,0.0,0.0,0.0,0.0,0.0
1402599136463659349,0,11.3847035878,-0.114322152727,-65.9371387668,0.043815185726,1.39852558686,0.0,-0.110049913058,0.0,-0.0186861859624,0.0,0.0,0.0,0.0,100.0,0.0,30.48,-0.0974315722759,-0.0,-0.00383606751517,100.0,-0.0943432553369,-0.0,0.0,100.0,1014515.2,0.0,0.0,0.0,0.0,0.0,0.0
1402599136484282104,0,11.4103087879,-0.114322152727,-65.9389751746,0.043815185726,1.3847611655,0.0,-0.109328378954,0.0,-0.0150979308107,0.0,0.0,0.0,0.0,100.0,0.0,30.48,-0.0974315722759,-0.0,-0.00383606751517,100.0,-0.0943432553369,-0.0,0.0,100.0,1014515.2,0.0,0.0,0.0,0.0,0.0,0.0
1402599136503712320,0,11.4103087879,-0.114322152727,-65.9389751746,0.043815185726,1.3847611655,0.0,-0.109328378954,0.0,-0.0150979308107,0.0,0.0,0.0,0.0,100.0,0.0,30.48,-0.0974315722759,-0.0,-0.00383606751517,100.0,-0.0943432553369,-0.0,0.0,100.0,1014515.2,0.0,0.0,0.0,0.0,0.0,0.0
1402599136524442511,0,11.4670600696,-0.114322152727,-65.9434529768,0.043815185726,1.38643046664,0.0,-0.100266457411,0.0,-0.00743651689314,0.0,0.0,0.0,0.0,100.0,0.0,30.48,-0.0974315722759,-0.0,-0.00383606751517,100.0,-0.0943432553369,-0.0,0.0,100.0,1014515.2,0.0,0.0,0.0,0.0,0.0,0.0
1402599136543741829,0,11.4670600696,-0.114322152727,-65.9434529768,0.043815185726,1.38643046664,0.0,-0.100266457411,0.0,-0.00743651689314,0.0,0.0,0.0,0.0,100.0,0.0,30.48,-0.0974315722759,-0.0,-0.00383606751517,100.0,-0.0943432553369,-0.0,0.0,100.0,1014515.2,0.0,0.0,0.0,0.0,0.0,0.0
1402599136564246811,0,11.5254270138,-0.114322152727,-65.9473181682,0.043815185726,1.38648541406,0.0,-0.0870261794143,0.0,0.000528078168038,0.0,0.0,0.0,0.0,100.0,0.0,30.48,-0.0974315722759,-0.0,-0.00383606751517,100.0,-0.0943432553369,-0.0,0.0,100.0,1014515.2,0.0,0.0,0.0,0.0,0.0,0.0
1402599136583674564,0,11.5254270138,-0.114322152727,-65.9473181682,0.043815185726,1.38648541406,0.0,-0.0870261794143,0.0,0.000528078168038,0.0,0.0,0.0,0.0,100.0,0.0,30.48,-0.0974315722759,-0.0,-0.00383606751517,100.0,-0.0943432553369,-0.0,0.0,100.0,1014515.2,0.0,0.0,0.0,0.0,0.0,0.0
1402599136604404503,0,11.5829598049,-0.114322152727,-65.9533243293,0.043815185726,1.38952753373,0.0,-0.0899563824324,0.0,0.00932658488058,0.0,0.0,0.0,0.0,100.0,0.0,30.48,-0.0974315722759,-0.0,-0.00383606751517,100.0,-0.0943432553369,-0.0,0.0,100.0,1014515.2,0.0,0.0,0.0,0.0,0.0,0.0
1402599136623688020,0,11.5829598049,-0.114322152727,-65.9533243293,0.043815185726,1.38952753373,0.0,-0.0899563824324,0.0,0.00932658488058,0.0,0.0,0.0,0.0,100.0,0.0,30.48,-0.0974315722759,-0.0,-0.00383606751517,100.0,-0.0943432553369,-0.0,0.0,100.0,1014515.2,0.0,0.0,0.0,0.0,0.0,0.0
1402599136644428736,0,11.6347755019,-0.114322152727,-65.9629761801,0.043815185726,1.38290050889,0.0,-0.0954711864008,0.0,0.0181409836978,0.0,0.0,0.0,0.0,100.0,0.0,30.48,-0.0974315722759,-0.0,-0.00383606751517,100.0,-0.0943432553369,-0.0,0.0,100.0,1014515.2,0.0,0.0,0.0,0.0,0.0,0.0
1402599136663683821,0,11.6347755019,-0.114322152727,-65.9629761801,0.043815185726,1.38290050889,0.0,-0.0954711864008,0.0,0.0181409836978,0.0,0.0,0.0,0.0,100.0,0.0,30.48,-0.0974315722759,-0.0,-0.00383606751517,100.0,-0.0943432553369,-0.0,0.0,100.0,1014515.2,0.0,0.0,0.0,0.0,0.0,0.0
1402599136684921910,0,11.7164448853,-0.114322152727,-65.9572732599,0.043815185726,1.40182344771,0.0,-0.045474807947,0.0,0.0240832790825,0.0,0.0,0.0,0.0,100.0,0.0,30.48,-0.0974315722759,-0.0,-0.00383606751517,100.0,-0.0943432553369,-0.0,0.0,100.0,1014515.2,0.0,0.0,0.0,0.0,0.0,0.0
1402599136703772466,0,11.7164448853,-0.114322152727,-65.9572732599,0.043815185726,1.40182344771,0.0,-0.045474807947,0.0,0.0240832790825,0.0,0.0,0.0,0.0,100.0,0.0,30.48,-0.0974315722759,-0.0,-0.00383606751517,100.0,-0.0943432553369,-0.0,0.0,100.0,1014515.2,0.0,0.0,0.0,0.0,0.0,0.0
1402599136724276236,0,11.7615473278,-0.114322152727,-65.9597369569,0.043815185726,1.40694733706,0.0,-0.0495582535117,0.0,0.0294767393716,0.0,0.0,0.0,0.0,100.0,0.0,30.48,-0.0974315722759,-0.0,-0.00383606751517,100.0,-0.0943432553369,-0.0,0.0,100.0,1014515.2,0.0,0.0,0.0,0.0,0.0,0.0
1402599136743705040,0,11.7899814061,-0.114322152727,-65.9606448965,0.043815185726,1.40710751787,0.0,-0.0465079207163,0.0,0.0324019288824,0.0,0.0,0.0,0.0,100.0,0.0,30.48,-0.0974315722759,-0.0,-0.00383606751517,100.0,-0.0943432553369,-0.0,0.0,100.0,1014515.2,0.0,0.0,0.0,0.0,0.0,0.0
1402599136764274693,0,11.7899814061,-0.114322152727,-65.9606448965,0.043815185726,1.40710751787,0.0,-0.0465079207163,0.0,0.0324019288824,0.0,0.0,0.0,0.0,100.0,0.0,30.48,-0.0974315722759,-0.0,-0.00383606751517,100.0,-0.0943432553369,-0.0,0.0,100.0,1014515.2,0.0,0.0,0.0,0.0,0.0,0.0
1402599136783873700,0,11.8188143109,-0.114322152727,-65.9582966017,0.043815185726,1.40381783631,0.0,-0.029047936624,0.0,0.034114526052,0.0,0.0,0.0,0.0,100.0,0.0,30.48,-0.0974315722759,-0.0,-0.00383606751517,100.0,-0.0943432553369,-0.0,0.0,100.0,1014515.2,0.0,0.0,0.0,0.0,0.0,0.0
1402599136804199135,0,11.8188143109,-0.114322152727,-65.9582966017,0.043815185726,1.40381783631,0.0,-0.029047936624,0.0,0.034114526052,0.0,0.0,0.0,0.0,100.0,0.0,30.48,-0.0974315722759,-0.0,-0.00383606751517,100.0,-0.0943432553369,-0.0,0.0,100.0,1014515.2,0.0,0.0,0.0,0.0,0.0,0.0
1402599136823959674,0,11.8731810221,-0.114322152727,-65.9603054338,0.043815185726,1.39357434203,0.0,-0.0289792660478,0.0,0.0398237123286,0.0,0.0,0.0,0.0,100.0,0.0,30.48,-0.0974315722759,-0.0,-0.00383606751517,100.0,-0.0943432553369,-0.0,0.0,100.0,1014515.2,0.0,0.0,0.0,0.0,0.0,0.0
1402599136844241816,0,11.8731810221,-0.114322152727,-65.9603054338,0.043815185726,1.39357434203,0.0,-0.0289792660478,0.0,0.0398237123286,0.0,0.0,0.0,0.0,100.0,0.0,30.48,-0.0974315722759,-0.0,-0.00383606751517,100.0,-0.0943432553369,-0.0,0.0,100.0,1014515.2,0.0,0.0,0.0,0.0,0.0,0.0
1402599136863705176,0,11.9390613053,-0.114322152727,-65.9613032427,0.043815185726,1.41368433645,0.0,-0.0334581465679,0.0,0.0451519025276,0.0,0.0,0.0,0.0,100.0,0.0,30.48,-0.0974315722759,-0.0,-0.00383606751517,100.0,-0.0943432553369,-0.0,0.0,100.0,1014515.2,0.0,0.0,0.0,0.0,0.0,0.0
1402599136884190051,0,11.9390613053,-0.114322152727,-65.9613032427,0.043815185726,1.41368433645,0.0,-0.0334581465679,0.0,0.0451519025276,0.0,0.0,0.0,0.0,100.0,0.0,30.48,-0.0974315722759,-0.0,-0.00383606751517,100.0,-0.0943432553369,-0.0,0.0,100.0,1014515.2,0.0,0.0,0.0,0.0,0.0,0.0
1402599136903679469,0,11.9942386677,-0.114322152727,-65.960533545,0.043815185726,1.40499174942,0.0,-0.0231233057167,0.0,0.0493850712515,0.0,0.0,0.0,0.0,100.0,0.0,30.48,-0.0974315722759,-0.0,-0.00383606751517,100.0,-0.0943432553369,-0.0,0.0,100.0,1014515.2,0.0,0.0,0.0,0.0,0.0,0.0
1402599136924274198,0,11.9942386677,-0.114322152727,-65.960533545,0.043815185726,1.40499174942,0.0,-0.0231233057167,0.0,0.0493850712515,0.0,0.0,0.0,0.0,100.0,0.0,30.48,-0.0974315722759,-0.0,-0.00383606751517,100.0,-0.0943432553369,-0.0,0.0,100.0,1014515.2,0.0,0.0,0.0,0.0,0.0,0.0
1402599136943688447,0,12.0653207034,-0.114322152727,-65.9626433575,0.043815185726,1.40239636604,0.0,-0.0253557420248,0.0,0.0564610230124,0.0,0.0,0.0,0.0,100.0,0.0,30.48,-0.0974315722759,-0.0,-0.00383606751517,100.0,-0.0943432553369,-0.0,0.0,100.0,1014515.2,0.0,0.0,0.0,0.0,0.0,0.0
