rosbagTimestamp,control_method,x_current,x_desired,y_current,y_desired,x_velocity_current,x_velocity_desired,y_velocity_current,y_velocity_desired,yaw_current,yaw_desired,required_force_x,required_force_y,required_moment_z,resultant_force_x,resultant_force_y,resultant_moment_z,current_port_servo_angle,current_port_thruster_force,current_starboard_servo_angle,current_starboard_thruster_force,estimated_port_servo_angle,estimated_port_thruster_force,estimated_starboard_servo_angle,estimated_starboard_thruster_force,cost_value,step,user_defined_1,user_defined_2,user_defined_3,user_defined_4,user_defined_5
1402599698125037796,0,-5.39282826847,-0.114322152727,-8.83589009662,0.043815185726,0.0381139707124,0.0,0.213363292733,0.0,-0.633580403196,0.0,0.0,0.0,0.0,-5.05885888999,-28.6902144516,22.3107864311,-1.73305431207,29.1328072548,1.64713033835,-0.0,-1.74532925199,29.1328072548,1.6446306579,-0.0,665973.003183,0.0,0.0,0.0,0.0,0.0,0.0
1402599698145079855,0,-5.39282826847,-0.114322152727,-8.83589009662,0.043815185726,0.0381139707124,0.0,0.213363292733,0.0,-0.633580403196,0.0,0.0,0.0,0.0,-5.05885888999,-28.6902144516,22.3107864311,-1.73305431207,29.1328072548,1.64713033835,-0.0,-1.74532925199,29.1328072548,1.6446306579,-0.0,665973.003183,0.0,0.0,0.0,0.0,0.0,0.0
1402599698164597490,0,-5.3922335081,-0.114322152727,-8.83140821797,0.043815185726,0.0386962692508,0.0,0.211953317783,0.0,-0.635890428342,0.0,0.0,0.0,0.0,-5.05885888999,-28.6902144516,22.3107864311,-1.73305431207,29.1328072548,1.64713033835,-0.0,-1.74532925199,29.1328072548,1.6446306579,-0.0,665973.003183,0.0,0.0,0.0,0.0,0.0,0.0
1402599698185021298,0,-5.3922335081,-0.114322152727,-8.83140821797,0.043815185726,0.0386962692508,0.0,0.211953317783,0.0,-0.635890428342,0.0,0.0,0.0,0.0,-5.05885888999,-28.6902144516,22.3107864311,-1.73305431207,29.1328072548,1.64713033835,-0.0,-1.74532925199,29.1328072548,1.6446306579,-0.0,665973.003183,0.0,0.0,0.0,0.0,0.0,0.0
1402599698204565013,0,-5.41030823964,-0.114322152727,-8.82219313038,0.043815185726,-0.00563826762431,0.0,0.22288739789,0.0,-0.64071975471,0.0,0.0,0.0,0.0,-5.05885888999,-28.6902144516,22.3107864311,-1.73305431207,29.1328072548,1.64713033835,-0.0,-1.74532925199,29.1328072548,1.6446306579,-0.0,665973.003183,0.0,0.0,0.0,0.0,0.0,0.0
1402599698225165623,0,-5.41030823964,-0.114322152727,-8.82219313038,0.043815185726,-0.00563826762431,0.0,0.22288739789,0.0,-0.64071975471,0.0,0.0,0.0,0.0,-5.05885888999,-28.6902144516,22.3107864311,-1.73305431207,29.1328072548,1.64713033835,-0.0,-1.74532925199,29.1328072548,1.6446306579,-0.0,665973.003183,0.0,0.0,0.0,0.0,0.0,0.0
1402599698244736320,0,-5.41127486377,-0.114322152727,-8.83475711047,0.043815185726,-0.0326976872095,0.0,0.213151644533,0.0,-0.64592666036,0.0,0.0,0.0,0.0,-5.05885888999,-28.6902144516,22.3107864311,-1.73305431207,29.1328072548,1.64713033835,-0.0,-1.74532925199,29.1328072548,1.6446306579,-0.0,665973.003183,0.0,0.0,0.0,0.0,0.0,0.0
1402599698265013185,0,-5.41127486377,-0.114322152727,-8.83475711047,0.043815185726,-0.0326976872095,0.0,0.213151644533,0.0,-0.64592666036,0.0,0.0,0.0,0.0,-5.05885888999,-28.6902144516,22.3107864311,-1.73305431207,29.1328072548,1.64713033835,-0.0,-1.74532925199,29.1328072548,1.6446306579,-0.0,665973.003183,0.0,0.0,0.0,0.0,0.0,0.0
1402599698284612105,0,-5.39711197339,-0.114322152727,-8.8528318974,0.043815185726,-0.0316765402964,0.0,0.203782720303,0.0,-0.651376043072,0.0,0.0,0.0,0.0,-5.05885888999,-28.6902144516,22.3107864311,-1.73305431207,29.1328072548,1.64713033835,-0.0,-1.74532925199,29.1328072548,1.6446306579,-0.0,665973.003183,0.0,0.0,0.0,0.0,0.0,0.0
1402599698305132887,0,-5.39711197339,-0.114322152727,-8.8528318974,0.043815185726,-0.0316765402964,0.0,0.203782720303,0.0,-0.651376043072,0.0,0.0,0.0,0.0,-5.05885888999,-28.6902144516,22.3107864311,-1.73458877404,29.1328072548,1.64713033835,-0.0,-1.74532925199,29.1328072548,1.6446306579,-0.0,665973.003183,0.0,0.0,0.0,0.0,0.0,0.0
1402599698324522489,0,-5.40334084744,-0.114322152727,-8.82521098245,0.043815185726,-0.0138011608067,0.0,0.221455308042,0.0,-0.658980723786,0.0,0.0,0.0,0.0,-5.05885888999,-28.6902144516,22.3107864311,-1.73305431207,29.1328072548,1.64713033835,-0.0,-1.74532925199,29.1328072548,1.6446306579,-0.0,665973.003183,0.0,0.0,0.0,0.0,0.0,0.0
1402599698345537121,0,-5.40334084744,-0.114322152727,-8.82521098245,0.043815185726,-0.0138011608067,0.0,0.221455308042,0.0,-0.658980723786,0.0,0.0,0.0,0.0,-5.05885888999,-28.6902144516,22.3107864311,-1.73305431207,29.1328072548,1.64713033835,-0.0,-1.74532925199,29.1328072548,1.6446306579,-0.0,665973.003183,0.0,0.0,0.0,0.0,0.0,0.0
1402599698364569248,0,-5.41889673357,-0.114322152727,-8.80569251278,0.043815185726,-0.0341294948734,0.0,0.244236253348,0.0,-0.665768685343,0.0,0.0,0.0,0.0,-5.05885888999,-28.6902144516,22.3107864311,-1.73305431207,29.1328072548,1.64713033835,-0.0,-1.74532925199,29.1328072548,1.6446306579,-0.0,665973.003183,0.0,0.0,0.0,0.0,0.0,0.0
1402599698384898175,0,-5.41889673357,-0.114322152727,-8.80569251278,0.043815185726,-0.0341294948734,0.0,0.244236253348,0.0,-0.665768685343,0.0,0.0,0.0,0.0,-5.05885888999,-28.6902144516,22.3107864311,-1.73305431207,29.1328072548,1.64713033835,-0.0,-1.74532925199,29.1328072548,1.6446306579,-0.0,665973.003183,0.0,0.0,0.0,0.0,0.0,0.0
1402599698404357620,0,-5.41943614389,-0.114322152727,-8.80054260977,0.043815185726,-0.0332930155816,0.0,0.248011203348,0.0,-0.668776628191,0.0,0.0,0.0,0.0,-5.05885888999,-28.6902144516,22.3107864311,-1.73305431207,29.1328072548,1.64713033835,-0.0,-1.74532925199,29.1328072548,1.6446306579,-0.0,665973.003183,0.0,0.0,0.0,0.0,0.0,0.0
1402599698424849980,0,-5.41943614389,-0.114322152727,-8.80054260977,0.043815185726,-0.0332930155816,0.0,0.248011203348,0.0,-0.668776628191,0.0,0.0,0.0,0.0,-5.05885888999,-28.6902144516,22.3107864311,-1.73305431207,29.1328072548,1.64713033835,-0.0,-1.74532925199,29.1328072548,1.6446306579,-0.0,665973.003183,0.0,0.0,0.0,0.0,0.0,0.0
1402599698444459576,0,-5.42070798306,-0.114322152727,-8.79012389139,0.043815185726,-0.0311735101278,0.0,0.256484385118,0.0,-0.674848168541,0.0,0.0,0.0,0.0,-5.05885888999,-28.6902144516,22.3107864311,-1.73305431207,29.1328072548,1.64713033835,-0.0,-1.74532925199,29.1328072548,1.6446306579,-0.0,665973.003183,0.0,0.0,0.0,0.0,0.0,0.0
1402599698465168460,0,-5.42070798306,-0.114322152727,-8.79012389139,0.043815185726,-0.0311735101278,0.0,0.256484385118,0.0,-0.674848168541,0.0,0.0,0.0,0.0,-5.05885888999,-28.6902144516,22.3107864311,-1.73305431207,29.1328072548,1.64713033835,-0.0,-1.74532925199,29.1328072548,1.6446306579,-0.0,665973.003183,0.0,0.0,0.0,0.0,0.0,0.0
1402599698484473054,0,-5.42237669473,-0.114322152727,-8.77408523546,0.043815185726,-0.0264763689934,0.0,0.27903108543,0.0,-0.680957849927,0.0,0.0,0.0,0.0,-5.05885888999,-28.6902144516,22.3107864311,-1.73305431207,29.1328072548,1.64713033835,-0.0,-1.74532925199,29.1328072548,1.6446306579,-0.0,665973.003183,0.0,0.0,0.0,0.0,0.0,0.0
1402599698505089783,0,-5.42237669473,-0.114322152727,-8.77408523546,0.043815185726,-0.0264763689934,0.0,0.27903108543,0.0,-0.680957849927,0.0,0.0,0.0,0.0,-5.05885888999,-28.6902144516,22.3107864311,-1.73305431207,29.1328072548,1.64713033835,-0.0,-1.74532925199,29.1328072548,1.6446306579,-0.0,665973.003183,0.0,0.0,0.0,0.0,0.0,0.0
1402599698524709929,0,-5.42319454649,-0.114322152727,-8.76223089751,0.043815185726,-0.0235907767985,0.0,0.287841674659,0.0,-0.68679462964,0.0,0.0,0.0,0.0,-5.05885888999,-28.6902144516,22.3107864311,-1.73305431207,29.1328072548,1.64713033835,-0.0,-1.74532925199,29.1328072548,1.6446306579,-0.0,665973.003183,0.0,0.0,0.0,0.0,0.0,0.0
1402599698545099406,0,-5.42319454649,-0.114322152727,-8.76223089751,0.043815185726,-0.0235907767985,0.0,0.287841674659,0.0,-0.68679462964,0.0,0.0,0.0,0.0,-5.05885888999,-28.6902144516,22.3107864311,-1.73305431207,29.1328072548,1.64713033835,-0.0,-1.74532925199,29.1328072548,1.6446306579,-0.0,665973.003183,0.0,0.0,0.0,0.0,0.0,0.0
1402599698564523401,0,-5.42748917351,-0.114322152727,-8.7574183792,0.043815185726,-0.0327043348072,0.0,0.274329819497,0.0,-0.693350909802,0.0,0.0,0.0,0.0,-5.05885888999,-28.6902144516,22.3107864311,-1.73305431207,29.1328072548,1.64713033835,-0.0,-1.74532925199,29.1328072548,1.6446306579,-0.0,665973.003183,0.0,0.0,0.0,0.0,0.0,0.0
1402599698584946400,0,-5.42748917351,-0.114322152727,-8.7574183792,0.043815185726,-0.0327043348072,0.0,0.274329819497,0.0,-0.693350909802,0.0,0.0,0.0,0.0,-5.05885888999,-28.6902144516,22.3107864311,-1.73305431207,29.1328072548,1.64713033835,-0.0,-1.74532925199,29.1328072548,1.6446306579,-0.0,665973.003183,0.0,0.0,0.0,0.0,0.0,0.0
1402599698604756413,0,-5.42812564034,-0.114322152727,-8.74887471258,0.043815185726,-0.0303822674906,0.0,0.276832200399,0.0,-0.697620914969,0.0,0.0,0.0,0.0,-5.05885888999,-28.6902144516,22.3107864311,-1.73305431207,29.1328072548,1.64713033835,-0.0,-1.74532925199,29.1328072548,1.6446306579,-0.0,665973.003183,0.0,0.0,0.0,0.0,0.0,0.0
1402599698625115663,0,-5.42886668449,-0.114322152727,-8.74338692305,0.043815185726,-0.0293405221629,0.0,0.277801309275,0.0,-0.700416110235,0.0,0.0,0.0,0.0,-5.05885888999,-28.6902144516,22.3107864311,-1.73305431207,29.1328072548,1.64713033835,-0.0,-1.74532925199,29.1328072548,1.6446306579,-0.0,665973.003183,0.0,0.0,0.0,0.0,0.0,0.0
1402599698644522358,0,-5.42886668449,-0.114322152727,-8.74338692305,0.043815185726,-0.0293405221629,0.0,0.277801309275,0.0,-0.700416110235,0.0,0.0,0.0,0.0,-5.05885888999,-28.6902144516,22.3107864311,-1.73458877404,29.1328072548,1.64713033835,-0.0,-1.74532925199,29.1328072548,1.6446306579,-0.0,665973.003183,0.0,0.0,0.0,0.0,0.0,0.0
1402599698665040979,0,-5.42950772426,-0.114322152727,-8.73462675908,0.043815185726,-0.0286750592742,0.0,0.277399322234,0.0,-0.70461874433,0.0,0.0,0.0,0.0,-5.05885888999,-28.6902144516,22.3107864311,-1.73305431207,29.1328072548,1.64713033835,-0.0,-1.74532925199,29.1328072548,1.6446306579,-0.0,665973.003183,0.0,0.0,0.0,0.0,0.0,0.0
1402599698684514464,0,-5.42950772426,-0.114322152727,-8.73462675908,0.043815185726,-0.0286750592742,0.0,0.277399322234,0.0,-0.70461874433,0.0,0.0,0.0,0.0,-5.05885888999,-28.6902144516,22.3107864311,-1.73305431207,29.1328072548,1.64713033835,-0.0,-1.74532925199,29.1328072548,1.6446306579,-0.0,665973.003183,0.0,0.0,0.0,0.0,0.0,0.0
1402599698705190021,0,-5.4405867708,-0.114322152727,-8.74611987329,0.043815185726,-0.0781244301919,0.0,0.251236448192,0.0,-0.706931856926,0.0,0.0,0.0,0.0,-5.05885888999,-28.6902144516,22.3107864311,-1.73305431207,29.1328072548,1.64713033835,-0.0,-1.74532925199,29.1328072548,1.6446306579,-0.0,665973.003183,0.0,0.0,0.0,0.0,0.0,0.0
1402599698724634077,0,-5.4405867708,-0.114322152727,-8.74611987329,0.043815185726,-0.0781244301919,0.0,0.251236448192,0.0,-0.706931856926,0.0,0.0,0.0,0.0,-5.05885888999,-28.6902144516,22.3107864311,-1.73305431207,29.1328072548,1.64713033835,-0.0,-1.74532925199,29.1328072548,1.6446306579,-0.0,665973.003183,0.0,0.0,0.0,0.0,0.0,0.0
1402599698745224851,0,-5.43535700715,-0.114322152727,-8.72484464158,0.043815185726,-0.0443829309895,0.0,0.254753902032,0.0,-0.713281040748,0.0,0.0,0.0,0.0,-5.05885888999,-28.6902144516,22.3107864311,-1.73305431207,29.1328072548,1.64713033835,-0.0,-1.74532925199,29.1328072548,1.6446306579,-0.0,665973.003183,0.0,0.0,0.0,0.0,0.0,0.0
1402599698764636894,0,-5.43535700715,-0.114322152727,-8.72484464158,0.043815185726,-0.0443829309895,0.0,0.254753902032,0.0,-0.713281040748,0.0,0.0,0.0,0.0,-5.05885888999,-28.6902144516,22.3107864311,-1.73305431207,29.1328072548,1.64713033835,-0.0,-1.74532925199,29.1328072548,1.6446306579,-0.0,665973.003183,0.0,0.0,0.0,0.0,0.0,0.0
1402599698785110884,0,-5.43142252966,-0.114322152727,-8.70195654844,0.043815185726,0.00285660106475,0.0,0.236458045096,0.0,-0.71944630654,0.0,0.0,0.0,0.0,-5.05885888999,-28.6902144516,22.3107864311,-1.73305431207,29.1328072548,1.64713033835,-0.0,-1.74532925199,29.1328072548,1.6446306579,-0.0,665973.003183,0.0,0.0,0.0,0.0,0.0,0.0
1402599698804708076,0,-5.43142252966,-0.114322152727,-8.70195654844,0.043815185726,0.00285660106475,0.0,0.236458045096,0.0,-0.71944630654,0.0,0.0,0.0,0.0,-5.05885888999,-28.6902144516,22.3107864311,-1.73305431207,29.1328072548,1.64713033835,-0.0,-1.74532925199,29.1328072548,1.6446306579,-0.0,665973.003183,0.0,0.0,0.0,0.0,0.0,0.0
1402599698825126423,0,-5.4371829215,-0.114322152727,-8.66420849143,0.043815185726,0.0324733717584,0.0,0.244583635057,0.0,-0.726715643483,0.0,0.0,0.0,0.0,-5.05885888999,-28.6902144516,22.3107864311,-1.73305431207,29.1328072548,1.64713033835,-0.0,-1.74532925199,29.1328072548,1.6446306579,-0.0,665973.003183,0.0,0.0,0.0,0.0,0.0,0.0
1402599698844588505,0,-5.4371829215,-0.114322152727,-8.66420849143,0.043815185726,0.0324733717584,0.0,0.244583635057,0.0,-0.726715643483,0.0,0.0,0.0,0.0,-5.05885888999,-28.6902144516,22.3107864311,-1.73305431207,29.1328072548,1.64713033835,-0.0,-1.74532925199,29.1328072548,1.6446306579,-0.0,665973.003183,0.0,0.0,0.0,0.0,0.0,0.0
1402599698865178697,0,-5.44568800554,-0.114322152727,-8.64551562659,0.043815185726,0.0490263580869,0.0,0.226477978988,0.0,-0.733480778759,0.0,0.0,0.0,0.0,-5.05885888999,-28.6902144516,22.3107864311,-1.73305431207,29.1328072548,1.64713033835,-0.0,-1.74532925199,29.1328072548,1.6446306579,-0.0,665973.003183,0.0,0.0,0.0,0.0,0.0,0.0
1402599698884692533,0,-5.44568800554,-0.114322152727,-8.64551562659,0.043815185726,0.0490263580869,0.0,0.226477978988,0.0,-0.733480778759,0.0,0.0,0.0,0.0,-5.05885888999,-28.6902144516,22.3107864311,-1.73305431207,29.1328072548,1.64713033835,-0.0,-1.74532925199,29.1328072548,1.6446306579,-0.0,665973.003183,0.0,0.0,0.0,0.0,0.0,0.0
1402599698905098442,0,-5.44491409793,-0.114322152727,-8.64186026315,0.043815185726,0.0483783969538,0.0,0.223448877769,0.0,-0.735309053541,0.0,0.0,0.0,0.0,-5.05885888999,-28.6902144516,22.3107864311,-1.73305431207,29.1328072548,1.64713033835,-0.0,-1.74532925199,29.1328072548,1.6446306579,-0.0,665973.003183,0.0,0.0,0.0,0.0,0.0,0.0
1402599698924546750,0,-5.44491409793,-0.114322152727,-8.64186026315,0.043815185726,0.0483783969538,0.0,0.223448877769,0.0,-0.735309053541,0.0,0.0,0.0,0.0,-5.05885888999,-28.6902144516,22.3107864311,-1.73305431207,29.1328072548,1.64713033835,-0.0,-1.74532925199,29.1328072548,1.6446306579,-0.0,665973.003183,0.0,0.0,0.0,0.0,0.0,0.0
1402599698945171941,0,-5.46417965726,-0.114322152727,-8.61849302271,0.043815185726,0.0362651568063,0.0,0.219900891794,0.0,-0.740326298497,0.0,0.0,0.0,0.0,-5.05885888999,-28.6902144516,22.3107864311,-1.73305431207,29.1328072548,1.64713033835,-0.0,-1.74532925199,29.1328072548,1.6446306579,-0.0,665973.003183,0.0,0.0,0.0,0.0,0.0,0.0
1402599698964669117,0,-5.46417965726,-0.114322152727,-8.61849302271,0.043815185726,0.0362651568063,0.0,0.219900891794,0.0,-0.740326298497,0.0,0.0,0.0,0.0,-5.05885888999,-28.6902144516,22.3107864311,-1.73305431207,29.1328072548,1.64713033835,-0.0,-1.74532925199,29.1328072548,1.6446306579,-0.0,665973.003183,0.0,0.0,0.0,0.0,0.0,0.0
1402599698984981183,0,-5.48798984587,-0.114322152727,-8.60956936107,0.043815185726,-0.00562545479963,0.0,0.212252563936,0.0,-0.745377964743,0.0,0.0,0.0,0.0,-5.05885888999,-28.6902144516,22.3107864311,-1.73305431207,29.1328072548,1.64713033835,-0.0,-1.74532925199,29.1328072548,1.6446306579,-0.0,665973.003183,0.0,0.0,0.0,0.0,0.0,0.0
1402599699004566060,0,-5.48798984587,-0.114322152727,-8.60956936107,0.043815185726,-0.00562545479963,0.0,0.212252563936,0.0,-0.745377964743,0.0,0.0,0.0,0.0,-5.05885888999,-28.6902144516,22.3107864311,-1.73305431207,29.1328072548,1.64713033835,-0.0,-1.74532925199,29.1328072548,1.6446306579,-0.0,665973.003183,0.0,0.0,0.0,0.0,0.0,0.0
1402599699025078854,0,-5.49818902674,-0.114322152727,-8.60378910802,0.043815185726,-0.0140531170821,0.0,0.209859488586,0.0,-0.751556479163,0.0,0.0,0.0,0.0,-5.05885888999,-28.6902144516,22.3107864311,-1.73305431207,29.1328072548,1.64713033835,-0.0,-1.74532925199,29.1328072548,1.6446306579,-0.0,665973.003183,0.0,0.0,0.0,0.0,0.0,0.0
1402599699044599052,0,-5.49818902674,-0.114322152727,-8.60378910802,0.043815185726,-0.0140531170821,0.0,0.209859488586,0.0,-0.751556479163,0.0,0.0,0.0,0.0,-5.05885888999,-28.6902144516,22.3107864311,-1.73305431207,29.1328072548,1.64713033835,-0.0,-1.74532925199,29.1328072548,1.6446306579,-0.0,665973.003183,0.0,0.0,0.0,0.0,0.0,0.0
1402599699064962512,0,-5.49900305019,-0.114322152727,-8.59723092681,0.043815185726,-0.0162265381007,0.0,0.210329694479,0.0,-0.755209620973,0.0,0.0,0.0,0.0,-5.05885888999,-28.6902144516,22.3107864311,-1.73305431207,29.1328072548,1.64713033835,-0.0,-1.74532925199,29.1328072548,1.6446306579,-0.0,665973.003183,0.0,0.0,0.0,0.0,0.0,0.0
1402599699084639352,0,-5.51399827804,-0.114322152727,-8.60426385841,0.043815185726,-0.0419427433867,0.0,0.188461004197,0.0,-0.757471776663,0.0,0.0,0.0,0.0,-5.05885888999,-28.6902144516,22.3107864311,-1.73305431207,29.1328072548,1.64713033835,-0.0,-1.74532925199,29.1328072548,1.6446306579,-0.0,665973.003183,0.0,0.0,0.0,0.0,0.0,0.0
1402599699105056252,0,-5.51399827804,-0.114322152727,-8.60426385841,0.043815185726,-0.0419427433867,0.0,0.188461004197,0.0,-0.757471776663,0.0,0.0,0.0,0.0,-5.05885888999,-28.6902144516,22.3107864311,-1.73305431207,29.1328072548,1.64713033835,-0.0,-1.74532925199,29.1328072548,1.6446306579,-0.0,665973.003183,0.0,0.0,0.0,0.0,0.0,0.0
1402599699124616828,0,-5.51483557614,-0.114322152727,-8.60055272167,0.043815185726,-0.0424124162252,0.0,0.189962322119,0.0,-0.759827009617,0.0,0.0,0.0,0.0,-5.05885888999,-28.6902144516,22.3107864311,-1.73305431207,29.1328072548,1.64713033835,-0.0,-1.74532925199,29.1328072548,1.6446306579,-0.0,665973.003183,0.0,0.0,0.0,0.0,0.0,0.0
1402599699145203274,0,-5.51483557614,-0.114322152727,-8.60055272167,0.043815185726,-0.0424124162252,0.0,0.189962322119,0.0,-0.759827009617,0.0,0.0,0.0,0.0,-5.05885888999,-28.6902144516,22.3107864311,-1.73305431207,29.1328072548,1.64713033835,-0.0,-1.74532925199,29.1328072548,1.6446306579,-0.0,665973.003183,0.0,0.0,0.0,0.0,0.0,0.0
1402599699164837076,0,-5.52681579689,-0.114322152727,-8.584884686,0.043815185726,-0.0419170419649,0.0,0.208033040234,0.0,-0.765019900668,0.0,0.0,0.0,0.0,-5.05885888999,-28.6902144516,22.3107864311,-1.73305431207,29.1328072548,1.64713033835,-0.0,-1.74532925199,29.1328072548,1.6446306579,-0.0,665973.003183,0.0,0.0,0.0,0.0,0.0,0.0
1402599699185217018,0,-5.52681579689,-0.114322152727,-8.584884686,0.043815185726,-0.0419170419649,0.0,0.208033040234,0.0,-0.765019900668,0.0,0.0,0.0,0.0,-5.05885888999,-28.6902144516,22.3107864311,-1.73305431207,29.1328072548,1.64713033835,-0.0,-1.74532925199,29.1328072548,1.6446306579,-0.0,665973.003183,0.0,0.0,0.0,0.0,0.0,0.0
1402599699204669730,0,-5.52869641505,-0.114322152727,-8.57621822287,0.043815185726,-0.0412467227255,0.0,0.213484810047,0.0,-0.769894475134,0.0,0.0,0.0,0.0,-5.05885888999,-28.6902144516,22.3107864311,-1.73305431207,29.1328072548,1.64713033835,-0.0,-1.74532925199,29.1328072548,1.6446306579,-0.0,665973.003183,0.0,0.0,0.0,0.0,0.0,0.0
1402599699225234019,0,-5.52869641505,-0.114322152727,-8.57621822287,0.043815185726,-0.0412467227255,0.0,0.213484810047,0.0,-0.769894475134,0.0,0.0,0.0,0.0,-5.05885888999,-28.6902144516,22.3107864311,-1.73305431207,29.1328072548,1.64713033835,-0.0,-1.74532925199,29.1328072548,1.6446306579,-0.0,665973.003183,0.0,0.0,0.0,0.0,0.0,0.0
1402599699244617890,0,-5.53326126219,-0.114322152727,-8.56658949872,0.043815185726,-0.023054989996,0.0,0.211568455396,0.0,-0.774671948605,0.0,0.0,0.0,0.0,-5.05885888999,-28.6902144516,22.3107864311,-1.73305431207,29.1328072548,1.64713033835,-0.0,-1.74532925199,29.1328072548,1.6446306579,-0.0,665973.003183,0.0,0.0,0.0,0.0,0.0,0.0
1402599699265295858,0,-5.53326126219,-0.114322152727,-8.56658949872,0.043815185726,-0.023054989996,0.0,0.211568455396,0.0,-0.774671948605,0.0,0.0,0.0,0.0,-5.05885888999,-28.6902144516,22.3107864311,-1.73305431207,29.1328072548,1.64713033835,-0.0,-1.74532925199,29.1328072548,1.6446306579,-0.0,665973.003183,0.0,0.0,0.0,0.0,0.0,0.0
1402599699284516878,0,-5.5339624007,-0.114322152727,-8.5578045615,0.043815185726,-0.0198095574998,0.0,0.216683350438,0.0,-0.779479139285,0.0,0.0,0.0,0.0,-5.05885888999,-28.6902144516,22.3107864311,-1.73305431207,29.1328072548,1.64713033835,-0.0,-1.74532925199,29.1328072548,1.6446306579,-0.0,665973.003183,0.0,0.0,0.0,0.0,0.0,0.0
1402599699304770944,0,-5.5339624007,-0.114322152727,-8.5578045615,0.043815185726,-0.0198095574998,0.0,0.216683350438,0.0,-0.779479139285,0.0,0.0,0.0,0.0,-5.05885888999,-28.6902144516,22.3107864311,-1.73305431207,29.1328072548,1.64713033835,-0.0,-1.74532925199,29.1328072548,1.6446306579,-0.0,665973.003183,0.0,0.0,0.0,0.0,0.0,0.0
1402599699325232773,0,-5.5437157742,-0.114322152727,-8.5371311911,0.043815185726,-0.0140582659895,0.0,0.234768512274,0.0,-0.785689852273,0.0,0.0,0.0,0.0,-5.05885888999,-28.6902144516,22.3107864311,-1.73305431207,29.1328072548,1.64713033835,-0.0,-1.74532925199,29.1328072548,1.6446306579,-0.0,665973.003183,0.0,0.0,0.0,0.0,0.0,0.0
1402599699344605982,0,-5.5437157742,-0.114322152727,-8.5371311911,0.043815185726,-0.0140582659895,0.0,0.234768512274,0.0,-0.785689852273,0.0,0.0,0.0,0.0,-5.05885888999,-28.6902144516,22.3107864311,-1.73305431207,29.1328072548,1.64713033835,-0.0,-1.74532925199,29.1328072548,1.6446306579,-0.0,665973.003183,0.0,0.0,0.0,0.0,0.0,0.0
1402599699365168669,0,-5.54624016134,-0.114322152727,-8.52600969269,0.043815185726,-0.00715242215172,0.0,0.231075645973,0.0,-0.792109038721,0.0,0.0,0.0,0.0,-5.05885888999,-28.6902144516,22.3107864311,-1.73305431207,29.1328072548,1.64713033835,-0.0,-1.74532925199,29.1328072548,1.6446306579,-0.0,665973.003183,0.0,0.0,0.0,0.0,0.0,0.0
1402599699384639758,0,-5.54624016134,-0.114322152727,-8.52600969269,0.043815185726,-0.00715242215172,0.0,0.231075645973,0.0,-0.792109038721,0.0,0.0,0.0,0.0,-5.05885888999,-28.6902144516,22.3107864311,-1.73305431207,29.1328072548,1.64713033835,-0.0,-1.74532925199,29.1328072548,1.6446306579,-0.0,665973.003183,0.0,0.0,0.0,0.0,0.0,0.0
1402599699405170977,0,-5.55460101228,-0.114322152727,-8.51966412725,0.043815185726,-0.0141705550779,0.0,0.231687659959,0.0,-0.794653736236,0.0,0.0,0.0,0.0,-5.05885888999,-28.6902144516,22.3107864311,-1.73305431207,29.1328072548,1.64713033835,-0.0,-1.74532925199,29.1328072548,1.6446306579,-0.0,665973.003183,0.0,0.0,0.0,0.0,0.0,0.0
1402599699424544929,0,-5.55460101228,-0.114322152727,-8.51966412725,0.043815185726,-0.0141705550779,0.0,0.231687659959,0.0,-0.794653736236,0.0,0.0,0.0,0.0,-5.05885888999,-28.6902144516,22.3107864311,-1.73305431207,29.1328072548,1.64713033835,-0.0,-1.74532925199,29.1328072548,1.6446306579,-0.0,665973.003183,0.0,0.0,0.0,0.0,0.0,0.0
1402599699445093365,0,-5.55133867558,-0.114322152727,-8.50976258171,0.043815185726,0.00658244586057,0.0,0.231639863792,0.0,-0.800254686836,0.0,0.0,0.0,0.0,-5.05885888999,-28.6902144516,22.3107864311,-1.73305431207,29.1328072548,1.64713033835,-0.0,-1.74532925199,29.1328072548,1.6446306579,-0.0,665973.003183,0.0,0.0,0.0,0.0,0.0,0.0
1402599699464596613,0,-5.55133867558,-0.114322152727,-8.50976258171,0.043815185726,0.00658244586057,0.0,0.231639863792,0.0,-0.800254686836,0.0,0.0,0.0,0.0,-5.05885888999,-28.6902144516,22.3107864311,-1.73305431207,29.1328072548,1.64713033835,-0.0,-1.74532925199,29.1328072548,1.6446306579,-0.0,665973.003183,0.0,0.0,0.0,0.0,0.0,0.0
1402599699485023288,0,-5.55039273466,-0.114322152727,-8.49516131423,0.043815185726,0.0190667393842,0.0,0.233375209914,0.0,-0.805819811026,0.0,0.0,0.0,0.0,-5.05885888999,-28.6902144516,22.3107864311,-1.73305431207,29.1328072548,1.64713033835,-0.0,-1.74532925199,29.1328072548,1.6446306579,-0.0,665973.003183,0.0,0.0,0.0,0.0,0.0,0.0
1402599699504298212,0,-5.55039273466,-0.114322152727,-8.49516131423,0.043815185726,0.0190667393842,0.0,0.233375209914,0.0,-0.805819811026,0.0,0.0,0.0,0.0,-5.05885888999,-28.6902144516,22.3107864311,-1.73305431207,29.1328072548,1.64713033835,-0.0,-1.74532925199,29.1328072548,1.6446306579,-0.0,665973.003183,0.0,0.0,0.0,0.0,0.0,0.0
1402599699524984722,0,-5.54951351827,-0.114322152727,-8.48545512014,0.043815185726,0.0225351227846,0.0,0.231207455556,0.0,-0.811527919455,0.0,0.0,0.0,0.0,-5.05885888999,-28.6902144516,22.3107864311,-1.73305431207,29.1328072548,1.64713033835,-0.0,-1.74532925199,29.1328072548,1.6446306579,-0.0,665973.003183,0.0,0.0,0.0,0.0,0.0,0.0
1402599699544658555,0,-5.54951351827,-0.114322152727,-8.48545512014,0.043815185726,0.0225351227846,0.0,0.231207455556,0.0,-0.811527919455,0.0,0.0,0.0,0.0,-5.05885888999,-28.6902144516,22.3107864311,-1.73305431207,29.1328072548,1.64713033835,-0.0,-1.74532925199,29.1328072548,1.6446306579,-0.0,665973.003183,0.0,0.0,0.0,0.0,0.0,0.0
1402599699565123477,0,-5.54839386083,-0.114322152727,-8.47599154373,0.043815185726,0.0234870338901,0.0,0.227890075007,0.0,-0.817235409623,0.0,0.0,0.0,0.0,-5.05885888999,-28.6902144516,22.3107864311,-1.73305431207,29.1328072548,1.64713033835,-0.0,-1.74532925199,29.1328072548,1.6446306579,-0.0,665973.003183,0.0,0.0,0.0,0.0,0.0,0.0
1402599699584748315,0,-5.54839386083,-0.114322152727,-8.47599154373,0.043815185726,0.0234870338901,0.0,0.227890075007,0.0,-0.817235409623,0.0,0.0,0.0,0.0,-5.05885888999,-28.6902144516,22.3107864311,-1.73458877404,29.1328072548,1.64713033835,-0.0,-1.74532925199,29.1328072548,1.6446306579,-0.0,665973.003183,0.0,0.0,0.0,0.0,0.0,0.0
1402599699605087113,0,-5.54725398498,-0.114322152727,-8.45731862812,0.043815185726,0.0351789143402,0.0,0.219694484548,0.0,-0.824457322259,0.0,0.0,0.0,0.0,-5.05885888999,-28.6902144516,22.3107864311,-1.73305431207,29.1328072548,1.64713033835,-0.0,-1.74532925199,29.1328072548,1.6446306579,-0.0,665973.003183,0.0,0.0,0.0,0.0,0.0,0.0
1402599699624913502,0,-5.54725398498,-0.114322152727,-8.45731862812,0.043815185726,0.0351789143402,0.0,0.219694484548,0.0,-0.824457322259,0.0,0.0,0.0,0.0,-5.05885888999,-28.6902144516,22.3107864311,-1.73305431207,29.1328072548,1.64713033835,-0.0,-1.74532925199,29.1328072548,1.6446306579,-0.0,665973.003183,0.0,0.0,0.0,0.0,0.0,0.0
1402599699644875286,0,-5.54749957774,-0.114322152727,-8.44222649803,0.043815185726,0.0295099986376,0.0,0.223201238054,0.0,-0.831688694727,0.0,0.0,0.0,0.0,-5.05885888999,-28.6902144516,22.3107864311,-1.73305431207,29.1328072548,1.64713033835,-0.0,-1.74532925199,29.1328072548,1.6446306579,-0.0,665973.003183,0.0,0.0,0.0,0.0,0.0,0.0
1402599699664636518,0,-5.54749957774,-0.114322152727,-8.44222649803,0.043815185726,0.0295099986376,0.0,0.223201238054,0.0,-0.831688694727,0.0,0.0,0.0,0.0,-5.05885888999,-28.6902144516,22.3107864311,-1.73458877404,29.1328072548,1.64713033835,-0.0,-1.74532925199,29.1328072548,1.6446306579,-0.0,665973.003183,0.0,0.0,0.0,0.0,0.0,0.0
1402599699685037274,0,-5.54700500577,-0.114322152727,-8.43766641865,0.043815185726,0.0285713679084,0.0,0.220312177943,0.0,-0.834486284558,0.0,0.0,0.0,0.0,-5.05885888999,-28.6902144516,22.3107864311,-1.73305431207,29.1328072548,1.64713033835,-0.0,-1.74532925199,29.1328072548,1.6446306579,-0.0,665973.003183,0.0,0.0,0.0,0.0,0.0,0.0
1402599699704603369,0,-5.54700500577,-0.114322152727,-8.43766641865,0.043815185726,0.0285713679084,0.0,0.220312177943,0.0,-0.834486284558,0.0,0.0,0.0,0.0,-5.05885888999,-28.6902144516,22.3107864311,-1.73305431207,29.1328072548,1.64713033835,-0.0,-1.74532925199,29.1328072548,1.6446306579,-0.0,665973.003183,0.0,0.0,0.0,0.0,0.0,0.0
1402599699725056612,0,-5.5487073984,-0.114322152727,-8.42487486566,0.043815185726,0.0261354570269,0.0,0.220032806738,0.0,-0.840093846613,0.0,0.0,0.0,0.0,-5.05885888999,-28.6902144516,22.3107864311,-1.73305431207,29.1328072548,1.64713033835,-0.0,-1.74532925199,29.1328072548,1.6446306579,-0.0,665973.003183,0.0,0.0,0.0,0.0,0.0,0.0
1402599699744626027,0,-5.5487073984,-0.114322152727,-8.42487486566,0.043815185726,0.0261354570269,0.0,0.220032806738,0.0,-0.840093846613,0.0,0.0,0.0,0.0,-5.05885888999,-28.6902144516,22.3107864311,-1.73305431207,29.1328072548,1.64713033835,-0.0,-1.74532925199,29.1328072548,1.6446306579,-0.0,665973.003183,0.0,0.0,0.0,0.0,0.0,0.0
1402599699765119550,0,-5.54516912097,-0.114322152727,-8.40904478246,0.043815185726,0.0352241620548,0.0,0.220501291305,0.0,-0.846742654252,0.0,0.0,0.0,0.0,-5.05885888999,-28.6902144516,22.3107864311,-1.73305431207,29.1328072548,1.64713033835,-0.0,-1.74532925199,29.1328072548,1.6446306579,-0.0,665973.003183,0.0,0.0,0.0,0.0,0.0,0.0
1402599699784628671,0,-5.54516912097,-0.114322152727,-8.40904478246,0.043815185726,0.0352241620548,0.0,0.220501291305,0.0,-0.846742654252,0.0,0.0,0.0,0.0,-5.05885888999,-28.6902144516,22.3107864311,-1.73305431207,29.1328072548,1.64713033835,-0.0,-1.74532925199,29.1328072548,1.6446306579,-0.0,665973.003183,0.0,0.0,0.0,0.0,0.0,0.0
1402599699804597225,0,-5.55026800833,-0.114322152727,-8.40137976296,0.043815185726,0.0197431282614,0.0,0.217466256753,0.0,-0.850803301958,0.0,0.0,0.0,0.0,-5.05885888999,-28.6902144516,22.3107864311,-1.73305431207,29.1328072548,1.64713033835,-0.0,-1.74532925199,29.1328072548,1.6446306579,-0.0,665973.003183,0.0,0.0,0.0,0.0,0.0,0.0
1402599699825083173,0,-5.54622976835,-0.114322152727,-8.39751067676,0.043815185726,0.0160013503856,0.0,0.22679177653,0.0,-0.853548734632,0.0,0.0,0.0,0.0,-5.05885888999,-28.6902144516,22.3107864311,-1.73305431207,29.1328072548,1.64713033835,-0.0,-1.74532925199,29.1328072548,1.6446306579,-0.0,665973.003183,0.0,0.0,0.0,0.0,0.0,0.0
1402599699844540550,0,-5.54622976835,-0.114322152727,-8.39751067676,0.043815185726,0.0160013503856,0.0,0.22679177653,0.0,-0.853548734632,0.0,0.0,0.0,0.0,-5.05885888999,-28.6902144516,22.3107864311,-1.73305431207,29.1328072548,1.64713033835,-0.0,-1.74532925199,29.1328072548,1.6446306579,-0.0,665973.003183,0.0,0.0,0.0,0.0,0.0,0.0
1402599699865078025,0,-5.54563643868,-0.114322152727,-8.39270782066,0.043815185726,0.0149362737111,0.0,0.227462900366,0.0,-0.856128322539,0.0,0.0,0.0,0.0,-5.05885888999,-28.6902144516,22.3107864311,-1.73305431207,29.1328072548,1.64713033835,-0.0,-1.74532925199,29.1328072548,1.6446306579,-0.0,665973.003183,0.0,0.0,0.0,0.0,0.0,0.0
1402599699884550159,0,-5.54563643868,-0.114322152727,-8.39270782066,0.043815185726,0.0149362737111,0.0,0.227462900366,0.0,-0.856128322539,0.0,0.0,0.0,0.0,-5.05885888999,-28.6902144516,22.3107864311,-1.73305431207,29.1328072548,1.64713033835,-0.0,-1.74532925199,29.1328072548,1.6446306579,-0.0,665973.003183,0.0,0.0,0.0,0.0,0.0,0.0
1402599699905136192,0,-5.54530694881,-0.114322152727,-8.38162104512,0.043815185726,0.0173594221425,0.0,0.220861512693,0.0,-0.860740752719,0.0,0.0,0.0,0.0,-5.05885888999,-28.6902144516,22.3107864311,-1.73305431207,29.1328072548,1.64713033835,-0.0,-1.74532925199,29.1328072548,1.6446306579,-0.0,665973.003183,0.0,0.0,0.0,0.0,0.0,0.0
1402599699924635210,0,-5.54530694881,-0.114322152727,-8.38162104512,0.043815185726,0.0173594221425,0.0,0.220861512693,0.0,-0.860740752719,0.0,0.0,0.0,0.0,-5.05885888999,-28.6902144516,22.3107864311,-1.73305431207,29.1328072548,1.64713033835,-0.0,-1.74532925199,29.1328072548,1.6446306579,-0.0,665973.003183,0.0,0.0,0.0,0.0,0.0,0.0
1402599699945151781,0,-5.54018758287,-0.114322152727,-8.36555307221,0.043815185726,0.0374565458271,0.0,0.21696577963,0.0,-0.864775963227,0.0,0.0,0.0,0.0,-5.05885888999,-28.6902144516,22.3107864311,-1.73305431207,29.1328072548,1.64713033835,-0.0,-1.74532925199,29.1328072548,1.6446306579,-0.0,665973.003183,0.0,0.0,0.0,0.0,0.0,0.0
1402599699964464178,0,-5.54018758287,-0.114322152727,-8.36555307221,0.043815185726,0.0374565458271,0.0,0.21696577963,0.0,-0.864775963227,0.0,0.0,0.0,0.0,-5.05885888999,-28.6902144516,22.3107864311,-1.73305431207,29.1328072548,1.64713033835,-0.0,-1.74532925199,29.1328072548,1.6446306579,-0.0,665973.003183,0.0,0.0,0.0,0.0,0.0,0.0
1402599699985043282,0,-5.53845647146,-0.114322152727,-8.35688194192,0.043815185726,0.0389862218715,0.0,0.219119026917,0.0,-0.868895560813,0.0,0.0,0.0,0.0,-5.05885888999,-28.6902144516,22.3107864311,-1.73305431207,29.1328072548,1.64713033835,-0.0,-1.74532925199,29.1328072548,1.6446306579,-0.0,665973.003183,0.0,0.0,0.0,0.0,0.0,0.0
1402599700004606055,0,-5.53845647146,-0.114322152727,-8.35688194192,0.043815185726,0.0389862218715,0.0,0.219119026917,0.0,-0.868895560813,0.0,0.0,0.0,0.0,-5.05885888999,-28.6902144516,22.3107864311,-1.73305431207,29.1328072548,1.64713033835,-0.0,-1.74532925199,29.1328072548,1.6446306579,-0.0,665973.003183,0.0,0.0,0.0,0.0,0.0,0.0
1402599700025041905,0,-5.5391559101,-0.114322152727,-8.34319491029,0.043815185726,0.0393205086741,0.0,0.22069690616,0.0,-0.873041502268,0.0,0.0,0.0,0.0,-5.05885888999,-28.6902144516,22.3107864311,-1.73305431207,29.1328072548,1.64713033835,-0.0,-1.74532925199,29.1328072548,1.6446306579,-0.0,665973.003183,0.0,0.0,0.0,0.0,0.0,0.0
1402599700045190345,0,-5.5391559101,-0.114322152727,-8.34319491029,0.043815185726,0.0393205086741,0.0,0.22069690616,0.0,-0.873041502268,0.0,0.0,0.0,0.0,-5.05885888999,-28.6902144516,22.3107864311,-1.73458877404,29.1328072548,1.64713033835,-0.0,-1.74532925199,29.1328072548,1.6446306579,-0.0,665973.003183,0.0,0.0,0.0,0.0,0.0,0.0
1402599700064563893,0,-5.53375514042,-0.114322152727,-8.33533756539,0.043815185726,0.0422882274881,0.0,0.221066730961,0.0,-0.877242188262,0.0,0.0,0.0,0.0,-5.05885888999,-28.6902144516,22.3107864311,-1.73305431207,29.1328072548,1.64713033835,-0.0,-1.74532925199,29.1328072548,1.6446306579,-0.0,665973.003183,0.0,0.0,0.0,0.0,0.0,0.0
1402599700084950220,0,-5.53375514042,-0.114322152727,-8.33533756539,0.043815185726,0.0422882274881,0.0,0.221066730961,0.0,-0.877242188262,0.0,0.0,0.0,0.0,-5.05885888999,-28.6902144516,22.3107864311,-1.73305431207,29.1328072548,1.64713033835,-0.0,-1.74532925199,29.1328072548,1.6446306579,-0.0,665973.003183,0.0,0.0,0.0,0.0,0.0,0.0
1402599700104605757,0,-5.51875310549,-0.114322152727,-8.32862895801,0.043815185726,0.0697308997134,0.0,0.219659012608,0.0,-0.881389227928,0.0,0.0,0.0,0.0,-5.05885888999,-28.6902144516,22.3107864311,-1.73305431207,29.1328072548,1.64713033835,-0.0,-1.74532925199,29.1328072548,1.6446306579,-0.0,665973.003183,0.0,0.0,0.0,0.0,0.0,0.0
1402599700124963306,0,-5.51875310549,-0.114322152727,-8.32862895801,0.043815185726,0.0697308997134,0.0,0.219659012608,0.0,-0.881389227928,0.0,0.0,0.0,0.0,-5.05885888999,-28.6902144516,22.3107864311,-1.73305431207,29.1328072548,1.64713033835,-0.0,-1.74532925199,29.1328072548,1.6446306579,-0.0,665973.003183,0.0,0.0,0.0,0.0,0.0,0.0
1402599700144620316,0,-5.52478297028,-0.114322152727,-8.30949549037,0.043815185726,0.0565168311967,0.0,0.241905898175,0.0,-0.886958318375,0.0,0.0,0.0,0.0,-5.05885888999,-28.6902144516,22.3107864311,-1.73305431207,29.1328072548,1.64713033835,-0.0,-1.74532925199,29.1328072548,1.6446306579,-0.0,665973.003183,0.0,0.0,0.0,0.0,0.0,0.0
1402599700165071466,0,-5.52478297028,-0.114322152727,-8.30949549037,0.043815185726,0.0565168311967,0.0,0.241905898175,0.0,-0.886958318375,0.0,0.0,0.0,0.0,-5.05885888999,-28.6902144516,22.3107864311,-1.73305431207,29.1328072548,1.64713033835,-0.0,-1.74532925199,29.1328072548,1.6446306579,-0.0,665973.003183,0.0,0.0,0.0,0.0,0.0,0.0
1402599700184581519,0,-5.5102676734,-0.114322152727,-8.30401634416,0.043815185726,0.0759232532323,0.0,0.235156240968,0.0,-0.892736543136,0.0,0.0,0.0,0.0,-5.05885888999,-28.6902144516,22.3107864311,-1.73305431207,29.1328072548,1.64713033835,-0.0,-1.74532925199,29.1328072548,1.6446306579,-0.0,665973.003183,0.0,0.0,0.0,0.0,0.0,0.0
1402599700205100549,0,-5.5102676734,-0.114322152727,-8.30401634416,0.043815185726,0.0759232532323,0.0,0.235156240968,0.0,-0.892736543136,0.0,0.0,0.0,0.0,-5.05885888999,-28.6902144516,22.3107864311,-1.73305431207,29.1328072548,1.64713033835,-0.0,-1.74532925199,29.1328072548,1.6446306579,-0.0,665973.003183,0.0,0.0,0.0,0.0,0.0,0.0
1402599700224548975,0,-5.50869751572,-0.114322152727,-8.29925395571,0.043815185726,0.0798368799843,0.0,0.237275603451,0.0,-0.895053296561,0.0,0.0,0.0,0.0,-5.05885888999,-28.6902144516,22.3107864311,-1.73305431207,29.1328072548,1.64713033835,-0.0,-1.74532925199,29.1328072548,1.6446306579,-0.0,665973.003183,0.0,0.0,0.0,0.0,0.0,0.0
1402599700245177225,0,-5.50869751572,-0.114322152727,-8.29925395571,0.043815185726,0.0798368799843,0.0,0.237275603451,0.0,-0.895053296561,0.0,0.0,0.0,0.0,-5.05885888999,-28.6902144516,22.3107864311,-1.73305431207,29.1328072548,1.64713033835,-0.0,-1.74532925199,29.1328072548,1.6446306579,-0.0,665973.003183,0.0,0.0,0.0,0.0,0.0,0.0
1402599700264694438,0,-5.50477158483,-0.114322152727,-8.28485334628,0.043815185726,0.077179352831,0.0,0.242382481207,0.0,-0.899764851922,0.0,0.0,0.0,0.0,-5.05885888999,-28.6902144516,22.3107864311,-1.73305431207,29.1328072548,1.64713033835,-0.0,-1.74532925199,29.1328072548,1.6446306579,-0.0,665973.003183,0.0,0.0,0.0,0.0,0.0,0.0
1402599700285128034,0,-5.50477158483,-0.114322152727,-8.28485334628,0.043815185726,0.077179352831,0.0,0.242382481207,0.0,-0.899764851922,0.0,0.0,0.0,0.0,-5.05885888999,-28.6902144516,22.3107864311,-1.73305431207,29.1328072548,1.64713033835,-0.0,-1.74532925199,29.1328072548,1.6446306579,-0.0,665973.003183,0.0,0.0,0.0,0.0,0.0,0.0
1402599700304626751,0,-5.49919052569,-0.114322152727,-8.27159346219,0.043815185726,0.0730733017734,0.0,0.252068803047,0.0,-0.904585871547,0.0,0.0,0.0,0.0,-5.05885888999,-28.6902144516,22.3107864311,-1.73305431207,29.1328072548,1.64713033835,-0.0,-1.74532925199,29.1328072548,1.6446306579,-0.0,665973.003183,0.0,0.0,0.0,0.0,0.0,0.0
1402599700325290730,0,-5.49919052569,-0.114322152727,-8.27159346219,0.043815185726,0.0730733017734,0.0,0.252068803047,0.0,-0.904585871547,0.0,0.0,0.0,0.0,-5.05885888999,-28.6902144516,22.3107864311,-1.73305431207,29.1328072548,1.64713033835,-0.0,-1.74532925199,29.1328072548,1.6446306579,-0.0,665973.003183,0.0,0.0,0.0,0.0,0.0,0.0
1402599700344629330,0,-5.48534891042,-0.114322152727,-8.26540042628,0.043815185726,0.0810959588302,0.0,0.250748324024,0.0,-0.909894610776,0.0,0.0,0.0,0.0,-5.05885888999,-28.6902144516,22.3107864311,-1.73305431207,29.1328072548,1.64713033835,-0.0,-1.74532925199,29.1328072548,1.6446306579,-0.0,665973.003183,0.0,0.0,0.0,0.0,0.0,0.0
1402599700365008333,0,-5.48534891042,-0.114322152727,-8.26540042628,0.043815185726,0.0810959588302,0.0,0.250748324024,0.0,-0.909894610776,0.0,0.0,0.0,0.0,-5.05885888999,-28.6902144516,22.3107864311,-1.73305431207,29.1328072548,1.64713033835,-0.0,-1.74532925199,29.1328072548,1.6446306579,-0.0,665973.003183,0.0,0.0,0.0,0.0,0.0,0.0
1402599700384638077,0,-5.4792569173,-0.114322152727,-8.26356071676,0.043815185726,0.0702638101363,0.0,0.243332961956,0.0,-0.9153140368,0.0,0.0,0.0,0.0,-5.05885888999,-28.6902144516,22.3107864311,-1.73305431207,29.1328072548,1.64713033835,-0.0,-1.74532925199,29.1328072548,1.6446306579,-0.0,665973.003183,0.0,0.0,0.0,0.0,0.0,0.0
1402599700405272417,0,-5.4792569173,-0.114322152727,-8.26356071676,0.043815185726,0.0702638101363,0.0,0.243332961956,0.0,-0.9153140368,0.0,0.0,0.0,0.0,-5.05885888999,-28.6902144516,22.3107864311,-1.73458877404,29.1328072548,1.64713033835,-0.0,-1.74532925199,29.1328072548,1.6446306579,-0.0,665973.003183,0.0,0.0,0.0,0.0,0.0,0.0
1402599700424627485,0,-5.47707971865,-0.114322152727,-8.2580056489,0.043815185726,0.0571317135274,0.0,0.232265573902,0.0,-0.922245745375,0.0,0.0,0.0,0.0,-5.05885888999,-28.6902144516,22.3107864311,-1.73305431207,29.1328072548,1.64713033835,-0.0,-1.74532925199,29.1328072548,1.6446306579,-0.0,665973.003183,0.0,0.0,0.0,0.0,0.0,0.0
1402599700445128171,0,-5.47707971865,-0.114322152727,-8.2580056489,0.043815185726,0.0571317135274,0.0,0.232265573902,0.0,-0.922245745375,0.0,0.0,0.0,0.0,-5.05885888999,-28.6902144516,22.3107864311,-1.73305431207,29.1328072548,1.64559587638,-0.0,-1.74532925199,29.1328072548,1.6446306579,-0.0,665973.003183,0.0,0.0,0.0,0.0,0.0,0.0
1402599700464363624,0,-5.47510309439,-0.114322152727,-8.25081511818,0.043815185726,0.0571158472484,0.0,0.231480967025,0.0,-0.926323584283,0.0,0.0,0.0,0.0,-5.05885888999,-28.6902144516,22.3107864311,-1.73305431207,29.1328072548,1.64713033835,-0.0,-1.74532925199,29.1328072548,1.6446306579,-0.0,665973.003183,0.0,0.0,0.0,0.0,0.0,0.0
1402599700485241660,0,-5.4663599241,-0.114322152727,-8.24388089446,0.043815185726,0.073898865832,0.0,0.235979099677,0.0,-0.929269231818,0.0,0.0,0.0,0.0,-5.05885888999,-28.6902144516,22.3107864311,-1.73305431207,29.1328072548,1.64713033835,-0.0,-1.74532925199,29.1328072548,1.6446306579,-0.0,665973.003183,0.0,0.0,0.0,0.0,0.0,0.0
1402599700504665411,0,-5.4663599241,-0.114322152727,-8.24388089446,0.043815185726,0.073898865832,0.0,0.235979099677,0.0,-0.929269231818,0.0,0.0,0.0,0.0,-5.05885888999,-28.6902144516,22.3107864311,-1.73305431207,29.1328072548,1.64713033835,-0.0,-1.74532925199,29.1328072548,1.6446306579,-0.0,665973.003183,0.0,0.0,0.0,0.0,0.0,0.0
1402599700525128305,0,-5.46493719941,-0.114322152727,-8.23887314187,0.043815185726,0.0744079023141,0.0,0.235884781288,0.0,-0.932022898527,0.0,0.0,0.0,0.0,-5.05885888999,-28.6902144516,22.3107864311,-1.73305431207,29.1328072548,1.64713033835,-0.0,-1.74532925199,29.1328072548,1.6446306579,-0.0,665973.003183,0.0,0.0,0.0,0.0,0.0,0.0
1402599700544602379,0,-5.46493719941,-0.114322152727,-8.23887314187,0.043815185726,0.0744079023141,0.0,0.235884781288,0.0,-0.932022898527,0.0,0.0,0.0,0.0,-5.05885888999,-28.6902144516,22.3107864311,-1.73305431207,29.1328072548,1.64713033835,-0.0,-1.74532925199,29.1328072548,1.6446306579,-0.0,665973.003183,0.0,0.0,0.0,0.0,0.0,0.0
1402599700565143854,0,-5.46179141742,-0.114322152727,-8.2288306812,0.043815185726,0.0727094646175,0.0,0.234586159271,0.0,-0.937618599839,0.0,0.0,0.0,0.0,-5.05885888999,-28.6902144516,22.3107864311,-1.73305431207,29.1328072548,1.64713033835,-0.0,-1.74532925199,29.1328072548,1.6446306579,-0.0,665973.003183,0.0,0.0,0.0,0.0,0.0,0.0
1402599700584513315,0,-5.46179141742,-0.114322152727,-8.2288306812,0.043815185726,0.0727094646175,0.0,0.234586159271,0.0,-0.937618599839,0.0,0.0,0.0,0.0,-5.05885888999,-28.6902144516,22.3107864311,-1.73305431207,29.1328072548,1.64713033835,-0.0,-1.74532925199,29.1328072548,1.6446306579,-0.0,665973.003183,0.0,0.0,0.0,0.0,0.0,0.0
1402599700605214960,0,-5.4594989261,-0.114322152727,-8.21875719644,0.043815185726,0.0631675799691,0.0,0.235471852973,0.0,-0.944020357431,0.0,0.0,0.0,0.0,-5.05885888999,-28.6902144516,22.3107864311,-1.73305431207,29.1328072548,1.64713033835,-0.0,-1.74532925199,29.1328072548,1.6446306579,-0.0,665973.003183,0.0,0.0,0.0,0.0,0.0,0.0
1402599700624524106,0,-5.4594989261,-0.114322152727,-8.21875719644,0.043815185726,0.0631675799691,0.0,0.235471852973,0.0,-0.944020357431,0.0,0.0,0.0,0.0,-5.05885888999,-28.6902144516,22.3107864311,-1.73305431207,29.1328072548,1.64713033835,-0.0,-1.74532925199,29.1328072548,1.6446306579,-0.0,665973.003183,0.0,0.0,0.0,0.0,0.0,0.0
1402599700645154050,0,-5.44847965791,-0.114322152727,-8.21209131354,0.043815185726,0.0680361720881,0.0,0.223631690118,0.0,-0.952549922387,0.0,0.0,0.0,0.0,-5.05885888999,-28.6902144516,22.3107864311,-1.73305431207,29.1328072548,1.64713033835,-0.0,-1.74532925199,29.1328072548,1.6446306579,-0.0,665973.003183,0.0,0.0,0.0,0.0,0.0,0.0
1402599700664583271,0,-5.44847965791,-0.114322152727,-8.21209131354,0.043815185726,0.0680361720881,0.0,0.223631690118,0.0,-0.952549922387,0.0,0.0,0.0,0.0,-5.05885888999,-28.6902144516,22.3107864311,-1.73305431207,29.1328072548,1.64713033835,-0.0,-1.74532925199,29.1328072548,1.6446306579,-0.0,665973.003183,0.0,0.0,0.0,0.0,0.0,0.0
1402599700685063486,0,-5.44770318157,-0.114322152727,-8.20986355348,0.043815185726,0.0678981009879,0.0,0.223506749377,0.0,-0.953677590893,0.0,0.0,0.0,0.0,-5.05885888999,-28.6902144516,22.3107864311,-1.73305431207,29.1328072548,1.64713033835,-0.0,-1.74532925199,29.1328072548,1.6446306579,-0.0,665973.003183,0.0,0.0,0.0,0.0,0.0,0.0
1402599700704639239,0,-5.44770318157,-0.114322152727,-8.20986355348,0.043815185726,0.0678981009879,0.0,0.223506749377,0.0,-0.953677590893,0.0,0.0,0.0,0.0,-5.05885888999,-28.6902144516,22.3107864311,-1.73305431207,29.1328072548,1.64713033835,-0.0,-1.74532925199,29.1328072548,1.6446306579,-0.0,665973.003183,0.0,0.0,0.0,0.0,0.0,0.0
1402599700725129402,0,-5.44525501819,-0.114322152727,-8.2011476862,0.043815185726,0.067256119714,0.0,0.233697287942,0.0,-0.957298397462,0.0,0.0,0.0,0.0,-5.05885888999,-28.6902144516,22.3107864311,-1.73305431207,29.1328072548,1.64713033835,-0.0,-1.74532925199,29.1328072548,1.6446306579,-0.0,665973.003183,0.0,0.0,0.0,0.0,0.0,0.0
1402599700744560154,0,-5.44525501819,-0.114322152727,-8.2011476862,0.043815185726,0.067256119714,0.0,0.233697287942,0.0,-0.957298397462,0.0,0.0,0.0,0.0,-5.05885888999,-28.6902144516,22.3107864311,-1.73305431207,29.1328072548,1.64713033835,-0.0,-1.74532925199,29.1328072548,1.6446306579,-0.0,665973.003183,0.0,0.0,0.0,0.0,0.0,0.0
1402599700765193316,0,-5.44204443251,-0.114322152727,-8.19667347569,0.043815185726,0.0579697340747,0.0,0.232704472431,0.0,-0.961822773766,0.0,0.0,0.0,0.0,-5.05885888999,-28.6902144516,22.3107864311,-1.73305431207,29.1328072548,1.64713033835,-0.0,-1.74532925199,29.1328072548,1.6446306579,-0.0,665973.003183,0.0,0.0,0.0,0.0,0.0,0.0
1402599700784727762,0,-5.44204443251,-0.114322152727,-8.19667347569,0.043815185726,0.0579697340747,0.0,0.232704472431,0.0,-0.961822773766,0.0,0.0,0.0,0.0,-5.05885888999,-28.6902144516,22.3107864311,-1.73305431207,29.1328072548,1.64713033835,-0.0,-1.74532925199,29.1328072548,1.6446306579,-0.0,665973.003183,0.0,0.0,0.0,0.0,0.0,0.0
1402599700804688842,0,-5.43635741309,-0.114322152727,-8.18918516204,0.043815185726,0.0666642100136,0.0,0.235750453374,0.0,-0.9663023131,0.0,0.0,0.0,0.0,-5.05885888999,-28.6902144516,22.3107864311,-1.73305431207,29.1328072548,1.64713033835,-0.0,-1.74532925199,29.1328072548,1.6446306579,-0.0,665973.003183,0.0,0.0,0.0,0.0,0.0,0.0
1402599700825011224,0,-5.43635741309,-0.114322152727,-8.18918516204,0.043815185726,0.0666642100136,0.0,0.235750453374,0.0,-0.9663023131,0.0,0.0,0.0,0.0,-5.05885888999,-28.6902144516,22.3107864311,-1.73305431207,29.1328072548,1.64713033835,-0.0,-1.74532925199,29.1328072548,1.6446306579,-0.0,665973.003183,0.0,0.0,0.0,0.0,0.0,0.0
1402599700844638347,0,-5.43488592163,-0.114322152727,-8.1809850049,0.043815185726,0.0674927814016,0.0,0.238882748012,0.0,-0.970693522855,0.0,0.0,0.0,0.0,-5.05885888999,-28.6902144516,22.3107864311,-1.73305431207,29.1328072548,1.64713033835,-0.0,-1.74532925199,29.1328072548,1.6446306579,-0.0,665973.003183,0.0,0.0,0.0,0.0,0.0,0.0
1402599700865145230,0,-5.43488592163,-0.114322152727,-8.1809850049,0.043815185726,0.0674927814016,0.0,0.238882748012,0.0,-0.970693522855,0.0,0.0,0.0,0.0,-5.05885888999,-28.6902144516,22.3107864311,-1.73305431207,29.1328072548,1.64713033835,-0.0,-1.74532925199,29.1328072548,1.6446306579,-0.0,665973.003183,0.0,0.0,0.0,0.0,0.0,0.0
1402599700884795968,0,-5.4320958746,-0.114322152727,-8.17416383361,0.043815185726,0.0691620617546,0.0,0.233165801411,0.0,-0.97492945997,0.0,0.0,0.0,0.0,-5.05885888999,-28.6902144516,22.3107864311,-1.73305431207,29.1328072548,1.64713033835,-0.0,-1.74532925199,29.1328072548,1.6446306579,-0.0,665973.003183,0.0,0.0,0.0,0.0,0.0,0.0
1402599700905643304,0,-5.4320958746,-0.114322152727,-8.17416383361,0.043815185726,0.0691620617546,0.0,0.233165801411,0.0,-0.97492945997,0.0,0.0,0.0,0.0,-5.05885888999,-28.6902144516,22.3107864311,-1.73305431207,29.1328072548,1.64713033835,-0.0,-1.74532925199,29.1328072548,1.6446306579,-0.0,665973.003183,0.0,0.0,0.0,0.0,0.0,0.0
1402599700924626120,0,-5.42917888483,-0.114322152727,-8.16463228851,0.043815185726,0.0754633394638,0.0,0.234771544342,0.0,-0.979300911328,0.0,0.0,0.0,0.0,-5.05885888999,-28.6902144516,22.3107864311,-1.73305431207,29.1328072548,1.64713033835,-0.0,-1.74532925199,29.1328072548,1.6446306579,-0.0,665973.003183,0.0,0.0,0.0,0.0,0.0,0.0
1402599700945274566,0,-5.42917888483,-0.114322152727,-8.16463228851,0.043815185726,0.0754633394638,0.0,0.234771544342,0.0,-0.979300911328,0.0,0.0,0.0,0.0,-5.05885888999,-28.6902144516,22.3107864311,-1.73305431207,29.1328072548,1.64713033835,-0.0,-1.74532925199,29.1328072548,1.6446306579,-0.0,665973.003183,0.0,0.0,0.0,0.0,0.0,0.0
1402599700964745439,0,-5.42325552777,-0.114322152727,-8.15621252367,0.043815185726,0.0768327070295,0.0,0.235992756794,0.0,-0.984893165484,0.0,0.0,0.0,0.0,-5.05885888999,-28.6902144516,22.3107864311,-1.73305431207,29.1328072548,1.64713033835,-0.0,-1.74532925199,29.1328072548,1.6446306579,-0.0,665973.003183,0.0,0.0,0.0,0.0,0.0,0.0
1402599700985244731,0,-5.42325552777,-0.114322152727,-8.15621252367,0.043815185726,0.0768327070295,0.0,0.235992756794,0.0,-0.984893165484,0.0,0.0,0.0,0.0,-5.05885888999,-28.6902144516,22.3107864311,-1.73305431207,29.1328072548,1.64713033835,-0.0,-1.74532925199,29.1328072548,1.6446306579,-0.0,665973.003183,0.0,0.0,0.0,0.0,0.0,0.0
1402599701004566746,0,-5.40980546683,-0.114322152727,-8.14237970793,0.043815185726,0.0844869492229,0.0,0.254000474521,0.0,-0.990599070505,0.0,0.0,0.0,0.0,-5.05885888999,-28.6902144516,22.3107864311,-1.73305431207,29.1328072548,1.64713033835,-0.0,-1.74532925199,29.1328072548,1.6446306579,-0.0,665973.003183,0.0,0.0,0.0,0.0,0.0,0.0
1402599701025127905,0,-5.40980546683,-0.114322152727,-8.14237970793,0.043815185726,0.0844869492229,0.0,0.254000474521,0.0,-0.990599070505,0.0,0.0,0.0,0.0,-5.05885888999,-28.6902144516,22.3107864311,-1.73305431207,29.1328072548,1.64713033835,-0.0,-1.74532925199,29.1328072548,1.6446306579,-0.0,665973.003183,0.0,0.0,0.0,0.0,0.0,0.0
1402599701044620049,0,-5.39441560822,-0.114322152727,-8.1342851593,0.043815185726,0.0998529193298,0.0,0.276185989872,0.0,-0.992977386242,0.0,0.0,0.0,0.0,-5.05885888999,-28.6902144516,22.3107864311,-1.73305431207,29.1328072548,1.64713033835,-0.0,-1.74532925199,29.1328072548,1.6446306579,-0.0,665973.003183,0.0,0.0,0.0,0.0,0.0,0.0
1402599701065173170,0,-5.39441560822,-0.114322152727,-8.1342851593,0.043815185726,0.0998529193298,0.0,0.276185989872,0.0,-0.992977386242,0.0,0.0,0.0,0.0,-5.05885888999,-28.6902144516,22.3107864311,-1.73305431207,29.1328072548,1.64713033835,-0.0,-1.74532925199,29.1328072548,1.6446306579,-0.0,665973.003183,0.0,0.0,0.0,0.0,0.0,0.0
1402599701084592590,0,-5.38026840603,-0.114322152727,-8.12458098175,0.043815185726,0.1218299296,0.0,0.271160746576,0.0,-0.997808048853,0.0,0.0,0.0,0.0,-5.05885888999,-28.6902144516,22.3107864311,-1.73305431207,29.1328072548,1.64713033835,-0.0,-1.74532925199,29.1328072548,1.6446306579,-0.0,665973.003183,0.0,0.0,0.0,0.0,0.0,0.0
1402599701105164254,0,-5.38026840603,-0.114322152727,-8.12458098175,0.043815185726,0.1218299296,0.0,0.271160746576,0.0,-0.997808048853,0.0,0.0,0.0,0.0,-5.05885888999,-28.6902144516,22.3107864311,-1.73305431207,29.1328072548,1.64713033835,-0.0,-1.74532925199,29.1328072548,1.6446306579,-0.0,665973.003183,0.0,0.0,0.0,0.0,0.0,0.0
1402599701124534309,0,-5.37376641441,-0.114322152727,-8.11525273703,0.043815185726,0.117651095696,0.0,0.268681219562,0.0,-1.0027325706,0.0,0.0,0.0,0.0,-5.05885888999,-28.6902144516,22.3107864311,-1.73305431207,29.1328072548,1.64713033835,-0.0,-1.74532925199,29.1328072548,1.6446306579,-0.0,665973.003183,0.0,0.0,0.0,0.0,0.0,0.0
1402599701145087144,0,-5.37376641441,-0.114322152727,-8.11525273703,0.043815185726,0.117651095696,0.0,0.268681219562,0.0,-1.0027325706,0.0,0.0,0.0,0.0,-5.05885888999,-28.6902144516,22.3107864311,-1.73305431207,29.1328072548,1.64713033835,-0.0,-1.74532925199,29.1328072548,1.6446306579,-0.0,665973.003183,0.0,0.0,0.0,0.0,0.0,0.0
1402599701164624326,0,-5.36894762694,-0.114322152727,-8.10407296144,0.043815185726,0.121658886611,0.0,0.271859030236,0.0,-1.00759997873,0.0,0.0,0.0,0.0,-5.05885888999,-28.6902144516,22.3107864311,-1.73305431207,29.1328072548,1.64713033835,-0.0,-1.74532925199,29.1328072548,1.6446306579,-0.0,665973.003183,0.0,0.0,0.0,0.0,0.0,0.0
1402599701185121427,0,-5.36894762694,-0.114322152727,-8.10407296144,0.043815185726,0.121658886611,0.0,0.271859030236,0.0,-1.00759997873,0.0,0.0,0.0,0.0,-5.05885888999,-28.6902144516,22.3107864311,-1.73305431207,29.1328072548,1.64713033835,-0.0,-1.74532925199,29.1328072548,1.6446306579,-0.0,665973.003183,0.0,0.0,0.0,0.0,0.0,0.0
1402599701204522709,0,-5.35798026058,-0.114322152727,-8.09331013673,0.043815185726,0.127640881374,0.0,0.272657609648,0.0,-1.01262595719,0.0,0.0,0.0,0.0,-5.05885888999,-28.6902144516,22.3107864311,-1.73305431207,29.1328072548,1.64713033835,-0.0,-1.74532925199,29.1328072548,1.6446306579,-0.0,665973.003183,0.0,0.0,0.0,0.0,0.0,0.0
1402599701225036430,0,-5.35798026058,-0.114322152727,-8.09331013673,0.043815185726,0.127640881374,0.0,0.272657609648,0.0,-1.01262595719,0.0,0.0,0.0,0.0,-5.05885888999,-28.6902144516,22.3107864311,-1.73305431207,29.1328072548,1.64713033835,-0.0,-1.74532925199,29.1328072548,1.6446306579,-0.0,665973.003183,0.0,0.0,0.0,0.0,0.0,0.0
1402599701244709131,0,-5.35522931768,-0.114322152727,-8.08860240081,0.043815185726,0.107677417387,0.0,0.269406706859,0.0,-1.01737528942,0.0,0.0,0.0,0.0,-5.05885888999,-28.6902144516,22.3107864311,-1.73305431207,29.1328072548,1.64713033835,-0.0,-1.74532925199,29.1328072548,1.6446306579,-0.0,665973.003183,0.0,0.0,0.0,0.0,0.0,0.0
1402599701265261614,0,-5.35522931768,-0.114322152727,-8.08860240081,0.043815185726,0.107677417387,0.0,0.269406706859,0.0,-1.01737528942,0.0,0.0,0.0,0.0,-5.05885888999,-28.6902144516,22.3107864311,-1.73305431207,29.1328072548,1.64713033835,-0.0,-1.74532925199,29.1328072548,1.6446306579,-0.0,665973.003183,0.0,0.0,0.0,0.0,0.0,0.0
1402599701284820201,0,-5.34939974963,-0.114322152727,-8.07430968112,0.043815185726,0.10597430977,0.0,0.271628575446,0.0,-1.02389457953,0.0,0.0,0.0,0.0,-5.05885888999,-28.6902144516,22.3107864311,-1.73305431207,29.1328072548,1.64713033835,-0.0,-1.74532925199,29.1328072548,1.6446306579,-0.0,665973.003183,0.0,0.0,0.0,0.0,0.0,0.0
1402599701304528808,0,-5.34939974963,-0.114322152727,-8.07430968112,0.043815185726,0.10597430977,0.0,0.271628575446,0.0,-1.02389457953,0.0,0.0,0.0,0.0,-5.05885888999,-28.6902144516,22.3107864311,-1.73305431207,29.1328072548,1.64713033835,-0.0,-1.74532925199,29.1328072548,1.6446306579,-0.0,665973.003183,0.0,0.0,0.0,0.0,0.0,0.0
1402599701325706883,0,-5.34769009333,-0.114322152727,-8.06729852964,0.043815185726,0.099808447854,0.0,0.264483348264,0.0,-1.027550198,0.0,0.0,0.0,0.0,-5.05885888999,-28.6902144516,22.3107864311,-1.73305431207,29.1328072548,1.64713033835,-0.0,-1.74532925199,29.1328072548,1.6446306579,-0.0,665973.003183,0.0,0.0,0.0,0.0,0.0,0.0
1402599701344710079,0,-5.34581689371,-0.114322152727,-8.06179575963,0.043815185726,0.0985878163749,0.0,0.264663785379,0.0,-1.03008088974,0.0,0.0,0.0,0.0,-5.05885888999,-28.6902144516,22.3107864311,-1.73305431207,29.1328072548,1.64713033835,-0.0,-1.74532925199,29.1328072548,1.6446306579,-0.0,665973.003183,0.0,0.0,0.0,0.0,0.0,0.0
1402599701364976631,0,-5.34581689371,-0.114322152727,-8.06179575963,0.043815185726,0.0985878163749,0.0,0.264663785379,0.0,-1.03008088974,0.0,0.0,0.0,0.0,-5.05885888999,-28.6902144516,22.3107864311,-1.73305431207,29.1328072548,1.64713033835,-0.0,-1.74532925199,29.1328072548,1.6446306579,-0.0,665973.003183,0.0,0.0,0.0,0.0,0.0,0.0
1402599701384599025,0,-5.34368169149,-0.114322152727,-8.05635668346,0.043815185726,0.0986739531218,0.0,0.265643587042,0.0,-1.03267949681,0.0,0.0,0.0,0.0,-5.05885888999,-28.6902144516,22.3107864311,-1.73305431207,29.1328072548,1.64713033835,-0.0,-1.74532925199,29.1328072548,1.6446306579,-0.0,665973.003183,0.0,0.0,0.0,0.0,0.0,0.0
1402599701405883672,0,-5.34368169149,-0.114322152727,-8.05635668346,0.043815185726,0.0986739531218,0.0,0.265643587042,0.0,-1.03267949681,0.0,0.0,0.0,0.0,-5.05885888999,-28.6902144516,22.3107864311,-1.73305431207,29.1328072548,1.64713033835,-0.0,-1.74532925199,29.1328072548,1.6446306579,-0.0,665973.003183,0.0,0.0,0.0,0.0,0.0,0.0
1402599701424731502,0,-5.34124872085,-0.114322152727,-8.0446940415,0.043815185726,0.0918115973619,0.0,0.265971732865,0.0,-1.03746922138,0.0,0.0,0.0,0.0,-5.05885888999,-28.6902144516,22.3107864311,-1.73305431207,29.1328072548,1.64713033835,-0.0,-1.74532925199,29.1328072548,1.6446306579,-0.0,665973.003183,0.0,0.0,0.0,0.0,0.0,0.0
1402599701445055651,0,-5.34124872085,-0.114322152727,-8.0446940415,0.043815185726,0.0918115973619,0.0,0.265971732865,0.0,-1.03746922138,0.0,0.0,0.0,0.0,-5.05885888999,-28.6902144516,22.3107864311,-1.73305431207,29.1328072548,1.64713033835,-0.0,-1.74532925199,29.1328072548,1.6446306579,-0.0,665973.003183,0.0,0.0,0.0,0.0,0.0,0.0
1402599701464660401,0,-5.33733098164,-0.114322152727,-8.0346016404,0.043815185726,0.0838083399774,0.0,0.264380136829,0.0,-1.04220247546,0.0,0.0,0.0,0.0,-5.05885888999,-28.6902144516,22.3107864311,-1.73305431207,29.1328072548,1.64713033835,-0.0,-1.74532925199,29.1328072548,1.6446306579,-0.0,665973.003183,0.0,0.0,0.0,0.0,0.0,0.0
1402599701485085942,0,-5.33733098164,-0.114322152727,-8.0346016404,0.043815185726,0.0838083399774,0.0,0.264380136829,0.0,-1.04220247546,0.0,0.0,0.0,0.0,-5.05885888999,-28.6902144516,22.3107864311,-1.73305431207,29.1328072548,1.64713033835,-0.0,-1.74532925199,29.1328072548,1.6446306579,-0.0,665973.003183,0.0,0.0,0.0,0.0,0.0,0.0
1402599701504326535,0,-5.32905702459,-0.114322152727,-8.02302967657,0.043815185726,0.0882719550666,0.0,0.26044854128,0.0,-1.04701878297,0.0,0.0,0.0,0.0,-5.05885888999,-28.6902144516,22.3107864311,-1.73305431207,29.1328072548,1.64713033835,-0.0,-1.74532925199,29.1328072548,1.6446306579,-0.0,665973.003183,0.0,0.0,0.0,0.0,0.0,0.0
1402599701524969810,0,-5.32905702459,-0.114322152727,-8.02302967657,0.043815185726,0.0882719550666,0.0,0.26044854128,0.0,-1.04701878297,0.0,0.0,0.0,0.0,-5.05885888999,-28.6902144516,22.3107864311,-1.73305431207,29.1328072548,1.64713033835,-0.0,-1.74532925199,29.1328072548,1.6446306579,-0.0,665973.003183,0.0,0.0,0.0,0.0,0.0,0.0
1402599701544440799,0,-5.3253828192,-0.114322152727,-8.0123406832,0.043815185726,0.0895402144423,0.0,0.261630955536,0.0,-1.05167520422,0.0,0.0,0.0,0.0,-5.05885888999,-28.6902144516,22.3107864311,-1.73458877404,29.1328072548,1.64713033835,-0.0,-1.74532925199,29.1328072548,1.6446306579,-0.0,665973.003183,0.0,0.0,0.0,0.0,0.0,0.0
1402599701565122277,0,-5.3253828192,-0.114322152727,-8.0123406832,0.043815185726,0.0895402144423,0.0,0.261630955536,0.0,-1.05167520422,0.0,0.0,0.0,0.0,-5.05885888999,-28.6902144516,22.3107864311,-1.73458877404,29.1328072548,1.64713033835,-0.0,-1.74532925199,29.1328072548,1.6446306579,-0.0,665973.003183,0.0,0.0,0.0,0.0,0.0,0.0
1402599701585392381,0,-5.327305483,-0.114322152727,-7.99501896465,0.043815185726,0.0815594415585,0.0,0.268806870792,0.0,-1.05629987638,0.0,0.0,0.0,0.0,-5.05885888999,-28.6902144516,22.3107864311,-1.73305431207,29.1328072548,1.64713033835,-0.0,-1.74532925199,29.1328072548,1.6446306579,-0.0,665973.003183,0.0,0.0,0.0,0.0,0.0,0.0
1402599701604994379,0,-5.327305483,-0.114322152727,-7.99501896465,0.043815185726,0.0815594415585,0.0,0.268806870792,0.0,-1.05629987638,0.0,0.0,0.0,0.0,-5.05885888999,-28.6902144516,22.3107864311,-1.73305431207,29.1328072548,1.64713033835,-0.0,-1.74532925199,29.1328072548,1.6446306579,-0.0,665973.003183,0.0,0.0,0.0,0.0,0.0,0.0
1402599701624456618,0,-5.32246044346,-0.114322152727,-7.98715416581,0.043815185726,0.076533394895,0.0,0.255847581715,0.0,-1.06175726094,0.0,0.0,0.0,0.0,-5.05885888999,-28.6902144516,22.3107864311,-1.73305431207,29.1328072548,1.64713033835,-0.0,-1.74532925199,29.1328072548,1.6446306579,-0.0,665973.003183,0.0,0.0,0.0,0.0,0.0,0.0
1402599701644988616,0,-5.32246044346,-0.114322152727,-7.98715416581,0.043815185726,0.076533394895,0.0,0.255847581715,0.0,-1.06175726094,0.0,0.0,0.0,0.0,-5.05885888999,-28.6902144516,22.3107864311,-1.73305431207,29.1328072548,1.64713033835,-0.0,-1.74532925199,29.1328072548,1.6446306579,-0.0,665973.003183,0.0,0.0,0.0,0.0,0.0,0.0
1402599701664644351,0,-5.31918847889,-0.114322152727,-7.96974323891,0.043815185726,0.0800022467361,0.0,0.260114936908,0.0,-1.06750808189,0.0,0.0,0.0,0.0,-5.05885888999,-28.6902144516,22.3107864311,-1.73305431207,29.1328072548,1.64713033835,-0.0,-1.74532925199,29.1328072548,1.6446306579,-0.0,665973.003183,0.0,0.0,0.0,0.0,0.0,0.0
1402599701685100433,0,-5.31918847889,-0.114322152727,-7.96974323891,0.043815185726,0.0800022467361,0.0,0.260114936908,0.0,-1.06750808189,0.0,0.0,0.0,0.0,-5.05885888999,-28.6902144516,22.3107864311,-1.73305431207,29.1328072548,1.64713033835,-0.0,-1.74532925199,29.1328072548,1.6446306579,-0.0,665973.003183,0.0,0.0,0.0,0.0,0.0,0.0
