rosbagTimestamp,control_method,x_current,x_desired,y_current,y_desired,z_current,z_desired,x_velocity_current,x_velocity_desired,y_velocity_current,y_velocity_desired,z_velocity_current,z_velocity_desired,yaw_current,yaw_desired,yaw_velocity_current,yaw_velocity_desired,roll_current,roll_desired,roll_velocity_current,roll_velocity_desired,pitch_current,pitch_desired,pitch_velocity_current,pitch_velocity_desired,required_force_x,required_force_y,required_moment_z,resultant_force_x,resultant_force_y,resultant_moment_z,current_port_servo_angle,current_port_thruster_force,current_starboard_servo_angle,current_starboard_thruster_force,estimated_port_servo_angle,estimated_port_thruster_force,estimated_starboard_servo_angle,estimated_starboard_thruster_force,cost_value,step,user_defined_1,user_defined_2,user_defined_3,user_defined_4,user_defined_5
1402760542514750052,3,-12.5551200361,-7.1377884924,-0.683583288363,2.38304939926,5.27189930882,-3.84635974695,-0.019249978945,0.0,-0.0096921057147,0.0,0.048863497221,0.0,-0.500699465268,0.0,0.006022950282,0.0,2.06806387682e-05,0.0,0.00210252415788,0.0,0.0725487488355,0.0,0.013454663223,0.0,-0.0,-0.0,0.592139422894,-20.0,138.564064606,-124.690526368,1.04412874381,0.0,-1.04412880738,0.0,1.0471975512,60.0,-1.0471975512,-100.0,17535873.1738,0.0,0.0,0.0,0.0,0.0,0.0
1402760542534712582,3,-12.5551200361,-7.1377884924,-0.683583288363,2.38304939926,5.27189930882,-3.84635974695,-0.019249978945,0.0,-0.0096921057147,0.0,0.048863497221,0.0,-0.500699465268,0.0,0.006022950282,0.0,2.06806387682e-05,0.0,0.00210252415788,0.0,0.0725487488355,0.0,0.013454663223,0.0,-0.0,-0.0,0.592139422894,-20.0,138.564064606,-124.690526368,1.04412874381,0.0,-1.04412880738,0.0,1.0471975512,60.0,-1.0471975512,-100.0,17535873.1738,0.0,0.0,0.0,0.0,0.0,0.0
1402760542553947742,3,-12.5561832048,-7.1377884924,-0.684191340739,2.38304939926,5.27478296282,-3.84635974695,-0.019852628827,0.0,-0.0100221778994,0.0,0.0536088246415,0.0,-0.500585145136,0.0,0.00764413694646,0.0,-0.000109464757991,0.0,0.00393049190793,0.0,0.0731824900247,0.0,0.00616039674245,0.0,-0.0,-0.0,0.592139422894,-20.0,138.564064606,-124.690526368,1.04412874381,0.0,-1.04412880738,0.0,1.0471975512,60.0,-1.0471975512,-100.0,17535873.1738,0.0,0.0,0.0,0.0,0.0,0.0
1402760542573936149,3,-12.5561832048,-7.1377884924,-0.684191340739,2.38304939926,5.27478296282,-3.84635974695,-0.019852628827,0.0,-0.0100221778994,0.0,0.0536088246415,0.0,-0.500585145136,0.0,0.00764413694646,0.0,-0.000109464757991,0.0,0.00393049190793,0.0,0.0731824900247,0.0,0.00616039674245,0.0,-0.0,-0.0,0.592139422894,-20.0,138.564064606,-124.690526368,1.04412874381,0.0,-1.04412880738,0.0,1.0471975512,60.0,-1.0471975512,-100.0,17535873.1738,0.0,0.0,0.0,0.0,0.0,0.0
1402760542594455029,3,-12.5516880217,-7.1377884924,-0.684949501412,2.38304939926,5.2732120899,-3.84635974695,-0.0204195610963,0.0,-0.0156452267252,0.0,0.0566354206953,0.0,-0.500450409696,0.0,0.00479008880492,0.0,0.00072896702504,0.0,0.00474458100027,0.0,0.0737328162199,0.0,0.00508083669563,0.0,-0.0,-0.0,0.592139422894,-20.0,138.564064606,-124.690526368,1.04412874381,0.0,-1.04412880738,0.0,1.0471975512,60.0,-1.0471975512,-100.0,17535873.1738,0.0,0.0,0.0,0.0,0.0,0.0
1402760542613965965,3,-12.5520975655,-7.1377884924,-0.685240339733,2.38304939926,5.274381815,-3.84635974695,-0.0212182631877,0.0,-0.0161279331602,0.0,0.0596452206397,0.0,-0.500360217183,0.0,0.00520033992967,0.0,0.000832434758535,0.0,0.0100273786388,0.0,0.0738629856722,0.0,-0.00171124272675,0.0,-0.0,-0.0,0.592139422894,-20.0,138.564064606,-124.690526368,1.04412874381,0.0,-1.04412880738,0.0,1.0471975512,60.0,-1.0471975512,-100.0,17535873.1738,0.0,0.0,0.0,0.0,0.0,0.0
1402760542633918767,3,-12.5520975655,-7.1377884924,-0.685240339733,2.38304939926,5.274381815,-3.84635974695,-0.0212182631877,0.0,-0.0161279331602,0.0,0.0596452206397,0.0,-0.500360217183,0.0,0.00520033992967,0.0,0.000832434758535,0.0,0.0100273786388,0.0,0.0738629856722,0.0,-0.00171124272675,0.0,-0.0,-0.0,0.592139422894,-20.0,138.564064606,-124.690526368,1.04412874381,0.0,-1.04412880738,0.0,1.0471975512,60.0,-1.0471975512,-100.0,17535873.1738,0.0,0.0,0.0,0.0,0.0,0.0
1402760542654741737,3,-12.5466215784,-7.1377884924,-0.682529319099,2.38304939926,5.26839399755,-3.84635974695,-0.0214116590544,0.0,-0.0120678392796,0.0,0.0603743574342,0.0,-0.500236161438,0.0,0.0100052730958,0.0,0.000509219203993,0.0,0.00499207876317,0.0,0.0735583458134,0.0,-0.000342560601973,0.0,-0.0,-0.0,0.592139422894,-20.0,138.564064606,-124.690526368,1.04412874381,0.0,-1.04412880738,0.0,1.0471975512,60.0,-1.0471975512,-100.0,17535873.1738,0.0,0.0,0.0,0.0,0.0,0.0
1402760542673966972,3,-12.5466215784,-7.1377884924,-0.682529319099,2.38304939926,5.26839399755,-3.84635974695,-0.0214116590544,0.0,-0.0120678392796,0.0,0.0603743574342,0.0,-0.500236161438,0.0,0.0100052730958,0.0,0.000509219203993,0.0,0.00499207876317,0.0,0.0735583458134,0.0,-0.000342560601973,0.0,-0.0,-0.0,0.592139422894,-20.0,138.564064606,-124.690526368,1.04412874381,0.0,-1.04412880738,0.0,1.0471975512,60.0,-1.0471975512,-100.0,17535873.1738,0.0,0.0,0.0,0.0,0.0,0.0
1402760542693974685,3,-12.5420638554,-7.1377884924,-0.68253449976,2.38304939926,5.27488656412,-3.84635974695,-0.0169758331775,0.0,-0.00940323302797,0.0,0.0665115077282,0.0,-0.500073093133,0.0,0.00798400395012,0.0,0.000370289794709,0.0,0.00125711389661,0.0,0.0737954921534,0.0,-0.014030962332,0.0,-0.0,-0.0,0.592139422894,-20.0,138.564064606,-124.690526368,1.04412874381,0.0,-1.04412880738,0.0,1.0471975512,60.0,-1.0471975512,-100.0,17535873.1738,0.0,0.0,0.0,0.0,0.0,0.0
1402760542714502834,3,-12.5420638554,-7.1377884924,-0.68253449976,2.38304939926,5.27488656412,-3.84635974695,-0.0169758331775,0.0,-0.00940323302797,0.0,0.0665115077282,0.0,-0.500073093133,0.0,0.00798400395012,0.0,0.000370289794709,0.0,0.00125711389661,0.0,0.0737954921534,0.0,-0.014030962332,0.0,-0.0,-0.0,0.592139422894,-20.0,138.564064606,-124.690526368,1.04412874381,0.0,-1.04412880738,0.0,1.0471975512,60.0,-1.0471975512,-100.0,17535873.1738,0.0,0.0,0.0,0.0,0.0,0.0
1402760542734284124,3,-12.5332322466,-7.1377884924,-0.678455627764,2.38304939926,5.26416951596,-3.84635974695,-0.0152388277401,0.0,-0.00710614874508,0.0,0.0663612422131,0.0,-0.499687576017,0.0,0.0159832210888,0.0,0.000525835110077,0.0,-0.00179574553673,0.0,0.0732922648586,0.0,-0.0157646874307,0.0,-0.0,-0.0,0.592139422894,-20.0,138.564064606,-124.690526368,1.04412874381,0.0,-1.04412880738,0.0,1.0471975512,60.0,-1.0471975512,-100.0,17535873.1738,0.0,0.0,0.0,0.0,0.0,0.0
1402760542753886600,3,-12.5332322466,-7.1377884924,-0.678455627764,2.38304939926,5.26416951596,-3.84635974695,-0.0152388277401,0.0,-0.00710614874508,0.0,0.0663612422131,0.0,-0.499687576017,0.0,0.0159832210888,0.0,0.000525835110077,0.0,-0.00179574553673,0.0,0.0732922648586,0.0,-0.0157646874307,0.0,-0.0,-0.0,0.592139422894,-20.0,138.564064606,-124.690526368,1.04412874381,0.0,-1.04412880738,0.0,1.0471975512,60.0,-1.0471975512,-100.0,17535873.1738,0.0,0.0,0.0,0.0,0.0,0.0
1402760542775042589,3,-12.530825235,-7.1377884924,-0.674660911637,2.38304939926,5.26623875818,-3.84635974695,-0.0195857681417,0.0,0.00493012410724,0.0,0.0696649152517,0.0,-0.49934091791,0.0,0.00437087278264,0.0,8.70654771774e-05,0.0,-0.00236169563382,0.0,0.0712731797351,0.0,-0.0200994029951,0.0,-0.0,-0.0,0.592139422894,-20.0,138.564064606,-124.690526368,1.04412874381,0.0,-1.04412880738,0.0,1.0471975512,60.0,-1.0471975512,-100.0,17535873.1738,0.0,0.0,0.0,0.0,0.0,0.0
1402760542793949212,3,-12.530825235,-7.1377884924,-0.674660911637,2.38304939926,5.26623875818,-3.84635974695,-0.0195857681417,0.0,0.00493012410724,0.0,0.0696649152517,0.0,-0.49934091791,0.0,0.00437087278264,0.0,8.70654771774e-05,0.0,-0.00236169563382,0.0,0.0712731797351,0.0,-0.0200994029951,0.0,-0.0,-0.0,0.592139422894,-20.0,138.564064606,-124.690526368,1.04412874381,0.0,-1.04412880738,0.0,1.0471975512,60.0,-1.0471975512,-100.0,17535873.1738,0.0,0.0,0.0,0.0,0.0,0.0
1402760542813782462,3,-12.5307413559,-7.1377884924,-0.674299063855,2.38304939926,5.25857980576,-3.84635974695,-0.0322771939543,0.0,-0.00221870486879,0.0,0.0663041298175,0.0,-0.498961735822,0.0,0.00454224235975,0.0,0.00242686073482,0.0,-0.00582612117174,0.0,0.0697134382812,0.0,-0.0202337987013,0.0,-0.0,-0.0,0.592139422894,-20.0,138.564064606,-124.690526368,1.04412874381,0.0,-1.04412880738,0.0,1.0471975512,60.0,-1.0471975512,-100.0,17535873.1738,0.0,0.0,0.0,0.0,0.0,0.0
1402760542833888656,3,-12.5307413559,-7.1377884924,-0.674299063855,2.38304939926,5.25857980576,-3.84635974695,-0.0322771939543,0.0,-0.00221870486879,0.0,0.0663041298175,0.0,-0.498961735822,0.0,0.00454224235975,0.0,0.00242686073482,0.0,-0.00582612117174,0.0,0.0697134382812,0.0,-0.0202337987013,0.0,-0.0,-0.0,0.592139422894,-20.0,138.564064606,-124.690526368,1.04412874381,0.0,-1.04412880738,0.0,1.0471975512,60.0,-1.0471975512,-100.0,17535873.1738,0.0,0.0,0.0,0.0,0.0,0.0
1402760542854033804,3,-12.5315004483,-7.1377884924,-0.67435313164,2.38304939926,5.25999804138,-3.84635974695,-0.0335428344493,0.0,-0.00305290994426,0.0,0.0657820228847,0.0,-0.498823971986,0.0,0.00761232729855,0.0,0.0025576746788,0.0,-0.00445642052029,0.0,0.0693096457264,0.0,-0.0218697287654,0.0,-0.0,-0.0,0.592139422894,-20.0,138.564064606,-124.690526368,1.04412874381,0.0,-1.04412880738,0.0,1.0471975512,60.0,-1.0471975512,-100.0,17535873.1738,0.0,0.0,0.0,0.0,0.0,0.0
1402760542873976910,3,-12.5315004483,-7.1377884924,-0.67435313164,2.38304939926,5.25999804138,-3.84635974695,-0.0335428344493,0.0,-0.00305290994426,0.0,0.0657820228847,0.0,-0.498823971986,0.0,0.00761232729855,0.0,0.0025576746788,0.0,-0.00445642052029,0.0,0.0693096457264,0.0,-0.0218697287654,0.0,-0.0,-0.0,0.592139422894,-20.0,138.564064606,-124.690526368,1.04412874381,0.0,-1.04412880738,0.0,1.0471975512,60.0,-1.0471975512,-100.0,17535873.1738,0.0,0.0,0.0,0.0,0.0,0.0
1402760542894447684,3,-12.5244846194,-7.1377884924,-0.677741466211,2.38304939926,5.27230546981,-3.84635974695,-0.0154024414159,0.0,-0.00911537856854,0.0,0.068907423131,0.0,-0.498764266466,0.0,0.00467172349639,0.0,0.00249363124432,0.0,0.00161491854932,0.0,0.0708467470653,0.0,-0.0130934716453,0.0,-0.0,-0.0,0.592139422894,-20.0,138.564064606,-124.690526368,1.04412874381,0.0,-1.04412880738,0.0,1.0471975512,60.0,-1.0471975512,-100.0,17535873.1738,0.0,0.0,0.0,0.0,0.0,0.0
1402760542913995511,3,-12.5244846194,-7.1377884924,-0.677741466211,2.38304939926,5.27230546981,-3.84635974695,-0.0154024414159,0.0,-0.00911537856854,0.0,0.068907423131,0.0,-0.498764266466,0.0,0.00467172349639,0.0,0.00249363124432,0.0,0.00161491854932,0.0,0.0708467470653,0.0,-0.0130934716453,0.0,-0.0,-0.0,0.592139422894,-20.0,138.564064606,-124.690526368,1.04412874381,0.0,-1.04412880738,0.0,1.0471975512,60.0,-1.0471975512,-100.0,17535873.1738,0.0,0.0,0.0,0.0,0.0,0.0
1402760542933963237,3,-12.5239227822,-7.1377884924,-0.675444371355,2.38304939926,5.26721372961,-3.84635974695,-0.0261720481389,0.0,-0.00723122905438,0.0,0.0628845144899,0.0,-0.498646508737,0.0,0.00483593828081,0.0,0.00300002917505,0.0,-0.00384206648544,0.0,0.0689041613487,0.0,-0.017795439412,0.0,-0.0,-0.0,0.592139422894,-20.0,138.564064606,-124.690526368,1.04412874381,0.0,-1.04412880738,0.0,1.0471975512,60.0,-1.0471975512,-100.0,17535873.1738,0.0,0.0,0.0,0.0,0.0,0.0
1402760542954428649,3,-12.5239227822,-7.1377884924,-0.675444371355,2.38304939926,5.26721372961,-3.84635974695,-0.0261720481389,0.0,-0.00723122905438,0.0,0.0628845144899,0.0,-0.498646508737,0.0,0.00483593828081,0.0,0.00300002917505,0.0,-0.00384206648544,0.0,0.0689041613487,0.0,-0.017795439412,0.0,-0.0,-0.0,0.592139422894,-20.0,138.564064606,-124.690526368,1.04412874381,0.0,-1.04412880738,0.0,1.0471975512,60.0,-1.0471975512,-100.0,17535873.1738,0.0,0.0,0.0,0.0,0.0,0.0
1402760542974112777,3,-12.517854145,-7.1377884924,-0.672702251828,2.38304939926,5.25466378416,-3.84635974695,-0.0288135159686,0.0,-0.00988360740188,0.0,0.0553898401095,0.0,-0.498808091012,0.0,-0.00798553890649,0.0,0.00359516678342,0.0,-0.00200053172004,0.0,0.0681122747664,0.0,-0.0109523420018,0.0,-0.0,-0.0,0.592139422894,-20.0,138.564064606,-124.690526368,1.04412874381,0.0,-1.04412880738,0.0,1.0471975512,60.0,-1.0471975512,-100.0,17535873.1738,0.0,0.0,0.0,0.0,0.0,0.0
1402760542993886844,3,-12.517854145,-7.1377884924,-0.672702251828,2.38304939926,5.25466378416,-3.84635974695,-0.0288135159686,0.0,-0.00988360740188,0.0,0.0553898401095,0.0,-0.498808091012,0.0,-0.00798553890649,0.0,0.00359516678342,0.0,-0.00200053172004,0.0,0.0681122747664,0.0,-0.0109523420018,0.0,-0.0,-0.0,0.592139422894,-20.0,138.564064606,-124.690526368,1.04412874381,0.0,-1.04412880738,0.0,1.0471975512,60.0,-1.0471975512,-100.0,17535873.1738,0.0,0.0,0.0,0.0,0.0,0.0
1402760543014181586,3,-12.513813396,-7.1377884924,-0.674776224887,2.38304939926,5.26448167962,-3.84635974695,-0.0210537352249,0.0,-0.011496816127,0.0,0.0557692714376,0.0,-0.499124226848,0.0,0.000484225838304,0.0,0.00316546931577,0.0,-0.0105511196007,0.0,0.0686710667168,0.0,-0.00493990941557,0.0,-0.0,-0.0,0.592139422894,-20.0,138.564064606,-124.690526368,1.04412874381,0.0,-1.04412880738,0.0,1.0471975512,60.0,-1.0471975512,-100.0,17535873.1738,0.0,0.0,0.0,0.0,0.0,0.0
1402760543033898179,3,-12.513813396,-7.1377884924,-0.674776224887,2.38304939926,5.26448167962,-3.84635974695,-0.0210537352249,0.0,-0.011496816127,0.0,0.0557692714376,0.0,-0.499124226848,0.0,0.000484225838304,0.0,0.00316546931577,0.0,-0.0105511196007,0.0,0.0686710667168,0.0,-0.00493990941557,0.0,-0.0,-0.0,0.592139422894,-20.0,138.564064606,-124.690526368,1.04412874381,0.0,-1.04412880738,0.0,1.0471975512,60.0,-1.0471975512,-100.0,17535873.1738,0.0,0.0,0.0,0.0,0.0,0.0
1402760543055306686,3,-12.5095658313,-7.1377884924,-0.671740251737,2.38304939926,5.25320104387,-3.84635974695,-0.0255376413327,0.0,-0.00929411275008,0.0,0.0508540887286,0.0,-0.499199656726,0.0,-0.00576584180916,0.0,0.00319050290628,0.0,-0.0090385310528,0.0,0.0678458671039,0.0,-0.000583531592402,0.0,-0.0,-0.0,0.592139422894,-20.0,138.564064606,-124.690526368,1.04412874381,0.0,-1.04412880738,0.0,1.0471975512,60.0,-1.0471975512,-100.0,17535873.1738,0.0,0.0,0.0,0.0,0.0,0.0
1402760543074444221,3,-12.5095658313,-7.1377884924,-0.671740251737,2.38304939926,5.25320104387,-3.84635974695,-0.0255376413327,0.0,-0.00929411275008,0.0,0.0508540887286,0.0,-0.499199656726,0.0,-0.00576584180916,0.0,0.00319050290628,0.0,-0.0090385310528,0.0,0.0678458671039,0.0,-0.000583531592402,0.0,-0.0,-0.0,0.592139422894,-20.0,138.564064606,-124.690526368,1.04412874381,0.0,-1.04412880738,0.0,1.0471975512,60.0,-1.0471975512,-100.0,17535873.1738,0.0,0.0,0.0,0.0,0.0,0.0
1402760543093952593,3,-12.5104962946,-7.1377884924,-0.672049755762,2.38304939926,5.25521030712,-3.84635974695,-0.0258332277479,0.0,-0.00813965863476,0.0,0.0499198731129,0.0,-0.499344730878,0.0,9.59762351835e-05,0.0,0.00270457703937,0.0,-0.0167092272328,0.0,0.0676325107985,0.0,0.00232383481509,0.0,-0.0,-0.0,0.592139422894,-20.0,138.564064606,-124.690526368,1.04412874381,0.0,-1.04412880738,0.0,1.0471975512,60.0,-1.0471975512,-100.0,17535873.1738,0.0,0.0,0.0,0.0,0.0,0.0
1402760543113890239,3,-12.5104962946,-7.1377884924,-0.672049755762,2.38304939926,5.25521030712,-3.84635974695,-0.0258332277479,0.0,-0.00813965863476,0.0,0.0499198731129,0.0,-0.499344730878,0.0,9.59762351835e-05,0.0,0.00270457703937,0.0,-0.0167092272328,0.0,0.0676325107985,0.0,0.00232383481509,0.0,-0.0,-0.0,0.592139422894,-20.0,138.564064606,-124.690526368,1.04412874381,0.0,-1.04412880738,0.0,1.0471975512,60.0,-1.0471975512,-100.0,17535873.1738,0.0,0.0,0.0,0.0,0.0,0.0
1402760543133951308,3,-12.5096643515,-7.1377884924,-0.671844189161,2.38304939926,5.25527498913,-3.84635974695,-0.0304818403195,0.0,-0.00808080343904,0.0,0.0509778438177,0.0,-0.499540916398,0.0,-0.00296277712787,0.0,0.00246326423189,0.0,-0.00691160066313,0.0,0.0671269935399,0.0,0.00730529111046,0.0,-0.0,-0.0,0.592139422894,-20.0,138.564064606,-124.690526368,1.04412874381,0.0,-1.04412880738,0.0,1.0471975512,60.0,-1.0471975512,-100.0,17535873.1738,0.0,0.0,0.0,0.0,0.0,0.0
1402760543153990095,3,-12.5096643515,-7.1377884924,-0.671844189161,2.38304939926,5.25527498913,-3.84635974695,-0.0304818403195,0.0,-0.00808080343904,0.0,0.0509778438177,0.0,-0.499540916398,0.0,-0.00296277712787,0.0,0.00246326423189,0.0,-0.00691160066313,0.0,0.0671269935399,0.0,0.00730529111046,0.0,-0.0,-0.0,0.592139422894,-20.0,138.564064606,-124.690526368,1.04412874381,0.0,-1.04412880738,0.0,1.0471975512,60.0,-1.0471975512,-100.0,17535873.1738,0.0,0.0,0.0,0.0,0.0,0.0
1402760543174213587,3,-12.5025096339,-7.1377884924,-0.672160269525,2.38304939926,5.2615327935,-3.84635974695,-0.0176618479888,0.0,-0.00677647746342,0.0,0.0551896306239,0.0,-0.499796297725,0.0,0.00139080937929,0.0,0.00106459391891,0.0,-0.0133795904935,0.0,0.0684471003871,0.0,0.0130948342141,0.0,-0.0,-0.0,0.592139422894,-20.0,138.564064606,-124.690526368,1.04412874381,0.0,-1.04412880738,0.0,1.0471975512,60.0,-1.0471975512,-100.0,17535873.1738,0.0,0.0,0.0,0.0,0.0,0.0
1402760543194537849,3,-12.5025096339,-7.1377884924,-0.672160269525,2.38304939926,5.2615327935,-3.84635974695,-0.0176618479888,0.0,-0.00677647746342,0.0,0.0551896306239,0.0,-0.499796297725,0.0,0.00139080937929,0.0,0.00106459391891,0.0,-0.0133795904935,0.0,0.0684471003871,0.0,0.0130948342141,0.0,-0.0,-0.0,0.592139422894,-20.0,138.564064606,-124.690526368,1.04412874381,0.0,-1.04412880738,0.0,1.0471975512,60.0,-1.0471975512,-100.0,17535873.1738,0.0,0.0,0.0,0.0,0.0,0.0
1402760543213864000,3,-12.499159371,-7.1377884924,-0.668759639961,2.38304939926,5.2592285437,-3.84635974695,-0.0169301233756,0.0,0.00310027119207,0.0,0.0575785863995,0.0,-0.499905082808,0.0,0.00218251761544,0.0,-0.000685329105415,0.0,-0.0169266508585,0.0,0.068077742679,0.0,0.0178036254541,0.0,-0.0,-0.0,0.592139422894,-20.0,138.564064606,-124.690526368,1.04412874381,0.0,-1.04412880738,0.0,1.0471975512,60.0,-1.0471975512,-100.0,17535873.1738,0.0,0.0,0.0,0.0,0.0,0.0
1402760543233908271,3,-12.499159371,-7.1377884924,-0.668759639961,2.38304939926,5.2592285437,-3.84635974695,-0.0169301233756,0.0,0.00310027119207,0.0,0.0575785863995,0.0,-0.499905082808,0.0,0.00218251761544,0.0,-0.000685329105415,0.0,-0.0169266508585,0.0,0.068077742679,0.0,0.0178036254541,0.0,-0.0,-0.0,0.592139422894,-20.0,138.564064606,-124.690526368,1.04412874381,0.0,-1.04412880738,0.0,1.0471975512,60.0,-1.0471975512,-100.0,17535873.1738,0.0,0.0,0.0,0.0,0.0,0.0
1402760543254578838,3,-12.4908633305,-7.1377884924,-0.666359520405,2.38304939926,5.25186542206,-3.84635974695,-0.00998330828731,0.0,0.00342455535848,0.0,0.0563906041748,0.0,-0.499893991536,0.0,0.00989655030063,0.0,-0.00151308738508,0.0,-0.00886401482473,0.0,0.0689249353767,0.0,0.010897965317,0.0,-0.0,-0.0,0.592139422894,-20.0,138.564064606,-124.690526368,1.04412874381,0.0,-1.04412880738,0.0,1.0471975512,60.0,-1.0471975512,-100.0,17535873.1738,0.0,0.0,0.0,0.0,0.0,0.0
1402760543273971462,3,-12.4912499967,-7.1377884924,-0.66600824833,2.38304939926,5.25403893318,-3.84635974695,-0.00930345880213,0.0,0.00502193679019,0.0,0.0591516553034,0.0,-0.499602940122,0.0,0.00930382499573,0.0,-0.00229967624662,0.0,-0.00817664647278,0.0,0.0692508616286,0.0,0.014551265211,0.0,-0.0,-0.0,0.592139422894,-20.0,138.564064606,-124.690526368,1.04412874381,0.0,-1.04412880738,0.0,1.0471975512,60.0,-1.0471975512,-100.0,17535873.1738,0.0,0.0,0.0,0.0,0.0,0.0
1402760543294120677,3,-12.4912499967,-7.1377884924,-0.66600824833,2.38304939926,5.25403893318,-3.84635974695,-0.00930345880213,0.0,0.00502193679019,0.0,0.0591516553034,0.0,-0.499602940122,0.0,0.00930382499573,0.0,-0.00229967624662,0.0,-0.00817664647278,0.0,0.0692508616286,0.0,0.014551265211,0.0,-0.0,-0.0,0.592139422894,-20.0,138.564064606,-124.690526368,1.04412874381,0.0,-1.04412880738,0.0,1.0471975512,60.0,-1.0471975512,-100.0,17535873.1738,0.0,0.0,0.0,0.0,0.0,0.0
1402760543314792267,3,-12.4886467552,-7.1377884924,-0.664909740524,2.38304939926,5.24462201048,-3.84635974695,-0.0166987958131,0.0,0.00072844391185,0.0,0.0569393135971,0.0,-0.499343379037,0.0,0.00909552698624,0.0,-0.00144869702385,0.0,-0.00866607141803,0.0,0.0689563372444,0.0,0.0139249008089,0.0,-0.0,-0.0,0.592139422894,-20.0,138.564064606,-124.690526368,1.04412874381,0.0,-1.04412880738,0.0,1.0471975512,60.0,-1.0471975512,-100.0,17535873.1738,0.0,0.0,0.0,0.0,0.0,0.0
1402760543333892543,3,-12.4886467552,-7.1377884924,-0.664909740524,2.38304939926,5.24462201048,-3.84635974695,-0.0166987958131,0.0,0.00072844391185,0.0,0.0569393135971,0.0,-0.499343379037,0.0,0.00909552698624,0.0,-0.00144869702385,0.0,-0.00866607141803,0.0,0.0689563372444,0.0,0.0139249008089,0.0,-0.0,-0.0,0.592139422894,-20.0,138.564064606,-124.690526368,1.04412874381,0.0,-1.04412880738,0.0,1.0471975512,60.0,-1.0471975512,-100.0,17535873.1738,0.0,0.0,0.0,0.0,0.0,0.0
1402760543354631184,3,-12.4889991178,-7.1377884924,-0.665006153823,2.38304939926,5.24598958543,-3.84635974695,-0.0171290395494,0.0,0.000595744924351,0.0,0.0577804244824,0.0,-0.499122937825,0.0,0.00907763752429,0.0,-0.00165311849444,0.0,-0.00456622333729,0.0,0.0691733812583,0.0,0.0108081740325,0.0,-0.0,-0.0,0.592139422894,-20.0,138.564064606,-124.690526368,1.04412874381,0.0,-1.04412880738,0.0,1.0471975512,60.0,-1.0471975512,-100.0,17535873.1738,0.0,0.0,0.0,0.0,0.0,0.0
1402760543373798781,3,-12.4889991178,-7.1377884924,-0.665006153823,2.38304939926,5.24598958543,-3.84635974695,-0.0171290395494,0.0,0.000595744924351,0.0,0.0577804244824,0.0,-0.499122937825,0.0,0.00907763752429,0.0,-0.00165311849444,0.0,-0.00456622333729,0.0,0.0691733812583,0.0,0.0108081740325,0.0,-0.0,-0.0,0.592139422894,-20.0,138.564064606,-124.690526368,1.04412874381,0.0,-1.04412880738,0.0,1.0471975512,60.0,-1.0471975512,-100.0,17535873.1738,0.0,0.0,0.0,0.0,0.0,0.0
1402760543394063010,3,-12.4896197393,-7.1377884924,-0.665308834527,2.38304939926,5.24901900479,-3.84635974695,-0.0247144139558,0.0,-0.00193856054008,0.0,0.0605767135244,0.0,-0.49868350014,0.0,0.00922266062754,0.0,-0.00155890998028,0.0,-0.00614562822732,0.0,0.0691875780214,0.0,0.0122915630533,0.0,-0.0,-0.0,0.592139422894,-20.0,138.564064606,-124.690526368,1.04412874381,0.0,-1.04412880738,0.0,1.0471975512,60.0,-1.0471975512,-100.0,17535873.1738,0.0,0.0,0.0,0.0,0.0,0.0
1402760543414190728,3,-12.4896197393,-7.1377884924,-0.665308834527,2.38304939926,5.24901900479,-3.84635974695,-0.0247144139558,0.0,-0.00193856054008,0.0,0.0605767135244,0.0,-0.49868350014,0.0,0.00922266062754,0.0,-0.00155890998028,0.0,-0.00614562822732,0.0,0.0691875780214,0.0,0.0122915630533,0.0,-0.0,-0.0,0.592139422894,-20.0,138.564064606,-124.690526368,1.04412874381,60.0,-1.04412880738,-100.0,1.0471975512,60.0,-1.0471975512,-100.0,17535873.1738,0.0,0.0,0.0,0.0,0.0,0.0
1402760543433709873,3,-12.4817931674,-7.1377884924,-0.661782565326,2.38304939926,5.24373346541,-3.84635974695,-0.0222936657528,0.0,0.0011524290871,0.0,0.0599292609091,0.0,-0.498454024212,0.0,0.0147659780441,0.0,-0.00240653987064,0.0,0.00593508392551,0.0,0.0697752313602,0.0,0.0119001371712,0.0,-0.0,-0.0,0.592139422894,-20.0,138.564064606,-124.690526368,1.04412874381,60.0,-1.04412880738,-100.0,1.0471975512,60.0,-1.0471975512,-100.0,17535873.1738,0.0,0.0,0.0,0.0,0.0,0.0
1402760543454633933,3,-12.4817931674,-7.1377884924,-0.661782565326,2.38304939926,5.24373346541,-3.84635974695,-0.0222936657528,0.0,0.0011524290871,0.0,0.0599292609091,0.0,-0.498454024212,0.0,0.0147659780441,0.0,-0.00240653987064,0.0,0.00593508392551,0.0,0.0697752313602,0.0,0.0119001371712,0.0,-0.0,-0.0,0.592139422894,-20.0,138.564064606,-124.690526368,1.04412874381,60.0,-1.04412880738,-100.0,1.0471975512,60.0,-1.0471975512,-100.0,17535873.1738,0.0,0.0,0.0,0.0,0.0,0.0
1402760543475713851,3,-12.4822437712,-7.1377884924,-0.661750531335,2.38304939926,5.24500059842,-3.84635974695,-0.0222964786788,0.0,0.000989281466892,0.0,0.0602352720339,0.0,-0.498315371816,0.0,0.00757175718613,0.0,-0.00242909708432,0.0,0.00935662080026,0.0,0.0701470131675,0.0,0.015300197704,0.0,-0.0,-0.0,0.592139422894,-20.0,138.564064606,-124.690526368,1.04412874381,60.0,-1.04412880738,-100.0,1.0471975512,60.0,-1.0471975512,-100.0,17535873.1738,0.0,0.0,0.0,0.0,0.0,0.0
1402760543493943201,3,-12.4822437712,-7.1377884924,-0.661750531335,2.38304939926,5.24500059842,-3.84635974695,-0.0222964786788,0.0,0.000989281466892,0.0,0.0602352720339,0.0,-0.498315371816,0.0,0.00757175718613,0.0,-0.00242909708432,0.0,0.00935662080026,0.0,0.0701470131675,0.0,0.015300197704,0.0,-0.0,-0.0,0.592139422894,-20.0,138.564064606,-124.690526368,1.04412874381,60.0,-1.04412880738,-100.0,1.0471975512,60.0,-1.0471975512,-100.0,17535873.1738,0.0,0.0,0.0,0.0,0.0,0.0
1402760543515284393,3,-12.4817025271,-7.1377884924,-0.664531168134,2.38304939926,5.24815724304,-3.84635974695,-0.0241793364639,0.0,-0.00801215630073,0.0,0.0586034022275,0.0,-0.497962778783,0.0,0.0140138741749,0.0,-0.00141518880755,0.0,0.011016035138,0.0,0.0712724923332,0.0,0.00509781271738,0.0,-0.0,-0.0,0.592139422894,-20.0,138.564064606,-124.690526368,1.04412874381,60.0,-1.04873195489,-100.0,1.0471975512,60.0,-1.0471975512,-100.0,17535873.1738,0.0,0.0,0.0,0.0,0.0,0.0
1402760543533960951,3,-12.4817025271,-7.1377884924,-0.664531168134,2.38304939926,5.24815724304,-3.84635974695,-0.0241793364639,0.0,-0.00801215630073,0.0,0.0586034022275,0.0,-0.497962778783,0.0,0.0140138741749,0.0,-0.00141518880755,0.0,0.011016035138,0.0,0.0712724923332,0.0,0.00509781271738,0.0,-0.0,-0.0,0.592139422894,-20.0,138.564064606,-124.690526368,1.04259428183,60.0,-1.04873195489,-100.0,1.0471975512,60.0,-1.0471975512,-100.0,17535873.1738,0.0,0.0,0.0,0.0,0.0,0.0
1402760543554135227,3,-12.4829763768,-7.1377884924,-0.664831342857,2.38304939926,5.25095334204,-3.84635974695,-0.0255551996658,0.0,-0.0100829646395,0.0,0.0580068527096,0.0,-0.497843758157,0.0,0.0040107149469,0.0,-0.000575919350346,0.0,0.019941012702,0.0,0.0718392643783,0.0,0.000982324034887,0.0,-0.0,-0.0,0.592139422894,-20.0,138.564064606,-124.690526368,1.04259428183,60.0,-1.04873195489,-100.0,1.0471975512,60.0,-1.0471975512,-100.0,17535873.1738,0.0,0.0,0.0,0.0,0.0,0.0
1402760543574675846,3,-12.4829763768,-7.1377884924,-0.664831342857,2.38304939926,5.25095334204,-3.84635974695,-0.0255551996658,0.0,-0.0100829646395,0.0,0.0580068527096,0.0,-0.497843758157,0.0,0.0040107149469,0.0,-0.000575919350346,0.0,0.019941012702,0.0,0.0718392643783,0.0,0.000982324034887,0.0,-0.0,-0.0,0.592139422894,-20.0,138.564064606,-124.690526368,1.04412874381,60.0,-1.04412880738,-100.0,1.0471975512,60.0,-1.0471975512,-100.0,17535873.1738,0.0,0.0,0.0,0.0,0.0,0.0
1402760543594133644,3,-12.4820258327,-7.1377884924,-0.664272739542,2.38304939926,5.25164704713,-3.84635974695,-0.0347260013839,0.0,-0.0227652257385,0.0,0.06209765817,0.0,-0.497509959961,0.0,0.0175594508197,0.0,0.00080728657099,0.0,0.0641232397493,0.0,0.0714835256512,0.0,-0.0398715606928,0.0,-0.0,-0.0,0.592139422894,-20.0,138.564064606,-124.690526368,1.04412874381,60.0,-1.04412880738,-100.0,1.0471975512,60.0,-1.0471975512,-100.0,17535873.1738,0.0,0.0,0.0,0.0,0.0,0.0
1402760543614111986,3,-12.4827333605,-7.1377884924,-0.664671922705,2.38304939926,5.25285006619,-3.84635974695,-0.0324574861792,0.0,-0.0179287491074,0.0,0.0597355850173,0.0,-0.496800405006,0.0,0.0452789617897,0.0,-0.000100087295324,0.0,-0.0862704326279,0.0,0.0714226761954,0.0,0.0440128171552,0.0,-0.0,-0.0,0.592139422894,-20.0,138.564064606,-124.690526368,1.04412874381,60.0,-1.04412880738,-100.0,1.0471975512,60.0,-1.0471975512,-100.0,17535873.1738,0.0,0.0,0.0,0.0,0.0,0.0
1402760543633997548,3,-12.4827333605,-7.1377884924,-0.664671922705,2.38304939926,5.25285006619,-3.84635974695,-0.0324574861792,0.0,-0.0179287491074,0.0,0.0597355850173,0.0,-0.496800405006,0.0,0.0452789617897,0.0,-0.000100087295324,0.0,-0.0862704326279,0.0,0.0714226761954,0.0,0.0440128171552,0.0,-0.0,-0.0,0.592139422894,-20.0,138.564064606,-124.690526368,1.04259428183,60.0,-1.04412880738,-100.0,1.0471975512,60.0,-1.0471975512,-100.0,17535873.1738,0.0,0.0,0.0,0.0,0.0,0.0
1402760543654523405,3,-12.4777471124,-7.1377884924,-0.658941850282,2.38304939926,5.23148992733,-3.84635974695,-0.0431974979378,0.0,-0.0179389160759,0.0,0.0527750144831,0.0,-0.49653196058,0.0,0.0562844022614,0.0,-0.00242655169489,0.0,-0.0862433432182,0.0,0.0703707727249,0.0,0.04158813653,0.0,-0.0,-0.0,0.592139422894,-20.0,138.564064606,-124.690526368,1.04412874381,60.0,-1.0395258983,-100.0,1.0471975512,60.0,-1.0471975512,-100.0,17535873.1738,0.0,0.0,0.0,0.0,0.0,0.0
1402760543673890285,3,-12.4777471124,-7.1377884924,-0.658941850282,2.38304939926,5.23148992733,-3.84635974695,-0.0431974979378,0.0,-0.0179389160759,0.0,0.0527750144831,0.0,-0.49653196058,0.0,0.0562844022614,0.0,-0.00242655169489,0.0,-0.0862433432182,0.0,0.0703707727249,0.0,0.04158813653,0.0,-0.0,-0.0,0.592139422894,-20.0,138.564064606,-124.690526368,1.04412874381,60.0,-1.03799143632,-100.0,1.0471975512,60.0,-1.0471975512,-100.0,17535873.1738,0.0,0.0,0.0,0.0,0.0,0.0
1402760543694549040,3,-12.4760316061,-7.1377884924,-0.66240951129,2.38304939926,5.24514507511,-3.84635974695,-0.0437127674266,0.0,-0.0305744100936,0.0,0.0621960377641,0.0,-0.492418483403,0.0,0.0881880056905,0.0,-0.00538045116216,0.0,-0.108845542533,0.0,0.0710146411939,0.0,0.0458467218228,0.0,-0.0,-0.0,0.592139422894,-20.0,138.564064606,-124.690526368,1.04259428183,60.0,-1.03645697435,-100.0,1.0471975512,60.0,-1.0471975512,-100.0,17535873.1738,0.0,0.0,0.0,0.0,0.0,0.0
1402760543713765208,3,-12.4760316061,-7.1377884924,-0.66240951129,2.38304939926,5.24514507511,-3.84635974695,-0.0437127674266,0.0,-0.0305744100936,0.0,0.0621960377641,0.0,-0.492418483403,0.0,0.0881880056905,0.0,-0.00538045116216,0.0,-0.108845542533,0.0,0.0710146411939,0.0,0.0458467218228,0.0,-0.0,-0.0,0.592139422894,-20.0,138.564064606,-124.690526368,1.04412874381,60.0,-1.03645697435,-100.0,1.0471975512,60.0,-1.0471975512,-100.0,17535873.1738,0.0,0.0,0.0,0.0,0.0,0.0
1402760543733914709,3,-12.4749474193,-7.1377884924,-0.664531046603,2.38304939926,5.2400877926,-3.84635974695,-0.0588265929535,0.0,-0.0467699648672,0.0,0.0630985909788,0.0,-0.486221389208,0.0,0.132222007759,0.0,-0.00971312735999,0.0,-0.106701733868,0.0,0.0701371116771,0.0,0.0345238408991,0.0,-0.0,-0.0,0.592139422894,-20.0,138.564064606,-124.690526368,1.04412874381,60.0,-1.03645697435,-100.0,1.0471975512,60.0,-1.0471975512,-100.0,17535873.1738,0.0,0.0,0.0,0.0,0.0,0.0
1402760543754213807,3,-12.4749474193,-7.1377884924,-0.664531046603,2.38304939926,5.2400877926,-3.84635974695,-0.0588265929535,0.0,-0.0467699648672,0.0,0.0630985909788,0.0,-0.486221389208,0.0,0.132222007759,0.0,-0.00971312735999,0.0,-0.106701733868,0.0,0.0701371116771,0.0,0.0345238408991,0.0,-0.0,-0.0,0.592139422894,-20.0,138.564064606,-124.690526368,1.04412874381,60.0,-1.03645697435,-100.0,1.0471975512,60.0,-1.0471975512,-100.0,17535873.1738,0.0,0.0,0.0,0.0,0.0,0.0
1402760543773790900,3,-12.4827690409,-7.1377884924,-0.672203650143,2.38304939926,5.24254024746,-3.84635974695,-0.095467235181,0.0,-0.0671159859169,0.0,0.0719682293986,0.0,-0.475851091768,0.0,0.168176691998,0.0,-0.0141010340069,0.0,-0.0951225432684,0.0,0.066379913052,0.0,-0.00320403170822,0.0,-0.0,-0.0,0.592139422894,-20.0,138.564064606,-124.690526368,1.04412874381,60.0,-1.03645697435,-100.0,1.0471975512,60.0,-1.0471975512,-100.0,17535873.1738,0.0,0.0,0.0,0.0,0.0,0.0
1402760543793803452,3,-12.4827690409,-7.1377884924,-0.672203650143,2.38304939926,5.24254024746,-3.84635974695,-0.095467235181,0.0,-0.0671159859169,0.0,0.0719682293986,0.0,-0.475851091768,0.0,0.168176691998,0.0,-0.0141010340069,0.0,-0.0951225432684,0.0,0.066379913052,0.0,-0.00320403170822,0.0,-0.0,-0.0,0.592139422894,-20.0,138.564064606,-124.690526368,1.04259428183,60.0,-1.03645697435,-100.0,1.0471975512,60.0,-1.0471975512,-100.0,17535873.1738,0.0,0.0,0.0,0.0,0.0,0.0
1402760543814486510,3,-12.4839427324,-7.1377884924,-0.672920617853,2.38304939926,5.24320855413,-3.84635974695,-0.0998056738923,0.0,-0.069947253811,0.0,0.0644220471457,0.0,-0.474020149596,0.0,0.172276988343,0.0,-0.0147538310375,0.0,-0.078949247046,0.0,0.0657448970171,0.0,-0.0241222627301,0.0,-0.0,-0.0,0.592139422894,-20.0,138.564064606,-124.690526368,1.04412874381,60.0,-1.03645697435,-100.0,1.0471975512,60.0,-1.0471975512,-100.0,17535873.1738,0.0,0.0,0.0,0.0,0.0,0.0
1402760543833789492,3,-12.4839427324,-7.1377884924,-0.672920617853,2.38304939926,5.24320855413,-3.84635974695,-0.0998056738923,0.0,-0.069947253811,0.0,0.0644220471457,0.0,-0.474020149596,0.0,0.172276988343,0.0,-0.0147538310375,0.0,-0.078949247046,0.0,0.0657448970171,0.0,-0.0241222627301,0.0,-0.0,-0.0,0.592139422894,-20.0,138.564064606,-124.690526368,1.04259428183,60.0,-1.03492275079,-100.0,1.0471975512,60.0,-1.0471975512,-100.0,17535873.1738,0.0,0.0,0.0,0.0,0.0,0.0
1402760543853741068,3,-12.4881205439,-7.1377884924,-0.672569504149,2.38304939926,5.2364222493,-3.84635974695,-0.116395174879,0.0,-0.0689954226672,0.0,0.0729065146565,0.0,-0.471160977493,0.0,0.190794236796,0.0,-0.0169505830741,0.0,-0.0776015599495,0.0,0.0630926461553,0.0,-0.020018164155,0.0,-0.0,-0.0,0.592139422894,-20.0,138.564064606,-124.690526368,1.04259428183,60.0,-1.03645697435,-100.0,1.0471975512,60.0,-1.0471975512,-100.0,17535873.1738,0.0,0.0,0.0,0.0,0.0,0.0
1402760543874358187,3,-12.4881205439,-7.1377884924,-0.672569504149,2.38304939926,5.2364222493,-3.84635974695,-0.116395174879,0.0,-0.0689954226672,0.0,0.0729065146565,0.0,-0.471160977493,0.0,0.190794236796,0.0,-0.0169505830741,0.0,-0.0776015599495,0.0,0.0630926461553,0.0,-0.020018164155,0.0,-0.0,-0.0,0.592139422894,-20.0,138.564064606,-124.690526368,1.04259428183,60.0,-1.03492275079,-100.0,1.0471975512,60.0,-1.0471975512,-100.0,17535873.1738,0.0,0.0,0.0,0.0,0.0,0.0
1402760543893836541,3,-12.4933503058,-7.1377884924,-0.675681464035,2.38304939926,5.23926844672,-3.84635974695,-0.124923402341,0.0,-0.0777965765565,0.0,0.0729376569692,0.0,-0.462882823835,0.0,0.203346916327,0.0,-0.0182507599919,0.0,-0.0415959805903,0.0,0.0613208667703,0.0,-0.0172371357067,0.0,-0.0,-0.0,0.592139422894,-20.0,138.564064606,-124.690526368,1.04412874381,60.0,-1.03492275079,-100.0,1.0471975512,60.0,-1.0471975512,-100.0,17535873.1738,0.0,0.0,0.0,0.0,0.0,0.0
1402760543913957364,3,-12.4933503058,-7.1377884924,-0.675681464035,2.38304939926,5.23926844672,-3.84635974695,-0.124923402341,0.0,-0.0777965765565,0.0,0.0729376569692,0.0,-0.462882823835,0.0,0.203346916327,0.0,-0.0182507599919,0.0,-0.0415959805903,0.0,0.0613208667703,0.0,-0.0172371357067,0.0,-0.0,-0.0,0.592139422894,-20.0,138.564064606,-124.690526368,1.04259428183,60.0,-1.03492275079,-100.0,1.0471975512,60.0,-1.0471975512,-100.0,17535873.1738,0.0,0.0,0.0,0.0,0.0,0.0
1402760543934824603,3,-12.5028189775,-7.1377884924,-0.682770461493,2.38304939926,5.24498987183,-3.84635974695,-0.141379868403,0.0,-0.0939031480802,0.0,0.0625517461261,0.0,-0.451647248188,0.0,0.210398411903,0.0,-0.0179231103102,0.0,-0.0113786420783,0.0,0.0594462343602,0.0,-0.0380482762091,0.0,-0.0,-0.0,0.592139422894,-20.0,138.564064606,-124.690526368,1.04259428183,60.0,-1.03645697435,-100.0,1.0471975512,60.0,-1.0471975512,-100.0,17535873.1738,0.0,0.0,0.0,0.0,0.0,0.0
1402760543953956374,3,-12.5028189775,-7.1377884924,-0.682770461493,2.38304939926,5.24498987183,-3.84635974695,-0.141379868403,0.0,-0.0939031480802,0.0,0.0625517461261,0.0,-0.451647248188,0.0,0.210398411903,0.0,-0.0179231103102,0.0,-0.0113786420783,0.0,0.0594462343602,0.0,-0.0380482762091,0.0,-0.0,-0.0,0.592139422894,-20.0,138.564064606,-124.690526368,1.04259428183,60.0,-1.03492275079,-100.0,1.0471975512,60.0,-1.0471975512,-100.0,17535873.1738,0.0,0.0,0.0,0.0,0.0,0.0
1402760543973880682,3,-12.5125329363,-7.1377884924,-0.686851510704,2.38304939926,5.25010593116,-3.84635974695,-0.156024380609,0.0,-0.0998558039448,0.0,0.0561786754425,0.0,-0.446449884182,0.0,0.219917250399,0.0,-0.0177453601509,0.0,0.00681093980608,0.0,0.057878251592,0.0,-0.0143574008324,0.0,-0.0,-0.0,0.592139422894,-20.0,138.564064606,-124.690526368,1.04259428183,60.0,-1.03645697435,-100.0,1.0471975512,60.0,-1.0471975512,-100.0,17535873.1738,0.0,0.0,0.0,0.0,0.0,0.0
1402760543994353335,3,-12.515774775,-7.1377884924,-0.689007925288,2.38304939926,5.25117126769,-3.84635974695,-0.161335316466,0.0,-0.10665577483,0.0,0.0514075839598,0.0,-0.441790258946,0.0,0.222691196226,0.0,-0.0172068891481,0.0,0.0179037413424,0.0,0.0576039677641,0.0,-0.0134984752182,0.0,-0.0,-0.0,0.592139422894,-20.0,138.564064606,-124.690526368,1.04412874381,60.0,-1.03492275079,-100.0,1.0471975512,60.0,-1.0471975512,-100.0,17535873.1738,0.0,0.0,0.0,0.0,0.0,0.0
1402760544014094913,3,-12.515774775,-7.1377884924,-0.689007925288,2.38304939926,5.25117126769,-3.84635974695,-0.161335316466,0.0,-0.10665577483,0.0,0.0514075839598,0.0,-0.441790258946,0.0,0.222691196226,0.0,-0.0172068891481,0.0,0.0179037413424,0.0,0.0576039677641,0.0,-0.0134984752182,0.0,-0.0,-0.0,0.592139422894,-20.0,138.564064606,-124.690526368,1.04259428183,60.0,-1.03645697435,-100.0,1.0471975512,60.0,-1.0471975512,-100.0,17535873.1738,0.0,0.0,0.0,0.0,0.0,0.0
1402760544034050988,3,-12.5153125064,-7.1377884924,-0.691053585772,2.38304939926,5.24829031456,-3.84635974695,-0.158708571065,0.0,-0.111420056235,0.0,0.0517542402785,0.0,-0.43578389956,0.0,0.226537211093,0.0,-0.017157854575,0.0,0.00792385501481,0.0,0.0582640358556,0.0,-0.00914470597132,0.0,-0.0,-0.0,0.592139422894,-20.0,138.564064606,-124.690526368,1.04412874381,60.0,-1.03645697435,-100.0,1.0471975512,60.0,-1.0471975512,-100.0,17535873.1738,0.0,0.0,0.0,0.0,0.0,0.0
1402760544054447187,3,-12.5153125064,-7.1377884924,-0.691053585772,2.38304939926,5.24829031456,-3.84635974695,-0.158708571065,0.0,-0.111420056235,0.0,0.0517542402785,0.0,-0.43578389956,0.0,0.226537211093,0.0,-0.017157854575,0.0,0.00792385501481,0.0,0.0582640358556,0.0,-0.00914470597132,0.0,-0.0,-0.0,0.592139422894,-20.0,138.564064606,-124.690526368,1.04259428183,60.0,-1.03492275079,-100.0,1.0471975512,60.0,-1.0471975512,-100.0,17535873.1738,0.0,0.0,0.0,0.0,0.0,0.0
1402760544073932838,3,-12.5177407985,-7.1377884924,-0.701528333695,2.38304939926,5.25622218605,-3.84635974695,-0.156931590357,0.0,-0.140512608673,0.0,0.0540658525319,0.0,-0.419497407264,0.0,0.236602661654,0.0,-0.0151694925279,0.0,0.0281567213178,0.0,0.0608304952333,0.0,-0.00630708462535,0.0,-0.0,-0.0,0.592139422894,-20.0,138.564064606,-124.690526368,1.04259428183,60.0,-1.03492275079,-100.0,1.0471975512,60.0,-1.0471975512,-100.0,17535873.1738,0.0,0.0,0.0,0.0,0.0,0.0
1402760544093845732,3,-12.5177407985,-7.1377884924,-0.701528333695,2.38304939926,5.25622218605,-3.84635974695,-0.156931590357,0.0,-0.140512608673,0.0,0.0540658525319,0.0,-0.419497407264,0.0,0.236602661654,0.0,-0.0151694925279,0.0,0.0281567213178,0.0,0.0608304952333,0.0,-0.00630708462535,0.0,-0.0,-0.0,0.592139422894,-20.0,138.564064606,-124.690526368,1.04412874381,60.0,-1.03492275079,-100.0,1.0471975512,60.0,-1.0471975512,-100.0,17535873.1738,0.0,0.0,0.0,0.0,0.0,0.0
1402760544114349093,3,-12.5339151285,-7.1377884924,-0.711040729581,2.38304939926,5.2645156264,-3.84635974695,-0.17909389184,0.0,-0.153476395908,0.0,0.0428994904162,0.0,-0.40907925849,0.0,0.248091148264,0.0,-0.0130541754768,0.0,0.0360769949339,0.0,0.0603656531225,0.0,0.0125875073719,0.0,-0.0,-0.0,0.592139422894,-20.0,138.564064606,-124.690526368,1.04412874381,60.0,-1.03645697435,-100.0,1.0471975512,60.0,-1.0471975512,-100.0,17535873.1738,0.0,0.0,0.0,0.0,0.0,0.0
1402760544134067577,3,-12.5339151285,-7.1377884924,-0.711040729581,2.38304939926,5.2645156264,-3.84635974695,-0.17909389184,0.0,-0.153476395908,0.0,0.0428994904162,0.0,-0.40907925849,0.0,0.248091148264,0.0,-0.0130541754768,0.0,0.0360769949339,0.0,0.0603656531225,0.0,0.0125875073719,0.0,-0.0,-0.0,0.592139422894,-20.0,138.564064606,-124.690526368,1.04412874381,60.0,-1.03492275079,-100.0,1.0471975512,60.0,-1.0471975512,-100.0,17535873.1738,0.0,0.0,0.0,0.0,0.0,0.0
1402760544153857396,3,-12.5376983767,-7.1377884924,-0.713531271306,2.38304939926,5.26411143558,-3.84635974695,-0.182111947094,0.0,-0.150393770032,0.0,0.0452910071931,0.0,-0.404317302511,0.0,0.243345222614,0.0,-0.0133607152573,0.0,0.0382420928827,0.0,0.0607187824604,0.0,0.00749976553582,0.0,-0.0,-0.0,0.592139422894,-20.0,138.564064606,-124.690526368,1.04412874381,60.0,-1.03645697435,-100.0,1.0471975512,60.0,-1.0471975512,-100.0,17535873.1738,0.0,0.0,0.0,0.0,0.0,0.0
1402760544174244106,3,-12.5376983767,-7.1377884924,-0.713531271306,2.38304939926,5.26411143558,-3.84635974695,-0.182111947094,0.0,-0.150393770032,0.0,0.0452910071931,0.0,-0.404317302511,0.0,0.243345222614,0.0,-0.0133607152573,0.0,0.0382420928827,0.0,0.0607187824604,0.0,0.00749976553582,0.0,-0.0,-0.0,0.592139422894,-20.0,138.564064606,-124.690526368,1.04259428183,60.0,-1.03492275079,-100.0,1.0471975512,60.0,-1.0471975512,-100.0,17535873.1738,0.0,0.0,0.0,0.0,0.0,0.0
1402760544193817659,3,-12.5454502328,-7.1377884924,-0.720164697018,2.38304939926,5.2661654549,-3.84635974695,-0.189967977556,0.0,-0.156963289369,0.0,0.0446030702642,0.0,-0.393941268864,0.0,0.250516112729,0.0,-0.0121794490032,0.0,0.0192559702505,0.0,0.0616247743219,0.0,0.0186284868095,0.0,-0.0,-0.0,0.592139422894,-20.0,138.564064606,-124.690526368,1.04412874381,60.0,-1.03492275079,-100.0,1.0471975512,60.0,-1.0471975512,-100.0,17535873.1738,0.0,0.0,0.0,0.0,0.0,0.0
1402760544213928166,3,-12.5454502328,-7.1377884924,-0.720164697018,2.38304939926,5.2661654549,-3.84635974695,-0.189967977556,0.0,-0.156963289369,0.0,0.0446030702642,0.0,-0.393941268864,0.0,0.250516112729,0.0,-0.0121794490032,0.0,0.0192559702505,0.0,0.0616247743219,0.0,0.0186284868095,0.0,-0.0,-0.0,0.592139422894,-20.0,138.564064606,-124.690526368,1.04259428183,60.0,-1.03492275079,-100.0,1.0471975512,60.0,-1.0471975512,-100.0,17535873.1738,0.0,0.0,0.0,0.0,0.0,0.0
1402760544234433012,3,-12.5682549077,-7.1377884924,-0.731718741528,2.38304939926,5.27174083037,-3.84635974695,-0.224400683554,0.0,-0.162671606246,0.0,0.037966846667,0.0,-0.382833761898,0.0,0.253626652091,0.0,-0.00953670703033,0.0,0.0272509085471,0.0,0.0605173741445,0.0,0.00331289617125,0.0,-0.0,-0.0,0.592139422894,-20.0,138.564064606,-124.690526368,1.04412874381,60.0,-1.03492275079,-100.0,1.0471975512,60.0,-1.0471975512,-100.0,17535873.1738,0.0,0.0,0.0,0.0,0.0,0.0
1402760544253890694,3,-12.5682549077,-7.1377884924,-0.731718741528,2.38304939926,5.27174083037,-3.84635974695,-0.224400683554,0.0,-0.162671606246,0.0,0.037966846667,0.0,-0.382833761898,0.0,0.253626652091,0.0,-0.00953670703033,0.0,0.0272509085471,0.0,0.0605173741445,0.0,0.00331289617125,0.0,-0.0,-0.0,0.592139422894,-20.0,138.564064606,-124.690526368,1.04412874381,60.0,-1.03492275079,-100.0,1.0471975512,60.0,-1.0471975512,-100.0,17535873.1738,0.0,0.0,0.0,0.0,0.0,0.0
1402760544273909509,3,-12.5751679285,-7.1377884924,-0.738729615339,2.38304939926,5.2667833733,-3.84635974695,-0.227473091933,0.0,-0.168189724711,0.0,0.0377807643616,0.0,-0.373634688895,0.0,0.262784387245,0.0,-0.00803530761639,0.0,0.0320482873634,0.0,0.0616413622435,0.0,0.00596720076092,0.0,-0.0,-0.0,0.592139422894,-20.0,138.564064606,-124.690526368,1.04259428183,60.0,-1.03645697435,-100.0,1.0471975512,60.0,-1.0471975512,-100.0,17535873.1738,0.0,0.0,0.0,0.0,0.0,0.0
1402760544294350649,3,-12.57997969,-7.1377884924,-0.742285298733,2.38304939926,5.26755525478,-3.84635974695,-0.231015594542,0.0,-0.169361880205,0.0,0.0355249340618,0.0,-0.367964619604,0.0,0.274389909915,0.0,-0.00742101735779,0.0,0.0297427556279,0.0,0.0618401979599,0.0,0.00303581897129,0.0,-0.0,-0.0,0.592139422894,-20.0,138.564064606,-124.690526368,1.04412874381,60.0,-1.03492275079,-100.0,1.0471975512,60.0,-1.0471975512,-100.0,17535873.1738,0.0,0.0,0.0,0.0,0.0,0.0
1402760544314139507,3,-12.57997969,-7.1377884924,-0.742285298733,2.38304939926,5.26755525478,-3.84635974695,-0.231015594542,0.0,-0.169361880205,0.0,0.0355249340618,0.0,-0.367964619604,0.0,0.274389909915,0.0,-0.00742101735779,0.0,0.0297427556279,0.0,0.0618401979599,0.0,0.00303581897129,0.0,-0.0,-0.0,0.592139422894,-20.0,138.564064606,-124.690526368,1.04259428183,60.0,-1.03492275079,-100.0,1.0471975512,60.0,-1.0471975512,-100.0,17535873.1738,0.0,0.0,0.0,0.0,0.0,0.0
1402760544333966396,3,-12.5800993623,-7.1377884924,-0.74144419151,2.38304939926,5.26214521053,-3.84635974695,-0.2225122295,0.0,-0.152587373996,0.0,0.0370088942085,0.0,-0.362398675325,0.0,0.280241255508,0.0,-0.00950662378482,0.0,0.00887845963636,0.0,0.0624384066027,0.0,0.00727750800113,0.0,-0.0,-0.0,0.592139422894,-20.0,138.564064606,-124.690526368,1.04259428183,60.0,-1.03492275079,-100.0,1.0471975512,60.0,-1.0471975512,-100.0,17535873.1738,0.0,0.0,0.0,0.0,0.0,0.0
1402760544354209033,3,-12.5800993623,-7.1377884924,-0.74144419151,2.38304939926,5.26214521053,-3.84635974695,-0.2225122295,0.0,-0.152587373996,0.0,0.0370088942085,0.0,-0.362398675325,0.0,0.280241255508,0.0,-0.00950662378482,0.0,0.00887845963636,0.0,0.0624384066027,0.0,0.00727750800113,0.0,-0.0,-0.0,0.592139422894,-20.0,138.564064606,-124.690526368,1.04412874381,60.0,-1.03338852723,-100.0,1.0471975512,60.0,-1.0471975512,-100.0,17535873.1738,0.0,0.0,0.0,0.0,0.0,0.0
1402760544373829127,3,-12.5956990907,-7.1377884924,-0.751862164905,2.38304939926,5.26739604883,-3.84635974695,-0.23955258736,0.0,-0.156539748512,0.0,0.0289384042726,0.0,-0.351137180007,0.0,0.280342134854,0.0,-0.00749037440775,0.0,0.0115336933158,0.0,0.0617975460188,0.0,-0.0132775785006,0.0,-0.0,-0.0,0.592139422894,-20.0,138.564064606,-124.690526368,1.04412874381,60.0,-1.03492275079,-100.0,1.0471975512,60.0,-1.0471975512,-100.0,17535873.1738,0.0,0.0,0.0,0.0,0.0,0.0
1402760544393850077,3,-12.5956990907,-7.1377884924,-0.751862164905,2.38304939926,5.26739604883,-3.84635974695,-0.23955258736,0.0,-0.156539748512,0.0,0.0289384042726,0.0,-0.351137180007,0.0,0.280342134854,0.0,-0.00749037440775,0.0,0.0115336933158,0.0,0.0617975460188,0.0,-0.0132775785006,0.0,-0.0,-0.0,0.592139422894,-20.0,138.564064606,-124.690526368,1.04259428183,60.0,-1.03338852723,-100.0,1.0471975512,60.0,-1.0471975512,-100.0,17535873.1738,0.0,0.0,0.0,0.0,0.0,0.0
1402760544414408715,3,-12.6058572712,-7.1377884924,-0.758661204776,2.38304939926,5.26886635457,-3.84635974695,-0.247178636585,0.0,-0.158334047997,0.0,0.0303508650109,0.0,-0.339066400184,0.0,0.296541611365,0.0,-0.00676824063793,0.0,0.00234801753966,0.0,0.0611348731091,0.0,-0.0257533858493,0.0,-0.0,-0.0,0.592139422894,-20.0,138.564064606,-124.690526368,1.04412874381,60.0,-1.03338852723,-100.0,1.0471975512,60.0,-1.0471975512,-100.0,17535873.1738,0.0,0.0,0.0,0.0,0.0,0.0
1402760544433645846,3,-12.6058572712,-7.1377884924,-0.758661204776,2.38304939926,5.26886635457,-3.84635974695,-0.247178636585,0.0,-0.158334047997,0.0,0.0303508650109,0.0,-0.339066400184,0.0,0.296541611365,0.0,-0.00676824063793,0.0,0.00234801753966,0.0,0.0611348731091,0.0,-0.0257533858493,0.0,-0.0,-0.0,0.592139422894,-20.0,138.564064606,-124.690526368,1.04259428183,60.0,-1.03492275079,-100.0,1.0471975512,60.0,-1.0471975512,-100.0,17535873.1738,0.0,0.0,0.0,0.0,0.0,0.0
1402760544453921383,3,-12.6336605854,-7.1377884924,-0.776838172748,2.38304939926,5.28787495642,-3.84635974695,-0.269972751623,0.0,-0.171337928252,0.0,0.0271991477497,0.0,-0.323698254245,0.0,0.296986748351,0.0,-0.00484015212035,0.0,0.011622498132,0.0,0.0588761394027,0.0,-0.0396584852234,0.0,-0.0,-0.0,0.592139422894,-20.0,138.564064606,-124.690526368,1.04259428183,60.0,-1.03338852723,-100.0,1.0471975512,60.0,-1.0471975512,-100.0,17535873.1738,0.0,0.0,0.0,0.0,0.0,0.0
1402760544474499088,3,-12.6336605854,-7.1377884924,-0.776838172748,2.38304939926,5.28787495642,-3.84635974695,-0.269972751623,0.0,-0.171337928252,0.0,0.0271991477497,0.0,-0.323698254245,0.0,0.296986748351,0.0,-0.00484015212035,0.0,0.011622498132,0.0,0.0588761394027,0.0,-0.0396584852234,0.0,-0.0,-0.0,0.592139422894,-20.0,138.564064606,-124.690526368,1.04259428183,60.0,-1.03338852723,-100.0,1.0471975512,60.0,-1.0471975512,-100.0,17535873.1738,0.0,0.0,0.0,0.0,0.0,0.0
1402760544493994334,3,-12.6481649529,-7.1377884924,-0.786448081931,2.38304939926,5.28982213204,-3.84635974695,-0.280060144109,0.0,-0.184946336058,0.0,0.032002029404,0.0,-0.307900761683,0.0,0.300097924696,0.0,-0.00455342184642,0.0,0.000281068841104,0.0,0.0572054113541,0.0,-0.0304117060823,0.0,-0.0,-0.0,0.592139422894,-20.0,138.564064606,-124.690526368,1.04259428183,60.0,-1.03338852723,-100.0,1.0471975512,60.0,-1.0471975512,-100.0,17535873.1738,0.0,0.0,0.0,0.0,0.0,0.0
1402760544514244613,3,-12.6481649529,-7.1377884924,-0.786448081931,2.38304939926,5.28982213204,-3.84635974695,-0.280060144109,0.0,-0.184946336058,0.0,0.032002029404,0.0,-0.307900761683,0.0,0.300097924696,0.0,-0.00455342184642,0.0,0.000281068841104,0.0,0.0572054113541,0.0,-0.0304117060823,0.0,-0.0,-0.0,0.592139422894,-20.0,138.564064606,-124.690526368,1.04259428183,60.0,-1.03492275079,-100.0,1.0471975512,60.0,-1.0471975512,-100.0,17535873.1738,0.0,0.0,0.0,0.0,0.0,0.0
1402760544534527695,3,-12.6598481248,-7.1377884924,-0.799316367603,2.38304939926,5.31138883985,-3.84635974695,-0.278027031517,0.0,-0.198178392711,0.0,0.0392905268714,0.0,-0.300917577744,0.0,0.29814957072,0.0,-0.00364990921817,0.0,-0.00759480689485,0.0,0.0577955777956,0.0,-0.0346675651278,0.0,-0.0,-0.0,0.592139422894,-20.0,138.564064606,-124.690526368,1.04259428183,60.0,-1.03492275079,-100.0,1.0471975512,60.0,-1.0471975512,-100.0,17535873.1738,0.0,0.0,0.0,0.0,0.0,0.0
1402760544553960526,3,-12.6598481248,-7.1377884924,-0.799316367603,2.38304939926,5.31138883985,-3.84635974695,-0.278027031517,0.0,-0.198178392711,0.0,0.0392905268714,0.0,-0.300917577744,0.0,0.29814957072,0.0,-0.00364990921817,0.0,-0.00759480689485,0.0,0.0577955777956,0.0,-0.0346675651278,0.0,-0.0,-0.0,0.592139422894,-20.0,138.564064606,-124.690526368,1.04259428183,60.0,-1.03338852723,-100.0,1.0471975512,60.0,-1.0471975512,-100.0,17535873.1738,0.0,0.0,0.0,0.0,0.0,0.0
1402760544573885137,3,-12.6719356731,-7.1377884924,-0.807905291654,2.38304939926,5.31326197662,-3.84635974695,-0.290505103152,0.0,-0.21005316739,0.0,0.0437580810945,0.0,-0.288630889546,0.0,0.290103341699,0.0,-0.0037022837725,0.0,-0.00924257703261,0.0,0.0563764356268,0.0,-0.0312773330009,0.0,-0.0,-0.0,0.592139422894,-20.0,138.564064606,-124.690526368,1.04259428183,60.0,-1.03492275079,-100.0,1.0471975512,60.0,-1.0471975512,-100.0,17535873.1738,0.0,0.0,0.0,0.0,0.0,0.0
1402760544594445385,3,-12.6719356731,-7.1377884924,-0.807905291654,2.38304939926,5.31326197662,-3.84635974695,-0.290505103152,0.0,-0.21005316739,0.0,0.0437580810945,0.0,-0.288630889546,0.0,0.290103341699,0.0,-0.0037022837725,0.0,-0.00924257703261,0.0,0.0563764356268,0.0,-0.0312773330009,0.0,-0.0,-0.0,0.592139422894,-20.0,138.564064606,-124.690526368,1.04412874381,60.0,-1.03338852723,-100.0,1.0471975512,60.0,-1.0471975512,-100.0,17535873.1738,0.0,0.0,0.0,0.0,0.0,0.0
1402760544613798069,3,-12.6894670658,-7.1377884924,-0.822841080658,2.38304939926,5.31623349958,-3.84635974695,-0.291510009924,0.0,-0.228078036384,0.0,0.041328076683,0.0,-0.273520962424,0.0,0.273327912172,0.0,-0.00352981047554,0.0,-0.00748121016716,0.0,0.0552927511667,0.0,-0.0295934128039,0.0,-0.0,-0.0,0.592139422894,-20.0,138.564064606,-124.690526368,1.04412874381,60.0,-1.03338852723,-100.0,1.0471975512,60.0,-1.0471975512,-100.0,17535873.1738,0.0,0.0,0.0,0.0,0.0,0.0
1402760544633624463,3,-12.6894670658,-7.1377884924,-0.822841080658,2.38304939926,5.31623349958,-3.84635974695,-0.291510009924,0.0,-0.228078036384,0.0,0.041328076683,0.0,-0.273520962424,0.0,0.273327912172,0.0,-0.00352981047554,0.0,-0.00748121016716,0.0,0.0552927511667,0.0,-0.0295934128039,0.0,-0.0,-0.0,0.592139422894,-20.0,138.564064606,-124.690526368,1.04412874381,60.0,-1.03338852723,-100.0,1.0471975512,60.0,-1.0471975512,-100.0,17535873.1738,0.0,0.0,0.0,0.0,0.0,0.0
1402760544654033166,3,-12.7210970658,-7.1377884924,-0.842090126674,2.38304939926,5.33063247163,-3.84635974695,-0.304824487571,0.0,-0.240239444074,0.0,0.0408613870001,0.0,-0.259009266164,0.0,0.272294213863,0.0,-0.0045618665692,0.0,-0.0329853810164,0.0,0.0531484147614,0.0,-0.0140928433862,0.0,-0.0,-0.0,0.592139422894,-20.0,138.564064606,-124.690526368,1.04259428183,60.0,-1.03338852723,-100.0,1.0471975512,60.0,-1.0471975512,-100.0,17535873.1738,0.0,0.0,0.0,0.0,0.0,0.0
1402760544673868161,3,-12.7210970658,-7.1377884924,-0.842090126674,2.38304939926,5.33063247163,-3.84635974695,-0.304824487571,0.0,-0.240239444074,0.0,0.0408613870001,0.0,-0.259009266164,0.0,0.272294213863,0.0,-0.0045618665692,0.0,-0.0329853810164,0.0,0.0531484147614,0.0,-0.0140928433862,0.0,-0.0,-0.0,0.592139422894,-20.0,138.564064606,-124.690526368,1.04259428183,60.0,-1.03338852723,-100.0,1.0471975512,60.0,-1.0471975512,-100.0,17535873.1738,0.0,0.0,0.0,0.0,0.0,0.0
1402760544693892587,3,-12.7277573324,-7.1377884924,-0.84705769193,2.38304939926,5.33123333236,-3.84635974695,-0.310797141949,0.0,-0.246607730633,0.0,0.0368048997253,0.0,-0.253504364532,0.0,0.265668546792,0.0,-0.00500722892216,0.0,-0.0206999426293,0.0,0.0527613070387,0.0,-0.0151755483842,0.0,-0.0,-0.0,0.592139422894,-20.0,138.564064606,-124.690526368,1.04412874381,60.0,-1.03338852723,-100.0,1.0471975512,60.0,-1.0471975512,-100.0,17535873.1738,0.0,0.0,0.0,0.0,0.0,0.0
1402760544714449963,3,-12.7277573324,-7.1377884924,-0.84705769193,2.38304939926,5.33123333236,-3.84635974695,-0.310797141949,0.0,-0.246607730633,0.0,0.0368048997253,0.0,-0.253504364532,0.0,0.265668546792,0.0,-0.00500722892216,0.0,-0.0206999426293,0.0,0.0527613070387,0.0,-0.0151755483842,0.0,-0.0,-0.0,0.592139422894,-20.0,138.564064606,-124.690526368,1.04259428183,60.0,-1.03338852723,-100.0,1.0471975512,60.0,-1.0471975512,-100.0,17535873.1738,0.0,0.0,0.0,0.0,0.0,0.0
1402760544733594712,3,-12.7489448994,-7.1377884924,-0.857076506659,2.38304939926,5.33991023445,-3.84635974695,-0.313530221968,0.0,-0.24005041608,0.0,0.0353423672516,0.0,-0.242051005051,0.0,0.256818119278,0.0,-0.00804960640536,0.0,-0.0319142772728,0.0,0.0516397082909,0.0,-0.00764058985696,0.0,-0.0,-0.0,0.592139422894,-20.0,138.564064606,-124.690526368,1.04412874381,60.0,-1.03338852723,-100.0,1.0471975512,60.0,-1.0471975512,-100.0,17535873.1738,0.0,0.0,0.0,0.0,0.0,0.0
1402760544753957569,3,-12.7489448994,-7.1377884924,-0.857076506659,2.38304939926,5.33991023445,-3.84635974695,-0.313530221968,0.0,-0.24005041608,0.0,0.0353423672516,0.0,-0.242051005051,0.0,0.256818119278,0.0,-0.00804960640536,0.0,-0.0319142772728,0.0,0.0516397082909,0.0,-0.00764058985696,0.0,-0.0,-0.0,0.592139422894,-20.0,138.564064606,-124.690526368,1.04259428183,60.0,-1.03338852723,-100.0,1.0471975512,60.0,-1.0471975512,-100.0,17535873.1738,0.0,0.0,0.0,0.0,0.0,0.0
1402760544774159297,3,-12.7787723932,-7.1377884924,-0.874774416216,2.38304939926,5.34744818109,-3.84635974695,-0.326710977383,0.0,-0.25062239474,0.0,0.0275009505856,0.0,-0.228745682493,0.0,0.246007131682,0.0,-0.00916768732423,0.0,-0.0262959954084,0.0,0.0503829112645,0.0,-0.00348455557375,0.0,-0.0,-0.0,0.592139422894,-20.0,138.564064606,-124.690526368,1.04259428183,60.0,-1.03492275079,-100.0,1.0471975512,60.0,-1.0471975512,-100.0,17535873.1738,0.0,0.0,0.0,0.0,0.0,0.0
1402760544793945178,3,-12.7787723932,-7.1377884924,-0.874774416216,2.38304939926,5.34744818109,-3.84635974695,-0.326710977383,0.0,-0.25062239474,0.0,0.0275009505856,0.0,-0.228745682493,0.0,0.246007131682,0.0,-0.00916768732423,0.0,-0.0262959954084,0.0,0.0503829112645,0.0,-0.00348455557375,0.0,-0.0,-0.0,0.592139422894,-20.0,138.564064606,-124.690526368,1.04412874381,60.0,-1.03338852723,-100.0,1.0471975512,60.0,-1.0471975512,-100.0,17535873.1738,0.0,0.0,0.0,0.0,0.0,0.0
1402760544813803804,3,-12.8014451068,-7.1377884924,-0.891559804177,2.38304939926,5.37079288811,-3.84635974695,-0.325314593019,0.0,-0.258632424898,0.0,0.0336734006367,0.0,-0.221165567705,0.0,0.240039374901,0.0,-0.00998656527633,0.0,-0.027699155852,0.0,0.0511852199212,0.0,-0.00299269526421,0.0,-0.0,-0.0,0.592139422894,-20.0,138.564064606,-124.690526368,1.04259428183,60.0,-1.03492275079,-100.0,1.0471975512,60.0,-1.0471975512,-100.0,17535873.1738,0.0,0.0,0.0,0.0,0.0,0.0
1402760544834890760,3,-12.8083658977,-7.1377884924,-0.897171019474,2.38304939926,5.37175473853,-3.84635974695,-0.325754283169,0.0,-0.263708279148,0.0,0.0396085211168,0.0,-0.216203336285,0.0,0.242144620324,0.0,-0.0102829316884,0.0,-0.0146459260017,0.0,0.0513291889529,0.0,0.0117472749646,0.0,-0.0,-0.0,0.592139422894,-20.0,138.564064606,-124.690526368,1.04412874381,60.0,-1.03338852723,-100.0,1.0471975512,60.0,-1.0471975512,-100.0,17535873.1738,0.0,0.0,0.0,0.0,0.0,0.0
1402760544853981646,3,-12.8083658977,-7.1377884924,-0.897171019474,2.38304939926,5.37175473853,-3.84635974695,-0.325754283169,0.0,-0.263708279148,0.0,0.0396085211168,0.0,-0.216203336285,0.0,0.242144620324,0.0,-0.0102829316884,0.0,-0.0146459260017,0.0,0.0513291889529,0.0,0.0117472749646,0.0,-0.0,-0.0,0.592139422894,-20.0,138.564064606,-124.690526368,1.04259428183,60.0,-1.03338852723,-100.0,1.0471975512,60.0,-1.0471975512,-100.0,17535873.1738,0.0,0.0,0.0,0.0,0.0,0.0
1402760544873839353,3,-12.8230140773,-7.1377884924,-0.907260796974,2.38304939926,5.38519084863,-3.84635974695,-0.315625511829,0.0,-0.261276830921,0.0,0.0379455237311,0.0,-0.211049576701,0.0,0.234764271572,0.0,-0.0117082656461,0.0,-0.00848936376234,0.0,0.0526617556543,0.0,0.00405555439492,0.0,-0.0,-0.0,0.592139422894,-20.0,138.564064606,-124.690526368,1.04412874381,60.0,-1.03338852723,-100.0,1.0471975512,60.0,-1.0471975512,-100.0,17535873.1738,0.0,0.0,0.0,0.0,0.0,0.0
1402760544894523571,3,-12.8230140773,-7.1377884924,-0.907260796974,2.38304939926,5.38519084863,-3.84635974695,-0.315625511829,0.0,-0.261276830921,0.0,0.0379455237311,0.0,-0.211049576701,0.0,0.234764271572,0.0,-0.0117082656461,0.0,-0.00848936376234,0.0,0.0526617556543,0.0,0.00405555439492,0.0,-0.0,-0.0,0.592139422894,-20.0,138.564064606,-124.690526368,1.04259428183,60.0,-1.03338852723,-100.0,1.0471975512,60.0,-1.0471975512,-100.0,17535873.1738,0.0,0.0,0.0,0.0,0.0,0.0
1402760544913949246,3,-12.8426625478,-7.1377884924,-0.922624408043,2.38304939926,5.39331950497,-3.84635974695,-0.308067430402,0.0,-0.265429594953,0.0,0.0402510350262,0.0,-0.201454767557,0.0,0.232656281268,0.0,-0.0129731002007,0.0,-0.0099178076578,0.0,0.0542556932771,0.0,0.00858852203565,0.0,-0.0,-0.0,0.592139422894,-20.0,138.564064606,-124.690526368,1.04412874381,60.0,-1.03338852723,-100.0,1.0471975512,60.0,-1.0471975512,-100.0,17535873.1738,0.0,0.0,0.0,0.0,0.0,0.0
1402760544934042765,3,-12.8426625478,-7.1377884924,-0.922624408043,2.38304939926,5.39331950497,-3.84635974695,-0.308067430402,0.0,-0.265429594953,0.0,0.0402510350262,0.0,-0.201454767557,0.0,0.232656281268,0.0,-0.0129731002007,0.0,-0.0099178076578,0.0,0.0542556932771,0.0,0.00858852203565,0.0,-0.0,-0.0,0.592139422894,-20.0,138.564064606,-124.690526368,1.04259428183,60.0,-1.03338852723,-100.0,1.0471975512,60.0,-1.0471975512,-100.0,17535873.1738,0.0,0.0,0.0,0.0,0.0,0.0
1402760544954397547,3,-12.8699659196,-7.1377884924,-0.944399668465,2.38304939926,5.41455312591,-3.84635974695,-0.30880986169,0.0,-0.281664666064,0.0,0.0412693457599,0.0,-0.192304753304,0.0,0.235897087075,0.0,-0.0123746466654,0.0,-0.00617783840669,0.0,0.0551268227485,0.0,0.00585575035746,0.0,-0.0,-0.0,0.592139422894,-20.0,138.564064606,-124.690526368,1.04412874381,60.0,-1.03338852723,-100.0,1.0471975512,60.0,-1.0471975512,-100.0,17535873.1738,0.0,0.0,0.0,0.0,0.0,0.0
1402760544974060620,3,-12.8699659196,-7.1377884924,-0.944399668465,2.38304939926,5.41455312591,-3.84635974695,-0.30880986169,0.0,-0.281664666064,0.0,0.0412693457599,0.0,-0.192304753304,0.0,0.235897087075,0.0,-0.0123746466654,0.0,-0.00617783840669,0.0,0.0551268227485,0.0,0.00585575035746,0.0,-0.0,-0.0,0.592139422894,-20.0,138.564064606,-124.690526368,1.04412874381,60.0,-1.03338852723,-100.0,1.0471975512,60.0,-1.0471975512,-100.0,17535873.1738,0.0,0.0,0.0,0.0,0.0,0.0
1402760544994103607,3,-12.8972668871,-7.1377884924,-0.965682813333,2.38304939926,5.41560068378,-3.84635974695,-0.315080168932,0.0,-0.299097093059,0.0,0.0378433558601,0.0,-0.180638742572,0.0,0.240681030347,0.0,-0.0116554521896,0.0,-0.00675633411049,0.0,0.055414887036,0.0,0.0115987697528,0.0,-0.0,-0.0,0.592139422894,-20.0,138.564064606,-124.690526368,1.04259428183,60.0,-1.03338852723,-100.0,1.0471975512,60.0,-1.0471975512,-100.0,17535873.1738,0.0,0.0,0.0,0.0,0.0,0.0
