rosbagTimestamp,control_method,x_current,x_desired,y_current,y_desired,x_velocity_current,x_velocity_desired,y_velocity_current,y_velocity_desired,yaw_current,yaw_desired,required_force_x,required_force_y,required_moment_z,resultant_force_x,resultant_force_y,resultant_moment_z,current_port_servo_angle,current_port_thruster_force,current_starboard_servo_angle,current_starboard_thruster_force,estimated_port_servo_angle,estimated_port_thruster_force,estimated_starboard_servo_angle,estimated_starboard_thruster_force,cost_value,step,user_defined_1,user_defined_2,user_defined_3,user_defined_4,user_defined_5
1402598546943348406,0,7.81797926221,-0.114322152727,-11.8510211363,0.043815185726,-0.0220253002003,0.0,-0.205557772602,0.0,2.11851415823,0.0,0.0,0.0,0.0,-0.0,-0.0,0.0,0.00537022749826,-0.0,0.137324897451,-0.0,0.0,-0.0,0.134600270667,-0.0,1.81314672477e-07,0.0,0.0,0.0,0.0,0.0,0.0
1402598546963458445,0,7.81797926221,-0.114322152727,-11.8510211363,0.043815185726,-0.0220253002003,0.0,-0.205557772602,0.0,2.11851415823,0.0,0.0,0.0,0.0,-0.0,-0.0,0.0,0.00537022749826,-0.0,0.137324897451,-0.0,0.0,-0.0,0.134600270667,-0.0,1.81314672477e-07,0.0,0.0,0.0,0.0,0.0,0.0
1402598546982965435,0,7.81744413951,-0.114322152727,-11.855442177,0.043815185726,-0.0232244236245,0.0,-0.207568272772,0.0,2.11869686391,0.0,0.0,0.0,0.0,-0.0,-0.0,0.0,0.00537022749826,-0.0,0.137324897451,-0.0,0.0,-0.0,0.134600270667,-0.0,1.81314672477e-07,0.0,0.0,0.0,0.0,0.0,0.0
1402598547003431714,0,7.81744413951,-0.114322152727,-11.855442177,0.043815185726,-0.0232244236245,0.0,-0.207568272772,0.0,2.11869686391,0.0,0.0,0.0,0.0,-0.0,-0.0,0.0,0.00537022749826,-0.0,0.137324897451,-0.0,0.0,-0.0,0.134600270667,-0.0,1.81314672477e-07,0.0,0.0,0.0,0.0,0.0,0.0
1402598547022894999,0,7.81653356261,-0.114322152727,-11.8642121512,0.043815185726,-0.0254278426656,0.0,-0.209518814972,0.0,2.11912569925,0.0,0.0,0.0,0.0,-0.0,-0.0,0.0,0.00537022749826,-0.0,0.137324897451,-0.0,0.0,-0.0,0.134600270667,-0.0,1.81314672477e-07,0.0,0.0,0.0,0.0,0.0,0.0
1402598547042888828,0,7.81653356261,-0.114322152727,-11.8642121512,0.043815185726,-0.0254278426656,0.0,-0.209518814972,0.0,2.11912569925,0.0,0.0,0.0,0.0,-0.0,-0.0,0.0,0.00537022749826,-0.0,0.137324897451,-0.0,0.0,-0.0,0.0,-0.0,9.44348340161e-05,0.0,0.0,0.0,0.0,0.0,0.0
1402598547063254918,0,7.81558179923,-0.114322152727,-11.8728458736,0.043815185726,-0.0269968990895,0.0,-0.211654872614,0.0,2.11946166474,0.0,0.0,0.0,0.0,7.94975012541,0.0,-2.42308383822,0.00537022749826,-0.0,0.137324897451,-0.0,0.0,7.94975012541,0.0,-0.0,6411.58672607,0.0,0.0,0.0,0.0,0.0,0.0
1402598547082865120,0,7.81558179923,-0.114322152727,-11.8728458736,0.043815185726,-0.0269968990895,0.0,-0.211654872614,0.0,2.11946166474,0.0,0.0,0.0,0.0,54.278876564,9.03291053931,-23.0831255161,0.00537022749826,7.94975012541,0.125049916906,-0.0,0.164905439214,55.025357008,0.0,-0.0,469660.850028,0.0,0.0,0.0,0.0,0.0,0.0
1402598547102827062,0,7.81441506479,-0.114322152727,-11.8816170307,0.043815185726,-0.0280563227507,0.0,-0.213721343272,0.0,2.11974809219,0.0,0.0,0.0,0.0,-7.85700792582,29.7720400994,-80.1107137255,0.00537022749826,55.025357008,0.0989659706776,-0.0,0.298190917134,96.3859677315,-0.0145471904111,-100.0,3751588.31569,0.0,0.0,0.0,0.0,0.0,0.0
1402598547123350696,0,7.81441506479,-0.114322152727,-11.8816170307,0.043815185726,-0.0280563227507,0.0,-0.213721343272,0.0,2.11974809219,0.0,0.0,0.0,0.0,-7.85700792582,29.7720400994,-80.1107137255,0.00843891302987,96.3859677315,0.0667444149677,-100.0,0.298190917134,96.3859677315,-0.0145471904111,-100.0,3751588.31565,0.0,0.0,0.0,0.0,0.0,0.0
1402598547142667273,0,7.81320251727,-0.114322152727,-11.8903394718,0.043815185726,-0.0296273097179,0.0,-0.215345427132,0.0,2.12004032842,0.0,0.0,0.0,0.0,-7.85700792582,29.7720400994,-80.1107137255,0.0176449696247,96.3859677315,0.0345230976765,-100.0,0.298190917134,96.3859677315,-0.0145471904111,-100.0,3751588.31561,0.0,0.0,0.0,0.0,0.0,0.0
1402598547163206249,0,7.81320251727,-0.114322152727,-11.8903394718,0.043815185726,-0.0296273097179,0.0,-0.215345427132,0.0,2.12004032842,0.0,0.0,0.0,0.0,-6.90110774337,29.6475291525,-80.3151251135,0.0467978398029,96.3859677315,0.00690445105478,-100.0,0.298190917134,97.3914682865,-0.0103476779557,-100.0,3764554.40862,0.0,0.0,0.0,0.0,0.0,0.0
1402598547182845700,0,7.81199354153,-0.114322152727,-11.8993880707,0.043815185726,-0.0332547701389,0.0,-0.218280800612,0.0,2.12024653537,0.0,0.0,0.0,0.0,-6.13386057941,29.4444520471,-80.4019745325,0.0820878426258,97.3914682865,-0.00537029107169,-100.0,0.293912912947,98.0660915375,-0.0103476779557,-100.0,3765692.63659,0.0,0.0,0.0,0.0,0.0,0.0
1402598547203429715,0,7.81199354153,-0.114322152727,-11.8993880707,0.043815185726,-0.0332547701389,0.0,-0.218280800612,0.0,2.12024653537,0.0,0.0,0.0,0.0,-6.13386057941,29.4444520471,-80.4019745325,0.109706489248,98.0660915375,-0.00690451462821,-100.0,0.293912912947,98.0660915375,-0.0103476779557,-100.0,3765692.63654,0.0,0.0,0.0,0.0,0.0,0.0
1402598547222940886,0,7.81062587427,-0.114322152727,-11.9081910446,0.043815185726,-0.0344442619886,0.0,-0.220274937672,0.0,2.1204927275,0.0,0.0,0.0,0.0,-5.29205765071,30.1420790077,-81.163568222,0.135790197057,98.0660915375,-0.0191794951733,-100.0,0.298190917134,99.0748047829,-0.0103476779557,-100.0,3848514.24527,0.0,0.0,0.0,0.0,0.0,0.0
1402598547243252678,0,7.81062587427,-0.114322152727,-11.9081910446,0.043815185726,-0.0344442619886,0.0,-0.220274937672,0.0,2.1204927275,0.0,0.0,0.0,0.0,-5.29205765071,30.1420790077,-81.163568222,0.171080676717,99.0748047829,-0.0176450331982,-100.0,0.298190917134,99.0748047829,-0.0103476779557,-100.0,3848514.24522,0.0,0.0,0.0,0.0,0.0,0.0
1402598547262914947,0,7.80956015286,-0.114322152727,-11.917294123,0.043815185726,-0.0392785286069,0.0,-0.214700086323,0.0,2.12064893362,0.0,0.0,0.0,0.0,-5.29205765071,30.1420790077,-81.163568222,0.212508289022,99.0748047829,-0.0176450331982,-100.0,0.298190917134,99.0748047829,-0.0103476779557,-100.0,3848514.24517,0.0,0.0,0.0,0.0,0.0,0.0
1402598547283362706,0,7.80956015286,-0.114322152727,-11.917294123,0.043815185726,-0.0392785286069,0.0,-0.214700086323,0.0,2.12064893362,0.0,0.0,0.0,0.0,-5.29205765071,30.1420790077,-81.163568222,0.247798291845,99.0748047829,-0.0161108096416,-100.0,0.298190917134,99.0748047829,-0.0103476779557,-100.0,3848514.24515,0.0,0.0,0.0,0.0,0.0,0.0
1402598547302794653,0,7.80740583676,-0.114322152727,-11.9257211313,0.043815185726,-0.0464862407146,0.0,-0.198614039957,0.0,2.11983378886,0.0,0.0,0.0,0.0,-5.29205765071,30.1420790077,-81.163568222,0.276951162023,99.0748047829,-0.0176450331982,-100.0,0.298190917134,99.0748047829,-0.0103476779557,-100.0,3848514.24514,0.0,0.0,0.0,0.0,0.0,0.0
1402598547323528470,0,7.80740583676,-0.114322152727,-11.9257211313,0.043815185726,-0.0464862407146,0.0,-0.198614039957,0.0,2.11983378886,0.0,0.0,0.0,0.0,-5.29205765071,30.1420790077,-81.163568222,0.289225904149,99.0748047829,-0.0161108096416,-100.0,0.298190917134,99.0748047829,-0.0103476779557,-100.0,3848514.24514,0.0,0.0,0.0,0.0,0.0,0.0
1402598547342912637,0,7.80541904201,-0.114322152727,-11.9333665428,0.043815185726,-0.0545742724169,0.0,-0.1806651524,0.0,2.11711950683,0.0,0.0,0.0,0.0,-5.29205765071,30.1420790077,-81.163568222,0.293829051656,99.0748047829,-0.0161108096416,-100.0,0.298190917134,99.0748047829,-0.0103476779557,-100.0,3848514.24514,0.0,0.0,0.0,0.0,0.0,0.0
1402598547363843345,0,7.80541904201,-0.114322152727,-11.9333665428,0.043815185726,-0.0545742724169,0.0,-0.1806651524,0.0,2.11711950683,0.0,0.0,0.0,0.0,-5.29205765071,30.1420790077,-81.163568222,0.293829051656,99.0748047829,-0.0161108096416,-100.0,0.298190917134,99.0748047829,-0.0103476779557,-100.0,3848514.24514,0.0,0.0,0.0,0.0,0.0,0.0
1402598547382818068,0,7.80311161483,-0.114322152727,-11.9405288788,0.043815185726,-0.0582429841378,0.0,-0.16496375708,0.0,2.11245378052,0.0,0.0,0.0,0.0,-5.29205765071,30.1420790077,-81.163568222,0.292294589681,99.0748047829,-0.0161108096416,-100.0,0.298190917134,99.0748047829,-0.0103476779557,-100.0,3848514.24514,0.0,0.0,0.0,0.0,0.0,0.0
1402598547403402734,0,7.80311161483,-0.114322152727,-11.9405288788,0.043815185726,-0.0582429841378,0.0,-0.16496375708,0.0,2.11245378052,0.0,0.0,0.0,0.0,-5.29205765071,30.1420790077,-81.163568222,0.293829051656,99.0748047829,-0.0161108096416,-100.0,0.298190917134,99.0748047829,-0.0103476779557,-100.0,3848514.24514,0.0,0.0,0.0,0.0,0.0,0.0
1402598547422874888,0,7.80066239217,-0.114322152727,-11.9473302314,0.043815185726,-0.0610298567124,0.0,-0.150769519763,0.0,2.10598836327,0.0,0.0,0.0,0.0,-5.29205765071,30.1420790077,-81.163568222,0.293829051656,99.0748047829,-0.0161108096416,-100.0,0.298190917134,99.0748047829,-0.0103476779557,-100.0,3848514.24514,0.0,0.0,0.0,0.0,0.0,0.0
1402598547443411855,0,7.80066239217,-0.114322152727,-11.9473302314,0.043815185726,-0.0610298567124,0.0,-0.150769519763,0.0,2.10598836327,0.0,0.0,0.0,0.0,-5.29205765071,30.1420790077,-81.163568222,0.293829051656,99.0748047829,-0.0161108096416,-100.0,0.298190917134,99.0748047829,-0.0103476779557,-100.0,3848514.24514,0.0,0.0,0.0,0.0,0.0,0.0
1402598547462899947,0,7.79798453203,-0.114322152727,-11.9533469257,0.043815185726,-0.0623704350476,0.0,-0.139300940011,0.0,2.09842548214,0.0,0.0,0.0,0.0,-5.29205765071,30.1420790077,-81.163568222,0.293829051656,99.0748047829,-0.0161108096416,-100.0,0.298190917134,99.0748047829,-0.0103476779557,-100.0,3848514.24514,0.0,0.0,0.0,0.0,0.0,0.0
1402598547483441964,0,7.79798453203,-0.114322152727,-11.9533469257,0.043815185726,-0.0623704350476,0.0,-0.139300940011,0.0,2.09842548214,0.0,0.0,0.0,0.0,-5.29205765071,30.1420790077,-81.163568222,0.293829051656,99.0748047829,-0.0161108096416,-100.0,0.298190917134,99.0748047829,-0.0103476779557,-100.0,3848514.24514,0.0,0.0,0.0,0.0,0.0,0.0
1402598547502696999,0,7.7953995709,-0.114322152727,-11.9590108235,0.043815185726,-0.0687947892932,0.0,-0.126756522804,0.0,2.089272807,0.0,0.0,0.0,0.0,-5.29205765071,30.1420790077,-81.163568222,0.293829051656,99.0748047829,-0.0161108096416,-100.0,0.298190917134,99.0748047829,-0.0103476779557,-100.0,3848514.24514,0.0,0.0,0.0,0.0,0.0,0.0
1402598547523291738,0,7.7953995709,-0.114322152727,-11.9590108235,0.043815185726,-0.0687947892932,0.0,-0.126756522804,0.0,2.089272807,0.0,0.0,0.0,0.0,-5.29205765071,30.1420790077,-81.163568222,0.292294589681,99.0748047829,-0.0161108096416,-100.0,0.298190917134,99.0748047829,-0.0103476779557,-100.0,3848514.24514,0.0,0.0,0.0,0.0,0.0,0.0
1402598547542734017,0,7.79160539107,-0.114322152727,-11.9652674428,0.043815185726,-0.0766471877501,0.0,-0.107541713515,0.0,2.07650344595,0.0,0.0,0.0,0.0,-5.29205765071,30.1420790077,-81.163568222,0.293829051656,99.0748047829,-0.0176450331982,-100.0,0.298190917134,99.0748047829,-0.0103476779557,-100.0,3848514.24514,0.0,0.0,0.0,0.0,0.0,0.0
1402598547563303854,0,7.79160539107,-0.114322152727,-11.9652674428,0.043815185726,-0.0766471877501,0.0,-0.107541713515,0.0,2.07650344595,0.0,0.0,0.0,0.0,-5.29205765071,30.1420790077,-81.163568222,0.292294589681,99.0748047829,-0.0176450331982,-100.0,0.298190917134,99.0748047829,-0.0103476779557,-100.0,3848514.24514,0.0,0.0,0.0,0.0,0.0,0.0
1402598547583089415,0,7.78913603378,-0.114322152727,-11.9685284662,0.043815185726,-0.0767445145338,0.0,-0.0956003143079,0.0,2.06842906541,0.0,0.0,0.0,0.0,-5.29205765071,30.1420790077,-81.163568222,0.293829051656,99.0748047829,-0.0161108096416,-100.0,0.298190917134,99.0748047829,-0.0103476779557,-100.0,3848514.24514,0.0,0.0,0.0,0.0,0.0,0.0
1402598547603310262,0,7.78741759253,-0.114322152727,-11.9706418046,0.043815185726,-0.0786652177546,0.0,-0.0883455390509,0.0,2.06253751788,0.0,0.0,0.0,0.0,-5.29205765071,30.1420790077,-81.163568222,0.293829051656,99.0748047829,-0.0176450331982,-100.0,0.298190917134,99.0748047829,-0.0103476779557,-100.0,3848514.24514,0.0,0.0,0.0,0.0,0.0,0.0
1402598547622889120,0,7.78741759253,-0.114322152727,-11.9706418046,0.043815185726,-0.0786652177546,0.0,-0.0883455390509,0.0,2.06253751788,0.0,0.0,0.0,0.0,-5.29205765071,30.1420790077,-81.163568222,0.293829051656,99.0748047829,-0.0176450331982,-100.0,0.298190917134,99.0748047829,-0.0103476779557,-100.0,3848514.24514,0.0,0.0,0.0,0.0,0.0,0.0
1402598547643402932,0,7.785843356,-0.114322152727,-11.9723414633,0.043815185726,-0.0774001652014,0.0,-0.0815012079494,0.0,2.05670091636,0.0,0.0,0.0,0.0,-5.29205765071,30.1420790077,-81.163568222,0.293829051656,99.0748047829,-0.0176450331982,-100.0,0.298190917134,99.0748047829,-0.0103476779557,-100.0,3848514.24514,0.0,0.0,0.0,0.0,0.0,0.0
1402598547662854582,0,7.785843356,-0.114322152727,-11.9723414633,0.043815185726,-0.0774001652014,0.0,-0.0815012079494,0.0,2.05670091636,0.0,0.0,0.0,0.0,-5.29205765071,30.1420790077,-81.163568222,0.293829051656,99.0748047829,-0.0176450331982,-100.0,0.298190917134,99.0748047829,-0.0103476779557,-100.0,3848514.24514,0.0,0.0,0.0,0.0,0.0,0.0
1402598547683194813,0,7.78249785037,-0.114322152727,-11.9757577192,0.043815185726,-0.0744807208013,0.0,-0.0672967608054,0.0,2.04414926323,0.0,0.0,0.0,0.0,-4.41113119474,29.9978814737,-81.3297867156,0.292294589681,99.0748047829,-0.0176450331982,-100.0,0.298190917134,100.0,-0.00618741307283,-100.0,3858176.45398,0.0,0.0,0.0,0.0,0.0,0.0
1402598547703452083,0,7.78249785037,-0.114322152727,-11.9757577192,0.043815185726,-0.0744807208013,0.0,-0.0672967608054,0.0,2.04414926323,0.0,0.0,0.0,0.0,-4.41113119474,29.9978814737,-81.3297867156,0.293829051656,100.0,-0.0176450331982,-100.0,0.298190917134,100.0,-0.00618741307283,-100.0,3858176.45398,0.0,0.0,0.0,0.0,0.0,0.0
1402598547722871361,0,7.7795609721,-0.114322152727,-11.9785893979,0.043815185726,-0.077707050836,0.0,-0.0552592083813,0.0,2.0310295908,0.0,0.0,0.0,0.0,-4.41113119474,29.9978814737,-81.3297867156,0.293829051656,100.0,-0.0176450331982,-100.0,0.298190917134,100.0,-0.00618741307283,-100.0,3858176.45398,0.0,0.0,0.0,0.0,0.0,0.0
1402598547743440512,0,7.7795609721,-0.114322152727,-11.9785893979,0.043815185726,-0.077707050836,0.0,-0.0552592083813,0.0,2.0310295908,0.0,0.0,0.0,0.0,-4.41113119474,29.9978814737,-81.3297867156,0.292294589681,100.0,-0.0161108096416,-100.0,0.298190917134,100.0,-0.00618741307283,-100.0,3858176.45398,0.0,0.0,0.0,0.0,0.0,0.0
1402598547762881221,0,7.77615961111,-0.114322152727,-11.9806933041,0.043815185726,-0.0741486571412,0.0,-0.0428056425946,0.0,2.01705113305,0.0,0.0,0.0,0.0,-4.41113119474,29.9978814737,-81.3297867156,0.292294589681,100.0,-0.0145763476665,-100.0,0.298190917134,100.0,-0.00618741307283,-100.0,3858176.45398,0.0,0.0,0.0,0.0,0.0,0.0
1402598547783348817,0,7.77615961111,-0.114322152727,-11.9806933041,0.043815185726,-0.0741486571412,0.0,-0.0428056425946,0.0,2.01705113305,0.0,0.0,0.0,0.0,-4.41113119474,29.9978814737,-81.3297867156,0.293829051656,100.0,-0.0161108096416,-100.0,0.298190917134,100.0,-0.00618741307283,-100.0,3858176.45398,0.0,0.0,0.0,0.0,0.0,0.0
1402598547803128484,0,7.77313655839,-0.114322152727,-11.9824249318,0.043815185726,-0.0729226060331,0.0,-0.0291517572238,0.0,2.002858446,0.0,0.0,0.0,0.0,-4.41113119474,29.9978814737,-81.3297867156,0.293829051656,100.0,-0.0161108096416,-100.0,0.298190917134,100.0,-0.00618741307283,-100.0,3858176.45398,0.0,0.0,0.0,0.0,0.0,0.0
1402598547823009200,0,7.77313655839,-0.114322152727,-11.9824249318,0.043815185726,-0.0729226060331,0.0,-0.0291517572238,0.0,2.002858446,0.0,0.0,0.0,0.0,-4.41113119474,29.9978814737,-81.3297867156,0.292294589681,100.0,-0.0161108096416,-100.0,0.298190917134,100.0,-0.00618741307283,-100.0,3858176.45398,0.0,0.0,0.0,0.0,0.0,0.0
1402598547843556598,0,7.77057775592,-0.114322152727,-11.9835901941,0.043815185726,-0.0672371557371,0.0,-0.0190025256807,0.0,1.98770746825,0.0,0.0,0.0,0.0,-4.41113119474,29.9978814737,-81.3297867156,0.292294589681,100.0,-0.0161108096416,-100.0,0.298190917134,100.0,-0.00618741307283,-100.0,3858176.45398,0.0,0.0,0.0,0.0,0.0,0.0
1402598547862871151,0,7.77057775592,-0.114322152727,-11.9835901941,0.043815185726,-0.0672371557371,0.0,-0.0190025256807,0.0,1.98770746825,0.0,0.0,0.0,0.0,-4.41113119474,29.9978814737,-81.3297867156,0.293829051656,100.0,-0.0145763476665,-100.0,0.298190917134,100.0,-0.00618741307283,-100.0,3858176.45398,0.0,0.0,0.0,0.0,0.0,0.0
1402598547883482255,0,7.76767355489,-0.114322152727,-11.9844815081,0.043815185726,-0.0666517367915,0.0,-0.00800735574982,0.0,1.97189390962,0.0,0.0,0.0,0.0,-4.41113119474,29.9978814737,-81.3297867156,0.293829051656,100.0,-0.0161108096416,-100.0,0.298190917134,100.0,-0.00618741307283,-100.0,3858176.45398,0.0,0.0,0.0,0.0,0.0,0.0
1402598547902832555,0,7.76767355489,-0.114322152727,-11.9844815081,0.043815185726,-0.0666517367915,0.0,-0.00800735574982,0.0,1.97189390962,0.0,0.0,0.0,0.0,-4.41113119474,29.9978814737,-81.3297867156,0.293829051656,100.0,-0.0145763476665,-100.0,0.298190917134,100.0,-0.00618741307283,-100.0,3858176.45398,0.0,0.0,0.0,0.0,0.0,0.0
1402598547923422437,0,7.76477622979,-0.114322152727,-11.9847863447,0.043815185726,-0.0638712055388,0.0,0.00151340855755,0.0,1.95605828071,0.0,0.0,0.0,0.0,-4.41113119474,29.9978814737,-81.3297867156,0.293829051656,100.0,-0.0161108096416,-100.0,0.298190917134,100.0,-0.00618741307283,-100.0,3858176.45398,0.0,0.0,0.0,0.0,0.0,0.0
1402598547942889391,0,7.76477622979,-0.114322152727,-11.9847863447,0.043815185726,-0.0638712055388,0.0,0.00151340855755,0.0,1.95605828071,0.0,0.0,0.0,0.0,-4.41113119474,29.9978814737,-81.3297867156,0.293829051656,100.0,-0.0161108096416,-100.0,0.298190917134,100.0,-0.00618741307283,-100.0,3858176.45398,0.0,0.0,0.0,0.0,0.0,0.0
1402598547963474945,0,7.76231687799,-0.114322152727,-11.9847459628,0.043815185726,-0.0612014427715,0.0,0.00913788629452,0.0,1.93971765509,0.0,0.0,0.0,0.0,-4.41113119474,29.9978814737,-81.3297867156,0.293829051656,100.0,-0.0161108096416,-100.0,0.298190917134,100.0,-0.00618741307283,-100.0,3858176.45398,0.0,0.0,0.0,0.0,0.0,0.0
1402598547982864291,0,7.76231687799,-0.114322152727,-11.9847459628,0.043815185726,-0.0612014427715,0.0,0.00913788629452,0.0,1.93971765509,0.0,0.0,0.0,0.0,-4.41113119474,29.9978814737,-81.3297867156,0.293829051656,100.0,-0.0161108096416,-100.0,0.298190917134,100.0,-0.00618741307283,-100.0,3858176.45398,0.0,0.0,0.0,0.0,0.0,0.0
1402598548003397964,0,7.75957365701,-0.114322152727,-11.9846006392,0.043815185726,-0.0611309715072,0.0,0.0184582921073,0.0,1.92250044442,0.0,0.0,0.0,0.0,-4.41113119474,29.9978814737,-81.3297867156,0.293829051656,100.0,-0.0145763476665,-100.0,0.298190917134,100.0,-0.00618741307283,-100.0,3858176.45398,0.0,0.0,0.0,0.0,0.0,0.0
1402598548022777081,0,7.75957365701,-0.114322152727,-11.9846006392,0.043815185726,-0.0611309715072,0.0,0.0184582921073,0.0,1.92250044442,0.0,0.0,0.0,0.0,-4.41113119474,29.9978814737,-81.3297867156,0.293829051656,100.0,-0.0161108096416,-100.0,0.298190917134,100.0,-0.00618741307283,-100.0,3858176.45398,0.0,0.0,0.0,0.0,0.0,0.0
1402598548043495449,0,7.75645281895,-0.114322152727,-11.9836666605,0.043815185726,-0.0619742059581,0.0,0.0306945511757,0.0,1.90031012617,0.0,0.0,0.0,0.0,-4.41113119474,29.9978814737,-81.3297867156,0.292294589681,100.0,-0.0145763476665,-100.0,0.298190917134,100.0,-0.00618741307283,-100.0,3858176.45398,0.0,0.0,0.0,0.0,0.0,0.0
1402598548062905284,0,7.75645281895,-0.114322152727,-11.9836666605,0.043815185726,-0.0619742059581,0.0,0.0306945511757,0.0,1.90031012617,0.0,0.0,0.0,0.0,-4.41113119474,29.9978814737,-81.3297867156,0.293829051656,100.0,-0.0145763476665,-100.0,0.298190917134,100.0,-0.00618741307283,-100.0,3858176.45398,0.0,0.0,0.0,0.0,0.0,0.0
1402598548083330520,0,7.7530940814,-0.114322152727,-11.9823492314,0.043815185726,-0.0640924507254,0.0,0.0365462593634,0.0,1.8779759753,0.0,0.0,0.0,0.0,-4.41113119474,29.9978814737,-81.3297867156,0.293829051656,100.0,-0.0145763476665,-100.0,0.298190917134,100.0,-0.00618741307283,-100.0,3858176.45398,0.0,0.0,0.0,0.0,0.0,0.0
1402598548103599216,0,7.7530940814,-0.114322152727,-11.9823492314,0.043815185726,-0.0640924507254,0.0,0.0365462593634,0.0,1.8779759753,0.0,0.0,0.0,0.0,-4.41113119474,29.9978814737,-81.3297867156,0.292294589681,100.0,-0.0145763476665,-100.0,0.298190917134,100.0,-0.00618741307283,-100.0,3858176.45398,0.0,0.0,0.0,0.0,0.0,0.0
1402598548123356814,0,7.75157914433,-0.114322152727,-11.9816733802,0.043815185726,-0.0645117791118,0.0,0.0414556058093,0.0,1.86835663277,0.0,0.0,0.0,0.0,-4.41113119474,29.9978814737,-81.3297867156,0.293829051656,100.0,-0.0145763476665,-100.0,0.298190917134,100.0,-0.00618741307283,-100.0,3858176.45398,0.0,0.0,0.0,0.0,0.0,0.0
1402598548142907121,0,7.75157914433,-0.114322152727,-11.9816733802,0.043815185726,-0.0645117791118,0.0,0.0414556058093,0.0,1.86835663277,0.0,0.0,0.0,0.0,-4.41113119474,29.9978814737,-81.3297867156,0.293829051656,100.0,-0.0145763476665,-100.0,0.298190917134,100.0,-0.00618741307283,-100.0,3858176.45398,0.0,0.0,0.0,0.0,0.0,0.0
1402598548163424822,0,7.7486772419,-0.114322152727,-11.9800877014,0.043815185726,-0.0675248483987,0.0,0.0489316349617,0.0,1.8497560383,0.0,0.0,0.0,0.0,-4.41113119474,29.9978814737,-81.3297867156,0.293829051656,100.0,-0.0145763476665,-100.0,0.298190917134,100.0,-0.00618741307283,-100.0,3858176.45398,0.0,0.0,0.0,0.0,0.0,0.0
1402598548182792299,0,7.7486772419,-0.114322152727,-11.9800877014,0.043815185726,-0.0675248483987,0.0,0.0489316349617,0.0,1.8497560383,0.0,0.0,0.0,0.0,-4.41113119474,29.9978814737,-81.3297867156,0.293829051656,100.0,-0.0145763476665,-100.0,0.298190917134,100.0,-0.00618741307283,-100.0,3858176.45398,0.0,0.0,0.0,0.0,0.0,0.0
1402598548203678568,0,7.74574845849,-0.114322152727,-11.9781200581,0.043815185726,-0.0664019525213,0.0,0.0553196859394,0.0,1.83032747718,0.0,0.0,0.0,0.0,-4.41113119474,29.9978814737,-81.3297867156,0.292294589681,100.0,-0.0145763476665,-100.0,0.298190917134,100.0,-0.00618741307283,-100.0,3858176.45398,0.0,0.0,0.0,0.0,0.0,0.0
1402598548222884952,0,7.74574845849,-0.114322152727,-11.9781200581,0.043815185726,-0.0664019525213,0.0,0.0553196859394,0.0,1.83032747718,0.0,0.0,0.0,0.0,-4.41113119474,29.9978814737,-81.3297867156,0.293829051656,100.0,-0.0145763476665,-100.0,0.298190917134,100.0,-0.00618741307283,-100.0,3858176.45398,0.0,0.0,0.0,0.0,0.0,0.0
1402598548243375107,0,7.74311963,-0.114322152727,-11.9757683809,0.043815185726,-0.0682241288588,0.0,0.0600430771541,0.0,1.81042823726,0.0,0.0,0.0,0.0,-4.41113119474,29.9978814737,-81.3297867156,0.293829051656,100.0,-0.0145763476665,-100.0,0.298190917134,100.0,-0.00618741307283,-100.0,3858176.45398,0.0,0.0,0.0,0.0,0.0,0.0
1402598548262904337,0,7.74311963,-0.114322152727,-11.9757683809,0.043815185726,-0.0682241288588,0.0,0.0600430771541,0.0,1.81042823726,0.0,0.0,0.0,0.0,-4.41113119474,29.9978814737,-81.3297867156,0.293829051656,100.0,-0.0145763476665,-100.0,0.298190917134,100.0,-0.00618741307283,-100.0,3858176.45398,0.0,0.0,0.0,0.0,0.0,0.0
1402598548283387021,0,7.73975429757,-0.114322152727,-11.9734134466,0.043815185726,-0.0729865049855,0.0,0.0684872201402,0.0,1.79067605163,0.0,0.0,0.0,0.0,-4.41113119474,29.9978814737,-81.3297867156,0.293829051656,100.0,-0.0145763476665,-100.0,0.298190917134,100.0,-0.00618741307283,-100.0,3858176.45398,0.0,0.0,0.0,0.0,0.0,0.0
1402598548302918693,0,7.73975429757,-0.114322152727,-11.9734134466,0.043815185726,-0.0729865049855,0.0,0.0684872201402,0.0,1.79067605163,0.0,0.0,0.0,0.0,-4.41113119474,29.9978814737,-81.3297867156,0.292294589681,100.0,-0.0145763476665,-100.0,0.298190917134,100.0,-0.00618741307283,-100.0,3858176.45398,0.0,0.0,0.0,0.0,0.0,0.0
1402598548323588890,0,7.73686508411,-0.114322152727,-11.9707737914,0.043815185726,-0.0721567074125,0.0,0.0718029004133,0.0,1.7701236479,0.0,0.0,0.0,0.0,-4.41113119474,29.9978814737,-81.3297867156,0.293829051656,100.0,-0.0145763476665,-100.0,0.298190917134,100.0,-0.00618741307283,-100.0,3858176.45398,0.0,0.0,0.0,0.0,0.0,0.0
1402598548342839240,0,7.73686508411,-0.114322152727,-11.9707737914,0.043815185726,-0.0721567074125,0.0,0.0718029004133,0.0,1.7701236479,0.0,0.0,0.0,0.0,-4.41113119474,29.9978814737,-81.3297867156,0.293829051656,100.0,-0.0145763476665,-100.0,0.298190917134,100.0,-0.00618741307283,-100.0,3858176.45398,0.0,0.0,0.0,0.0,0.0,0.0
1402598548363442278,0,7.73366451408,-0.114322152727,-11.9679815977,0.043815185726,-0.0745286384489,0.0,0.0776971314914,0.0,1.74994051745,0.0,0.0,0.0,0.0,-4.41113119474,29.9978814737,-81.3297867156,0.293829051656,100.0,-0.0145763476665,-100.0,0.298190917134,100.0,-0.00618741307283,-100.0,3858176.45398,0.0,0.0,0.0,0.0,0.0,0.0
1402598548382829596,0,7.73366451408,-0.114322152727,-11.9679815977,0.043815185726,-0.0745286384489,0.0,0.0776971314914,0.0,1.74994051745,0.0,0.0,0.0,0.0,-4.41113119474,29.9978814737,-81.3297867156,0.293829051656,100.0,-0.0145763476665,-100.0,0.298190917134,100.0,-0.00618741307283,-100.0,3858176.45398,0.0,0.0,0.0,0.0,0.0,0.0
1402598548403552626,0,7.73024796915,-0.114322152727,-11.9650364496,0.043815185726,-0.0737686111478,0.0,0.0814293583341,0.0,1.72924967205,0.0,0.0,0.0,0.0,-4.41113119474,29.9978814737,-81.3297867156,0.293829051656,100.0,-0.0145763476665,-100.0,0.298190917134,100.0,-0.00618741307283,-100.0,3858176.45398,0.0,0.0,0.0,0.0,0.0,0.0
1402598548423149410,0,7.73024796915,-0.114322152727,-11.9650364496,0.043815185726,-0.0737686111478,0.0,0.0814293583341,0.0,1.72924967205,0.0,0.0,0.0,0.0,-4.41113119474,29.9978814737,-81.3297867156,0.293829051656,100.0,-0.0145763476665,-100.0,0.298190917134,100.0,-0.00618741307283,-100.0,3858176.45398,0.0,0.0,0.0,0.0,0.0,0.0
1402598548443406741,0,7.72710150117,-0.114322152727,-11.9617615782,0.043815185726,-0.0711807783889,0.0,0.0865270242057,0.0,1.70840016289,0.0,0.0,0.0,0.0,-4.41113119474,29.9978814737,-81.3297867156,0.293829051656,100.0,-0.0145763476665,-100.0,0.298190917134,100.0,-0.00618741307283,-100.0,3858176.45398,0.0,0.0,0.0,0.0,0.0,0.0
1402598548462893064,0,7.72710150117,-0.114322152727,-11.9617615782,0.043815185726,-0.0711807783889,0.0,0.0865270242057,0.0,1.70840016289,0.0,0.0,0.0,0.0,-4.41113119474,29.9978814737,-81.3297867156,0.295363513631,100.0,-0.0145763476665,-100.0,0.298190917134,100.0,-0.00618741307283,-100.0,3858176.45398,0.0,0.0,0.0,0.0,0.0,0.0
1402598548483436908,0,7.72383800949,-0.114322152727,-11.9585303409,0.043815185726,-0.0695077094949,0.0,0.088820656506,0.0,1.68823299335,0.0,0.0,0.0,0.0,-4.41113119474,29.9978814737,-81.3297867156,0.293829051656,100.0,-0.01304212411,-100.0,0.298190917134,100.0,-0.00618741307283,-100.0,3858176.45398,0.0,0.0,0.0,0.0,0.0,0.0
1402598548502902341,0,7.72383800949,-0.114322152727,-11.9585303409,0.043815185726,-0.0695077094949,0.0,0.088820656506,0.0,1.68823299335,0.0,0.0,0.0,0.0,-4.41113119474,29.9978814737,-81.3297867156,0.293829051656,100.0,-0.01304212411,-100.0,0.298190917134,100.0,-0.00618741307283,-100.0,3858176.45398,0.0,0.0,0.0,0.0,0.0,0.0
1402598548523398783,0,7.72058416749,-0.114322152727,-11.9549795702,0.043815185726,-0.0712875232725,0.0,0.0943843813053,0.0,1.66753463433,0.0,0.0,0.0,0.0,-4.41113119474,29.9978814737,-81.3297867156,0.293829051656,100.0,-0.0145763476665,-100.0,0.298190917134,100.0,-0.00618741307283,-100.0,3858176.45398,0.0,0.0,0.0,0.0,0.0,0.0
1402598548542846401,0,7.72058416749,-0.114322152727,-11.9549795702,0.043815185726,-0.0712875232725,0.0,0.0943843813053,0.0,1.66753463433,0.0,0.0,0.0,0.0,-4.41113119474,29.9978814737,-81.3297867156,0.295363513631,100.0,-0.01304212411,-100.0,0.298190917134,100.0,-0.00618741307283,-100.0,3858176.45398,0.0,0.0,0.0,0.0,0.0,0.0
1402598548563474551,0,7.7176171296,-0.114322152727,-11.9511292748,0.043815185726,-0.0650696033546,0.0,0.0957493900716,0.0,1.64696204661,0.0,0.0,0.0,0.0,-4.41113119474,29.9978814737,-81.3297867156,0.295363513631,100.0,-0.01304212411,-100.0,0.298190917134,100.0,-0.00618741307283,-100.0,3858176.45398,0.0,0.0,0.0,0.0,0.0,0.0
1402598548582892534,0,7.7176171296,-0.114322152727,-11.9511292748,0.043815185726,-0.0650696033546,0.0,0.0957493900716,0.0,1.64696204661,0.0,0.0,0.0,0.0,-4.41113119474,29.9978814737,-81.3297867156,0.295363513631,100.0,-0.01304212411,-100.0,0.298190917134,100.0,-0.00618741307283,-100.0,3858176.45398,0.0,0.0,0.0,0.0,0.0,0.0
1402598548603562870,0,7.71388781615,-0.114322152727,-11.9461000348,0.043815185726,-0.0603977969224,0.0,0.100437343049,0.0,1.62141393934,0.0,0.0,0.0,0.0,-4.41113119474,29.9978814737,-81.3297867156,0.296897737188,100.0,-0.01304212411,-100.0,0.298190917134,100.0,-0.00618741307283,-100.0,3858176.45398,0.0,0.0,0.0,0.0,0.0,0.0
1402598548622972741,0,7.71388781615,-0.114322152727,-11.9461000348,0.043815185726,-0.0603977969224,0.0,0.100437343049,0.0,1.62141393934,0.0,0.0,0.0,0.0,-4.41113119474,29.9978814737,-81.3297867156,0.296897737188,100.0,-0.01304212411,-100.0,0.298190917134,100.0,-0.00618741307283,-100.0,3858176.45398,0.0,0.0,0.0,0.0,0.0,0.0
1402598548643459285,0,7.71193166479,-0.114322152727,-11.9431739534,0.043815185726,-0.0568020002074,0.0,0.102324522853,0.0,1.606287717,0.0,0.0,0.0,0.0,-4.41113119474,29.9978814737,-81.3297867156,0.296897737188,100.0,-0.01304212411,-100.0,0.298190917134,100.0,-0.00618741307283,-100.0,3858176.45398,0.0,0.0,0.0,0.0,0.0,0.0
1402598548662887650,0,7.7106066698,-0.114322152727,-11.941110045,0.043815185726,-0.0511689741653,0.0,0.104137228253,0.0,1.59572035366,0.0,0.0,0.0,0.0,-4.41113119474,29.9978814737,-81.3297867156,0.296897737188,100.0,-0.01304212411,-100.0,0.298190917134,100.0,-0.00618741307283,-100.0,3858176.45398,0.0,0.0,0.0,0.0,0.0,0.0
1402598548683448783,0,7.7106066698,-0.114322152727,-11.941110045,0.043815185726,-0.0511689741653,0.0,0.104137228253,0.0,1.59572035366,0.0,0.0,0.0,0.0,-4.41113119474,29.9978814737,-81.3297867156,0.296897737188,100.0,-0.0115079005535,-100.0,0.298190917134,100.0,-0.00618741307283,-100.0,3858176.45398,0.0,0.0,0.0,0.0,0.0,0.0
1402598548702888833,0,7.70913102305,-0.114322152727,-11.9389591419,0.043815185726,-0.0537268489418,0.0,0.107836109128,0.0,1.5856350399,0.0,0.0,0.0,0.0,-4.41113119474,29.9978814737,-81.3297867156,0.299966422719,100.0,-0.01304212411,-100.0,0.298190917134,100.0,-0.00618741307283,-100.0,3858176.45398,0.0,0.0,0.0,0.0,0.0,0.0
1402598548723645397,0,7.70913102305,-0.114322152727,-11.9389591419,0.043815185726,-0.0537268489418,0.0,0.107836109128,0.0,1.5856350399,0.0,0.0,0.0,0.0,-4.41113119474,29.9978814737,-81.3297867156,0.298432199163,100.0,-0.01304212411,-100.0,0.298190917134,100.0,-0.00618741307283,-100.0,3858176.45398,0.0,0.0,0.0,0.0,0.0,0.0
1402598548743041271,0,7.70667965803,-0.114322152727,-11.9348943409,0.043815185726,-0.0462033249909,0.0,0.107862739031,0.0,1.56475322972,0.0,0.0,0.0,0.0,-4.41113119474,29.9978814737,-81.3297867156,0.301500646276,100.0,-0.01304212411,-100.0,0.298190917134,100.0,-0.00618741307283,-100.0,3858176.45398,0.0,0.0,0.0,0.0,0.0,0.0
1402598548763449060,0,7.70667965803,-0.114322152727,-11.9348943409,0.043815185726,-0.0462033249909,0.0,0.107862739031,0.0,1.56475322972,0.0,0.0,0.0,0.0,-4.41113119474,29.9978814737,-81.3297867156,0.299966422719,100.0,-0.01304212411,-100.0,0.298190917134,100.0,-0.00618741307283,-100.0,3858176.45398,0.0,0.0,0.0,0.0,0.0,0.0
1402598548782907544,0,7.7044464897,-0.114322152727,-11.9305699226,0.043815185726,-0.0386504085094,0.0,0.108629978026,0.0,1.54394006388,0.0,0.0,0.0,0.0,-4.41113119474,29.9978814737,-81.3297867156,0.299966422719,100.0,-0.01304212411,-100.0,0.298190917134,100.0,-0.00618741307283,-100.0,3858176.45398,0.0,0.0,0.0,0.0,0.0,0.0
1402598548802870961,0,7.7044464897,-0.114322152727,-11.9305699226,0.043815185726,-0.0386504085094,0.0,0.108629978026,0.0,1.54394006388,0.0,0.0,0.0,0.0,-4.41113119474,29.9978814737,-81.3297867156,0.299966422719,100.0,-0.01304212411,-100.0,0.298190917134,100.0,-0.00618741307283,-100.0,3858176.45398,0.0,0.0,0.0,0.0,0.0,0.0
1402598548823436062,0,7.7024163703,-0.114322152727,-11.9262939331,0.043815185726,-0.0333093263868,0.0,0.110310935147,0.0,1.52245479258,0.0,0.0,0.0,0.0,-4.41113119474,29.9978814737,-81.3297867156,0.299966422719,100.0,-0.01304212411,-100.0,0.298190917134,100.0,-0.00618741307283,-100.0,3858176.45398,0.0,0.0,0.0,0.0,0.0,0.0
1402598548843133940,0,7.7024163703,-0.114322152727,-11.9262939331,0.043815185726,-0.0333093263868,0.0,0.110310935147,0.0,1.52245479258,0.0,0.0,0.0,0.0,-4.41113119474,29.9978814737,-81.3297867156,0.299966422719,100.0,-0.01304212411,-100.0,0.298190917134,100.0,-0.00618741307283,-100.0,3858176.45398,0.0,0.0,0.0,0.0,0.0,0.0
1402598548863611292,0,7.70073748777,-0.114322152727,-11.9219004336,0.043815185726,-0.0289588463223,0.0,0.110396214608,0.0,1.50075106142,0.0,0.0,0.0,0.0,-4.41113119474,29.9978814737,-81.3297867156,0.301500646276,100.0,-0.01304212411,-100.0,0.298190917134,100.0,-0.00618741307283,-100.0,3858176.45398,0.0,0.0,0.0,0.0,0.0,0.0
1402598548882876068,0,7.70073748777,-0.114322152727,-11.9219004336,0.043815185726,-0.0289588463223,0.0,0.110396214608,0.0,1.50075106142,0.0,0.0,0.0,0.0,-4.41113119474,29.9978814737,-81.3297867156,0.299966422719,100.0,-0.01304212411,-100.0,0.298190917134,100.0,-0.00618741307283,-100.0,3858176.45398,0.0,0.0,0.0,0.0,0.0,0.0
1402598548903492924,0,7.69901094044,-0.114322152727,-11.91729432,0.043815185726,-0.026290478365,0.0,0.11017462759,0.0,1.47894091767,0.0,0.0,0.0,0.0,-4.41113119474,29.9978814737,-81.3297867156,0.299966422719,100.0,-0.0115079005535,-100.0,0.298190917134,100.0,-0.00618741307283,-100.0,3858176.45398,0.0,0.0,0.0,0.0,0.0,0.0
1402598548923043504,0,7.69901094044,-0.114322152727,-11.91729432,0.043815185726,-0.026290478365,0.0,0.11017462759,0.0,1.47894091767,0.0,0.0,0.0,0.0,-4.41113119474,29.9978814737,-81.3297867156,0.299966422719,100.0,-0.01304212411,-100.0,0.298190917134,100.0,-0.00618741307283,-100.0,3858176.45398,0.0,0.0,0.0,0.0,0.0,0.0
1402598548943488591,0,7.69716603336,-0.114322152727,-11.912888624,0.043815185726,-0.0223306196767,0.0,0.108102176495,0.0,1.45677898855,0.0,0.0,0.0,0.0,-4.41113119474,29.9978814737,-81.3297867156,0.299966422719,100.0,-0.01304212411,-100.0,0.298190917134,100.0,-0.00618741307283,-100.0,3858176.45398,0.0,0.0,0.0,0.0,0.0,0.0
1402598548962797982,0,7.69716603336,-0.114322152727,-11.912888624,0.043815185726,-0.0223306196767,0.0,0.108102176495,0.0,1.45677898855,0.0,0.0,0.0,0.0,-4.41113119474,29.9978814737,-81.3297867156,0.299966422719,100.0,-0.01304212411,-100.0,0.298190917134,100.0,-0.00618741307283,-100.0,3858176.45398,0.0,0.0,0.0,0.0,0.0,0.0
1402598548983555165,0,7.69612375941,-0.114322152727,-11.908435345,0.043815185726,-0.0214522268191,0.0,0.108805662136,0.0,1.43531331369,0.0,0.0,0.0,0.0,-4.41113119474,29.9978814737,-81.3297867156,0.299966422719,100.0,-0.01304212411,-100.0,0.298190917134,100.0,-0.00618741307283,-100.0,3858176.45398,0.0,0.0,0.0,0.0,0.0,0.0
1402598549002849788,0,7.69612375941,-0.114322152727,-11.908435345,0.043815185726,-0.0214522268191,0.0,0.108805662136,0.0,1.43531331369,0.0,0.0,0.0,0.0,-4.41113119474,29.9978814737,-81.3297867156,0.299966422719,100.0,-0.0115079005535,-100.0,0.298190917134,100.0,-0.00618741307283,-100.0,3858176.45398,0.0,0.0,0.0,0.0,0.0,0.0
1402598549023734882,0,7.6945286645,-0.114322152727,-11.9041565244,0.043815185726,-0.0196980246263,0.0,0.106389925732,0.0,1.41344397047,0.0,0.0,0.0,0.0,-4.41113119474,29.9978814737,-81.3297867156,0.299966422719,100.0,-0.01304212411,-100.0,0.298190917134,100.0,-0.00618741307283,-100.0,3858176.45398,0.0,0.0,0.0,0.0,0.0,0.0
1402598549042852293,0,7.6945286645,-0.114322152727,-11.9041565244,0.043815185726,-0.0196980246263,0.0,0.106389925732,0.0,1.41344397047,0.0,0.0,0.0,0.0,-4.41113119474,29.9978814737,-81.3297867156,0.299966422719,100.0,-0.0115079005535,-100.0,0.298190917134,100.0,-0.00618741307283,-100.0,3858176.45398,0.0,0.0,0.0,0.0,0.0,0.0
1402598549063393289,0,7.6925179334,-0.114322152727,-11.8984386067,0.043815185726,-0.0188931607576,0.0,0.105644222757,0.0,1.38584448839,0.0,0.0,0.0,0.0,-4.41113119474,29.9978814737,-81.3297867156,0.301500646276,100.0,-0.01304212411,-100.0,0.298190917134,100.0,-0.00618741307283,-100.0,3858176.45398,0.0,0.0,0.0,0.0,0.0,0.0
1402598549082900943,0,7.6925179334,-0.114322152727,-11.8984386067,0.043815185726,-0.0188931607576,0.0,0.105644222757,0.0,1.38584448839,0.0,0.0,0.0,0.0,-4.41113119474,29.9978814737,-81.3297867156,0.299966422719,100.0,-0.0115079005535,-100.0,0.298190917134,100.0,-0.00618741307283,-100.0,3858176.45398,0.0,0.0,0.0,0.0,0.0,0.0
1402598549103509724,0,7.69063271517,-0.114322152727,-11.8929379504,0.043815185726,-0.0159727138461,0.0,0.101464861127,0.0,1.35911521098,0.0,0.0,0.0,0.0,-4.41113119474,29.9978814737,-81.3297867156,0.299966422719,100.0,-0.01304212411,-100.0,0.298190917134,100.0,-0.00618741307283,-100.0,3858176.45398,0.0,0.0,0.0,0.0,0.0,0.0
1402598549122840827,0,7.69063271517,-0.114322152727,-11.8929379504,0.043815185726,-0.0159727138461,0.0,0.101464861127,0.0,1.35911521098,0.0,0.0,0.0,0.0,-4.41113119474,29.9978814737,-81.3297867156,0.299966422719,100.0,-0.0115079005535,-100.0,0.298190917134,100.0,-0.00618741307283,-100.0,3858176.45398,0.0,0.0,0.0,0.0,0.0,0.0
1402598549143455962,0,7.68994745818,-0.114322152727,-11.8908476403,0.043815185726,-0.0178855372896,0.0,0.105004870495,0.0,1.34877831291,0.0,0.0,0.0,0.0,-4.41113119474,29.9978814737,-81.3297867156,0.299966422719,100.0,-0.01304212411,-100.0,0.298190917134,100.0,-0.00618741307283,-100.0,3858176.45398,0.0,0.0,0.0,0.0,0.0,0.0
1402598549162822659,0,7.68994745818,-0.114322152727,-11.8908476403,0.043815185726,-0.0178855372896,0.0,0.105004870495,0.0,1.34877831291,0.0,0.0,0.0,0.0,-4.41113119474,29.9978814737,-81.3297867156,0.299966422719,100.0,-0.0115079005535,-100.0,0.298190917134,100.0,-0.00618741307283,-100.0,3858176.45398,0.0,0.0,0.0,0.0,0.0,0.0
1402598549183566795,0,7.68864115361,-0.114322152727,-11.8864786507,0.043815185726,-0.0110581317754,0.0,0.100561424151,0.0,1.32767587767,0.0,0.0,0.0,0.0,-4.41113119474,29.9978814737,-81.3297867156,0.299966422719,100.0,-0.0115079005535,-100.0,0.298190917134,100.0,-0.00618741307283,-100.0,3858176.45398,0.0,0.0,0.0,0.0,0.0,0.0
1402598549202881570,0,7.68864115361,-0.114322152727,-11.8864786507,0.043815185726,-0.0110581317754,0.0,0.100561424151,0.0,1.32767587767,0.0,0.0,0.0,0.0,-4.41113119474,29.9978814737,-81.3297867156,0.299966422719,100.0,-0.01304212411,-100.0,0.298190917134,100.0,-0.00618741307283,-100.0,3858176.45398,0.0,0.0,0.0,0.0,0.0,0.0
1402598549223451862,0,7.68748161825,-0.114322152727,-11.8821760337,0.043815185726,-0.00723058756575,0.0,0.0978182188294,0.0,1.30689290782,0.0,0.0,0.0,0.0,-4.41113119474,29.9978814737,-81.3297867156,0.299966422719,100.0,-0.0115079005535,-100.0,0.298190917134,100.0,-0.00618741307283,-100.0,3858176.45398,0.0,0.0,0.0,0.0,0.0,0.0
1402598549242807621,0,7.68748161825,-0.114322152727,-11.8821760337,0.043815185726,-0.00723058756575,0.0,0.0978182188294,0.0,1.30689290782,0.0,0.0,0.0,0.0,-4.41113119474,29.9978814737,-81.3297867156,0.299966422719,100.0,-0.0115079005535,-100.0,0.298190917134,100.0,-0.00618741307283,-100.0,3858176.45398,0.0,0.0,0.0,0.0,0.0,0.0
1402598549263877952,0,7.68611373608,-0.114322152727,-11.8779703321,0.043815185726,-0.00939321191246,0.0,0.0938784464654,0.0,1.28641058667,0.0,0.0,0.0,0.0,-4.41113119474,29.9978814737,-81.3297867156,0.299966422719,100.0,-0.0115079005535,-100.0,0.298190917134,100.0,-0.00618741307283,-100.0,3858176.45398,0.0,0.0,0.0,0.0,0.0,0.0
1402598549283009841,0,7.68611373608,-0.114322152727,-11.8779703321,0.043815185726,-0.00939321191246,0.0,0.0938784464654,0.0,1.28641058667,0.0,0.0,0.0,0.0,-4.41113119474,29.9978814737,-81.3297867156,0.299966422719,100.0,-0.0115079005535,-100.0,0.298190917134,100.0,-0.00618741307283,-100.0,3858176.45398,0.0,0.0,0.0,0.0,0.0,0.0
1402598549303315257,0,7.68523339155,-0.114322152727,-11.8737052038,0.043815185726,-0.00599344622889,0.0,0.0919941967234,0.0,1.26547049816,0.0,0.0,0.0,0.0,-4.41113119474,29.9978814737,-81.3297867156,0.299966422719,100.0,-0.0115079005535,-100.0,0.298190917134,100.0,-0.00618741307283,-100.0,3858176.45398,0.0,0.0,0.0,0.0,0.0,0.0
1402598549322682909,0,7.68523339155,-0.114322152727,-11.8737052038,0.043815185726,-0.00599344622889,0.0,0.0919941967234,0.0,1.26547049816,0.0,0.0,0.0,0.0,-4.41113119474,29.9978814737,-81.3297867156,0.299966422719,100.0,-0.0115079005535,-100.0,0.298190917134,100.0,-0.00618741307283,-100.0,3858176.45398,0.0,0.0,0.0,0.0,0.0,0.0
1402598549343312633,0,7.68400755686,-0.114322152727,-11.869047949,0.043815185726,0.0015693827466,0.0,0.0869321801031,0.0,1.24004801516,0.0,0.0,0.0,0.0,-4.41113119474,29.9978814737,-81.3297867156,0.299966422719,100.0,-0.00997320015982,-100.0,0.298190917134,100.0,-0.00618741307283,-100.0,3858176.45398,0.0,0.0,0.0,0.0,0.0,0.0
1402598549362862019,0,7.68400755686,-0.114322152727,-11.869047949,0.043815185726,0.0015693827466,0.0,0.0869321801031,0.0,1.24004801516,0.0,0.0,0.0,0.0,-4.41113119474,29.9978814737,-81.3297867156,0.299966422719,100.0,-0.00997320015982,-100.0,0.298190917134,100.0,-0.00618741307283,-100.0,3858176.45398,0.0,0.0,0.0,0.0,0.0,0.0
1402598549383427095,0,7.6829688506,-0.114322152727,-11.8642918894,0.043815185726,0.0092787706034,0.0,0.0805085865413,0.0,1.2140513566,0.0,0.0,0.0,0.0,-4.41113119474,29.9978814737,-81.3297867156,0.299966422719,100.0,-0.0115079005535,-100.0,0.298190917134,100.0,-0.00618741307283,-100.0,3858176.45398,0.0,0.0,0.0,0.0,0.0,0.0
1402598549402845889,0,7.6829688506,-0.114322152727,-11.8642918894,0.043815185726,0.0092787706034,0.0,0.0805085865413,0.0,1.2140513566,0.0,0.0,0.0,0.0,-4.41113119474,29.9978814737,-81.3297867156,0.299966422719,100.0,-0.0115079005535,-100.0,0.298190917134,100.0,-0.00618741307283,-100.0,3858176.45398,0.0,0.0,0.0,0.0,0.0,0.0
1402598549423423289,0,7.68257156237,-0.114322152727,-11.8624166594,0.043815185726,0.0090878030158,0.0,0.0802726602774,0.0,1.20396622134,0.0,0.0,0.0,0.0,-4.41113119474,29.9978814737,-81.3297867156,0.299966422719,100.0,-0.0115079005535,-100.0,0.298190917134,100.0,-0.00618741307283,-100.0,3858176.45398,0.0,0.0,0.0,0.0,0.0,0.0
1402598549442948797,0,7.68257156237,-0.114322152727,-11.8624166594,0.043815185726,0.0090878030158,0.0,0.0802726602774,0.0,1.20396622134,0.0,0.0,0.0,0.0,-4.41113119474,29.9978814737,-81.3297867156,0.299966422719,100.0,-0.0115079005535,-100.0,0.298190917134,100.0,-0.00618741307283,-100.0,3858176.45398,0.0,0.0,0.0,0.0,0.0,0.0
1402598549463396679,0,7.68228865924,-0.114322152727,-11.8589675611,0.043815185726,0.0146558463084,0.0,0.075218385788,0.0,1.18277792387,0.0,0.0,0.0,0.0,-4.41113119474,29.9978814737,-81.3297867156,0.301500646276,100.0,-0.0115079005535,-100.0,0.298190917134,100.0,-0.00618741307283,-100.0,3858176.45398,0.0,0.0,0.0,0.0,0.0,0.0
1402598549483105269,0,7.68228865924,-0.114322152727,-11.8589675611,0.043815185726,0.0146558463084,0.0,0.075218385788,0.0,1.18277792387,0.0,0.0,0.0,0.0,-4.41113119474,29.9978814737,-81.3297867156,0.299966422719,100.0,-0.0115079005535,-100.0,0.298190917134,100.0,-0.00618741307283,-100.0,3858176.45398,0.0,0.0,0.0,0.0,0.0,0.0
1402598549503499053,0,7.68190580084,-0.114322152727,-11.8555411009,0.043815185726,0.0168229888627,0.0,0.0702593065966,0.0,1.16207051236,0.0,0.0,0.0,0.0,-4.41113119474,29.9978814737,-81.3297867156,0.299966422719,100.0,-0.0115079005535,-100.0,0.298190917134,100.0,-0.00618741307283,-100.0,3858176.45398,0.0,0.0,0.0,0.0,0.0,0.0
1402598549523337359,0,7.68190580084,-0.114322152727,-11.8555411009,0.043815185726,0.0168229888627,0.0,0.0702593065966,0.0,1.16207051236,0.0,0.0,0.0,0.0,-4.41113119474,29.9978814737,-81.3297867156,0.299966422719,100.0,-0.00997320015982,-100.0,0.298190917134,100.0,-0.00618741307283,-100.0,3858176.45398,0.0,0.0,0.0,0.0,0.0,0.0
1402598549543366587,0,7.68218019728,-0.114322152727,-11.8523546052,0.043815185726,0.0240092159687,0.0,0.0635853665127,0.0,1.14147892649,0.0,0.0,0.0,0.0,-4.41113119474,29.9978814737,-81.3297867156,0.299966422719,100.0,-0.00690451462821,-100.0,0.298190917134,100.0,-0.00618741307283,-100.0,3858176.45398,0.0,0.0,0.0,0.0,0.0,0.0
1402598549563450952,0,7.68218019728,-0.114322152727,-11.8523546052,0.043815185726,0.0240092159687,0.0,0.0635853665127,0.0,1.14147892649,0.0,0.0,0.0,0.0,-4.41113119474,29.9978814737,-81.3297867156,0.299966422719,100.0,-0.00997320015982,-100.0,0.298190917134,100.0,-0.00618741307283,-100.0,3858176.45398,0.0,0.0,0.0,0.0,0.0,0.0
1402598549583583507,0,7.68224370141,-0.114322152727,-11.8487011974,0.043815185726,0.0281456129276,0.0,0.0546907948942,0.0,1.11526811086,0.0,0.0,0.0,0.0,-4.41113119474,29.9978814737,-81.3297867156,0.299966422719,100.0,-0.00997320015982,-100.0,0.298190917134,100.0,-0.00618741307283,-100.0,3858176.45398,0.0,0.0,0.0,0.0,0.0,0.0
1402598549602849700,0,7.68224370141,-0.114322152727,-11.8487011974,0.043815185726,0.0281456129276,0.0,0.0546907948942,0.0,1.11526811086,0.0,0.0,0.0,0.0,-4.41113119474,29.9978814737,-81.3297867156,0.299966422719,100.0,-0.0115079005535,-100.0,0.298190917134,100.0,-0.00618741307283,-100.0,3858176.45398,0.0,0.0,0.0,0.0,0.0,0.0
1402598549623515458,0,7.68228955966,-0.114322152727,-11.8465036726,0.043815185726,0.0327661166863,0.0,0.0482157951897,0.0,1.09947997091,0.0,0.0,0.0,0.0,-4.41113119474,29.9978814737,-81.3297867156,0.299966422719,100.0,-0.00997320015982,-100.0,0.298190917134,100.0,-0.00618741307283,-100.0,3858176.45398,0.0,0.0,0.0,0.0,0.0,0.0
1402598549642890120,0,7.68219271226,-0.114322152727,-11.8454026863,0.043815185726,0.0311519238648,0.0,0.0469603689461,0.0,1.08884579014,0.0,0.0,0.0,0.0,-4.41113119474,29.9978814737,-81.3297867156,0.299966422719,100.0,-0.00843897660331,-100.0,0.298190917134,100.0,-0.00618741307283,-100.0,3858176.45398,0.0,0.0,0.0,0.0,0.0,0.0
1402598549663354212,0,7.68219271226,-0.114322152727,-11.8454026863,0.043815185726,0.0311519238648,0.0,0.0469603689461,0.0,1.08884579014,0.0,0.0,0.0,0.0,-4.41113119474,29.9978814737,-81.3297867156,0.299966422719,100.0,-0.00537029107169,-100.0,0.298190917134,100.0,-0.00618741307283,-100.0,3858176.45398,0.0,0.0,0.0,0.0,0.0,0.0
1402598549682949387,0,7.68248438015,-0.114322152727,-11.8441357992,0.043815185726,0.034898917497,0.0,0.0410189840562,0.0,1.07850111376,0.0,0.0,0.0,0.0,-4.41113119474,29.9978814737,-81.3297867156,0.299966422719,100.0,-0.000767381983555,-100.0,0.298190917134,100.0,-0.00618741307283,-100.0,3858176.45398,0.0,0.0,0.0,0.0,0.0,0.0
1402598549703427603,0,7.68248438015,-0.114322152727,-11.8441357992,0.043815185726,0.034898917497,0.0,0.0410189840562,0.0,1.07850111376,0.0,0.0,0.0,0.0,-4.41113119474,29.9978814737,-81.3297867156,0.299966422719,100.0,-0.00537029107169,-100.0,0.298190917134,100.0,-0.00618741307283,-100.0,3858176.45398,0.0,0.0,0.0,0.0,0.0,0.0
1402598549723582822,0,7.68276426944,-0.114322152727,-11.841907182,0.043815185726,0.0334304220608,0.0,0.033317107122,0.0,1.05693407454,0.0,0.0,0.0,0.0,-4.41113119474,29.9978814737,-81.3297867156,0.299966422719,100.0,-0.000767381983555,-100.0,0.298190917134,100.0,-0.00618741307283,-100.0,3858176.45398,0.0,0.0,0.0,0.0,0.0,0.0
1402598549743264818,0,7.68276426944,-0.114322152727,-11.841907182,0.043815185726,0.0334304220608,0.0,0.033317107122,0.0,1.05693407454,0.0,0.0,0.0,0.0,-4.41113119474,29.9978814737,-81.3297867156,0.299966422719,100.0,-0.00690451462821,-100.0,0.298190917134,100.0,-0.00618741307283,-100.0,3858176.45398,0.0,0.0,0.0,0.0,0.0,0.0
1402598549762772879,0,7.6831896652,-0.114322152727,-11.8397930994,0.043815185726,0.0383872336416,0.0,0.0271425880609,0.0,1.03594901644,0.0,0.0,0.0,0.0,-4.41113119474,29.9978814737,-81.3297867156,0.299966422719,100.0,-0.000767381983555,-100.0,0.298190917134,100.0,-0.00618741307283,-100.0,3858176.45398,0.0,0.0,0.0,0.0,0.0,0.0
1402598549782836701,0,7.6831896652,-0.114322152727,-11.8397930994,0.043815185726,0.0383872336416,0.0,0.0271425880609,0.0,1.03594901644,0.0,0.0,0.0,0.0,-4.41113119474,29.9978814737,-81.3297867156,0.299966422719,100.0,-0.00383606751517,-100.0,0.298190917134,100.0,-0.00618741307283,-100.0,3858176.45398,0.0,0.0,0.0,0.0,0.0,0.0
1402598549803391051,0,7.68362145455,-0.114322152727,-11.8381242795,0.043815185726,0.0376486863576,0.0,0.0195061886209,0.0,1.01568895402,0.0,0.0,0.0,0.0,-4.41113119474,29.9978814737,-81.3297867156,0.299966422719,100.0,-0.000767381983555,-100.0,0.298190917134,100.0,-0.00618741307283,-100.0,3858176.45398,0.0,0.0,0.0,0.0,0.0,0.0
1402598549822899449,0,7.68362145455,-0.114322152727,-11.8381242795,0.043815185726,0.0376486863576,0.0,0.0195061886209,0.0,1.01568895402,0.0,0.0,0.0,0.0,-4.41113119474,29.9978814737,-81.3297867156,0.299966422719,100.0,-0.00230160554007,-100.0,0.298190917134,100.0,-0.00618741307283,-100.0,3858176.45398,0.0,0.0,0.0,0.0,0.0,0.0
1402598549843410179,0,7.68398055488,-0.114322152727,-11.83668221,0.043815185726,0.0402400874684,0.0,0.0124692832476,0.0,0.99497460157,0.0,0.0,0.0,0.0,-4.41113119474,29.9978814737,-81.3297867156,0.299966422719,100.0,-0.00230160554007,-100.0,0.298190917134,100.0,-0.00618741307283,-100.0,3858176.45398,0.0,0.0,0.0,0.0,0.0,0.0
1402598549862825065,0,7.68398055488,-0.114322152727,-11.83668221,0.043815185726,0.0402400874684,0.0,0.0124692832476,0.0,0.99497460157,0.0,0.0,0.0,0.0,-4.41113119474,29.9978814737,-81.3297867156,0.299966422719,100.0,-0.000767381983555,-100.0,0.298190917134,100.0,-0.00618741307283,-100.0,3858176.45398,0.0,0.0,0.0,0.0,0.0,0.0
1402598549883480465,0,7.68473977004,-0.114322152727,-11.8355025836,0.043815185726,0.0458807344504,0.0,0.00195486315853,0.0,0.974261637244,0.0,0.0,0.0,0.0,-4.41113119474,29.9978814737,-81.3297867156,0.299966422719,100.0,-0.000767381983555,-100.0,0.298190917134,100.0,-0.00618741307283,-100.0,3858176.45398,0.0,0.0,0.0,0.0,0.0,0.0
1402598549902722122,0,7.68473977004,-0.114322152727,-11.8355025836,0.043815185726,0.0458807344504,0.0,0.00195486315853,0.0,0.974261637244,0.0,0.0,0.0,0.0,-4.41113119474,29.9978814737,-81.3297867156,0.299966422719,100.0,0.000767318410122,-100.0,0.298190917134,100.0,-0.00618741307283,-100.0,3858176.45398,0.0,0.0,0.0,0.0,0.0,0.0
1402598549923728091,0,7.68555796425,-0.114322152727,-11.834440955,0.043815185726,0.0508716130882,0.0,-0.00741199144787,0.0,0.94832133788,0.0,0.0,0.0,0.0,-4.41113119474,29.9978814737,-81.3297867156,0.299966422719,100.0,0.000767318410122,-100.0,0.298190917134,100.0,-0.00618741307283,-100.0,3858176.45398,0.0,0.0,0.0,0.0,0.0,0.0
1402598549942890462,0,7.68555796425,-0.114322152727,-11.834440955,0.043815185726,0.0508716130882,0.0,-0.00741199144787,0.0,0.94832133788,0.0,0.0,0.0,0.0,-4.41113119474,29.9978814737,-81.3297867156,0.299966422719,100.0,0.000767318410122,-100.0,0.298190917134,100.0,-0.00618741307283,-100.0,3858176.45398,0.0,0.0,0.0,0.0,0.0,0.0
1402598549963709422,0,7.68684759946,-0.114322152727,-11.8339124302,0.043815185726,0.0615740810879,0.0,-0.0192717346056,0.0,0.922766746872,0.0,0.0,0.0,0.0,-4.41113119474,29.9978814737,-81.3297867156,0.299966422719,100.0,0.000767318410122,-100.0,0.298190917134,100.0,-0.00618741307283,-100.0,3858176.45398,0.0,0.0,0.0,0.0,0.0,0.0
1402598549982817006,0,7.68684759946,-0.114322152727,-11.8339124302,0.043815185726,0.0615740810879,0.0,-0.0192717346056,0.0,0.922766746872,0.0,0.0,0.0,0.0,-4.41113119474,29.9978814737,-81.3297867156,0.299966422719,100.0,0.000767318410122,-100.0,0.298190917134,100.0,-0.00618741307283,-100.0,3858176.45398,0.0,0.0,0.0,0.0,0.0,0.0
1402598550003576525,0,7.68750016155,-0.114322152727,-11.8339093769,0.043815185726,0.0624381119485,0.0,-0.0230045970278,0.0,0.912236443869,0.0,0.0,0.0,0.0,-4.41113119474,29.9978814737,-81.3297867156,0.299966422719,100.0,0.000767318410122,-100.0,0.298190917134,100.0,-0.00618741307283,-100.0,3858176.45398,0.0,0.0,0.0,0.0,0.0,0.0
1402598550022840359,0,7.68750016155,-0.114322152727,-11.8339093769,0.043815185726,0.0624381119485,0.0,-0.0230045970278,0.0,0.912236443869,0.0,0.0,0.0,0.0,-4.41113119474,29.9978814737,-81.3297867156,0.299966422719,100.0,-0.000767381983555,-100.0,0.298190917134,100.0,-0.00618741307283,-100.0,3858176.45398,0.0,0.0,0.0,0.0,0.0,0.0
1402598550043375429,0,7.68876907345,-0.114322152727,-11.8338586422,0.043815185726,0.0655813830316,0.0,-0.032810812819,0.0,0.892182059347,0.0,0.0,0.0,0.0,-4.41113119474,29.9978814737,-81.3297867156,0.299966422719,100.0,-0.000767381983555,-100.0,0.298190917134,100.0,-0.00618741307283,-100.0,3858176.45398,0.0,0.0,0.0,0.0,0.0,0.0
1402598550063392443,0,7.68876907345,-0.114322152727,-11.8338586422,0.043815185726,0.0655813830316,0.0,-0.032810812819,0.0,0.892182059347,0.0,0.0,0.0,0.0,-4.41113119474,29.9978814737,-81.3297867156,0.299966422719,100.0,0.000767318410122,-100.0,0.298190917134,100.0,-0.00618741307283,-100.0,3858176.45398,0.0,0.0,0.0,0.0,0.0,0.0
1402598550083814109,0,7.69001526675,-0.114322152727,-11.8344234928,0.043815185726,0.0706409136626,0.0,-0.0442939459492,0.0,0.871629336302,0.0,0.0,0.0,0.0,-4.41113119474,29.9978814737,-81.3297867156,0.299966422719,100.0,-0.000767381983555,-100.0,0.298190917134,100.0,-0.00618741307283,-100.0,3858176.45398,0.0,0.0,0.0,0.0,0.0,0.0
1402598550103470715,0,7.69001526675,-0.114322152727,-11.8344234928,0.043815185726,0.0706409136626,0.0,-0.0442939459492,0.0,0.871629336302,0.0,0.0,0.0,0.0,-4.41113119474,29.9978814737,-81.3297867156,0.299966422719,100.0,-0.000767381983555,-100.0,0.298190917134,100.0,-0.00618741307283,-100.0,3858176.45398,0.0,0.0,0.0,0.0,0.0,0.0
1402598550123419933,0,7.69190981719,-0.114322152727,-11.8354403387,0.043815185726,0.0772893869718,0.0,-0.0604009472728,0.0,0.85110137119,0.0,0.0,0.0,0.0,-4.41113119474,29.9978814737,-81.3297867156,0.299966422719,100.0,-0.000767381983555,-100.0,0.298190917134,100.0,-0.00618741307283,-100.0,3858176.45398,0.0,0.0,0.0,0.0,0.0,0.0
1402598550143486962,0,7.69190981719,-0.114322152727,-11.8354403387,0.043815185726,0.0772893869718,0.0,-0.0604009472728,0.0,0.85110137119,0.0,0.0,0.0,0.0,-4.41113119474,29.9978814737,-81.3297867156,0.301500646276,100.0,0.000767318410122,-100.0,0.298190917134,100.0,-0.00618741307283,-100.0,3858176.45398,0.0,0.0,0.0,0.0,0.0,0.0
1402598550163648133,0,7.69390911902,-0.114322152727,-11.8369422469,0.043815185726,0.0796125214337,0.0,-0.0746257661201,0.0,0.829983695368,0.0,0.0,0.0,0.0,-4.41113119474,29.9978814737,-81.3297867156,0.299966422719,100.0,-0.000767381983555,-100.0,0.298190917134,100.0,-0.00618741307283,-100.0,3858176.45398,0.0,0.0,0.0,0.0,0.0,0.0
1402598550182874676,0,7.69390911902,-0.114322152727,-11.8369422469,0.043815185726,0.0796125214337,0.0,-0.0746257661201,0.0,0.829983695368,0.0,0.0,0.0,0.0,-4.41113119474,29.9978814737,-81.3297867156,0.299966422719,100.0,-0.000767381983555,-100.0,0.298190917134,100.0,-0.00618741307283,-100.0,3858176.45398,0.0,0.0,0.0,0.0,0.0,0.0
1402598550203521668,0,7.69591263666,-0.114322152727,-11.8394902225,0.043815185726,0.0814444718751,0.0,-0.0843323889923,0.0,0.804391308891,0.0,0.0,0.0,0.0,-4.41113119474,29.9978814737,-81.3297867156,0.299966422719,100.0,-0.000767381983555,-100.0,0.298190917134,100.0,-0.00618741307283,-100.0,3858176.45398,0.0,0.0,0.0,0.0,0.0,0.0
1402598550222845590,0,7.69591263666,-0.114322152727,-11.8394902225,0.043815185726,0.0814444718751,0.0,-0.0843323889923,0.0,0.804391308891,0.0,0.0,0.0,0.0,-4.41113119474,29.9978814737,-81.3297867156,0.299966422719,100.0,-0.000767381983555,-100.0,0.298190917134,100.0,-0.00618741307283,-100.0,3858176.45398,0.0,0.0,0.0,0.0,0.0,0.0
1402598550243369023,0,7.69750569354,-0.114322152727,-11.841092474,0.043815185726,0.0836358022824,0.0,-0.0949573860989,0.0,0.789046971711,0.0,0.0,0.0,0.0,-4.41113119474,29.9978814737,-81.3297867156,0.301500646276,100.0,-0.000767381983555,-100.0,0.298190917134,100.0,-0.00618741307283,-100.0,3858176.45398,0.0,0.0,0.0,0.0,0.0,0.0
1402598550262580131,0,7.69852643722,-0.114322152727,-11.8422339698,0.043815185726,0.0808401985821,0.0,-0.100931474847,0.0,0.779185414352,0.0,0.0,0.0,0.0,-4.41113119474,29.9978814737,-81.3297867156,0.299966422719,100.0,-0.000767381983555,-100.0,0.298190917134,100.0,-0.00618741307283,-100.0,3858176.45398,0.0,0.0,0.0,0.0,0.0,0.0
1402598550283437995,0,7.69852643722,-0.114322152727,-11.8422339698,0.043815185726,0.0808401985821,0.0,-0.100931474847,0.0,0.779185414352,0.0,0.0,0.0,0.0,-4.41113119474,29.9978814737,-81.3297867156,0.299966422719,100.0,-0.000767381983555,-100.0,0.298190917134,100.0,-0.00618741307283,-100.0,3858176.45398,0.0,0.0,0.0,0.0,0.0,0.0
1402598550302825923,0,7.69961340239,-0.114322152727,-11.8437428868,0.043815185726,0.0838665941736,0.0,-0.107007420407,0.0,0.768943233535,0.0,0.0,0.0,0.0,-4.41113119474,29.9978814737,-81.3297867156,0.299966422719,100.0,-0.000767381983555,-100.0,0.298190917134,100.0,-0.00618741307283,-100.0,3858176.45398,0.0,0.0,0.0,0.0,0.0,0.0
1402598550323457800,0,7.69961340239,-0.114322152727,-11.8437428868,0.043815185726,0.0838665941736,0.0,-0.107007420407,0.0,0.768943233535,0.0,0.0,0.0,0.0,-4.41113119474,29.9978814737,-81.3297867156,0.299966422719,100.0,-0.000767381983555,-100.0,0.298190917134,100.0,-0.00618741307283,-100.0,3858176.45398,0.0,0.0,0.0,0.0,0.0,0.0
1402598550342922785,0,7.70154874901,-0.114322152727,-11.8468511463,0.043815185726,0.081713432973,0.0,-0.117634043922,0.0,0.749063645559,0.0,0.0,0.0,0.0,-4.41113119474,29.9978814737,-81.3297867156,0.301500646276,100.0,-0.00230160554007,-100.0,0.298190917134,100.0,-0.00618741307283,-100.0,3858176.45398,0.0,0.0,0.0,0.0,0.0,0.0
1402598550363395457,0,7.70154874901,-0.114322152727,-11.8468511463,0.043815185726,0.081713432973,0.0,-0.117634043922,0.0,0.749063645559,0.0,0.0,0.0,0.0,-4.41113119474,29.9978814737,-81.3297867156,0.299966422719,100.0,-0.000767381983555,-100.0,0.298190917134,100.0,-0.00618741307283,-100.0,3858176.45398,0.0,0.0,0.0,0.0,0.0,0.0
1402598550382912540,0,7.70337265311,-0.114322152727,-11.8503724613,0.043815185726,0.0811262618526,0.0,-0.127978244456,0.0,0.729434014645,0.0,0.0,0.0,0.0,-4.41113119474,29.9978814737,-81.3297867156,0.299966422719,100.0,-0.00230160554007,-100.0,0.298190917134,100.0,-0.00618741307283,-100.0,3858176.45398,0.0,0.0,0.0,0.0,0.0,0.0
1402598550403400475,0,7.70337265311,-0.114322152727,-11.8503724613,0.043815185726,0.0811262618526,0.0,-0.127978244456,0.0,0.729434014645,0.0,0.0,0.0,0.0,-4.41113119474,29.9978814737,-81.3297867156,0.299966422719,100.0,-0.00230160554007,-100.0,0.298190917134,100.0,-0.00618741307283,-100.0,3858176.45398,0.0,0.0,0.0,0.0,0.0,0.0
1402598550422941355,0,7.70506128383,-0.114322152727,-11.8542314252,0.043815185726,0.0773678326539,0.0,-0.143561702694,0.0,0.709754376248,0.0,0.0,0.0,0.0,-4.41113119474,29.9978814737,-81.3297867156,0.301500646276,100.0,-0.00383606751517,-100.0,0.298190917134,100.0,-0.00618741307283,-100.0,3858176.45398,0.0,0.0,0.0,0.0,0.0,0.0
1402598550443583560,0,7.70506128383,-0.114322152727,-11.8542314252,0.043815185726,0.0773678326539,0.0,-0.143561702694,0.0,0.709754376248,0.0,0.0,0.0,0.0,-4.41113119474,29.9978814737,-81.3297867156,0.299966422719,100.0,-0.01304212411,-100.0,0.298190917134,100.0,-0.00618741307283,-100.0,3858176.45398,0.0,0.0,0.0,0.0,0.0,0.0
1402598550462846576,0,7.70683075839,-0.114322152727,-11.85856484,0.043815185726,0.0768774294092,0.0,-0.152319364639,0.0,0.690368064253,0.0,0.0,0.0,0.0,-4.41113119474,29.9978814737,-81.3297867156,0.299966422719,100.0,-0.00230160554007,-100.0,0.298190917134,100.0,-0.00618741307283,-100.0,3858176.45398,0.0,0.0,0.0,0.0,0.0,0.0
1402598550483423413,0,7.70683075839,-0.114322152727,-11.85856484,0.043815185726,0.0768774294092,0.0,-0.152319364639,0.0,0.690368064253,0.0,0.0,0.0,0.0,-4.41113119474,29.9978814737,-81.3297867156,0.299966422719,100.0,-0.00997320015982,-100.0,0.298190917134,100.0,-0.00618741307283,-100.0,3858176.45398,0.0,0.0,0.0,0.0,0.0,0.0
1402598550503003623,0,7.70823619437,-0.114322152727,-11.8634766848,0.043815185726,0.0745989489039,0.0,-0.164446599324,0.0,0.671200253199,0.0,0.0,0.0,0.0,-4.41113119474,29.9978814737,-81.3297867156,0.299966422719,100.0,-0.0115079005535,-100.0,0.298190917134,100.0,-0.00618741307283,-100.0,3858176.45398,0.0,0.0,0.0,0.0,0.0,0.0
1402598550523490802,0,7.70823619437,-0.114322152727,-11.8634766848,0.043815185726,0.0745989489039,0.0,-0.164446599324,0.0,0.671200253199,0.0,0.0,0.0,0.0,-4.41113119474,29.9978814737,-81.3297867156,0.299966422719,100.0,-0.01304212411,-100.0,0.298190917134,100.0,-0.00618741307283,-100.0,3858176.45398,0.0,0.0,0.0,0.0,0.0,0.0
1402598550542875273,0,7.71053095952,-0.114322152727,-11.8700526497,0.043815185726,0.0817965650652,0.0,-0.190244104729,0.0,0.647772134406,0.0,0.0,0.0,0.0,-4.41113119474,29.9978814737,-81.3297867156,0.299966422719,100.0,-0.01304212411,-100.0,0.298190917134,100.0,-0.00618741307283,-100.0,3858176.45398,0.0,0.0,0.0,0.0,0.0,0.0
