rosbagTimestamp,transforms,-,header,seq,stamp,secs,nsecs,frame_id,child_frame_id,transform,translation,x,y,z,rotation,x,y,z,w
1402416644855630291,,errorv,,0,,1402416644,779336929,/enu,/base_link,,,4.38092142418,9.95245481607,-31.3924111474,,-0.00442406638506,0.0165422926367,0.560171220158,0.828199845627
1402416644855664255,,errorv,,0,,1402416644,789333105,/enu,/base_link,,,4.40551064134,9.97806205585,-31.4692006232,,-0.00208946092004,0.0188079790087,0.560867737332,0.827689117543
1402416644855758293,,errorv,,0,,1402416644,800303936,/enu,/base_link,,,4.40838753099,9.99122270711,-31.4704992746,,-0.00197792966275,0.0187786052372,0.561032631409,0.827578297367
1402416644855791979,,errorv,,0,,1402416644,810302019,/enu,/base_link,,,4.41067740921,10.0030879736,-31.4713964423,,-0.00197067428543,0.0187402956793,0.561205114483,0.827462227076
1402416644855815701,,errorv,,0,,1402416644,820303916,/enu,/base_link,,,4.41341381104,10.0150468475,-31.4725476563,,-0.00187665081646,0.018690615105,0.561336698106,0.827374310967
1402416644855834828,,errorv,,0,,1402416644,831302881,/enu,/base_link,,,4.41617931146,10.0281881809,-31.4736179406,,-0.00186326545744,0.0186916690982,0.561475074057,0.827280418577
1402416644855854372,,errorv,,0,,1402416644,841305017,/enu,/base_link,,,4.50167032279,10.0622954673,-31.5183494636,,0.00214090008117,0.0262034205143,0.561191951002,0.827268028773
1402416644855963822,,errorv,,0,,1402416644,851341009,/enu,/base_link,,,4.50608057873,10.0746918085,-31.5197696742,,0.00213612613013,0.0261956254863,0.561333349294,0.827172350324
1402416644857871706,,errorv,,0,,1402416644,857703946,base_link,/z_drive,,,0.0,0.0,0.0,,0.0,0.0,0.0,1.0
1402416644857902430,,errorv,,0,,1402416644,857755950,/z_drive,port,,,-0.3,0.3048,0.0,,0.0,0.0,0.0,1.0
1402416644857920144,,errorv,,0,,1402416644,857763921,/z_drive,starboard,,,-0.3,-0.3048,0.0,,0.0,0.0,0.0,1.0
1402416644862329744,,errorv,,0,,1402416644,962159173,base_link,imu,,,0.13,0.0,-0.1,,1.0,0.0,0.0,0.0
1402416644862358386,,errorv,,0,,1402416644,962124487,/base_link,/gps,,,-0.84,0.0,-0.14,,0.0,0.0,0.0,1.0
1402416644877800018,,errorv,,0,,1402416644,877658171,base_link,/z_drive,,,0.0,0.0,0.0,,0.0,0.0,0.0,1.0
1402416644877830105,,errorv,,0,,1402416644,877672894,/z_drive,port,,,-0.3,0.3048,0.0,,0.0,0.0,0.0,1.0
1402416644877856021,,errorv,,0,,1402416644,877677122,/z_drive,starboard,,,-0.3,-0.3048,0.0,,0.0,0.0,0.0,1.0
1402416644895257374,,errorv,,0,,1402416644,862278938,/enu,/base_link,,,4.51079345157,10.0881965025,-31.5212771972,,0.00223610532074,0.0261333738206,0.561438248487,0.827102859227
1402416644895428886,,errorv,,0,,1402416644,872277975,/enu,/base_link,,,4.51535474324,10.1005490907,-31.5226178367,,0.00228911387395,0.026034151853,0.561547454639,0.827031703796
1402416644897865494,,errorv,,0,,1402416644,897725039,base_link,/z_drive,,,0.0,0.0,0.0,,0.0,0.0,0.0,1.0
1402416644897894355,,errorv,,0,,1402416644,897741648,/z_drive,port,,,-0.3,0.3048,0.0,,0.0,0.0,0.0,1.0
1402416644897919822,,errorv,,0,,1402416644,897746145,/z_drive,starboard,,,-0.3,-0.3048,0.0,,0.0,0.0,0.0,1.0
1402416644917671457,,errorv,,0,,1402416644,917485878,base_link,/z_drive,,,0.0,0.0,0.0,,0.0,0.0,0.0,1.0
1402416644917700563,,errorv,,0,,1402416644,917506990,/z_drive,port,,,-0.3,0.3048,0.0,,0.0,0.0,0.0,1.0
1402416644917727969,,errorv,,0,,1402416644,917511762,/z_drive,starboard,,,-0.3,-0.3048,0.0,,0.0,0.0,0.0,1.0
1402416644935124839,,errorv,,0,,1402416644,883277893,/enu,/base_link,,,4.52025159641,10.1140247298,-31.5237015455,,0.00225801043365,0.0260514055763,0.561669224758,0.826948551976
1402416644935156806,,errorv,,0,,1402416644,893280029,/enu,/base_link,,,4.60836343215,10.16134577,-31.5245043641,,0.00330109124402,0.0344236581477,0.559486048459,0.828118032732
1402416644937844117,,errorv,,0,,1402416644,937681958,base_link,/z_drive,,,0.0,0.0,0.0,,0.0,0.0,0.0,1.0
1402416644937874908,,errorv,,0,,1402416644,937704599,/z_drive,port,,,-0.3,0.3048,0.0,,0.0,0.0,0.0,1.0
1402416644937897570,,errorv,,0,,1402416644,937713374,/z_drive,starboard,,,-0.3,-0.3048,0.0,,0.0,0.0,0.0,1.0
1402416644957962946,,errorv,,0,,1402416644,957522069,base_link,/z_drive,,,0.0,0.0,0.0,,0.0,0.0,0.0,1.0
1402416644957991532,,errorv,,0,,1402416644,957535617,/z_drive,port,,,-0.3,0.3048,0.0,,0.0,0.0,0.0,1.0
1402416644958034615,,errorv,,0,,1402416644,957540003,/z_drive,starboard,,,-0.3,-0.3048,0.0,,0.0,0.0,0.0,1.0
1402416644962430387,,errorv,,0,,1402416645,62229196,/base_link,/gps,,,-0.84,0.0,-0.14,,0.0,0.0,0.0,1.0
1402416644962471144,,errorv,,0,,1402416645,62262243,base_link,imu,,,0.13,0.0,-0.1,,1.0,0.0,0.0,0.0
1402416644975221748,,errorv,,0,,1402416644,903279066,/enu,/base_link,,,4.61425313328,10.1742735372,-31.5254133496,,0.00329342657124,0.0344381037512,0.559558525178,0.828068491885
1402416644975248854,,errorv,,0,,1402416644,914278984,/enu,/base_link,,,4.62129836088,10.1889420572,-31.5272347505,,0.00335293435322,0.0343662134689,0.559671004493,0.827995222168
1402416644975276622,,errorv,,0,,1402416644,924288988,/enu,/base_link,,,4.62742292279,10.2020153305,-31.5282521734,,0.00340357214574,0.0343797066114,0.559733291391,0.827952350065
1402416644975321036,,errorv,,0,,1402416644,935277938,/enu,/base_link,,,4.68771358762,10.2339860769,-31.5128325236,,0.00422200773387,0.0389428696872,0.558534212148,0.828556070167
1402416644975363083,,errorv,,0,,1402416644,945274114,/enu,/base_link,,,4.69460992659,10.2474922424,-31.5139448708,,0.00417395950072,0.038801359109,0.558588985543,0.828526027245
1402416644977825861,,errorv,,0,,1402416644,977535934,base_link,/z_drive,,,0.0,0.0,0.0,,0.0,0.0,0.0,1.0
1402416644977856919,,errorv,,0,,1402416644,977562882,/z_drive,port,,,-0.3,0.3048,0.0,,0.0,0.0,0.0,1.0
1402416644977881780,,errorv,,0,,1402416644,977572896,/z_drive,starboard,,,-0.3,-0.3048,0.0,,0.0,0.0,0.0,1.0
1402416644997757733,,errorv,,0,,1402416644,997472913,base_link,/z_drive,,,0.0,0.0,0.0,,0.0,0.0,0.0,1.0
1402416644997782076,,errorv,,0,,1402416644,997497778,/z_drive,port,,,-0.3,0.3048,0.0,,0.0,0.0,0.0,1.0
1402416644997800424,,errorv,,0,,1402416644,997513526,/z_drive,starboard,,,-0.3,-0.3048,0.0,,0.0,0.0,0.0,1.0
1402416645015141102,,errorv,,0,,1402416644,956276893,/enu,/base_link,,,4.70258839717,10.2626591778,-31.5154787551,,0.00414937798436,0.038778857661,0.558668325716,0.828473707913
1402416645015172238,,errorv,,0,,1402416644,966267108,/enu,/base_link,,,4.70978663499,10.2761833113,-31.516566051,,0.0040774224873,0.0386663115282,0.558728167679,0.828438969159
1402416645015198618,,errorv,,0,,1402416644,976267099,/enu,/base_link,,,4.71704395323,10.2898822354,-31.5178678703,,0.00406988919141,0.0385840940245,0.558797108127,0.828396339707
1402416645017676934,,errorv,,0,,1402416645,17527284,base_link,/z_drive,,,0.0,0.0,0.0,,0.0,0.0,0.0,1.0
1402416645017791571,,errorv,,0,,1402416645,17548408,/z_drive,port,,,-0.3,0.3048,0.0,,0.0,0.0,0.0,1.0
1402416645017816540,,errorv,,0,,1402416645,17583055,/z_drive,starboard,,,-0.3,-0.3048,0.0,,0.0,0.0,0.0,1.0
1402416645023386546,,errorv,,0,,1402416644,987266063,/enu,/base_link,,,4.74599488203,10.3019118879,-31.4360413556,,0.00340611173863,0.0398257123719,0.558296525815,0.828678043814
1402416645023397315,,errorv,,0,,1402416644,997283935,/enu,/base_link,,,4.75358381472,10.3159413087,-31.4372101811,,0.0034121018093,0.0397212592673,0.558361544705,0.828639224583
1402416645037740692,,errorv,,0,,1402416645,37516145,base_link,/z_drive,,,0.0,0.0,0.0,,0.0,0.0,0.0,1.0
1402416645037777164,,errorv,,0,,1402416645,37537542,/z_drive,port,,,-0.3,0.3048,0.0,,0.0,0.0,0.0,1.0
1402416645037793279,,errorv,,0,,1402416645,37547506,/z_drive,starboard,,,-0.3,-0.3048,0.0,,0.0,0.0,0.0,1.0
1402416645057861605,,errorv,,0,,1402416645,57504271,base_link,/z_drive,,,0.0,0.0,0.0,,0.0,0.0,0.0,1.0
1402416645057888455,,errorv,,0,,1402416645,57535765,/z_drive,port,,,-0.3,0.3048,0.0,,0.0,0.0,0.0,1.0
1402416645057901832,,errorv,,0,,1402416645,57611889,/z_drive,starboard,,,-0.3,-0.3048,0.0,,0.0,0.0,0.0,1.0
1402416645062520324,,errorv,,0,,1402416645,162340886,/base_link,/gps,,,-0.84,0.0,-0.14,,0.0,0.0,0.0,1.0
1402416645062537207,,errorv,,0,,1402416645,162369332,base_link,imu,,,0.13,0.0,-0.1,,1.0,0.0,0.0,0.0
1402416645063121639,,errorv,,0,,1402416645,7994890,/enu,/base_link,,,4.76170290582,10.3307011855,-31.4380498415,,0.00342309401879,0.0396103107893,0.558417495972,0.828606786057
1402416645063157672,,errorv,,0,,1402416645,18263101,/enu,/base_link,,,4.7696131935,10.3451638871,-31.4393149465,,0.00335114027156,0.0395113472558,0.558452134597,0.828588460371
1402416645077832680,,errorv,,0,,1402416645,77532946,base_link,/z_drive,,,0.0,0.0,0.0,,0.0,0.0,0.0,1.0
1402416645077863458,,errorv,,0,,1402416645,77560190,/z_drive,port,,,-0.3,0.3048,0.0,,0.0,0.0,0.0,1.0
1402416645077886305,,errorv,,0,,1402416645,77564630,/z_drive,starboard,,,-0.3,-0.3048,0.0,,0.0,0.0,0.0,1.0
1402416645097723834,,errorv,,0,,1402416645,97517326,base_link,/z_drive,,,0.0,0.0,0.0,,0.0,0.0,0.0,1.0
1402416645097873299,,errorv,,0,,1402416645,97544688,/z_drive,port,,,-0.3,0.3048,0.0,,0.0,0.0,0.0,1.0
1402416645097896915,,errorv,,0,,1402416645,97553498,/z_drive,starboard,,,-0.3,-0.3048,0.0,,0.0,0.0,0.0,1.0
1402416645103143811,,errorv,,0,,1402416645,28249979,/enu,/base_link,,,4.77757974183,10.3590520743,-31.4403735176,,0.00331899323504,0.0393585393752,0.558494573367,0.828567258092
1402416645103325231,,errorv,,0,,1402416645,38264036,/enu,/base_link,,,4.75667026101,10.3659936691,-31.4165134382,,0.00176578414524,0.0359095466662,0.55933275447,0.828163182134
1402416645103342366,,errorv,,0,,1402416645,49247980,/enu,/base_link,,,4.76452858061,10.3811905523,-31.4176169657,,0.00173230105066,0.0357012112994,0.559373822981,0.828144521692
1402416645103352445,,errorv,,0,,1402416645,59225082,/enu,/base_link,,,4.77180357752,10.3949189346,-31.4184858433,,0.00169589399345,0.0356172942327,0.559422444292,0.828115367034
1402416645117758598,,errorv,,0,,1402416645,117547745,base_link,/z_drive,,,0.0,0.0,0.0,,0.0,0.0,0.0,1.0
1402416645117788058,,errorv,,0,,1402416645,117572955,/z_drive,port,,,-0.3,0.3048,0.0,,0.0,0.0,0.0,1.0
1402416645117918557,,errorv,,0,,1402416645,117584135,/z_drive,starboard,,,-0.3,-0.3048,0.0,,0.0,0.0,0.0,1.0
1402416645138051886,,errorv,,0,,1402416645,137571882,base_link,/z_drive,,,0.0,0.0,0.0,,0.0,0.0,0.0,1.0
1402416645138081553,,errorv,,0,,1402416645,137640612,/z_drive,port,,,-0.3,0.3048,0.0,,0.0,0.0,0.0,1.0
1402416645138112182,,errorv,,0,,1402416645,137651468,/z_drive,starboard,,,-0.3,-0.3048,0.0,,0.0,0.0,0.0,1.0
1402416645143278561,,errorv,,0,,1402416645,70223093,/enu,/base_link,,,4.77987833177,10.4101937249,-31.4195537613,,0.00171620658339,0.035419720138,0.559504977692,0.828068039474
1402416645143315222,,errorv,,0,,1402416645,80220937,/enu,/base_link,,,4.78719024,10.4239662458,-31.4202088289,,0.00168075195097,0.035222102313,0.559546149108,0.828048721755
1402416645143338127,,errorv,,0,,1402416645,91223001,/enu,/base_link,,,4.74996489976,10.4398245447,-31.4577720845,,-0.000141251989558,0.0305064531146,0.560751607919,0.827421881861
1402416645143362866,,errorv,,0,,1402416645,101222991,/enu,/base_link,,,4.7562417498,10.453537477,-31.4587243048,,-0.000163542637802,0.0303211743557,0.56081628269,0.827384854049
1402416645157772327,,errorv,,0,,1402416645,157517200,base_link,/z_drive,,,0.0,0.0,0.0,,0.0,0.0,0.0,1.0
1402416645157799605,,errorv,,0,,1402416645,157537367,/z_drive,port,,,-0.3,0.3048,0.0,,0.0,0.0,0.0,1.0
1402416645157822251,,errorv,,0,,1402416645,157541746,/z_drive,starboard,,,-0.3,-0.3048,0.0,,0.0,0.0,0.0,1.0
1402416645162710140,,errorv,,0,,1402416645,262474604,base_link,imu,,,0.13,0.0,-0.1,,1.0,0.0,0.0,0.0
1402416645162739241,,errorv,,0,,1402416645,262449923,/base_link,/gps,,,-0.84,0.0,-0.14,,0.0,0.0,0.0,1.0
1402416645177825403,,errorv,,0,,1402416645,177524847,base_link,/z_drive,,,0.0,0.0,0.0,,0.0,0.0,0.0,1.0
1402416645177855487,,errorv,,0,,1402416645,177549109,/z_drive,port,,,-0.3,0.3048,0.0,,0.0,0.0,0.0,1.0
1402416645177884692,,errorv,,0,,1402416645,177554402,/z_drive,starboard,,,-0.3,-0.3048,0.0,,0.0,0.0,0.0,1.0
1402416645183168877,,errorv,,0,,1402416645,112222909,/enu,/base_link,,,4.76332369432,10.4686901887,-31.459879517,,-0.000197140686978,0.0301713654386,0.560856907751,0.827362785525
1402416645183197401,,errorv,,0,,1402416645,122221946,/enu,/base_link,,,4.76987605011,10.482201039,-31.4604249707,,-0.000244264166193,0.0299569830557,0.560907092586,0.827336541552
1402416645183217045,,errorv,,0,,1402416645,133222103,/enu,/base_link,,,4.77701210525,10.4973787061,-31.4615619896,,-0.000296010542069,0.0298041606648,0.560958328914,0.827307305424
1402416645183277493,,errorv,,0,,1402416645,143225908,/enu,/base_link,,,4.77469060179,10.5064868058,-31.4418877263,,-0.000916155312811,0.0282710595317,0.561352614516,0.827093193074
1402416645183375715,,errorv,,0,,1402416645,154220104,/enu,/base_link,,,4.78154625632,10.5213415033,-31.4424822699,,-0.000988754202494,0.0280355405669,0.561425818388,0.827051438109
1402416645197817798,,errorv,,0,,1402416645,197579814,base_link,/z_drive,,,0.0,0.0,0.0,,0.0,0.0,0.0,1.0
1402416645197848228,,errorv,,0,,1402416645,197622674,/z_drive,port,,,-0.3,0.3048,0.0,,0.0,0.0,0.0,1.0
1402416645197879531,,errorv,,0,,1402416645,197629956,/z_drive,starboard,,,-0.3,-0.3048,0.0,,0.0,0.0,0.0,1.0
1402416645217688504,,errorv,,0,,1402416645,217505031,base_link,/z_drive,,,0.0,0.0,0.0,,0.0,0.0,0.0,1.0
1402416645217717296,,errorv,,0,,1402416645,217520089,/z_drive,port,,,-0.3,0.3048,0.0,,0.0,0.0,0.0,1.0
1402416645217740537,,errorv,,0,,1402416645,217526788,/z_drive,starboard,,,-0.3,-0.3048,0.0,,0.0,0.0,0.0,1.0
1402416645223380486,,errorv,,0,,1402416645,164223909,/enu,/base_link,,,4.78797380219,10.5351202464,-31.4435228169,,-0.000982507251749,0.0278443478031,0.561488184379,0.82701556562
1402416645223407091,,errorv,,0,,1402416645,174225091,/enu,/base_link,,,4.7943734063,10.5488492335,-31.4445063661,,-0.00101798186709,0.0276743092184,0.561549812922,0.826979385432
1402416645223501283,,errorv,,0,,1402416645,185142040,/enu,/base_link,,,4.78149846955,10.5621139033,-31.4470466566,,-0.001997420842,0.0253430265043,0.562141941968,0.826649973325
1402416645235276805,,errorv,,0,,1402416645,195225954,/enu,/base_link,,,4.78738161467,10.5757225267,-31.4475783657,,-0.00202121963309,0.0251812945403,0.562195935304,0.826618138807
1402416645235304630,,errorv,,0,,1402416645,206222057,/enu,/base_link,,,4.79407096913,10.5908067393,-31.4486315116,,-0.00195903408249,0.0249740597718,0.562241417162,0.826593641006
1402416645237881023,,errorv,,0,,1402416645,237535314,base_link,/z_drive,,,0.0,0.0,0.0,,0.0,0.0,0.0,1.0
1402416645237909481,,errorv,,0,,1402416645,237552737,/z_drive,port,,,-0.3,0.3048,0.0,,0.0,0.0,0.0,1.0
1402416645237937820,,errorv,,0,,1402416645,237563158,/z_drive,starboard,,,-0.3,-0.3048,0.0,,0.0,0.0,0.0,1.0
1402416645257785794,,errorv,,0,,1402416645,257483440,base_link,/z_drive,,,0.0,0.0,0.0,,0.0,0.0,0.0,1.0
1402416645257819305,,errorv,,0,,1402416645,257526918,/z_drive,port,,,-0.3,0.3048,0.0,,0.0,0.0,0.0,1.0
1402416645257854776,,errorv,,0,,1402416645,257539986,/z_drive,starboard,,,-0.3,-0.3048,0.0,,0.0,0.0,0.0,1.0
1402416645262782527,,errorv,,0,,1402416645,362585894,base_link,imu,,,0.13,0.0,-0.1,,1.0,0.0,0.0,0.0
1402416645262805656,,errorv,,0,,1402416645,362564888,/base_link,/gps,,,-0.84,0.0,-0.14,,0.0,0.0,0.0,1.0
1402416645275149202,,errorv,,0,,1402416645,216129064,/enu,/base_link,,,4.80001903977,10.6044203038,-31.4495193289,,-0.00193800034851,0.0247729923312,0.562311484588,0.826552077794
1402416645275195078,,errorv,,0,,1402416645,227127075,/enu,/base_link,,,4.80652345492,10.619435524,-31.4502875547,,-0.00197827236205,0.024698497706,0.562368011983,0.826515752873
1402416645277752685,,errorv,,0,,1402416645,277502117,base_link,/z_drive,,,0.0,0.0,0.0,,0.0,0.0,0.0,1.0
1402416645277785049,,errorv,,0,,1402416645,277518722,/z_drive,port,,,-0.3,0.3048,0.0,,0.0,0.0,0.0,1.0
1402416645277808963,,errorv,,0,,1402416645,277523188,/z_drive,starboard,,,-0.3,-0.3048,0.0,,0.0,0.0,0.0,1.0
1402416645297695395,,errorv,,0,,1402416645,297502160,base_link,/z_drive,,,0.0,0.0,0.0,,0.0,0.0,0.0,1.0
1402416645297733491,,errorv,,0,,1402416645,297550463,/z_drive,port,,,-0.3,0.3048,0.0,,0.0,0.0,0.0,1.0
1402416645297791934,,errorv,,0,,1402416645,297563292,/z_drive,starboard,,,-0.3,-0.3048,0.0,,0.0,0.0,0.0,1.0
1402416645315359700,,errorv,,0,,1402416645,237124919,/enu,/base_link,,,4.81258658662,10.6329788077,-31.4508471382,,-0.001940248382,0.0245377414587,0.562398552364,0.826499850562
1402416645315383468,,errorv,,0,,1402416645,247155904,/enu,/base_link,,,4.81857622582,10.6466131796,-31.451466753,,-0.00193136230476,0.0244651648708,0.562460093395,0.826460143556
1402416645315464792,,errorv,,0,,1402416645,258141040,/enu,/base_link,,,4.82555810058,10.661720606,-31.4524454074,,-0.0018487108464,0.0243054852156,0.562525326227,0.826420645319
1402416645315490801,,errorv,,0,,1402416645,268134117,/enu,/base_link,,,4.83168545756,10.6753358123,-31.4530474698,,-0.0018210556905,0.0242476928422,0.562564971777,0.826395417265
1402416645317796623,,errorv,,0,,1402416645,317635701,base_link,/z_drive,,,0.0,0.0,0.0,,0.0,0.0,0.0,1.0
1402416645317824074,,errorv,,0,,1402416645,317654186,/z_drive,port,,,-0.3,0.3048,0.0,,0.0,0.0,0.0,1.0
1402416645317843964,,errorv,,0,,1402416645,317662292,/z_drive,starboard,,,-0.3,-0.3048,0.0,,0.0,0.0,0.0,1.0
1402416645337698402,,errorv,,0,,1402416645,337507865,base_link,/z_drive,,,0.0,0.0,0.0,,0.0,0.0,0.0,1.0
1402416645337730528,,errorv,,0,,1402416645,337526873,/z_drive,port,,,-0.3,0.3048,0.0,,0.0,0.0,0.0,1.0
1402416645337751697,,errorv,,0,,1402416645,337538742,/z_drive,starboard,,,-0.3,-0.3048,0.0,,0.0,0.0,0.0,1.0
1402416645355350324,,errorv,,0,,1402416645,279112100,/enu,/base_link,,,4.82934544437,10.6797991803,-31.4020076793,,-0.00261466005281,0.0228141580489,0.562900845542,0.826205371462
1402416645355379287,,errorv,,0,,1402416645,289146900,/enu,/base_link,,,4.83511313392,10.6933507784,-31.4023851588,,-0.00260484435012,0.0227140192116,0.562928689378,0.826189190678
1402416645355405088,,errorv,,0,,1402416645,299143075,/enu,/base_link,,,4.84104498701,10.7070838063,-31.4031206829,,-0.00259900248498,0.0227168359807,0.562971306666,0.826160092488
1402416645355430642,,errorv,,0,,1402416645,310123920,/enu,/base_link,,,4.84751921153,10.7220364765,-31.4038937323,,-0.00260028898858,0.0226359871955,0.563032285119,0.826120751764
1402416645357675954,,errorv,,0,,1402416645,357535335,base_link,/z_drive,,,0.0,0.0,0.0,,0.0,0.0,0.0,1.0
1402416645357753688,,errorv,,0,,1402416645,357555486,/z_drive,port,,,-0.3,0.3048,0.0,,0.0,0.0,0.0,1.0
1402416645357909268,,errorv,,0,,1402416645,357565339,/z_drive,starboard,,,-0.3,-0.3048,0.0,,0.0,0.0,0.0,1.0
1402416645362874573,,errorv,,0,,1402416645,462680975,base_link,imu,,,0.13,0.0,-0.1,,1.0,0.0,0.0,0.0
1402416645362903971,,errorv,,0,,1402416645,462661130,/base_link,/gps,,,-0.84,0.0,-0.14,,0.0,0.0,0.0,1.0
1402416645377773714,,errorv,,0,,1402416645,377487257,base_link,/z_drive,,,0.0,0.0,0.0,,0.0,0.0,0.0,1.0
1402416645377796610,,errorv,,0,,1402416645,377504688,/z_drive,port,,,-0.3,0.3048,0.0,,0.0,0.0,0.0,1.0
1402416645377814539,,errorv,,0,,1402416645,377512125,/z_drive,starboard,,,-0.3,-0.3048,0.0,,0.0,0.0,0.0,1.0
1402416645395375339,,errorv,,0,,1402416645,320101976,/enu,/base_link,,,4.8372532698,10.7283311567,-31.4001389424,,-0.00303044993645,0.0208853181058,0.563459665175,0.825873976816
1402416645395394833,,errorv,,0,,1402416645,330120086,/enu,/base_link,,,4.84279339195,10.7418367451,-31.4008159633,,-0.00298476053115,0.0208711709859,0.563509530016,0.825840477942
1402416645395408683,,errorv,,0,,1402416645,341116905,/enu,/base_link,,,4.84915230726,10.7569048598,-31.4019786535,,-0.00289490469137,0.0209511725037,0.563554592292,0.825808022124
1402416645395475349,,errorv,,0,,1402416645,351099967,/enu,/base_link,,,4.85463778365,10.7702423734,-31.4025055556,,-0.00282387893478,0.0209900909173,0.56359185617,0.825781848584
1402416645397722394,,errorv,,0,,1402416645,397487605,base_link,/z_drive,,,0.0,0.0,0.0,,0.0,0.0,0.0,1.0
1402416645397783861,,errorv,,0,,1402416645,397519192,/z_drive,port,,,-0.3,0.3048,0.0,,0.0,0.0,0.0,1.0
1402416645397809216,,errorv,,0,,1402416645,397528350,/z_drive,starboard,,,-0.3,-0.3048,0.0,,0.0,0.0,0.0,1.0
1402416645417699011,,errorv,,0,,1402416645,417409477,base_link,/z_drive,,,0.0,0.0,0.0,,0.0,0.0,0.0,1.0
1402416645417773146,,errorv,,0,,1402416645,417465972,/z_drive,port,,,-0.3,0.3048,0.0,,0.0,0.0,0.0,1.0
1402416645417793404,,errorv,,0,,1402416645,417474798,/z_drive,starboard,,,-0.3,-0.3048,0.0,,0.0,0.0,0.0,1.0
1402416645435298053,,errorv,,0,,1402416645,361099004,/enu,/base_link,,,4.83984394708,10.7835139753,-31.3954909568,,-0.00417354151705,0.0194492523294,0.563894642251,0.825607134523
1402416645435327378,,errorv,,0,,1402416645,372102022,/enu,/base_link,,,4.84574433151,10.7982208396,-31.3961916057,,-0.00409111288686,0.0195297608336,0.563920093783,0.825588262432
1402416645435353809,,errorv,,0,,1402416645,382076025,/enu,/base_link,,,4.85104542715,10.8117197146,-31.397091822,,-0.00405091309432,0.0196689224715,0.563970246924,0.825550897387
1402416645435373918,,errorv,,0,,1402416645,393073081,/enu,/base_link,,,4.85673242814,10.8266766183,-31.3982826748,,-0.00392530553172,0.0198219383564,0.564025789691,0.82550989776
1402416645437736172,,errorv,,0,,1402416645,437512002,base_link,/z_drive,,,0.0,0.0,0.0,,0.0,0.0,0.0,1.0
1402416645437791878,,errorv,,0,,1402416645,437529987,/z_drive,port,,,-0.3,0.3048,0.0,,0.0,0.0,0.0,1.0
1402416645437903448,,errorv,,0,,1402416645,437536999,/z_drive,starboard,,,-0.3,-0.3048,0.0,,0.0,0.0,0.0,1.0
1402416645457687168,,errorv,,0,,1402416645,457473109,base_link,/z_drive,,,0.0,0.0,0.0,,0.0,0.0,0.0,1.0
1402416645457733255,,errorv,,0,,1402416645,457492123,/z_drive,port,,,-0.3,0.3048,0.0,,0.0,0.0,0.0,1.0
1402416645457783671,,errorv,,0,,1402416645,457499931,/z_drive,starboard,,,-0.3,-0.3048,0.0,,0.0,0.0,0.0,1.0
1402416645462937382,,errorv,,0,,1402416645,562760865,/base_link,/gps,,,-0.84,0.0,-0.14,,0.0,0.0,0.0,1.0
1402416645462966694,,errorv,,0,,1402416645,562788295,base_link,imu,,,0.13,0.0,-0.1,,1.0,0.0,0.0,0.0
1402416645475078722,,errorv,,0,,1402416645,403084039,/enu,/base_link,,,4.84000535094,10.8195785481,-31.3673075521,,-0.00385108307307,0.017612406393,0.564550342042,0.825201722975
1402416645475128451,,errorv,,0,,1402416645,414072036,/enu,/base_link,,,4.84550483174,10.8340250375,-31.3682738404,,-0.00376282107314,0.0177299078536,0.564597553711,0.825167312664
1402416645475151809,,errorv,,0,,1402416645,424073934,/enu,/base_link,,,4.85023440303,10.8472130335,-31.3691697671,,-0.00383371050902,0.0179098555695,0.564662243435,0.825118834215
1402416645475173425,,errorv,,0,,1402416645,434075117,/enu,/base_link,,,4.85528013672,10.8604635026,-31.3704280461,,-0.00376537412808,0.0182041143059,0.564694669718,0.825090517563
1402416645475198041,,errorv,,0,,1402416645,445055961,/enu,/base_link,,,4.85009022528,10.8712337619,-31.3833086367,,-0.00338939459004,0.0171683603787,0.564996310142,0.824907830568
1402416645477802241,,errorv,,0,,1402416645,477501449,base_link,/z_drive,,,0.0,0.0,0.0,,0.0,0.0,0.0,1.0
1402416645477823882,,errorv,,0,,1402416645,477519878,/z_drive,port,,,-0.3,0.3048,0.0,,0.0,0.0,0.0,1.0
1402416645477838377,,errorv,,0,,1402416645,477526010,/z_drive,starboard,,,-0.3,-0.3048,0.0,,0.0,0.0,0.0,1.0
1402416645497865272,,errorv,,0,,1402416645,497519883,base_link,/z_drive,,,0.0,0.0,0.0,,0.0,0.0,0.0,1.0
1402416645497940873,,errorv,,0,,1402416645,497544914,/z_drive,port,,,-0.3,0.3048,0.0,,0.0,0.0,0.0,1.0
1402416645497960020,,errorv,,0,,1402416645,497551600,/z_drive,starboard,,,-0.3,-0.3048,0.0,,0.0,0.0,0.0,1.0
1402416645515149690,,errorv,,0,,1402416645,455086946,/enu,/base_link,,,4.85491109972,10.8841947034,-31.38441474,,-0.00320407640306,0.017576739629,0.565020853728,0.824883159587
1402416645515178663,,errorv,,0,,1402416645,466047048,/enu,/base_link,,,4.86009854151,10.8983799344,-31.3858404191,,-0.00294725313129,0.0179333171606,0.565087987292,0.824830453155
1402416645515196280,,errorv,,0,,1402416645,476062059,/enu,/base_link,,,4.86488279193,10.9111802074,-31.3867262096,,-0.00287720727248,0.01825991163,0.565128689447,0.824795648431
1402416645517662356,,errorv,,0,,1402416645,517484440,base_link,/z_drive,,,0.0,0.0,0.0,,0.0,0.0,0.0,1.0
1402416645517741656,,errorv,,0,,1402416645,517503652,/z_drive,port,,,-0.3,0.3048,0.0,,0.0,0.0,0.0,1.0
1402416645517769706,,errorv,,0,,1402416645,517513063,/z_drive,starboard,,,-0.3,-0.3048,0.0,,0.0,0.0,0.0,1.0
1402416645523514148,,errorv,,0,,1402416645,486047029,/enu,/base_link,,,4.87239917404,10.9362545852,-31.3626068522,,-0.00457256290349,0.0191322801399,0.564739802418,0.825034546604
1402416645523540916,,errorv,,0,,1402416645,497039079,/enu,/base_link,,,4.87759704857,10.950850938,-31.3641053808,,-0.00455823452466,0.019364271159,0.564753282053,0.82501998637
1402416645523597314,,errorv,,0,,1402416645,507025957,/enu,/base_link,,,4.88227872092,10.9640387659,-31.3653243958,,-0.00441380198437,0.0197103878194,0.56477057232,0.825000739155
1402416645523619918,,errorv,,0,,1402416645,518045902,/enu,/base_link,,,4.88743146123,10.9784137702,-31.3665897593,,-0.00418450679837,0.0200953708271,0.564772528953,0.824991306933
1402416645537732014,,errorv,,0,,1402416645,537478672,base_link,/z_drive,,,0.0,0.0,0.0,,0.0,0.0,0.0,1.0
1402416645537761896,,errorv,,0,,1402416645,537499646,/z_drive,port,,,-0.3,0.3048,0.0,,0.0,0.0,0.0,1.0
1402416645537783725,,errorv,,0,,1402416645,537509517,/z_drive,starboard,,,-0.3,-0.3048,0.0,,0.0,0.0,0.0,1.0
1402416645557662526,,errorv,,0,,1402416645,557468405,base_link,/z_drive,,,0.0,0.0,0.0,,0.0,0.0,0.0,1.0
1402416645557731012,,errorv,,0,,1402416645,557487848,/z_drive,port,,,-0.3,0.3048,0.0,,0.0,0.0,0.0,1.0
1402416645557757239,,errorv,,0,,1402416645,557497292,/z_drive,starboard,,,-0.3,-0.3048,0.0,,0.0,0.0,0.0,1.0
1402416645563139810,,errorv,,0,,1402416645,662884003,base_link,imu,,,0.13,0.0,-0.1,,1.0,0.0,0.0,0.0
1402416645563169610,,errorv,,0,,1402416645,662856930,/base_link,/gps,,,-0.84,0.0,-0.14,,0.0,0.0,0.0,1.0
1402416645563609147,,errorv,,0,,1402416645,528012037,/enu,/base_link,,,4.89198848725,10.9914864297,-31.367773321,,-0.00395941137133,0.0204787467148,0.564796944893,0.824966275089
1402416645563731410,,errorv,,0,,1402416645,539046049,/enu,/base_link,,,4.91754280066,11.0262153273,-31.3986595777,,-0.00391168386618,0.02260308916,0.564501137836,0.825113485814
1402416645577725787,,errorv,,0,,1402416645,577495393,base_link,/z_drive,,,0.0,0.0,0.0,,0.0,0.0,0.0,1.0
1402416645577754855,,errorv,,0,,1402416645,577516046,/z_drive,port,,,-0.3,0.3048,0.0,,0.0,0.0,0.0,1.0
1402416645577827651,,errorv,,0,,1402416645,577524999,/z_drive,starboard,,,-0.3,-0.3048,0.0,,0.0,0.0,0.0,1.0
1402416645597797579,,errorv,,0,,1402416645,597479909,base_link,/z_drive,,,0.0,0.0,0.0,,0.0,0.0,0.0,1.0
1402416645597828524,,errorv,,0,,1402416645,597502109,/z_drive,port,,,-0.3,0.3048,0.0,,0.0,0.0,0.0,1.0
1402416645597851637,,errorv,,0,,1402416645,597511536,/z_drive,starboard,,,-0.3,-0.3048,0.0,,0.0,0.0,0.0,1.0
1402416645603100422,,errorv,,0,,1402416645,549021005,/enu,/base_link,,,4.92254510328,11.0395064821,-31.4000811548,,-0.00383179543491,0.0228880939598,0.564498249831,0.825107979864
1402416645603122983,,errorv,,0,,1402416645,559031963,/enu,/base_link,,,4.92757507941,11.0528877377,-31.4014155246,,-0.00388494519694,0.0231147184248,0.564526740754,0.825081920761
1402416645617761218,,errorv,,0,,1402416645,617485130,base_link,/z_drive,,,0.0,0.0,0.0,,0.0,0.0,0.0,1.0
1402416645617788628,,errorv,,0,,1402416645,617504129,/z_drive,port,,,-0.3,0.3048,0.0,,0.0,0.0,0.0,1.0
1402416645617810437,,errorv,,0,,1402416645,617513100,/z_drive,starboard,,,-0.3,-0.3048,0.0,,0.0,0.0,0.0,1.0
1402416645637732666,,errorv,,0,,1402416645,637494379,base_link,/z_drive,,,0.0,0.0,0.0,,0.0,0.0,0.0,1.0
1402416645637814209,,errorv,,0,,1402416645,637515308,/z_drive,port,,,-0.3,0.3048,0.0,,0.0,0.0,0.0,1.0
1402416645637839221,,errorv,,0,,1402416645,637526978,/z_drive,starboard,,,-0.3,-0.3048,0.0,,0.0,0.0,0.0,1.0
1402416645643238489,,errorv,,0,,1402416645,570055961,/enu,/base_link,,,4.93322407559,11.0674067565,-31.4027888559,,-0.00379809745373,0.0234633007148,0.56452817261,0.825071506177
1402416645643324880,,errorv,,0,,1402416645,580008983,/enu,/base_link,,,4.93809602185,11.0806204518,-31.4041856529,,-0.00354084687595,0.0238132218089,0.564522844443,0.825066270655
1402416645643348821,,errorv,,0,,1402416645,590004920,/enu,/base_link,,,4.99265277277,11.1215245627,-31.3820766999,,-0.00374057938247,0.0282424454507,0.56377680452,0.82543569527
1402416645643432864,,errorv,,0,,1402416645,601003885,/enu,/base_link,,,4.99909319542,11.1367074801,-31.3837372356,,-0.00355892114387,0.0284966330801,0.563773973833,0.82542969562
1402416645657739433,,errorv,,0,,1402416645,657535769,base_link,/z_drive,,,0.0,0.0,0.0,,0.0,0.0,0.0,1.0
1402416645657804500,,errorv,,0,,1402416645,657569850,/z_drive,port,,,-0.3,0.3048,0.0,,0.0,0.0,0.0,1.0
1402416645657910599,,errorv,,0,,1402416645,657585522,/z_drive,starboard,,,-0.3,-0.3048,0.0,,0.0,0.0,0.0,1.0
1402416645663199560,,errorv,,0,,1402416645,762966245,/base_link,/gps,,,-0.84,0.0,-0.14,,0.0,0.0,0.0,1.0
1402416645663224608,,errorv,,0,,1402416645,762982937,base_link,imu,,,0.13,0.0,-0.1,,1.0,0.0,0.0,0.0
1402416645677724372,,errorv,,0,,1402416645,677584007,base_link,/z_drive,,,0.0,0.0,0.0,,0.0,0.0,0.0,1.0
1402416645677926648,,errorv,,0,,1402416645,677602243,/z_drive,port,,,-0.3,0.3048,0.0,,0.0,0.0,0.0,1.0
1402416645677956967,,errorv,,0,,1402416645,677632336,/z_drive,starboard,,,-0.3,-0.3048,0.0,,0.0,0.0,0.0,1.0
1402416645683308823,,errorv,,0,,1402416645,610995054,/enu,/base_link,,,5.00463670706,11.150417108,-31.3850873559,,-0.00365041323234,0.0286666688626,0.563772561981,0.825424372633
1402416645683334302,,errorv,,0,,1402416645,620994091,/enu,/base_link,,,5.01032755729,11.1642047235,-31.3865551056,,-0.00368597496195,0.0287400682827,0.563735718102,0.825446825786
1402416645683356567,,errorv,,0,,1402416645,630979061,/enu,/base_link,,,5.01585638453,11.1777831028,-31.3875839887,,-0.00372975860865,0.0289050510038,0.563703986224,0.825462538728
1402416645683386815,,errorv,,0,,1402416645,641977071,/enu,/base_link,,,5.02501871039,11.1909534185,-31.3771284046,,-0.00348944828053,0.0284497679297,0.563817543726,0.825401848703
1402416645683409538,,errorv,,0,,1402416645,651978969,/enu,/base_link,,,5.03064055192,11.2045667409,-31.3783988434,,-0.00326509402467,0.0286658602651,0.563780444253,0.825420631129
1402416645697679733,,errorv,,0,,1402416645,697518905,base_link,/z_drive,,,0.0,0.0,0.0,,0.0,0.0,0.0,1.0
1402416645697879752,,errorv,,0,,1402416645,697544048,/z_drive,port,,,-0.3,0.3048,0.0,,0.0,0.0,0.0,1.0
1402416645697955641,,errorv,,0,,1402416645,697585233,/z_drive,starboard,,,-0.3,-0.3048,0.0,,0.0,0.0,0.0,1.0
1402416645717661565,,errorv,,0,,1402416645,717455857,base_link,/z_drive,,,0.0,0.0,0.0,,0.0,0.0,0.0,1.0
1402416645717690918,,errorv,,0,,1402416645,717470119,/z_drive,port,,,-0.3,0.3048,0.0,,0.0,0.0,0.0,1.0
1402416645717714418,,errorv,,0,,1402416645,717474343,/z_drive,starboard,,,-0.3,-0.3048,0.0,,0.0,0.0,0.0,1.0
1402416645723175505,,errorv,,0,,1402416645,661962032,/enu,/base_link,,,5.03628641587,11.2180677962,-31.3794917546,,-0.00310664715023,0.0289427668046,0.563717048838,0.825454876927
1402416645723203491,,errorv,,0,,1402416645,672976016,/enu,/base_link,,,5.04241668807,11.2329573952,-31.3808292,,-0.00302734198166,0.0289945279457,0.563691517359,0.825470790402
1402416645723229866,,errorv,,0,,1402416645,682965040,/enu,/base_link,,,5.04808073621,11.2465368867,-31.382018051,,-0.00311769340169,0.0290352661872,0.563683073913,0.825474787918
1402416645731704541,,errorv,,0,,1402416645,692950963,/enu,/base_link,,,5.02649015219,11.2475844315,-31.379962994,,-0.00376361474501,0.0254573349815,0.563898694896,0.82544292425
1402416645731725535,,errorv,,0,,1402416645,703948020,/enu,/base_link,,,5.03197054592,11.2621642521,-31.3813946745,,-0.00390678362799,0.025449399803,0.563901902302,0.825440312604
1402416645731747918,,errorv,,0,,1402416645,713936090,/enu,/base_link,,,5.03678480671,11.2752368618,-31.382296489,,-0.00388665669029,0.0254335607249,0.563884318594,0.825452907883
1402416645731759363,,errorv,,0,,1402416645,723936080,/enu,/base_link,,,5.0418245169,11.2883461939,-31.3834720333,,-0.00367208695066,0.0255927470661,0.563853816265,0.825469806206
1402416645737732933,,errorv,,0,,1402416645,737528676,base_link,/z_drive,,,0.0,0.0,0.0,,0.0,0.0,0.0,1.0
1402416645737781677,,errorv,,0,,1402416645,737548003,/z_drive,port,,,-0.3,0.3048,0.0,,0.0,0.0,0.0,1.0
1402416645737793996,,errorv,,0,,1402416645,737554752,/z_drive,starboard,,,-0.3,-0.3048,0.0,,0.0,0.0,0.0,1.0
1402416645757678669,,errorv,,0,,1402416645,757444110,base_link,/z_drive,,,0.0,0.0,0.0,,0.0,0.0,0.0,1.0
1402416645757703246,,errorv,,0,,1402416645,757460633,/z_drive,port,,,-0.3,0.3048,0.0,,0.0,0.0,0.0,1.0
1402416645757837933,,errorv,,0,,1402416645,757467596,/z_drive,starboard,,,-0.3,-0.3048,0.0,,0.0,0.0,0.0,1.0
1402416645763282339,,errorv,,0,,1402416645,863090176,base_link,imu,,,0.13,0.0,-0.1,,1.0,0.0,0.0,0.0
1402416645763312692,,errorv,,0,,1402416645,863073166,/base_link,/gps,,,-0.84,0.0,-0.14,,0.0,0.0,0.0,1.0
1402416645771334486,,errorv,,0,,1402416645,734924077,/enu,/base_link,,,5.04503653728,11.2996167745,-31.3839501839,,-0.00328769276048,0.0242481671659,0.564090855586,0.825350061556
1402416645771357803,,errorv,,0,,1402416645,744930982,/enu,/base_link,,,5.04966140164,11.312417436,-31.384746634,,-0.00325285747176,0.024259527411,0.56404441397,0.825381604664
1402416645777805071,,errorv,,0,,1402416645,777543677,base_link,/z_drive,,,0.0,0.0,0.0,,0.0,0.0,0.0,1.0
1402416645777834454,,errorv,,0,,1402416645,777561500,/z_drive,port,,,-0.3,0.3048,0.0,,0.0,0.0,0.0,1.0
1402416645777857385,,errorv,,0,,1402416645,777570149,/z_drive,starboard,,,-0.3,-0.3048,0.0,,0.0,0.0,0.0,1.0
1402416645797719606,,errorv,,0,,1402416645,797476358,base_link,/z_drive,,,0.0,0.0,0.0,,0.0,0.0,0.0,1.0
1402416645797748227,,errorv,,0,,1402416645,797493502,/z_drive,port,,,-0.3,0.3048,0.0,,0.0,0.0,0.0,1.0
1402416645797963577,,errorv,,0,,1402416645,797502401,/z_drive,starboard,,,-0.3,-0.3048,0.0,,0.0,0.0,0.0,1.0
1402416645811166038,,errorv,,0,,1402416645,754931926,/enu,/base_link,,,5.05455974111,11.3255196246,-31.3862318004,,-0.0032990273982,0.0241309317307,0.564021827777,0.825400625359
1402416645811193075,,errorv,,0,,1402416645,764908075,/enu,/base_link,,,5.05935548369,11.3382383393,-31.3869914568,,-0.00352147130374,0.0239288032619,0.564030088482,0.825399946027
1402416645818070768,,errorv,,0,,1402416645,817611897,base_link,/z_drive,,,0.0,0.0,0.0,,0.0,0.0,0.0,1.0
1402416645818100767,,errorv,,0,,1402416645,817661364,/z_drive,port,,,-0.3,0.3048,0.0,,0.0,0.0,0.0,1.0
1402416645818126926,,errorv,,0,,1402416645,817674355,/z_drive,starboard,,,-0.3,-0.3048,0.0,,0.0,0.0,0.0,1.0
1402416645837752258,,errorv,,0,,1402416645,837533125,base_link,/z_drive,,,0.0,0.0,0.0,,0.0,0.0,0.0,1.0
1402416645837916067,,errorv,,0,,1402416645,837568967,/z_drive,port,,,-0.3,0.3048,0.0,,0.0,0.0,0.0,1.0
1402416645837934049,,errorv,,0,,1402416645,837643904,/z_drive,starboard,,,-0.3,-0.3048,0.0,,0.0,0.0,0.0,1.0
1402416645851151131,,errorv,,0,,1402416645,775908946,/enu,/base_link,,,5.06422688603,11.3524833065,-31.3882655436,,-0.00369106491278,0.0237746647388,0.563999919917,0.825424273747
1402416645851176476,,errorv,,0,,1402416645,785895109,/enu,/base_link,,,5.06909086488,11.3655566036,-31.3896241993,,-0.00384014833141,0.0236916899619,0.564005446981,0.825422202793
1402416645851198086,,errorv,,0,,1402416645,795878887,/enu,/base_link,,,5.07366620352,11.3781615291,-31.3903776718,,-0.00369230429945,0.023790367502,0.563993987674,0.825427869151
1402416645851219640,,errorv,,0,,1402416645,805905103,/enu,/base_link,,,5.07842147586,11.3911263676,-31.391679639,,-0.00354652479401,0.0238068557498,0.563960152184,0.825451150905
1402416645857705800,,errorv,,0,,1402416645,857520219,base_link,/z_drive,,,0.0,0.0,0.0,,0.0,0.0,0.0,1.0
1402416645857734056,,errorv,,0,,1402416645,857541474,/z_drive,port,,,-0.3,0.3048,0.0,,0.0,0.0,0.0,1.0
1402416645857910861,,errorv,,0,,1402416645,857549296,/z_drive,starboard,,,-0.3,-0.3048,0.0,,0.0,0.0,0.0,1.0
1402416645863371070,,errorv,,0,,1402416645,963178132,/base_link,/gps,,,-0.84,0.0,-0.14,,0.0,0.0,0.0,1.0
1402416645863399890,,errorv,,0,,1402416645,963194509,base_link,imu,,,0.13,0.0,-0.1,,1.0,0.0,0.0,0.0
1402416645877784981,,errorv,,0,,1402416645,877491932,base_link,/z_drive,,,0.0,0.0,0.0,,0.0,0.0,0.0,1.0
1402416645877816203,,errorv,,0,,1402416645,877521702,/z_drive,port,,,-0.3,0.3048,0.0,,0.0,0.0,0.0,1.0
1402416645877898062,,errorv,,0,,1402416645,877529512,/z_drive,starboard,,,-0.3,-0.3048,0.0,,0.0,0.0,0.0,1.0
1402416645891367784,,errorv,,0,,1402416645,816875934,/enu,/base_link,,,5.08388091996,11.4052744997,-31.3930438197,,-0.00358436184553,0.0237902848089,0.56389664947,0.825494847601
1402416645891396891,,errorv,,0,,1402416645,826894044,/enu,/base_link,,,5.08856263523,11.4182119151,-31.3943226943,,-0.00363766024249,0.0236353100615,0.56387162143,0.825516162223
1402416645891423744,,errorv,,0,,1402416645,836899995,/enu,/base_link,,,5.09580640409,11.4279022675,-31.3763497714,,-0.00384295409677,0.0224649690462,0.563977766066,0.82547540015
1402416645891448544,,errorv,,0,,1402416645,847877025,/enu,/base_link,,,5.10074355268,11.441930166,-31.377762345,,-0.00403689704943,0.0221754490753,0.563996125608,0.825469759119
1402416645897704955,,errorv,,0,,1402416645,897515698,base_link,/z_drive,,,0.0,0.0,0.0,,0.0,0.0,0.0,1.0
1402416645897897496,,errorv,,0,,1402416645,897553906,/z_drive,port,,,-0.3,0.3048,0.0,,0.0,0.0,0.0,1.0
1402416645897931928,,errorv,,0,,1402416645,897595163,/z_drive,starboard,,,-0.3,-0.3048,0.0,,0.0,0.0,0.0,1.0
1402416645917763774,,errorv,,0,,1402416645,917519245,base_link,/z_drive,,,0.0,0.0,0.0,,0.0,0.0,0.0,1.0
1402416645917792964,,errorv,,0,,1402416645,917539487,/z_drive,port,,,-0.3,0.3048,0.0,,0.0,0.0,0.0,1.0
1402416645917814473,,errorv,,0,,1402416645,917550407,/z_drive,starboard,,,-0.3,-0.3048,0.0,,0.0,0.0,0.0,1.0
1402416645931230085,,errorv,,0,,1402416645,857873916,/enu,/base_link,,,5.10534209701,11.454531542,-31.37860628,,-0.00426640837367,0.0220564947822,0.563986627091,0.825478281519
1402416645931253163,,errorv,,0,,1402416645,867849111,/enu,/base_link,,,5.10990706158,11.4671909344,-31.3798074637,,-0.0042088810102,0.0220410599892,0.563982211356,0.825482006024
1402416645931276632,,errorv,,0,,1402416645,878880977,/enu,/base_link,,,5.11496397971,11.4812114105,-31.3811101211,,-0.00411641013129,0.021971284388,0.563956855017,0.825501655667
1402416645931352864,,errorv,,0,,1402416645,888833999,/enu,/base_link,,,5.10605256227,11.4953188673,-31.3766413079,,-0.00526074407007,0.0203012270549,0.563669712742,0.825734000565
1402416645937658817,,errorv,,0,,1402416645,937500742,base_link,/z_drive,,,0.0,0.0,0.0,,0.0,0.0,0.0,1.0
1402416645937711426,,errorv,,0,,1402416645,937518658,/z_drive,port,,,-0.3,0.3048,0.0,,0.0,0.0,0.0,1.0
1402416645937771318,,errorv,,0,,1402416645,937525836,/z_drive,starboard,,,-0.3,-0.3048,0.0,,0.0,0.0,0.0,1.0
1402416645957681403,,errorv,,0,,1402416645,957495022,base_link,/z_drive,,,0.0,0.0,0.0,,0.0,0.0,0.0,1.0
1402416645957876569,,errorv,,0,,1402416645,957511259,/z_drive,port,,,-0.3,0.3048,0.0,,0.0,0.0,0.0,1.0
1402416645957902216,,errorv,,0,,1402416645,957520527,/z_drive,starboard,,,-0.3,-0.3048,0.0,,0.0,0.0,0.0,1.0
1402416645963488552,,errorv,,0,,1402416646,63290595,base_link,imu,,,0.13,0.0,-0.1,,1.0,0.0,0.0,0.0
1402416645963520395,,errorv,,0,,1402416646,63277247,/base_link,/gps,,,-0.84,0.0,-0.14,,0.0,0.0,0.0,1.0
1402416645971373763,,errorv,,0,,1402416645,898838043,/enu,/base_link,,,5.11038048665,11.50791843,-31.3777208156,,-0.00534954748353,0.02017754791,0.563653726924,0.825747373612
1402416645971402678,,errorv,,0,,1402416645,909835100,/enu,/base_link,,,5.11498684733,11.5219819395,-31.3791559919,,-0.00544512718324,0.0200122037945,0.563623380233,0.825771486274
1402416645971429143,,errorv,,0,,1402416645,919842004,/enu,/base_link,,,5.11891833198,11.5345140891,-31.3799634271,,-0.00563429264371,0.019795810607,0.563621613819,0.825776638725
1402416645971480679,,errorv,,0,,1402416645,929832935,/enu,/base_link,,,5.12309558148,11.5471397609,-31.3810433182,,-0.00581425668135,0.0196218305731,0.563626060595,0.825776508507
1402416645977742281,,errorv,,0,,1402416645,977576777,base_link,/z_drive,,,0.0,0.0,0.0,,0.0,0.0,0.0,1.0
1402416645977773448,,errorv,,0,,1402416645,977596271,/z_drive,port,,,-0.3,0.3048,0.0,,0.0,0.0,0.0,1.0
1402416645977793730,,errorv,,0,,1402416645,977601906,/z_drive,starboard,,,-0.3,-0.3048,0.0,,0.0,0.0,0.0,1.0
1402416645997782438,,errorv,,0,,1402416645,997600937,base_link,/z_drive,,,0.0,0.0,0.0,,0.0,0.0,0.0,1.0
1402416645997812758,,errorv,,0,,1402416645,997621031,/z_drive,port,,,-0.3,0.3048,0.0,,0.0,0.0,0.0,1.0
1402416645997833625,,errorv,,0,,1402416645,997625274,/z_drive,starboard,,,-0.3,-0.3048,0.0,,0.0,0.0,0.0,1.0
1402416646011161101,,errorv,,0,,1402416645,939830064,/enu,/base_link,,,5.12705332943,11.5597789316,-31.3821521448,,-0.00601547746147,0.0194649494244,0.563606802017,0.825791924455
1402416646011201541,,errorv,,0,,1402416645,950834989,/enu,/base_link,,,5.13161640897,11.5735939442,-31.383328178,,-0.00602115452922,0.0193915783448,0.56359221461,0.825803565031
1402416646011228372,,errorv,,0,,1402416645,960825920,/enu,/base_link,,,5.13547379323,11.5860151925,-31.3843079166,,-0.00589623979028,0.0193890169973,0.563582836123,0.825810927031
1402416646011252301,,errorv,,0,,1402416645,970863103,/enu,/base_link,,,5.1395916585,11.5987411871,-31.3855100373,,-0.0059113305135,0.0193827761054,0.563603603241,0.825796792544
1402416646011277698,,errorv,,0,,1402416645,981801986,/enu,/base_link,,,5.1442995452,11.6125448738,-31.3867899477,,-0.00583709090297,0.01934434795,0.563626023084,0.825782919825
1402416646017760361,,errorv,,0,,1402416646,17620844,base_link,/z_drive,,,0.0,0.0,0.0,,0.0,0.0,0.0,1.0
1402416646017793696,,errorv,,0,,1402416646,17635162,/z_drive,port,,,-0.3,0.3048,0.0,,0.0,0.0,0.0,1.0
1402416646017832111,,errorv,,0,,1402416646,17639381,/z_drive,starboard,,,-0.3,-0.3048,0.0,,0.0,0.0,0.0,1.0
1402416646037766801,,errorv,,0,,1402416646,37589826,base_link,/z_drive,,,0.0,0.0,0.0,,0.0,0.0,0.0,1.0
1402416646037792626,,errorv,,0,,1402416646,37606943,/z_drive,port,,,-0.3,0.3048,0.0,,0.0,0.0,0.0,1.0
1402416646037923080,,errorv,,0,,1402416646,37611114,/z_drive,starboard,,,-0.3,-0.3048,0.0,,0.0,0.0,0.0,1.0
1402416646051118012,,errorv,,0,,1402416645,991810083,/enu,/base_link,,,5.13428947271,11.6189458058,-31.3646640334,,-0.00688608214667,0.0177014713345,0.563458385424,0.825926078824
1402416646051145750,,errorv,,0,,1402416646,2810955,/enu,/base_link,,,5.13859388402,11.6327442899,-31.3658978317,,-0.00707840811233,0.0174372283954,0.563504143233,0.82589885565
1402416646051170784,,errorv,,0,,1402416646,12804031,/enu,/base_link,,,5.14225334949,11.6455107156,-31.3674269311,,-0.00735393392679,0.0172900896937,0.563546812438,0.825870427274
1402416646057703588,,errorv,,0,,1402416646,57509980,base_link,/z_drive,,,0.0,0.0,0.0,,0.0,0.0,0.0,1.0
1402416646057834520,,errorv,,0,,1402416646,57527932,/z_drive,port,,,-0.3,0.3048,0.0,,0.0,0.0,0.0,1.0
1402416646057864581,,errorv,,0,,1402416646,57536901,/z_drive,starboard,,,-0.3,-0.3048,0.0,,0.0,0.0,0.0,1.0
1402416646059382906,,errorv,,0,,1402416646,22809028,/enu,/base_link,,,5.14590419963,11.6578655014,-31.3683868777,,-0.00735859600618,0.0172983672563,0.563588386335,0.825841842209
1402416646059411258,,errorv,,0,,1402416646,33771038,/enu,/base_link,,,5.15001266315,11.6714225869,-31.3694431266,,-0.00720401059999,0.0172904941024,0.563610678239,0.825828156713
1402416646063587170,,errorv,,0,,1402416646,163402761,base_link,imu,,,0.13,0.0,-0.1,,1.0,0.0,0.0,0.0
1402416646063615541,,errorv,,0,,1402416646,163378199,/base_link,/gps,,,-0.84,0.0,-0.14,,0.0,0.0,0.0,1.0
1402416646077693963,,errorv,,0,,1402416646,77524597,base_link,/z_drive,,,0.0,0.0,0.0,,0.0,0.0,0.0,1.0
1402416646077771102,,errorv,,0,,1402416646,77543514,/z_drive,port,,,-0.3,0.3048,0.0,,0.0,0.0,0.0,1.0
1402416646077797996,,errorv,,0,,1402416646,77552475,/z_drive,starboard,,,-0.3,-0.3048,0.0,,0.0,0.0,0.0,1.0
1402416646097713176,,errorv,,0,,1402416646,97487937,base_link,/z_drive,,,0.0,0.0,0.0,,0.0,0.0,0.0,1.0
1402416646097744498,,errorv,,0,,1402416646,97505201,/z_drive,port,,,-0.3,0.3048,0.0,,0.0,0.0,0.0,1.0
1402416646097767376,,errorv,,0,,1402416646,97509560,/z_drive,starboard,,,-0.3,-0.3048,0.0,,0.0,0.0,0.0,1.0
1402416646099194256,,errorv,,0,,1402416646,43811082,/enu,/base_link,,,5.14974947795,11.6839016822,-31.3567046451,,-0.00771368103455,0.0167198665504,0.563466168327,0.825933909183
1402416646099215788,,errorv,,0,,1402416646,53802967,/enu,/base_link,,,5.15331804633,11.6965236552,-31.3580383967,,-0.00764314900405,0.0167930596251,0.563454263523,0.825941201503
1402416646117712939,,errorv,,0,,1402416646,117500566,base_link,/z_drive,,,0.0,0.0,0.0,,0.0,0.0,0.0,1.0
1402416646117744163,,errorv,,0,,1402416646,117516056,/z_drive,port,,,-0.3,0.3048,0.0,,0.0,0.0,0.0,1.0
1402416646117768134,,errorv,,0,,1402416646,117520414,/z_drive,starboard,,,-0.3,-0.3048,0.0,,0.0,0.0,0.0,1.0
1402416646137850752,,errorv,,0,,1402416646,137521116,base_link,/z_drive,,,0.0,0.0,0.0,,0.0,0.0,0.0,1.0
1402416646137886917,,errorv,,0,,1402416646,137551920,/z_drive,port,,,-0.3,0.3048,0.0,,0.0,0.0,0.0,1.0
1402416646137905347,,errorv,,0,,1402416646,137556441,/z_drive,starboard,,,-0.3,-0.3048,0.0,,0.0,0.0,0.0,1.0
1402416646139111522,,errorv,,0,,1402416646,64798116,/enu,/base_link,,,5.15696178866,11.710139606,-31.3589721367,,-0.00767780949939,0.0167085300578,0.563499112335,0.825911996924
1402416646139135800,,errorv,,0,,1402416646,74800014,/enu,/base_link,,,5.16060515705,11.7228216861,-31.3603423266,,-0.00791280558064,0.0165017135719,0.563515436665,0.825902799122
1402416646139157773,,errorv,,0,,1402416646,85774898,/enu,/base_link,,,5.16308449381,11.734052889,-31.3424513915,,-0.00855150252405,0.0157373882739,0.563505653859,0.825918025281
1402416646139178923,,errorv,,0,,1402416646,95771074,/enu,/base_link,,,5.16649635386,11.7465573443,-31.3435925178,,-0.00862370694605,0.0157183941947,0.563551623712,0.825886270121
1402416646157770046,,errorv,,0,,1402416646,157535156,base_link,/z_drive,,,0.0,0.0,0.0,,0.0,0.0,0.0,1.0
1402416646157795437,,errorv,,0,,1402416646,157558043,/z_drive,port,,,-0.3,0.3048,0.0,,0.0,0.0,0.0,1.0
1402416646157867192,,errorv,,0,,1402416646,157562340,/z_drive,starboard,,,-0.3,-0.3048,0.0,,0.0,0.0,0.0,1.0
1402416646163706213,,errorv,,0,,1402416646,263511917,base_link,imu,,,0.13,0.0,-0.1,,1.0,0.0,0.0,0.0
1402416646163791091,,errorv,,0,,1402416646,263485257,/base_link,/gps,,,-0.84,0.0,-0.14,,0.0,0.0,0.0,1.0
1402416646177752459,,errorv,,0,,1402416646,177539369,base_link,/z_drive,,,0.0,0.0,0.0,,0.0,0.0,0.0,1.0
1402416646177814895,,errorv,,0,,1402416646,177566081,/z_drive,port,,,-0.3,0.3048,0.0,,0.0,0.0,0.0,1.0
1402416646177842930,,errorv,,0,,1402416646,177576169,/z_drive,starboard,,,-0.3,-0.3048,0.0,,0.0,0.0,0.0,1.0
1402416646179060191,,errorv,,0,,1402416646,106770992,/enu,/base_link,,,5.17000984188,11.7604083741,-31.3449153868,,-0.00855073665087,0.0157743083574,0.563587764524,0.825861300569
1402416646179131795,,errorv,,0,,1402416646,116770982,/enu,/base_link,,,5.17343597384,11.7728457674,-31.3459851778,,-0.00833728159068,0.0159282267091,0.563626180717,0.825834311312
1402416646179156696,,errorv,,0,,1402416646,126765012,/enu,/base_link,,,5.1765159836,11.7853930428,-31.3470151256,,-0.00827119947629,0.0160684114262,0.563658960169,0.825809887344
1402416646179181424,,errorv,,0,,1402416646,137774944,/enu,/base_link,,,5.18029838236,11.7992270974,-31.3483442066,,-0.00825793297603,0.0161240748871,0.563682023693,0.825793192584
1402416646179205548,,errorv,,0,,1402416646,148006916,/enu,/base_link,,,5.18363042159,11.8120127648,-31.3493198667,,-0.00848730668482,0.0160325952844,0.563752884443,0.825744274456
1402416646197731164,,errorv,,0,,1402416646,197553459,base_link,/z_drive,,,0.0,0.0,0.0,,0.0,0.0,0.0,1.0
1402416646197823833,,errorv,,0,,1402416646,197577924,/z_drive,port,,,-0.3,0.3048,0.0,,0.0,0.0,0.0,1.0
1402416646197851541,,errorv,,0,,1402416646,197588281,/z_drive,starboard,,,-0.3,-0.3048,0.0,,0.0,0.0,0.0,1.0
1402416646217674321,,errorv,,0,,1402416646,217466222,base_link,/z_drive,,,0.0,0.0,0.0,,0.0,0.0,0.0,1.0
1402416646217740848,,errorv,,0,,1402416646,217477519,/z_drive,port,,,-0.3,0.3048,0.0,,0.0,0.0,0.0,1.0
1402416646217780645,,errorv,,0,,1402416646,217481555,/z_drive,starboard,,,-0.3,-0.3048,0.0,,0.0,0.0,0.0,1.0
1402416646219024107,,errorv,,0,,1402416646,158765077,/enu,/base_link,,,5.18700217161,11.8254766006,-31.3504944848,,-0.00877859476633,0.0159993673319,0.563802802423,0.82570779123
1402416646219146737,,errorv,,0,,1402416646,168761014,/enu,/base_link,,,5.19006469105,11.8379252883,-31.3513738182,,-0.00885487113385,0.0160029002601,0.563871040747,0.825660310205
1402416646219172954,,errorv,,0,,1402416646,179765939,/enu,/base_link,,,5.19375506323,11.8518789912,-31.3527499032,,-0.00870383025686,0.0162026304622,0.563918171822,0.825625831472
1402416646227603879,,errorv,,0,,1402416646,189757108,/enu,/base_link,,,5.2606598757,11.8905208369,-31.2552249255,,-0.00970081873462,0.0214963674403,0.562690552666,0.826331133532
1402416646227696747,,errorv,,0,,1402416646,199759960,/enu,/base_link,,,5.26497686516,11.9038628247,-31.2560697285,,-0.0095513695741,0.0217296383703,0.562734322443,0.82629696629
1402416646227709671,,errorv,,0,,1402416646,210725069,/enu,/base_link,,,5.26952016311,11.9187194492,-31.2572155163,,-0.00953497783303,0.021853134071,0.562809614918,0.826242616962
1402416646227718961,,errorv,,0,,1402416646,221725940,/enu,/base_link,,,5.27385043952,11.9333337457,-31.257902237,,-0.0096096619916,0.0218395408895,0.562871867533,0.826199703214
1402416646237690781,,errorv,,0,,1402416646,237490579,base_link,/z_drive,,,0.0,0.0,0.0,,0.0,0.0,0.0,1.0
1402416646237720005,,errorv,,0,,1402416646,237515926,/z_drive,port,,,-0.3,0.3048,0.0,,0.0,0.0,0.0,1.0
1402416646237744366,,errorv,,0,,1402416646,237526465,/z_drive,starboard,,,-0.3,-0.3048,0.0,,0.0,0.0,0.0,1.0
1402416646257790805,,errorv,,0,,1402416646,257477256,base_link,/z_drive,,,0.0,0.0,0.0,,0.0,0.0,0.0,1.0
1402416646257821830,,errorv,,0,,1402416646,257497983,/z_drive,port,,,-0.3,0.3048,0.0,,0.0,0.0,0.0,1.0
1402416646257858624,,errorv,,0,,1402416646,257506731,/z_drive,starboard,,,-0.3,-0.3048,0.0,,0.0,0.0,0.0,1.0
1402416646263791258,,errorv,,0,,1402416646,363593885,/base_link,/gps,,,-0.84,0.0,-0.14,,0.0,0.0,0.0,1.0
1402416646263822660,,errorv,,0,,1402416646,363618222,base_link,imu,,,0.13,0.0,-0.1,,1.0,0.0,0.0,0.0
1402416646267279482,,errorv,,0,,1402416646,231728076,/enu,/base_link,,,5.27797183079,11.9469231802,-31.2590511067,,-0.00981334849535,0.021789351854,0.562956860676,0.8261407237
1402416646267359188,,errorv,,0,,1402416646,242727994,/enu,/base_link,,,5.28222256001,11.9615971069,-31.2598638394,,-0.00998462508271,0.0217700700658,0.563048999377,0.826076386064
1402416646277735832,,errorv,,0,,1402416646,277530930,base_link,/z_drive,,,0.0,0.0,0.0,,0.0,0.0,0.0,1.0
1402416646277762562,,errorv,,0,,1402416646,277553767,/z_drive,port,,,-0.3,0.3048,0.0,,0.0,0.0,0.0,1.0
1402416646277785202,,errorv,,0,,1402416646,277562680,/z_drive,starboard,,,-0.3,-0.3048,0.0,,0.0,0.0,0.0,1.0
1402416646297853255,,errorv,,0,,1402416646,297705268,base_link,/z_drive,,,0.0,0.0,0.0,,0.0,0.0,0.0,1.0
1402416646297887027,,errorv,,0,,1402416646,297725979,/z_drive,port,,,-0.3,0.3048,0.0,,0.0,0.0,0.0,1.0
1402416646298033427,,errorv,,0,,1402416646,297734360,/z_drive,starboard,,,-0.3,-0.3048,0.0,,0.0,0.0,0.0,1.0
1402416646307365183,,errorv,,0,,1402416646,252724885,/enu,/base_link,,,5.28626474235,11.9750907207,-31.2607651024,,-0.00989998622544,0.0219250652343,0.563122527165,0.826023184412
1402416646307390494,,errorv,,0,,1402416646,263725042,/enu,/base_link,,,5.29083096652,11.989882754,-31.2617037813,,-0.00969442172768,0.0221340480658,0.563193301144,0.825971795917
1402416646317847395,,errorv,,0,,1402416646,317536980,base_link,/z_drive,,,0.0,0.0,0.0,,0.0,0.0,0.0,1.0
1402416646317879955,,errorv,,0,,1402416646,317554419,/z_drive,port,,,-0.3,0.3048,0.0,,0.0,0.0,0.0,1.0
1402416646317892771,,errorv,,0,,1402416646,317558645,/z_drive,starboard,,,-0.3,-0.3048,0.0,,0.0,0.0,0.0,1.0
1402416646337686490,,errorv,,0,,1402416646,337495301,base_link,/z_drive,,,0.0,0.0,0.0,,0.0,0.0,0.0,1.0
1402416646337813958,,errorv,,0,,1402416646,337518851,/z_drive,port,,,-0.3,0.3048,0.0,,0.0,0.0,0.0,1.0
1402416646337919312,,errorv,,0,,1402416646,337526145,/z_drive,starboard,,,-0.3,-0.3048,0.0,,0.0,0.0,0.0,1.0
1402416646347393510,,errorv,,0,,1402416646,273725986,/enu,/base_link,,,5.23229603167,11.9994823168,-31.2741721079,,-0.012164474951,0.0181892665634,0.563038008107,0.82614125763
1402416646347478795,,errorv,,0,,1402416646,283721923,/enu,/base_link,,,5.23534086409,12.0128502519,-31.2749889739,,-0.0121271827317,0.0183705427329,0.563097271206,0.826097402102
1402416646347494929,,errorv,,0,,1402416646,294723033,/enu,/base_link,,,5.23842678451,12.0277580748,-31.2761866524,,-0.0123193540158,0.0183272471536,0.56320321807,0.826023293064
1402416646347507892,,errorv,,0,,1402416646,304708003,/enu,/base_link,,,5.24145472486,12.0411496548,-31.2769100436,,-0.012491175574,0.0182777143112,0.563287241108,0.825964514793
1402416646357790593,,errorv,,0,,1402416646,357547833,base_link,/z_drive,,,0.0,0.0,0.0,,0.0,0.0,0.0,1.0
1402416646357819278,,errorv,,0,,1402416646,357629431,/z_drive,port,,,-0.3,0.3048,0.0,,0.0,0.0,0.0,1.0
1402416646357835728,,errorv,,0,,1402416646,357644939,/z_drive,starboard,,,-0.3,-0.3048,0.0,,0.0,0.0,0.0,1.0
1402416646363876704,,errorv,,0,,1402416646,463700527,/base_link,/gps,,,-0.84,0.0,-0.14,,0.0,0.0,0.0,1.0
1402416646363901647,,errorv,,0,,1402416646,463723467,base_link,imu,,,0.13,0.0,-0.1,,1.0,0.0,0.0,0.0
1402416646377723240,,errorv,,0,,1402416646,377566920,base_link,/z_drive,,,0.0,0.0,0.0,,0.0,0.0,0.0,1.0
1402416646377807891,,errorv,,0,,1402416646,377581480,/z_drive,port,,,-0.3,0.3048,0.0,,0.0,0.0,0.0,1.0
1402416646377836271,,errorv,,0,,1402416646,377585810,/z_drive,starboard,,,-0.3,-0.3048,0.0,,0.0,0.0,0.0,1.0
1402416646387352095,,errorv,,0,,1402416646,315669059,/enu,/base_link,,,5.23928034883,12.0362424468,-31.2611483822,,-0.0114425703551,0.0170228899966,0.563952912768,0.825552179441
1402416646387377813,,errorv,,0,,1402416646,325725078,/enu,/base_link,,,5.24198879581,12.0493362039,-31.2617645509,,-0.0114681997356,0.0170977837344,0.564043872396,0.825488132076
1402416646387435406,,errorv,,0,,1402416646,336709022,/enu,/base_link,,,5.24493355746,12.0636725116,-31.2625585938,,-0.0112623006759,0.0173224568951,0.564145394802,0.825416904718
1402416646387465535,,errorv,,0,,1402416646,346708059,/enu,/base_link,,,5.24792118357,12.0768687584,-31.2635183593,,-0.0110830405138,0.0174512580114,0.564204735731,0.825376057313
1402416646387484534,,errorv,,0,,1402416646,357707023,/enu,/base_link,,,5.23528311283,12.0746930498,-31.2617830249,,-0.0103314620545,0.0159175643656,0.564838122864,0.824983507105
1402416646397819936,,errorv,,0,,1402416646,397585579,base_link,/z_drive,,,0.0,0.0,0.0,,0.0,0.0,0.0,1.0
1402416646397849766,,errorv,,0,,1402416646,397690479,/z_drive,port,,,-0.3,0.3048,0.0,,0.0,0.0,0.0,1.0
1402416646397951264,,errorv,,0,,1402416646,397705594,/z_drive,starboard,,,-0.3,-0.3048,0.0,,0.0,0.0,0.0,1.0
1402416646417701613,,errorv,,0,,1402416646,417492826,base_link,/z_drive,,,0.0,0.0,0.0,,0.0,0.0,0.0,1.0
1402416646417730403,,errorv,,0,,1402416646,417522261,/z_drive,port,,,-0.3,0.3048,0.0,,0.0,0.0,0.0,1.0
1402416646417753588,,errorv,,0,,1402416646,417590349,/z_drive,starboard,,,-0.3,-0.3048,0.0,,0.0,0.0,0.0,1.0
1402416646427159611,,errorv,,0,,1402416646,367705106,/enu,/base_link,,,5.23788421047,12.0875071762,-31.2627112379,,-0.0103751132273,0.0159093315208,0.564922178944,0.82492556145
1402416646427232662,,errorv,,0,,1402416646,378712892,/enu,/base_link,,,5.24046131532,12.1017196302,-31.2637255337,,-0.0105874107141,0.015784071822,0.565044275479,0.824841643323
1402416646427256251,,errorv,,0,,1402416646,388695955,/enu,/base_link,,,5.24287625738,12.1142174845,-31.26396966,,-0.0107393554351,0.0157531208774,0.565140978158,0.824774017676
1402416646437733082,,errorv,,0,,1402416646,437503306,base_link,/z_drive,,,0.0,0.0,0.0,,0.0,0.0,0.0,1.0
1402416646437763346,,errorv,,0,,1402416646,437590633,/z_drive,port,,,-0.3,0.3048,0.0,,0.0,0.0,0.0,1.0
1402416646437833006,,errorv,,0,,1402416646,437607351,/z_drive,starboard,,,-0.3,-0.3048,0.0,,0.0,0.0,0.0,1.0
1402416646439208842,,errorv,,0,,1402416646,398644924,/enu,/base_link,,,5.23523599207,12.1080442154,-31.2473794254,,-0.0100791596324,0.0143358436141,0.56569448378,0.824428678025
1402416646439404126,,errorv,,0,,1402416646,409657001,/enu,/base_link,,,5.23774469873,12.1217582492,-31.2480529081,,-0.0099987062809,0.0144400645787,0.565783488385,0.82436675981
1402416646457725572,,errorv,,0,,1402416646,457508067,base_link,/z_drive,,,0.0,0.0,0.0,,0.0,0.0,0.0,1.0
1402416646457775674,,errorv,,0,,1402416646,457540441,/z_drive,port,,,-0.3,0.3048,0.0,,0.0,0.0,0.0,1.0
1402416646457895714,,errorv,,0,,1402416646,457554359,/z_drive,starboard,,,-0.3,-0.3048,0.0,,0.0,0.0,0.0,1.0
1402416646463992424,,errorv,,0,,1402416646,563805947,/base_link,/gps,,,-0.84,0.0,-0.14,,0.0,0.0,0.0,1.0
1402416646464100581,,errorv,,0,,1402416646,563828443,base_link,imu,,,0.13,0.0,-0.1,,1.0,0.0,0.0,0.0
1402416646477770746,,errorv,,0,,1402416646,477501600,base_link,/z_drive,,,0.0,0.0,0.0,,0.0,0.0,0.0,1.0
1402416646477810882,,errorv,,0,,1402416646,477535239,/z_drive,port,,,-0.3,0.3048,0.0,,0.0,0.0,0.0,1.0
1402416646477834812,,errorv,,0,,1402416646,477582173,/z_drive,starboard,,,-0.3,-0.3048,0.0,,0.0,0.0,0.0,1.0
1402416646479146380,,errorv,,0,,1402416646,419650077,/enu,/base_link,,,5.24004274094,12.1341083392,-31.2486410307,,-0.0098664879248,0.0145706049822,0.565847210402,0.824322318251
1402416646479185045,,errorv,,0,,1402416646,429644107,/enu,/base_link,,,5.24245729179,12.1466561104,-31.2493470643,,-0.0097999340474,0.0147430963491,0.565909142246,0.824277529188
1402416646497715510,,errorv,,0,,1402416646,497511538,base_link,/z_drive,,,0.0,0.0,0.0,,0.0,0.0,0.0,1.0
1402416646497740608,,errorv,,0,,1402416646,497534630,/z_drive,port,,,-0.3,0.3048,0.0,,0.0,0.0,0.0,1.0
1402416646497791899,,errorv,,0,,1402416646,497539457,/z_drive,starboard,,,-0.3,-0.3048,0.0,,0.0,0.0,0.0,1.0
1402416646517724172,,errorv,,0,,1402416646,517487296,base_link,/z_drive,,,0.0,0.0,0.0,,0.0,0.0,0.0,1.0
1402416646517748388,,errorv,,0,,1402416646,517502302,/z_drive,port,,,-0.3,0.3048,0.0,,0.0,0.0,0.0,1.0
1402416646517812523,,errorv,,0,,1402416646,517506472,/z_drive,starboard,,,-0.3,-0.3048,0.0,,0.0,0.0,0.0,1.0
1402416646519102957,,errorv,,0,,1402416646,440723896,/enu,/base_link,,,5.22698513969,12.1479424685,-31.2427198031,,-0.00975310716658,0.0132806454035,0.566319256282,0.824021238393
1402416646519279015,,errorv,,0,,1402416646,450623035,/enu,/base_link,,,5.22881366534,12.1603396949,-31.2436555259,,-0.00989867919211,0.013181694567,0.566433708996,0.823942420556
1402416646519301557,,errorv,,0,,1402416646,461667060,/enu,/base_link,,,5.23106190231,12.1738101891,-31.2440758886,,-0.0101387522386,0.0129616301308,0.566569342621,0.823849732567
1402416646519362594,,errorv,,0,,1402416646,471627950,/enu,/base_link,,,5.23281446343,12.18598934,-31.2445505153,,-0.0103348172919,0.012864674021,0.566670004132,0.823779581035
1402416646537856524,,errorv,,0,,1402416646,537515919,base_link,/z_drive,,,0.0,0.0,0.0,,0.0,0.0,0.0,1.0
1402416646537888069,,errorv,,0,,1402416646,537535492,/z_drive,port,,,-0.3,0.3048,0.0,,0.0,0.0,0.0,1.0
1402416646537911405,,errorv,,0,,1402416646,537539833,/z_drive,starboard,,,-0.3,-0.3048,0.0,,0.0,0.0,0.0,1.0
1402416646557714725,,errorv,,0,,1402416646,557465950,base_link,/z_drive,,,0.0,0.0,0.0,,0.0,0.0,0.0,1.0
