rosbagTimestamp,control_method,x_current,x_desired,y_current,y_desired,x_velocity_current,x_velocity_desired,y_velocity_current,y_velocity_desired,yaw_current,yaw_desired,required_force_x,required_force_y,required_moment_z,resultant_force_x,resultant_force_y,resultant_moment_z,current_port_servo_angle,current_port_thruster_force,current_starboard_servo_angle,current_starboard_thruster_force,estimated_port_servo_angle,estimated_port_thruster_force,estimated_starboard_servo_angle,estimated_starboard_thruster_force,cost_value,step,user_defined_1,user_defined_2,user_defined_3,user_defined_4,user_defined_5
1402598422683120889,0,7.27984106071,-0.114322152727,-16.4307884569,0.043815185726,0.0963449330031,0.0,0.144583967159,0.0,1.71465546812,0.0,0.0,0.0,0.0,5.52433207631,0.0,1.68381641686,0.00537022749826,-0.0,-0.00230160554007,2.84834075719,0.0,-0.0,0.0,5.52433207631,3096.12233193,0.0,0.0,0.0,0.0,0.0,0.0
1402598422702621070,0,7.28408301241,-0.114322152727,-16.4249530939,0.043815185726,0.095658495645,0.0,0.142256864612,0.0,1.71594496999,0.0,0.0,0.0,0.0,14.8758456111,0.0,4.53415774226,0.00537022749826,-0.0,-0.00230160554007,5.52433207631,0.0,-0.0,0.0,14.8758456111,22450.2862615,0.0,0.0,0.0,0.0,0.0,0.0
1402598422722702954,0,7.28408301241,-0.114322152727,-16.4249530939,0.043815185726,0.095658495645,0.0,0.142256864612,0.0,1.71594496999,0.0,0.0,0.0,0.0,-31.9971991433,1.00150396915,50.4822649779,0.00537022749826,-0.0,-0.00230160554007,14.8758456111,0.0,-100.0,0.0147263283059,68.0101752281,1399049.00107,0.0,0.0,0.0,0.0,0.0,0.0
1402598422743161780,0,7.29035277981,-0.114322152727,-16.4232101142,0.043815185726,0.0983916372649,0.0,0.142659725808,0.0,1.71716115395,0.0,0.0,0.0,0.0,-0.679035642627,11.6338316612,52.3312991966,0.00537022749826,-100.0,-0.00230160554007,68.0101752281,0.0,-100.0,0.116602360143,100.0,1536978.5119,0.0,0.0,0.0,0.0,0.0,0.0
1402598422762842189,0,7.29035277981,-0.114322152727,-16.4232101142,0.043815185726,0.0983916372649,0.0,0.142659725808,0.0,1.71716115395,0.0,0.0,0.0,0.0,-0.611028531169,11.0377692659,52.7835173321,0.00537022749826,-100.0,0.000767318410122,100.0,0.0,-100.0,0.110603056636,100.0,1553984.69401,0.0,0.0,0.0,0.0,0.0,0.0
1402598422783414565,0,7.28271948071,-0.114322152727,-16.4193592564,0.043815185726,0.0795066902413,0.0,0.142539308286,0.0,1.71807613851,0.0,0.0,0.0,0.0,-0.611028531169,11.0377692659,52.7835173321,0.00537022749826,-100.0,0.0161107460682,100.0,0.0,-100.0,0.110603056636,100.0,1553984.694,0.0,0.0,0.0,0.0,0.0,0.0
1402598422802757883,0,7.28271948071,-0.114322152727,-16.4193592564,0.043815185726,0.0795066902413,0.0,0.142539308286,0.0,1.71807613851,0.0,0.0,0.0,0.0,-0.611028531169,11.0377692659,52.7835173321,0.00537022749826,-100.0,0.0498665253346,100.0,0.0,-100.0,0.110603056636,100.0,1553984.69397,0.0,0.0,0.0,0.0,0.0,0.0
1402598422823362232,0,7.29222280103,-0.114322152727,-16.4058817589,0.043815185726,0.0985080095089,0.0,0.161848832759,0.0,1.71916639487,0.0,0.0,0.0,0.0,-0.611028531169,11.0377692659,52.7835173321,0.00537022749826,-100.0,0.0759507099812,100.0,0.0,-100.0,0.110603056636,100.0,1553984.69396,0.0,0.0,0.0,0.0,0.0,0.0
1402598422842845628,0,7.29222280103,-0.114322152727,-16.4058817589,0.043815185726,0.0985080095089,0.0,0.161848832759,0.0,1.71916639487,0.0,0.0,0.0,0.0,-0.611028531169,11.0377692659,52.7835173321,0.00537022749826,-100.0,0.095897285146,100.0,0.0,-100.0,0.110603056636,100.0,1553984.69395,0.0,0.0,0.0,0.0,0.0,0.0
1402598422863342857,0,7.29285915135,-0.114322152727,-16.4046547737,0.043815185726,0.10750627982,0.0,0.151642736216,0.0,1.72056690272,0.0,0.0,0.0,0.0,-0.611028531169,11.0377692659,52.7835173321,0.00537022749826,-100.0,0.102034656209,100.0,0.0,-100.0,0.110603056636,100.0,1553984.69395,0.0,0.0,0.0,0.0,0.0,0.0
1402598422882780331,0,7.29285915135,-0.114322152727,-16.4046547737,0.043815185726,0.10750627982,0.0,0.151642736216,0.0,1.72056690272,0.0,0.0,0.0,0.0,-0.611028531169,11.0377692659,52.7835173321,0.00537022749826,-100.0,0.103568879766,100.0,0.0,-100.0,0.110603056636,100.0,1553984.69395,0.0,0.0,0.0,0.0,0.0,0.0
1402598422903239643,0,7.28789851476,-0.114322152727,-16.3944910258,0.043815185726,0.099840895466,0.0,0.16215203097,0.0,1.72128726548,0.0,0.0,0.0,0.0,-0.611028531169,11.0377692659,52.7835173321,0.00537022749826,-100.0,0.105103341741,100.0,0.0,-100.0,0.110603056636,100.0,1553984.69395,0.0,0.0,0.0,0.0,0.0,0.0
1402598422922632188,0,7.28789851476,-0.114322152727,-16.3944910258,0.043815185726,0.099840895466,0.0,0.16215203097,0.0,1.72128726548,0.0,0.0,0.0,0.0,-0.611028531169,11.0377692659,52.7835173321,0.00690445105478,-100.0,0.105103341741,100.0,0.0,-100.0,0.110603056636,100.0,1553984.69395,0.0,0.0,0.0,0.0,0.0,0.0
1402598422943157169,0,7.28646534407,-0.114322152727,-16.3867344575,0.043815185726,0.0948699158857,0.0,0.173053459178,0.0,1.72293677975,0.0,0.0,0.0,0.0,-0.611028531169,11.0377692659,52.7835173321,0.00537022749826,-100.0,0.106637803716,100.0,0.0,-100.0,0.110603056636,100.0,1553984.69395,0.0,0.0,0.0,0.0,0.0,0.0
1402598422962690193,0,7.28646534407,-0.114322152727,-16.3867344575,0.043815185726,0.0948699158857,0.0,0.173053459178,0.0,1.72293677975,0.0,0.0,0.0,0.0,-0.611028531169,11.0377692659,52.7835173321,0.00690445105478,-100.0,0.105103341741,100.0,0.0,-100.0,0.110603056636,100.0,1553984.69395,0.0,0.0,0.0,0.0,0.0,0.0
1402598422983186452,0,7.28989544086,-0.114322152727,-16.3797417967,0.043815185726,0.0702570890624,0.0,0.17692273059,0.0,1.72608203688,0.0,0.0,0.0,0.0,-0.611028531169,11.0377692659,52.7835173321,0.00690445105478,-100.0,0.105103341741,100.0,0.0,-100.0,0.110603056636,100.0,1553984.69395,0.0,0.0,0.0,0.0,0.0,0.0
1402598423002526536,0,7.28989544086,-0.114322152727,-16.3797417967,0.043815185726,0.0702570890624,0.0,0.17692273059,0.0,1.72608203688,0.0,0.0,0.0,0.0,-0.611028531169,11.0377692659,52.7835173321,0.00690445105478,-100.0,0.105103341741,100.0,0.0,-100.0,0.110603056636,100.0,1553984.69395,0.0,0.0,0.0,0.0,0.0,0.0
1402598423023263885,0,7.28542669277,-0.114322152727,-16.3739799853,0.043815185726,0.0640373061409,0.0,0.185070291387,0.0,1.73119464705,0.0,0.0,0.0,0.0,-0.611028531169,11.0377692659,52.7835173321,0.00690445105478,-100.0,0.106637803716,100.0,0.0,-100.0,0.110603056636,100.0,1553984.69395,0.0,0.0,0.0,0.0,0.0,0.0
1402598423042666079,0,7.28542669277,-0.114322152727,-16.3739799853,0.043815185726,0.0640373061409,0.0,0.185070291387,0.0,1.73119464705,0.0,0.0,0.0,0.0,-0.611028531169,11.0377692659,52.7835173321,0.00690445105478,-100.0,0.106637803716,100.0,0.0,-100.0,0.110603056636,100.0,1553984.69395,0.0,0.0,0.0,0.0,0.0,0.0
1402598423063264542,0,7.28711271223,-0.114322152727,-16.3576230792,0.043815185726,0.0686095920526,0.0,0.212244970736,0.0,1.73905818494,0.0,0.0,0.0,0.0,-0.611028531169,11.0377692659,52.7835173321,0.00843891302987,-100.0,0.105103341741,100.0,0.0,-100.0,0.110603056636,100.0,1553984.69395,0.0,0.0,0.0,0.0,0.0,0.0
1402598423082660071,0,7.28711271223,-0.114322152727,-16.3576230792,0.043815185726,0.0686095920526,0.0,0.212244970736,0.0,1.73905818494,0.0,0.0,0.0,0.0,-0.611028531169,11.0377692659,52.7835173321,0.00997313658639,-100.0,0.106637803716,100.0,0.0,-100.0,0.110603056636,100.0,1553984.69395,0.0,0.0,0.0,0.0,0.0,0.0
1402598423103164513,0,7.28983916255,-0.114322152727,-16.349120338,0.043815185726,0.060592425166,0.0,0.218005042913,0.0,1.74727250717,0.0,0.0,0.0,0.0,-0.611028531169,11.0377692659,52.7835173321,0.00997313658639,-100.0,0.106637803716,100.0,0.0,-100.0,0.110603056636,100.0,1553984.69395,0.0,0.0,0.0,0.0,0.0,0.0
1402598423122869077,0,7.28983916255,-0.114322152727,-16.349120338,0.043815185726,0.060592425166,0.0,0.218005042913,0.0,1.74727250717,0.0,0.0,0.0,0.0,-0.611028531169,11.0377692659,52.7835173321,0.00997313658639,-100.0,0.106637803716,100.0,0.0,-100.0,0.110603056636,100.0,1553984.69395,0.0,0.0,0.0,0.0,0.0,0.0
1402598423143100344,0,7.29170580758,-0.114322152727,-16.3404283851,0.043815185726,0.0395340922766,0.0,0.215290676998,0.0,1.757281885,0.0,0.0,0.0,0.0,-0.611028531169,11.0377692659,52.7835173321,0.00997313658639,-100.0,0.106637803716,100.0,0.0,-100.0,0.110603056636,100.0,1553984.69395,0.0,0.0,0.0,0.0,0.0,0.0
1402598423162644748,0,7.29170580758,-0.114322152727,-16.3404283851,0.043815185726,0.0395340922766,0.0,0.215290676998,0.0,1.757281885,0.0,0.0,0.0,0.0,-0.611028531169,11.0377692659,52.7835173321,0.0115078369801,-100.0,0.105103341741,100.0,0.0,-100.0,0.110603056636,100.0,1553984.69395,0.0,0.0,0.0,0.0,0.0,0.0
1402598423183221755,0,7.29311913333,-0.114322152727,-16.3314791594,0.043815185726,0.0243373178286,0.0,0.219164200564,0.0,1.76861343475,0.0,0.0,0.0,0.0,-0.611028531169,11.0377692659,52.7835173321,0.0115078369801,-100.0,0.105103341741,100.0,0.0,-100.0,0.110603056636,100.0,1553984.69395,0.0,0.0,0.0,0.0,0.0,0.0
1402598423202611118,0,7.29311913333,-0.114322152727,-16.3314791594,0.043815185726,0.0243373178286,0.0,0.219164200564,0.0,1.76861343475,0.0,0.0,0.0,0.0,-0.611028531169,11.0377692659,52.7835173321,0.0115078369801,-100.0,0.106637803716,100.0,0.0,-100.0,0.110603056636,100.0,1553984.69395,0.0,0.0,0.0,0.0,0.0,0.0
1402598423223324861,0,7.29380497447,-0.114322152727,-16.3227707054,0.043815185726,0.00926980118788,0.0,0.220533330802,0.0,1.78057515867,0.0,0.0,0.0,0.0,-0.611028531169,11.0377692659,52.7835173321,0.0115078369801,-100.0,0.105103341741,100.0,0.0,-100.0,0.110603056636,100.0,1553984.69395,0.0,0.0,0.0,0.0,0.0,0.0
1402598423242639686,0,7.29380497447,-0.114322152727,-16.3227707054,0.043815185726,0.00926980118788,0.0,0.220533330802,0.0,1.78057515867,0.0,0.0,0.0,0.0,-0.611028531169,11.0377692659,52.7835173321,0.0115078369801,-100.0,0.105103341741,100.0,0.0,-100.0,0.110603056636,100.0,1553984.69395,0.0,0.0,0.0,0.0,0.0,0.0
1402598423263299862,0,7.29491668901,-0.114322152727,-16.3112030477,0.043815185726,0.00714139882644,0.0,0.227988325843,0.0,1.79381092644,0.0,0.0,0.0,0.0,-0.611028531169,11.0377692659,52.7835173321,0.0130420605366,-100.0,0.106637803716,100.0,0.0,-100.0,0.110603056636,100.0,1553984.69395,0.0,0.0,0.0,0.0,0.0,0.0
1402598423282803575,0,7.29491668901,-0.114322152727,-16.3112030477,0.043815185726,0.00714139882644,0.0,0.227988325843,0.0,1.79381092644,0.0,0.0,0.0,0.0,-0.611028531169,11.0377692659,52.7835173321,0.0130420605366,-100.0,0.105103341741,100.0,0.0,-100.0,0.110603056636,100.0,1553984.69395,0.0,0.0,0.0,0.0,0.0,0.0
1402598423303201705,0,7.29479206237,-0.114322152727,-16.3017944979,0.043815185726,-0.0108720086444,0.0,0.22750921037,0.0,1.80808515994,0.0,0.0,0.0,0.0,-0.611028531169,11.0377692659,52.7835173321,0.0130420605366,-100.0,0.105103341741,100.0,0.0,-100.0,0.110603056636,100.0,1553984.69395,0.0,0.0,0.0,0.0,0.0,0.0
1402598423322856387,0,7.29479206237,-0.114322152727,-16.3017944979,0.043815185726,-0.0108720086444,0.0,0.22750921037,0.0,1.80808515994,0.0,0.0,0.0,0.0,-0.611028531169,11.0377692659,52.7835173321,0.0130420605366,-100.0,0.106637803716,100.0,0.0,-100.0,0.110603056636,100.0,1553984.69395,0.0,0.0,0.0,0.0,0.0,0.0
1402598423343388971,0,7.29001988722,-0.114322152727,-16.2861105317,0.043815185726,-0.016050135492,0.0,0.241145716977,0.0,1.82342577024,0.0,0.0,0.0,0.0,-0.611028531169,11.0377692659,52.7835173321,0.0130420605366,-100.0,0.106637803716,100.0,0.0,-100.0,0.110603056636,100.0,1553984.69395,0.0,0.0,0.0,0.0,0.0,0.0
1402598423362716259,0,7.29001988722,-0.114322152727,-16.2861105317,0.043815185726,-0.016050135492,0.0,0.241145716977,0.0,1.82342577024,0.0,0.0,0.0,0.0,-0.611028531169,11.0377692659,52.7835173321,0.0130420605366,-100.0,0.106637803716,100.0,0.0,-100.0,0.110603056636,100.0,1553984.69395,0.0,0.0,0.0,0.0,0.0,0.0
1402598423383322654,0,7.28923577053,-0.114322152727,-16.276239159,0.043815185726,-0.0337248990075,0.0,0.244059077664,0.0,1.83962874579,0.0,0.0,0.0,0.0,-0.611028531169,11.0377692659,52.7835173321,0.0130420605366,-100.0,0.106637803716,100.0,0.0,-100.0,0.110603056636,100.0,1553984.69395,0.0,0.0,0.0,0.0,0.0,0.0
1402598423402658557,0,7.28923577053,-0.114322152727,-16.276239159,0.043815185726,-0.0337248990075,0.0,0.244059077664,0.0,1.83962874579,0.0,0.0,0.0,0.0,-0.611028531169,11.0377692659,52.7835173321,0.0130420605366,-100.0,0.106637803716,100.0,0.0,-100.0,0.110603056636,100.0,1553984.69395,0.0,0.0,0.0,0.0,0.0,0.0
1402598423423327345,0,7.26174723109,-0.114322152727,-16.2719074339,0.043815185726,-0.0657423481666,0.0,0.224914174013,0.0,1.85689957685,0.0,0.0,0.0,0.0,-0.611028531169,11.0377692659,52.7835173321,0.0130420605366,-100.0,0.106637803716,100.0,0.0,-100.0,0.110603056636,100.0,1553984.69395,0.0,0.0,0.0,0.0,0.0,0.0
1402598423442640571,0,7.26174723109,-0.114322152727,-16.2719074339,0.043815185726,-0.0657423481666,0.0,0.224914174013,0.0,1.85689957685,0.0,0.0,0.0,0.0,-0.611028531169,11.0377692659,52.7835173321,0.0130420605366,-100.0,0.106637803716,100.0,0.0,-100.0,0.110603056636,100.0,1553984.69395,0.0,0.0,0.0,0.0,0.0,0.0
1402598423463174949,0,7.26262417655,-0.114322152727,-16.2627737864,0.043815185726,-0.0630719792183,0.0,0.218621496988,0.0,1.87860732931,0.0,0.0,0.0,0.0,-0.611028531169,11.0377692659,52.7835173321,0.0130420605366,-100.0,0.105103341741,100.0,0.0,-100.0,0.110603056636,100.0,1553984.69395,0.0,0.0,0.0,0.0,0.0,0.0
1402598423482678388,0,7.26262417655,-0.114322152727,-16.2627737864,0.043815185726,-0.0630719792183,0.0,0.218621496988,0.0,1.87860732931,0.0,0.0,0.0,0.0,-0.611028531169,11.0377692659,52.7835173321,0.0130420605366,-100.0,0.106637803716,100.0,0.0,-100.0,0.110603056636,100.0,1553984.69395,0.0,0.0,0.0,0.0,0.0,0.0
1402598423503043459,0,7.26515474942,-0.114322152727,-16.2440035623,0.043815185726,-0.05908454538,0.0,0.23962223909,0.0,1.90272341026,0.0,0.0,0.0,0.0,-0.611028531169,11.0377692659,52.7835173321,0.0130420605366,-100.0,0.106637803716,100.0,0.0,-100.0,0.110603056636,100.0,1553984.69395,0.0,0.0,0.0,0.0,0.0,0.0
1402598423522543915,0,7.26515474942,-0.114322152727,-16.2440035623,0.043815185726,-0.05908454538,0.0,0.23962223909,0.0,1.90272341026,0.0,0.0,0.0,0.0,-0.611028531169,11.0377692659,52.7835173321,0.0145762840931,-100.0,0.106637803716,100.0,0.0,-100.0,0.110603056636,100.0,1553984.69395,0.0,0.0,0.0,0.0,0.0,0.0
1402598423543079942,0,7.26363312537,-0.114322152727,-16.2391920453,0.043815185726,-0.0668162579954,0.0,0.237828447494,0.0,1.91318357193,0.0,0.0,0.0,0.0,-0.611028531169,11.0377692659,52.7835173321,0.0145762840931,-100.0,0.106637803716,100.0,0.0,-100.0,0.110603056636,100.0,1553984.69395,0.0,0.0,0.0,0.0,0.0,0.0
1402598423562841142,0,7.26363312537,-0.114322152727,-16.2391920453,0.043815185726,-0.0668162579954,0.0,0.237828447494,0.0,1.91318357193,0.0,0.0,0.0,0.0,-0.611028531169,11.0377692659,52.7835173321,0.0145762840931,-100.0,0.105103341741,100.0,0.0,-100.0,0.110603056636,100.0,1553984.69395,0.0,0.0,0.0,0.0,0.0,0.0
1402598423583266317,0,7.25692126405,-0.114322152727,-16.2237207025,0.043815185726,-0.0783037106238,0.0,0.251539703626,0.0,1.9343844328,0.0,0.0,0.0,0.0,-0.611028531169,11.0377692659,52.7835173321,0.0145762840931,-100.0,0.105103341741,100.0,0.0,-100.0,0.110603056636,100.0,1553984.69395,0.0,0.0,0.0,0.0,0.0,0.0
1402598423602667284,0,7.25692126405,-0.114322152727,-16.2237207025,0.043815185726,-0.0783037106238,0.0,0.251539703626,0.0,1.9343844328,0.0,0.0,0.0,0.0,-0.611028531169,11.0377692659,52.7835173321,0.0145762840931,-100.0,0.105103341741,100.0,0.0,-100.0,0.110603056636,100.0,1553984.69395,0.0,0.0,0.0,0.0,0.0,0.0
1402598423623340522,0,7.25360536582,-0.114322152727,-16.213689347,0.043815185726,-0.0888690441162,0.0,0.247216055984,0.0,1.95595678705,0.0,0.0,0.0,0.0,-0.611028531169,11.0377692659,52.7835173321,0.0145762840931,-100.0,0.106637803716,100.0,0.0,-100.0,0.110603056636,100.0,1553984.69395,0.0,0.0,0.0,0.0,0.0,0.0
1402598423642662909,0,7.25360536582,-0.114322152727,-16.213689347,0.043815185726,-0.0888690441162,0.0,0.247216055984,0.0,1.95595678705,0.0,0.0,0.0,0.0,-0.611028531169,11.0377692659,52.7835173321,0.0145762840931,-100.0,0.105103341741,100.0,0.0,-100.0,0.110603056636,100.0,1553984.69395,0.0,0.0,0.0,0.0,0.0,0.0
1402598423663578989,0,7.24979568696,-0.114322152727,-16.2039497697,0.043815185726,-0.100921354349,0.0,0.245064968897,0.0,1.97757216085,0.0,0.0,0.0,0.0,-0.611028531169,11.0377692659,52.7835173321,0.0145762840931,-100.0,0.106637803716,100.0,0.0,-100.0,0.110603056636,100.0,1553984.69395,0.0,0.0,0.0,0.0,0.0,0.0
1402598423682778546,0,7.24979568696,-0.114322152727,-16.2039497697,0.043815185726,-0.100921354349,0.0,0.245064968897,0.0,1.97757216085,0.0,0.0,0.0,0.0,-0.679035642627,11.6338316612,52.3312991966,0.0145762840931,-100.0,0.106637803716,100.0,0.0,-100.0,0.116602360143,100.0,1536978.51183,0.0,0.0,0.0,0.0,0.0,0.0
1402598423703003170,0,7.2452896684,-0.114322152727,-16.194050454,0.043815185726,-0.108810518875,0.0,0.242074474902,0.0,2.00013978535,0.0,0.0,0.0,0.0,-0.679035642627,11.6338316612,52.3312991966,0.0145762840931,-100.0,0.106637803716,100.0,0.0,-100.0,0.116602360143,100.0,1536978.51183,0.0,0.0,0.0,0.0,0.0,0.0
1402598423722580753,0,7.2452896684,-0.114322152727,-16.194050454,0.043815185726,-0.108810518875,0.0,0.242074474902,0.0,2.00013978535,0.0,0.0,0.0,0.0,-0.679035642627,11.6338316612,52.3312991966,0.0145762840931,-100.0,0.106637803716,100.0,0.0,-100.0,0.116602360143,100.0,1536978.51183,0.0,0.0,0.0,0.0,0.0,0.0
1402598423743197926,0,7.24061564048,-0.114322152727,-16.1841334834,0.043815185726,-0.122651944093,0.0,0.239927850192,0.0,2.02318559875,0.0,0.0,0.0,0.0,-0.679035642627,11.6338316612,52.3312991966,0.0145762840931,-100.0,0.108172027272,100.0,0.0,-100.0,0.116602360143,100.0,1536978.51183,0.0,0.0,0.0,0.0,0.0,0.0
1402598423762750029,0,7.24061564048,-0.114322152727,-16.1841334834,0.043815185726,-0.122651944093,0.0,0.239927850192,0.0,2.02318559875,0.0,0.0,0.0,0.0,-0.679035642627,11.6338316612,52.3312991966,0.0145762840931,-100.0,0.109706489248,100.0,0.0,-100.0,0.116602360143,100.0,1536978.51183,0.0,0.0,0.0,0.0,0.0,0.0
1402598423782624786,0,7.21914464393,-0.114322152727,-16.1649796046,0.043815185726,-0.16088419804,0.0,0.255038801036,0.0,2.04770895493,0.0,0.0,0.0,0.0,-0.679035642627,11.6338316612,52.3312991966,0.0130420605366,-100.0,0.109706489248,100.0,0.0,-100.0,0.116602360143,100.0,1536978.51183,0.0,0.0,0.0,0.0,0.0,0.0
1402598423803712255,0,7.21914464393,-0.114322152727,-16.1649796046,0.043815185726,-0.16088419804,0.0,0.255038801036,0.0,2.04770895493,0.0,0.0,0.0,0.0,-0.679035642627,11.6338316612,52.3312991966,0.0145762840931,-100.0,0.109706489248,100.0,0.0,-100.0,0.116602360143,100.0,1536978.51183,0.0,0.0,0.0,0.0,0.0,0.0
1402598423822919646,0,7.23170121526,-0.114322152727,-16.1647495325,0.043815185726,-0.160970805838,0.0,0.239868930874,0.0,2.07676083326,0.0,0.0,0.0,0.0,-0.679035642627,11.6338316612,52.3312991966,0.0145762840931,-100.0,0.109706489248,100.0,0.0,-100.0,0.116602360143,100.0,1536978.51183,0.0,0.0,0.0,0.0,0.0,0.0
1402598423843225275,0,7.23170121526,-0.114322152727,-16.1647495325,0.043815185726,-0.160970805838,0.0,0.239868930874,0.0,2.07676083326,0.0,0.0,0.0,0.0,-0.679035642627,11.6338316612,52.3312991966,0.0145762840931,-100.0,0.109706489248,100.0,0.0,-100.0,0.116602360143,100.0,1536978.51183,0.0,0.0,0.0,0.0,0.0,0.0
1402598423862691135,0,7.2338333922,-0.114322152727,-16.1548216723,0.043815185726,-0.165486205457,0.0,0.240534895648,0.0,2.10572127135,0.0,0.0,0.0,0.0,-0.679035642627,11.6338316612,52.3312991966,0.0130420605366,-100.0,0.111240712804,100.0,0.0,-100.0,0.116602360143,100.0,1536978.51183,0.0,0.0,0.0,0.0,0.0,0.0
1402598423883228122,0,7.2338333922,-0.114322152727,-16.1548216723,0.043815185726,-0.165486205457,0.0,0.240534895648,0.0,2.10572127135,0.0,0.0,0.0,0.0,-0.679035642627,11.6338316612,52.3312991966,0.0145762840931,-100.0,0.109706489248,100.0,0.0,-100.0,0.116602360143,100.0,1536978.51183,0.0,0.0,0.0,0.0,0.0,0.0
1402598423902585461,0,7.2300326277,-0.114322152727,-16.150028138,0.043815185726,-0.171039428948,0.0,0.236092998179,0.0,2.11843840684,0.0,0.0,0.0,0.0,-0.679035642627,11.6338316612,52.3312991966,0.0145762840931,-100.0,0.109706489248,100.0,0.0,-100.0,0.116602360143,100.0,1536978.51183,0.0,0.0,0.0,0.0,0.0,0.0
1402598423923411952,0,7.2300326277,-0.114322152727,-16.150028138,0.043815185726,-0.171039428948,0.0,0.236092998179,0.0,2.11843840684,0.0,0.0,0.0,0.0,-0.679035642627,11.6338316612,52.3312991966,0.0145762840931,-100.0,0.111240712804,100.0,0.0,-100.0,0.116602360143,100.0,1536978.51183,0.0,0.0,0.0,0.0,0.0,0.0
1402598423942532789,0,7.22754119177,-0.114322152727,-16.1432745406,0.043815185726,-0.17889654841,0.0,0.23202486458,0.0,2.14374971121,0.0,0.0,0.0,0.0,-0.679035642627,11.6338316612,52.3312991966,0.0130420605366,-100.0,0.111240712804,100.0,0.0,-100.0,0.116602360143,100.0,1536978.51183,0.0,0.0,0.0,0.0,0.0,0.0
1402598423963126734,0,7.22754119177,-0.114322152727,-16.1432745406,0.043815185726,-0.17889654841,0.0,0.23202486458,0.0,2.14374971121,0.0,0.0,0.0,0.0,-0.679035642627,11.6338316612,52.3312991966,0.0130420605366,-100.0,0.111240712804,100.0,0.0,-100.0,0.116602360143,100.0,1536978.51183,0.0,0.0,0.0,0.0,0.0,0.0
1402598423982600446,0,7.220261658,-0.114322152727,-16.1340479794,0.043815185726,-0.186865575151,0.0,0.226015216957,0.0,2.16865690821,0.0,0.0,0.0,0.0,-0.679035642627,11.6338316612,52.3312991966,0.0145762840931,-100.0,0.111240712804,100.0,0.0,-100.0,0.116602360143,100.0,1536978.51183,0.0,0.0,0.0,0.0,0.0,0.0
1402598424002981593,0,7.220261658,-0.114322152727,-16.1340479794,0.043815185726,-0.186865575151,0.0,0.226015216957,0.0,2.16865690821,0.0,0.0,0.0,0.0,-0.679035642627,11.6338316612,52.3312991966,0.0130420605366,-100.0,0.109706489248,100.0,0.0,-100.0,0.116602360143,100.0,1536978.51183,0.0,0.0,0.0,0.0,0.0,0.0
1402598424022549881,0,7.21225631494,-0.114322152727,-16.1205012638,0.043815185726,-0.191797619448,0.0,0.221505000065,0.0,2.19522524859,0.0,0.0,0.0,0.0,-0.679035642627,11.6338316612,52.3312991966,0.0145762840931,-100.0,0.111240712804,100.0,0.0,-100.0,0.116602360143,100.0,1536978.51183,0.0,0.0,0.0,0.0,0.0,0.0
1402598424042974117,0,7.21225631494,-0.114322152727,-16.1205012638,0.043815185726,-0.191797619448,0.0,0.221505000065,0.0,2.19522524859,0.0,0.0,0.0,0.0,-0.679035642627,11.6338316612,52.3312991966,0.0130420605366,-100.0,0.109706489248,100.0,0.0,-100.0,0.116602360143,100.0,1536978.51183,0.0,0.0,0.0,0.0,0.0,0.0
1402598424062588589,0,7.20439056016,-0.114322152727,-16.1114517652,0.043815185726,-0.200276719489,0.0,0.216350119887,0.0,2.22168608813,0.0,0.0,0.0,0.0,-0.679035642627,11.6338316612,52.3312991966,0.0130420605366,-100.0,0.109706489248,100.0,0.0,-100.0,0.116602360143,100.0,1536978.51183,0.0,0.0,0.0,0.0,0.0,0.0
1402598424083192332,0,7.20439056016,-0.114322152727,-16.1114517652,0.043815185726,-0.200276719489,0.0,0.216350119887,0.0,2.22168608813,0.0,0.0,0.0,0.0,-0.679035642627,11.6338316612,52.3312991966,0.0130420605366,-100.0,0.111240712804,100.0,0.0,-100.0,0.116602360143,100.0,1536978.51183,0.0,0.0,0.0,0.0,0.0,0.0
1402598424102569793,0,7.19622785334,-0.114322152727,-16.1029304288,0.043815185726,-0.209313334691,0.0,0.197172261139,0.0,2.24948291717,0.0,0.0,0.0,0.0,-0.679035642627,11.6338316612,52.3312991966,0.0130420605366,-100.0,0.109706489248,100.0,0.0,-100.0,0.116602360143,100.0,1536978.51183,0.0,0.0,0.0,0.0,0.0,0.0
1402598424123349559,0,7.19622785334,-0.114322152727,-16.1029304288,0.043815185726,-0.209313334691,0.0,0.197172261139,0.0,2.24948291717,0.0,0.0,0.0,0.0,-0.679035642627,11.6338316612,52.3312991966,0.0130420605366,-100.0,0.111240712804,100.0,0.0,-100.0,0.116602360143,100.0,1536978.51183,0.0,0.0,0.0,0.0,0.0,0.0
1402598424143110197,0,7.18641654543,-0.114322152727,-16.0862914466,0.043815185726,-0.211569594043,0.0,0.192383051879,0.0,2.27632625477,0.0,0.0,0.0,0.0,-0.679035642627,11.6338316612,52.3312991966,0.0130420605366,-100.0,0.111240712804,100.0,0.0,-100.0,0.116602360143,100.0,1536978.51183,0.0,0.0,0.0,0.0,0.0,0.0
1402598424163176440,0,7.18641654543,-0.114322152727,-16.0862914466,0.043815185726,-0.211569594043,0.0,0.192383051879,0.0,2.27632625477,0.0,0.0,0.0,0.0,-0.679035642627,11.6338316612,52.3312991966,0.0130420605366,-100.0,0.109706489248,100.0,0.0,-100.0,0.116602360143,100.0,1536978.51183,0.0,0.0,0.0,0.0,0.0,0.0
1402598424182749100,0,7.17090780711,-0.114322152727,-16.0610479918,0.043815185726,-0.227897124878,0.0,0.208911133353,0.0,2.31067342668,0.0,0.0,0.0,0.0,-0.679035642627,11.6338316612,52.3312991966,0.0130420605366,-100.0,0.111240712804,100.0,0.0,-100.0,0.116602360143,100.0,1536978.51183,0.0,0.0,0.0,0.0,0.0,0.0
1402598424203383676,0,7.17090780711,-0.114322152727,-16.0610479918,0.043815185726,-0.227897124878,0.0,0.208911133353,0.0,2.31067342668,0.0,0.0,0.0,0.0,-0.679035642627,11.6338316612,52.3312991966,0.0130420605366,-100.0,0.109706489248,100.0,0.0,-100.0,0.116602360143,100.0,1536978.51183,0.0,0.0,0.0,0.0,0.0,0.0
1402598424222702303,0,7.14972583173,-0.114322152727,-16.0579946222,0.043815185726,-0.248290844066,0.0,0.173357393935,0.0,2.33608321925,0.0,0.0,0.0,0.0,-0.679035642627,11.6338316612,52.3312991966,0.0130420605366,-100.0,0.109706489248,100.0,0.0,-100.0,0.116602360143,100.0,1536978.51183,0.0,0.0,0.0,0.0,0.0,0.0
1402598424243133134,0,7.14485791161,-0.114322152727,-16.0544675336,0.043815185726,-0.254530454676,0.0,0.170620374784,0.0,2.34979678825,0.0,0.0,0.0,0.0,-0.679035642627,11.6338316612,52.3312991966,0.0130420605366,-100.0,0.111240712804,100.0,0.0,-100.0,0.116602360143,100.0,1536978.51183,0.0,0.0,0.0,0.0,0.0,0.0
1402598424262715618,0,7.14485791161,-0.114322152727,-16.0544675336,0.043815185726,-0.254530454676,0.0,0.170620374784,0.0,2.34979678825,0.0,0.0,0.0,0.0,-0.679035642627,11.6338316612,52.3312991966,0.0130420605366,-100.0,0.111240712804,100.0,0.0,-100.0,0.116602360143,100.0,1536978.51183,0.0,0.0,0.0,0.0,0.0,0.0
1402598424283155969,0,7.1393804023,-0.114322152727,-16.0508671025,0.043815185726,-0.25677463242,0.0,0.166441619093,0.0,2.36426830437,0.0,0.0,0.0,0.0,-0.679035642627,11.6338316612,52.3312991966,0.0130420605366,-100.0,0.111240712804,100.0,0.0,-100.0,0.116602360143,100.0,1536978.51183,0.0,0.0,0.0,0.0,0.0,0.0
1402598424302948066,0,7.1393804023,-0.114322152727,-16.0508671025,0.043815185726,-0.25677463242,0.0,0.166441619093,0.0,2.36426830437,0.0,0.0,0.0,0.0,-0.679035642627,11.6338316612,52.3312991966,0.0130420605366,-100.0,0.111240712804,100.0,0.0,-100.0,0.116602360143,100.0,1536978.51183,0.0,0.0,0.0,0.0,0.0,0.0
1402598424323252745,0,7.12892150436,-0.114322152727,-16.0440016382,0.043815185726,-0.2688889857,0.0,0.15797070309,0.0,2.39259079194,0.0,0.0,0.0,0.0,-0.679035642627,11.6338316612,52.3312991966,0.0130420605366,-100.0,0.111240712804,100.0,0.0,-100.0,0.116602360143,100.0,1536978.51183,0.0,0.0,0.0,0.0,0.0,0.0
1402598424342716491,0,7.12892150436,-0.114322152727,-16.0440016382,0.043815185726,-0.2688889857,0.0,0.15797070309,0.0,2.39259079194,0.0,0.0,0.0,0.0,-0.679035642627,11.6338316612,52.3312991966,0.0145762840931,-100.0,0.111240712804,100.0,0.0,-100.0,0.116602360143,100.0,1536978.51183,0.0,0.0,0.0,0.0,0.0,0.0
1402598424363048565,0,7.11748410853,-0.114322152727,-16.0375600415,0.043815185726,-0.277885877462,0.0,0.148758184965,0.0,2.42216459283,0.0,0.0,0.0,0.0,-0.679035642627,11.6338316612,52.3312991966,0.0130420605366,-100.0,0.111240712804,100.0,0.0,-100.0,0.116602360143,100.0,1536978.51183,0.0,0.0,0.0,0.0,0.0,0.0
1402598424382736147,0,7.11748410853,-0.114322152727,-16.0375600415,0.043815185726,-0.277885877462,0.0,0.148758184965,0.0,2.42216459283,0.0,0.0,0.0,0.0,-0.679035642627,11.6338316612,52.3312991966,0.0130420605366,-100.0,0.111240712804,100.0,0.0,-100.0,0.116602360143,100.0,1536978.51183,0.0,0.0,0.0,0.0,0.0,0.0
1402598424403267897,0,7.11813813177,-0.114322152727,-16.0180778865,0.043815185726,-0.294686301642,0.0,0.170812688244,0.0,2.44766032713,0.0,0.0,0.0,0.0,-0.679035642627,11.6338316612,52.3312991966,0.0130420605366,-100.0,0.111240712804,100.0,0.0,-100.0,0.116602360143,100.0,1536978.51183,0.0,0.0,0.0,0.0,0.0,0.0
1402598424422772784,0,7.11813813177,-0.114322152727,-16.0180778865,0.043815185726,-0.294686301642,0.0,0.170812688244,0.0,2.44766032713,0.0,0.0,0.0,0.0,-0.679035642627,11.6338316612,52.3312991966,0.0130420605366,-100.0,0.111240712804,100.0,0.0,-100.0,0.116602360143,100.0,1536978.51183,0.0,0.0,0.0,0.0,0.0,0.0
1402598424443056665,0,7.10594214583,-0.114322152727,-16.0112673548,0.043815185726,-0.300298171982,0.0,0.165349611776,0.0,2.47689281699,0.0,0.0,0.0,0.0,-0.679035642627,11.6338316612,52.3312991966,0.0130420605366,-100.0,0.111240712804,100.0,0.0,-100.0,0.116602360143,100.0,1536978.51183,0.0,0.0,0.0,0.0,0.0,0.0
1402598424462556682,0,7.10594214583,-0.114322152727,-16.0112673548,0.043815185726,-0.300298171982,0.0,0.165349611776,0.0,2.47689281699,0.0,0.0,0.0,0.0,-0.679035642627,11.6338316612,52.3312991966,0.0130420605366,-100.0,0.111240712804,100.0,0.0,-100.0,0.116602360143,100.0,1536978.51183,0.0,0.0,0.0,0.0,0.0,0.0
1402598424483209070,0,7.09624215367,-0.114322152727,-16.0032552242,0.043815185726,-0.315711650471,0.0,0.153567052298,0.0,2.5149383365,0.0,0.0,0.0,0.0,-0.679035642627,11.6338316612,52.3312991966,0.0130420605366,-100.0,0.111240712804,100.0,0.0,-100.0,0.116602360143,100.0,1536978.51183,0.0,0.0,0.0,0.0,0.0,0.0
1402598424502619401,0,7.09624215367,-0.114322152727,-16.0032552242,0.043815185726,-0.315711650471,0.0,0.153567052298,0.0,2.5149383365,0.0,0.0,0.0,0.0,-0.679035642627,11.6338316612,52.3312991966,0.0130420605366,-100.0,0.111240712804,100.0,0.0,-100.0,0.116602360143,100.0,1536978.51183,0.0,0.0,0.0,0.0,0.0,0.0
1402598424523226244,0,7.07980216426,-0.114322152727,-15.9957857583,0.043815185726,-0.32728407697,0.0,0.139474721382,0.0,2.55238291222,0.0,0.0,0.0,0.0,-0.679035642627,11.6338316612,52.3312991966,0.0115078369801,-100.0,0.111240712804,100.0,0.0,-100.0,0.116602360143,100.0,1536978.51183,0.0,0.0,0.0,0.0,0.0,0.0
1402598424542726666,0,7.07980216426,-0.114322152727,-15.9957857583,0.043815185726,-0.32728407697,0.0,0.139474721382,0.0,2.55238291222,0.0,0.0,0.0,0.0,-0.679035642627,11.6338316612,52.3312991966,0.0115078369801,-100.0,0.111240712804,100.0,0.0,-100.0,0.116602360143,100.0,1536978.51183,0.0,0.0,0.0,0.0,0.0,0.0
1402598424563287828,0,7.07279723808,-0.114322152727,-15.9927300191,0.043815185726,-0.332916138596,0.0,0.13803621089,0.0,2.56795078107,0.0,0.0,0.0,0.0,-0.679035642627,11.6338316612,52.3312991966,0.00997313658639,-100.0,0.111240712804,100.0,0.0,-100.0,0.116602360143,100.0,1536978.51183,0.0,0.0,0.0,0.0,0.0,0.0
1402598424582880693,0,7.07279723808,-0.114322152727,-15.9927300191,0.043815185726,-0.332916138596,0.0,0.13803621089,0.0,2.56795078107,0.0,0.0,0.0,0.0,-0.679035642627,11.6338316612,52.3312991966,0.00843891302987,-100.0,0.111240712804,100.0,0.0,-100.0,0.116602360143,100.0,1536978.51183,0.0,0.0,0.0,0.0,0.0,0.0
1402598424603194795,0,7.05896019211,-0.114322152727,-15.9874608383,0.043815185726,-0.341341961648,0.0,0.126408416565,0.0,2.59850887507,0.0,0.0,0.0,0.0,-0.679035642627,11.6338316612,52.3312991966,0.00690445105478,-100.0,0.111240712804,100.0,0.0,-100.0,0.116602360143,100.0,1536978.51183,0.0,0.0,0.0,0.0,0.0,0.0
1402598424622712210,0,7.05896019211,-0.114322152727,-15.9874608383,0.043815185726,-0.341341961648,0.0,0.126408416565,0.0,2.59850887507,0.0,0.0,0.0,0.0,-0.679035642627,11.6338316612,52.3312991966,0.00537022749826,-100.0,0.111240712804,100.0,0.0,-100.0,0.116602360143,100.0,1536978.51183,0.0,0.0,0.0,0.0,0.0,0.0
1402598424643319936,0,7.06517982259,-0.114322152727,-15.9823393276,0.043815185726,-0.329703877465,0.0,0.117438524161,0.0,2.62963891309,0.0,0.0,0.0,0.0,-0.679035642627,11.6338316612,52.3312991966,0.00537022749826,-100.0,0.111240712804,100.0,0.0,-100.0,0.116602360143,100.0,1536978.51183,0.0,0.0,0.0,0.0,0.0,0.0
1402598424662616475,0,7.06517982259,-0.114322152727,-15.9823393276,0.043815185726,-0.329703877465,0.0,0.117438524161,0.0,2.62963891309,0.0,0.0,0.0,0.0,-0.679035642627,11.6338316612,52.3312991966,0.00230154196664,-100.0,0.111240712804,100.0,0.0,-100.0,0.116602360143,100.0,1536978.51183,0.0,0.0,0.0,0.0,0.0,0.0
1402598424683277862,0,7.0514713881,-0.114322152727,-15.977496029,0.043815185726,-0.332063963949,0.0,0.110892835931,0.0,2.66102087672,0.0,0.0,0.0,0.0,-0.679035642627,11.6338316612,52.3312991966,0.00537022749826,-100.0,0.111240712804,100.0,0.0,-100.0,0.116602360143,100.0,1536978.51183,0.0,0.0,0.0,0.0,0.0,0.0
1402598424702807930,0,7.0514713881,-0.114322152727,-15.977496029,0.043815185726,-0.332063963949,0.0,0.110892835931,0.0,2.66102087672,0.0,0.0,0.0,0.0,-0.679035642627,11.6338316612,52.3312991966,0.00383600394174,-100.0,0.111240712804,100.0,0.0,-100.0,0.116602360143,100.0,1536978.51183,0.0,0.0,0.0,0.0,0.0,0.0
1402598424723408041,0,7.03340250064,-0.114322152727,-15.9684711177,0.043815185726,-0.356797886399,0.0,0.111325780949,0.0,2.69960187751,0.0,0.0,0.0,0.0,-0.679035642627,11.6338316612,52.3312991966,0.00383600394174,-100.0,0.111240712804,100.0,0.0,-100.0,0.116602360143,100.0,1536978.51183,0.0,0.0,0.0,0.0,0.0,0.0
1402598424742920071,0,7.03340250064,-0.114322152727,-15.9684711177,0.043815185726,-0.356797886399,0.0,0.111325780949,0.0,2.69960187751,0.0,0.0,0.0,0.0,-0.679035642627,11.6338316612,52.3312991966,0.00537022749826,-100.0,0.111240712804,100.0,0.0,-100.0,0.116602360143,100.0,1536978.51183,0.0,0.0,0.0,0.0,0.0,0.0
1402598424763501425,0,7.03374881646,-0.114322152727,-15.9696257386,0.043815185726,-0.350811222658,0.0,0.0988156237696,0.0,2.72405456307,0.0,0.0,0.0,0.0,-0.679035642627,11.6338316612,52.3312991966,0.00690445105478,-100.0,0.111240712804,100.0,0.0,-100.0,0.116602360143,100.0,1536978.51183,0.0,0.0,0.0,0.0,0.0,0.0
1402598424782554253,0,7.02648303863,-0.114322152727,-15.9676497622,0.043815185726,-0.353592850749,0.0,0.0969344265697,0.0,2.73973130133,0.0,0.0,0.0,0.0,-0.679035642627,11.6338316612,52.3312991966,0.00537022749826,-100.0,0.111240712804,100.0,0.0,-100.0,0.116602360143,100.0,1536978.51183,0.0,0.0,0.0,0.0,0.0,0.0
1402598424803246906,0,7.02648303863,-0.114322152727,-15.9676497622,0.043815185726,-0.353592850749,0.0,0.0969344265697,0.0,2.73973130133,0.0,0.0,0.0,0.0,-0.679035642627,11.6338316612,52.3312991966,0.00537022749826,-100.0,0.111240712804,100.0,0.0,-100.0,0.116602360143,100.0,1536978.51183,0.0,0.0,0.0,0.0,0.0,0.0
1402598424822775580,0,7.01956990155,-0.114322152727,-15.9657721812,0.043815185726,-0.349947332409,0.0,0.0884686601925,0.0,2.7546986421,0.0,0.0,0.0,0.0,-0.679035642627,11.6338316612,52.3312991966,0.00537022749826,-100.0,0.111240712804,100.0,0.0,-100.0,0.116602360143,100.0,1536978.51183,0.0,0.0,0.0,0.0,0.0,0.0
1402598424843246022,0,7.01956990155,-0.114322152727,-15.9657721812,0.043815185726,-0.349947332409,0.0,0.0884686601925,0.0,2.7546986421,0.0,0.0,0.0,0.0,-0.679035642627,11.6338316612,52.3312991966,0.00537022749826,-100.0,0.111240712804,100.0,0.0,-100.0,0.116602360143,100.0,1536978.51183,0.0,0.0,0.0,0.0,0.0,0.0
1402598424862833121,0,7.03179563636,-0.114322152727,-15.9438965942,0.043815185726,-0.311859008677,0.0,0.115058329956,0.0,2.78057197759,0.0,0.0,0.0,0.0,-0.679035642627,11.6338316612,52.3312991966,0.00537022749826,-100.0,0.112774936361,100.0,0.0,-100.0,0.116602360143,100.0,1536978.51183,0.0,0.0,0.0,0.0,0.0,0.0
1402598424883571297,0,7.03179563636,-0.114322152727,-15.9438965942,0.043815185726,-0.311859008677,0.0,0.115058329956,0.0,2.78057197759,0.0,0.0,0.0,0.0,-0.679035642627,11.6338316612,52.3312991966,0.00537022749826,-100.0,0.111240712804,100.0,0.0,-100.0,0.116602360143,100.0,1536978.51183,0.0,0.0,0.0,0.0,0.0,0.0
1402598424902946678,0,7.01876392681,-0.114322152727,-15.9394894693,0.043815185726,-0.314628851816,0.0,0.0984875459559,0.0,2.81093872537,0.0,0.0,0.0,0.0,-0.679035642627,11.6338316612,52.3312991966,0.00537022749826,-100.0,0.111240712804,100.0,0.0,-100.0,0.116602360143,100.0,1536978.51183,0.0,0.0,0.0,0.0,0.0,0.0
1402598424923395453,0,7.01876392681,-0.114322152727,-15.9394894693,0.043815185726,-0.314628851816,0.0,0.0984875459559,0.0,2.81093872537,0.0,0.0,0.0,0.0,-0.679035642627,11.6338316612,52.3312991966,0.00690445105478,-100.0,0.112774936361,100.0,0.0,-100.0,0.116602360143,100.0,1536978.51183,0.0,0.0,0.0,0.0,0.0,0.0
1402598424942801249,0,7.02124321139,-0.114322152727,-15.9382033702,0.043815185726,-0.312337735167,0.0,0.102831171477,0.0,2.84190817001,0.0,0.0,0.0,0.0,-0.679035642627,11.6338316612,52.3312991966,0.00537022749826,-100.0,0.111240712804,100.0,0.0,-100.0,0.116602360143,100.0,1536978.51183,0.0,0.0,0.0,0.0,0.0,0.0
1402598424963397200,0,7.02124321139,-0.114322152727,-15.9382033702,0.043815185726,-0.312337735167,0.0,0.102831171477,0.0,2.84190817001,0.0,0.0,0.0,0.0,-0.679035642627,11.6338316612,52.3312991966,0.00537022749826,-100.0,0.111240712804,100.0,0.0,-100.0,0.116602360143,100.0,1536978.51183,0.0,0.0,0.0,0.0,0.0,0.0
1402598424982756042,0,7.00814154213,-0.114322152727,-15.9346557399,0.043815185726,-0.321058523509,0.0,0.0812261008883,0.0,2.87225962082,0.0,0.0,0.0,0.0,-0.679035642627,11.6338316612,52.3312991966,0.00537022749826,-100.0,0.111240712804,100.0,0.0,-100.0,0.116602360143,100.0,1536978.51183,0.0,0.0,0.0,0.0,0.0,0.0
1402598425003233371,0,7.00814154213,-0.114322152727,-15.9346557399,0.043815185726,-0.321058523509,0.0,0.0812261008883,0.0,2.87225962082,0.0,0.0,0.0,0.0,-0.679035642627,11.6338316612,52.3312991966,0.00537022749826,-100.0,0.112774936361,100.0,0.0,-100.0,0.116602360143,100.0,1536978.51183,0.0,0.0,0.0,0.0,0.0,0.0
1402598425022713806,0,6.99358181153,-0.114322152727,-15.9263685977,0.043815185726,-0.355960562519,0.0,0.0807049957457,0.0,2.90010674239,0.0,0.0,0.0,0.0,-0.679035642627,11.6338316612,52.3312991966,0.00537022749826,-100.0,0.111240712804,100.0,0.0,-100.0,0.116602360143,100.0,1536978.51183,0.0,0.0,0.0,0.0,0.0,0.0
1402598425043349603,0,6.99358181153,-0.114322152727,-15.9263685977,0.043815185726,-0.355960562519,0.0,0.0807049957457,0.0,2.90010674239,0.0,0.0,0.0,0.0,-0.679035642627,11.6338316612,52.3312991966,0.00383600394174,-100.0,0.111240712804,100.0,0.0,-100.0,0.116602360143,100.0,1536978.51183,0.0,0.0,0.0,0.0,0.0,0.0
1402598425062944880,0,6.94609795317,-0.114322152727,-15.9533522584,0.043815185726,-0.445095786209,0.0,-0.00518434155292,0.0,2.93712583945,0.0,0.0,0.0,0.0,-0.679035642627,11.6338316612,52.3312991966,0.00537022749826,-100.0,0.111240712804,100.0,0.0,-100.0,0.116602360143,100.0,1536978.51183,0.0,0.0,0.0,0.0,0.0,0.0
1402598425083354496,0,6.94609795317,-0.114322152727,-15.9533522584,0.043815185726,-0.445095786209,0.0,-0.00518434155292,0.0,2.93712583945,0.0,0.0,0.0,0.0,-0.679035642627,11.6338316612,52.3312991966,0.00537022749826,-100.0,0.111240712804,100.0,0.0,-100.0,0.116602360143,100.0,1536978.51183,0.0,0.0,0.0,0.0,0.0,0.0
1402598425102857652,0,6.87877454911,-0.114322152727,-16.0047839908,0.043815185726,-0.552240725852,0.0,-0.147991071258,0.0,2.98791240406,0.0,0.0,0.0,0.0,-0.679035642627,11.6338316612,52.3312991966,0.00537022749826,-100.0,0.111240712804,100.0,0.0,-100.0,0.116602360143,100.0,1536978.51183,0.0,0.0,0.0,0.0,0.0,0.0
1402598425123288953,0,6.87877454911,-0.114322152727,-16.0047839908,0.043815185726,-0.552240725852,0.0,-0.147991071258,0.0,2.98791240406,0.0,0.0,0.0,0.0,-0.679035642627,11.6338316612,52.3312991966,0.00537022749826,-100.0,0.111240712804,100.0,0.0,-100.0,0.116602360143,100.0,1536978.51183,0.0,0.0,0.0,0.0,0.0,0.0
1402598425142735713,0,6.85380608772,-0.114322152727,-15.9966589193,0.043815185726,-0.561047502564,0.0,-0.144741863632,0.0,3.02337067568,0.0,0.0,0.0,0.0,-0.679035642627,11.6338316612,52.3312991966,0.00537022749826,-100.0,0.111240712804,100.0,0.0,-100.0,0.116602360143,100.0,1536978.51183,0.0,0.0,0.0,0.0,0.0,0.0
1402598425163424547,0,6.85380608772,-0.114322152727,-15.9966589193,0.043815185726,-0.561047502564,0.0,-0.144741863632,0.0,3.02337067568,0.0,0.0,0.0,0.0,-0.679035642627,11.6338316612,52.3312991966,0.00537022749826,-100.0,0.111240712804,100.0,0.0,-100.0,0.116602360143,100.0,1536978.51183,0.0,0.0,0.0,0.0,0.0,0.0
1402598425182842907,0,6.86770289325,-0.114322152727,-15.983480889,0.043815185726,-0.519255092322,0.0,-0.112384406362,0.0,3.03630939848,0.0,0.0,0.0,0.0,-0.679035642627,11.6338316612,52.3312991966,0.00537022749826,-100.0,0.111240712804,100.0,0.0,-100.0,0.116602360143,100.0,1536978.51183,0.0,0.0,0.0,0.0,0.0,0.0
1402598425203436561,0,6.86770289325,-0.114322152727,-15.983480889,0.043815185726,-0.519255092322,0.0,-0.112384406362,0.0,3.03630939848,0.0,0.0,0.0,0.0,-0.679035642627,11.6338316612,52.3312991966,0.00537022749826,-100.0,0.112774936361,100.0,0.0,-100.0,0.116602360143,100.0,1536978.51183,0.0,0.0,0.0,0.0,0.0,0.0
1402598425222880321,0,6.8462157077,-0.114322152727,-15.9882664029,0.043815185726,-0.530182723882,0.0,-0.121955657341,0.0,3.06627046746,0.0,0.0,0.0,0.0,-0.679035642627,11.6338316612,52.3312991966,0.00537022749826,-100.0,0.111240712804,100.0,0.0,-100.0,0.116602360143,100.0,1536978.51183,0.0,0.0,0.0,0.0,0.0,0.0
1402598425243439379,0,6.8462157077,-0.114322152727,-15.9882664029,0.043815185726,-0.530182723882,0.0,-0.121955657341,0.0,3.06627046746,0.0,0.0,0.0,0.0,-0.679035642627,11.6338316612,52.3312991966,0.00537022749826,-100.0,0.111240712804,100.0,0.0,-100.0,0.116602360143,100.0,1536978.51183,0.0,0.0,0.0,0.0,0.0,0.0
1402598425262721210,0,6.89937383836,-0.114322152727,-15.9804021513,0.043815185726,-0.370519180996,0.0,-0.0772888065662,0.0,3.10133122027,0.0,0.0,0.0,0.0,-0.679035642627,11.6338316612,52.3312991966,0.00537022749826,-100.0,0.111240712804,100.0,0.0,-100.0,0.116602360143,100.0,1536978.51183,0.0,0.0,0.0,0.0,0.0,0.0
1402598425283350192,0,6.89937383836,-0.114322152727,-15.9804021513,0.043815185726,-0.370519180996,0.0,-0.0772888065662,0.0,3.10133122027,0.0,0.0,0.0,0.0,-0.679035642627,11.6338316612,52.3312991966,0.00537022749826,-100.0,0.111240712804,100.0,0.0,-100.0,0.116602360143,100.0,1536978.51183,0.0,0.0,0.0,0.0,0.0,0.0
1402598425302965292,0,6.8841823795,-0.114322152727,-15.9841132548,0.043815185726,-0.371676488112,0.0,-0.0869499470224,0.0,3.13053324918,0.0,0.0,0.0,0.0,-0.679035642627,11.6338316612,52.3312991966,0.00537022749826,-100.0,0.111240712804,100.0,0.0,-100.0,0.116602360143,100.0,1536978.51183,0.0,0.0,0.0,0.0,0.0,0.0
1402598425323490645,0,6.8841823795,-0.114322152727,-15.9841132548,0.043815185726,-0.371676488112,0.0,-0.0869499470224,0.0,3.13053324918,0.0,0.0,0.0,0.0,-0.679035642627,11.6338316612,52.3312991966,0.00537022749826,-100.0,0.111240712804,100.0,0.0,-100.0,0.116602360143,100.0,1536978.51183,0.0,0.0,0.0,0.0,0.0,0.0
1402598425342886746,0,6.94321952031,-0.114322152727,-15.9203226792,0.043815185726,-0.191521892332,0.0,0.071820563041,0.0,-3.12749103027,0.0,0.0,0.0,0.0,-0.679035642627,11.6338316612,52.3312991966,0.00537022749826,-100.0,0.111240712804,100.0,0.0,-100.0,0.116602360143,100.0,1536978.51183,0.0,0.0,0.0,0.0,0.0,0.0
1402598425363256388,0,6.94321952031,-0.114322152727,-15.9203226792,0.043815185726,-0.191521892332,0.0,0.071820563041,0.0,-3.12749103027,0.0,0.0,0.0,0.0,-0.679035642627,11.6338316612,52.3312991966,0.00537022749826,-100.0,0.111240712804,100.0,0.0,-100.0,0.116602360143,100.0,1536978.51183,0.0,0.0,0.0,0.0,0.0,0.0
1402598425383477978,0,6.92506578993,-0.114322152727,-15.8490960494,0.043815185726,-0.181145948644,0.0,0.205003837755,0.0,-3.11175834752,0.0,0.0,0.0,0.0,-0.679035642627,11.6338316612,52.3312991966,0.00537022749826,-100.0,0.111240712804,100.0,0.0,-100.0,0.116602360143,100.0,1536978.51183,0.0,0.0,0.0,0.0,0.0,0.0
1402598425403305613,0,6.92506578993,-0.114322152727,-15.8490960494,0.043815185726,-0.181145948644,0.0,0.205003837755,0.0,-3.11175834752,0.0,0.0,0.0,0.0,-0.679035642627,11.6338316612,52.3312991966,0.00537022749826,-100.0,0.111240712804,100.0,0.0,-100.0,0.116602360143,100.0,1536978.51183,0.0,0.0,0.0,0.0,0.0,0.0
1402598425422782405,0,6.91802188393,-0.114322152727,-15.8411339225,0.043815185726,-0.167607196294,0.0,0.193380426457,0.0,-3.08259262917,0.0,0.0,0.0,0.0,-0.679035642627,11.6338316612,52.3312991966,0.00537022749826,-100.0,0.111240712804,100.0,0.0,-100.0,0.116602360143,100.0,1536978.51183,0.0,0.0,0.0,0.0,0.0,0.0
1402598425443258231,0,6.91802188393,-0.114322152727,-15.8411339225,0.043815185726,-0.167607196294,0.0,0.193380426457,0.0,-3.08259262917,0.0,0.0,0.0,0.0,-0.679035642627,11.6338316612,52.3312991966,0.00537022749826,-100.0,0.111240712804,100.0,0.0,-100.0,0.116602360143,100.0,1536978.51183,0.0,0.0,0.0,0.0,0.0,0.0
1402598425464542129,0,6.90972734866,-0.114322152727,-15.8315508095,0.043815185726,-0.152005803376,0.0,0.179598239022,0.0,-3.0457807497,0.0,0.0,0.0,0.0,-0.679035642627,11.6338316612,52.3312991966,0.00690445105478,-100.0,0.111240712804,100.0,0.0,-100.0,0.116602360143,100.0,1536978.51183,0.0,0.0,0.0,0.0,0.0,0.0
1402598425483474898,0,6.90972734866,-0.114322152727,-15.8315508095,0.043815185726,-0.152005803376,0.0,0.179598239022,0.0,-3.0457807497,0.0,0.0,0.0,0.0,-0.679035642627,11.6338316612,52.3312991966,0.00690445105478,-100.0,0.111240712804,100.0,0.0,-100.0,0.116602360143,100.0,1536978.51183,0.0,0.0,0.0,0.0,0.0,0.0
1402598425502581581,0,6.9027041471,-0.114322152727,-15.8225570303,0.043815185726,-0.13079978484,0.0,0.168732714681,0.0,-3.00773299231,0.0,0.0,0.0,0.0,-0.679035642627,11.6338316612,52.3312991966,0.00843891302987,-100.0,0.111240712804,100.0,0.0,-100.0,0.116602360143,100.0,1536978.51183,0.0,0.0,0.0,0.0,0.0,0.0
1402598425523259185,0,6.9027041471,-0.114322152727,-15.8225570303,0.043815185726,-0.13079978484,0.0,0.168732714681,0.0,-3.00773299231,0.0,0.0,0.0,0.0,-0.679035642627,11.6338316612,52.3312991966,0.0115078369801,-100.0,0.111240712804,100.0,0.0,-100.0,0.116602360143,100.0,1536978.51183,0.0,0.0,0.0,0.0,0.0,0.0
1402598425542620212,0,6.90001158147,-0.114322152727,-15.8192836673,0.043815185726,-0.118179582412,0.0,0.16158310055,0.0,-2.99201084341,0.0,0.0,0.0,0.0,-0.679035642627,11.6338316612,52.3312991966,0.0130420605366,-100.0,0.111240712804,100.0,0.0,-100.0,0.116602360143,100.0,1536978.51183,0.0,0.0,0.0,0.0,0.0,0.0
1402598425563148276,0,6.90001158147,-0.114322152727,-15.8192836673,0.043815185726,-0.118179582412,0.0,0.16158310055,0.0,-2.99201084341,0.0,0.0,0.0,0.0,-0.679035642627,11.6338316612,52.3312991966,0.0130420605366,-100.0,0.111240712804,100.0,0.0,-100.0,0.116602360143,100.0,1536978.51183,0.0,0.0,0.0,0.0,0.0,0.0
1402598425582820248,0,6.80549303215,-0.114322152727,-15.8695725467,0.043815185726,-0.308342879354,0.0,-0.0552703497748,0.0,-2.97932630339,0.0,0.0,0.0,0.0,-0.679035642627,11.6338316612,52.3312991966,0.0130420605366,-100.0,0.111240712804,100.0,0.0,-100.0,0.116602360143,100.0,1536978.51183,0.0,0.0,0.0,0.0,0.0,0.0
1402598425603467951,0,6.80549303215,-0.114322152727,-15.8695725467,0.043815185726,-0.308342879354,0.0,-0.0552703497748,0.0,-2.97932630339,0.0,0.0,0.0,0.0,-0.679035642627,11.6338316612,52.3312991966,0.0145762840931,-100.0,0.111240712804,100.0,0.0,-100.0,0.116602360143,100.0,1536978.51183,0.0,0.0,0.0,0.0,0.0,0.0
1402598425624028433,0,6.78267019408,-0.114322152727,-15.8838357486,0.043815185726,-0.307976786199,0.0,-0.111645503649,0.0,-2.94465624267,0.0,0.0,0.0,0.0,-0.679035642627,11.6338316612,52.3312991966,0.0145762840931,-100.0,0.111240712804,100.0,0.0,-100.0,0.116602360143,100.0,1536978.51183,0.0,0.0,0.0,0.0,0.0,0.0
1402598425643295183,0,6.78267019408,-0.114322152727,-15.8838357486,0.043815185726,-0.307976786199,0.0,-0.111645503649,0.0,-2.94465624267,0.0,0.0,0.0,0.0,-0.679035642627,11.6338316612,52.3312991966,0.0145762840931,-100.0,0.111240712804,100.0,0.0,-100.0,0.116602360143,100.0,1536978.51183,0.0,0.0,0.0,0.0,0.0,0.0
1402598425662957309,0,6.76364760414,-0.114322152727,-15.8800656502,0.043815185726,-0.322168707037,0.0,-0.109508361667,0.0,-2.92265642278,0.0,0.0,0.0,0.0,-0.679035642627,11.6338316612,52.3312991966,0.0130420605366,-100.0,0.112774936361,100.0,0.0,-100.0,0.116602360143,100.0,1536978.51183,0.0,0.0,0.0,0.0,0.0,0.0
1402598425683428437,0,6.74102084325,-0.114322152727,-15.8852863563,0.043815185726,-0.318906053535,0.0,-0.126423755649,0.0,-2.89294668575,0.0,0.0,0.0,0.0,-0.679035642627,11.6338316612,52.3312991966,0.0130420605366,-100.0,0.111240712804,100.0,0.0,-100.0,0.116602360143,100.0,1536978.51183,0.0,0.0,0.0,0.0,0.0,0.0
1402598425702687725,0,6.74102084325,-0.114322152727,-15.8852863563,0.043815185726,-0.318906053535,0.0,-0.126423755649,0.0,-2.89294668575,0.0,0.0,0.0,0.0,-0.679035642627,11.6338316612,52.3312991966,0.0130420605366,-100.0,0.111240712804,100.0,0.0,-100.0,0.116602360143,100.0,1536978.51183,0.0,0.0,0.0,0.0,0.0,0.0
1402598425723285799,0,6.73440826729,-0.114322152727,-15.8880472217,0.043815185726,-0.313191502112,0.0,-0.127647130387,0.0,-2.87701621762,0.0,0.0,0.0,0.0,-0.679035642627,11.6338316612,52.3312991966,0.0130420605366,-100.0,0.111240712804,100.0,0.0,-100.0,0.116602360143,100.0,1536978.51183,0.0,0.0,0.0,0.0,0.0,0.0
1402598425742686142,0,6.73440826729,-0.114322152727,-15.8880472217,0.043815185726,-0.313191502112,0.0,-0.127647130387,0.0,-2.87701621762,0.0,0.0,0.0,0.0,-0.679035642627,11.6338316612,52.3312991966,0.0130420605366,-100.0,0.111240712804,100.0,0.0,-100.0,0.116602360143,100.0,1536978.51183,0.0,0.0,0.0,0.0,0.0,0.0
1402598425763399129,0,6.72746945928,-0.114322152727,-15.8922118481,0.043815185726,-0.304828951967,0.0,-0.134362302396,0.0,-2.86159688231,0.0,0.0,0.0,0.0,-0.679035642627,11.6338316612,52.3312991966,0.0130420605366,-100.0,0.111240712804,100.0,0.0,-100.0,0.116602360143,100.0,1536978.51183,0.0,0.0,0.0,0.0,0.0,0.0
1402598425782648046,0,6.72746945928,-0.114322152727,-15.8922118481,0.043815185726,-0.304828951967,0.0,-0.134362302396,0.0,-2.86159688231,0.0,0.0,0.0,0.0,-0.679035642627,11.6338316612,52.3312991966,0.0130420605366,-100.0,0.111240712804,100.0,0.0,-100.0,0.116602360143,100.0,1536978.51183,0.0,0.0,0.0,0.0,0.0,0.0
1402598425802545567,0,6.71545641962,-0.114322152727,-15.8976034074,0.043815185726,-0.290970470472,0.0,-0.130055438653,0.0,-2.83147835498,0.0,0.0,0.0,0.0,-0.679035642627,11.6338316612,52.3312991966,0.0130420605366,-100.0,0.111240712804,100.0,0.0,-100.0,0.116602360143,100.0,1536978.51183,0.0,0.0,0.0,0.0,0.0,0.0
1402598425823228687,0,6.71545641962,-0.114322152727,-15.8976034074,0.043815185726,-0.290970470472,0.0,-0.130055438653,0.0,-2.83147835498,0.0,0.0,0.0,0.0,-0.679035642627,11.6338316612,52.3312991966,0.0130420605366,-100.0,0.111240712804,100.0,0.0,-100.0,0.116602360143,100.0,1536978.51183,0.0,0.0,0.0,0.0,0.0,0.0
1402598425842667454,0,6.70392979983,-0.114322152727,-15.9031071243,0.043815185726,-0.277811983761,0.0,-0.135184271144,0.0,-2.80196245198,0.0,0.0,0.0,0.0,-0.679035642627,11.6338316612,52.3312991966,0.0130420605366,-100.0,0.111240712804,100.0,0.0,-100.0,0.116602360143,100.0,1536978.51183,0.0,0.0,0.0,0.0,0.0,0.0
1402598425863274782,0,6.70392979983,-0.114322152727,-15.9031071243,0.043815185726,-0.277811983761,0.0,-0.135184271144,0.0,-2.80196245198,0.0,0.0,0.0,0.0,-0.679035642627,11.6338316612,52.3312991966,0.0130420605366,-100.0,0.111240712804,100.0,0.0,-100.0,0.116602360143,100.0,1536978.51183,0.0,0.0,0.0,0.0,0.0,0.0
1402598425882651079,0,6.69007533809,-0.114322152727,-15.9102696645,0.043815185726,-0.264900882931,0.0,-0.140280574588,0.0,-2.76470548394,0.0,0.0,0.0,0.0,-0.679035642627,11.6338316612,52.3312991966,0.0130420605366,-100.0,0.111240712804,100.0,0.0,-100.0,0.116602360143,100.0,1536978.51183,0.0,0.0,0.0,0.0,0.0,0.0
1402598425903216009,0,6.69007533809,-0.114322152727,-15.9102696645,0.043815185726,-0.264900882931,0.0,-0.140280574588,0.0,-2.76470548394,0.0,0.0,0.0,0.0,-0.679035642627,11.6338316612,52.3312991966,0.0130420605366,-100.0,0.111240712804,100.0,0.0,-100.0,0.116602360143,100.0,1536978.51183,0.0,0.0,0.0,0.0,0.0,0.0
1402598425922713576,0,6.67673989476,-0.114322152727,-15.9177214476,0.043815185726,-0.249804570805,0.0,-0.15151558272,0.0,-2.72836093451,0.0,0.0,0.0,0.0,-0.679035642627,11.6338316612,52.3312991966,0.0115078369801,-100.0,0.112774936361,100.0,0.0,-100.0,0.116602360143,100.0,1536978.51183,0.0,0.0,0.0,0.0,0.0,0.0
1402598425943780533,0,6.67673989476,-0.114322152727,-15.9177214476,0.043815185726,-0.249804570805,0.0,-0.15151558272,0.0,-2.72836093451,0.0,0.0,0.0,0.0,-0.679035642627,11.6338316612,52.3312991966,0.0115078369801,-100.0,0.112774936361,100.0,0.0,-100.0,0.116602360143,100.0,1536978.51183,0.0,0.0,0.0,0.0,0.0,0.0
1402598425962782290,0,6.67163132842,-0.114322152727,-15.9211081229,0.043815185726,-0.243837606156,0.0,-0.163049300129,0.0,-2.71326022608,0.0,0.0,0.0,0.0,-0.679035642627,11.6338316612,52.3312991966,0.0115078369801,-100.0,0.111240712804,100.0,0.0,-100.0,0.116602360143,100.0,1536978.51183,0.0,0.0,0.0,0.0,0.0,0.0
1402598425983359308,0,6.67163132842,-0.114322152727,-15.9211081229,0.043815185726,-0.243837606156,0.0,-0.163049300129,0.0,-2.71326022608,0.0,0.0,0.0,0.0,-0.679035642627,11.6338316612,52.3312991966,0.0115078369801,-100.0,0.112774936361,100.0,0.0,-100.0,0.116602360143,100.0,1536978.51183,0.0,0.0,0.0,0.0,0.0,0.0
1402598426002718827,0,6.67012940549,-0.114322152727,-15.9201929489,0.043815185726,-0.210725860827,0.0,-0.158217286455,0.0,-2.67984971818,0.0,0.0,0.0,0.0,-0.679035642627,11.6338316612,52.3312991966,0.0115078369801,-100.0,0.111240712804,100.0,0.0,-100.0,0.116602360143,100.0,1536978.51183,0.0,0.0,0.0,0.0,0.0,0.0
1402598426023315030,0,6.67012940549,-0.114322152727,-15.9201929489,0.043815185726,-0.210725860827,0.0,-0.158217286455,0.0,-2.67984971818,0.0,0.0,0.0,0.0,-0.679035642627,11.6338316612,52.3312991966,0.0115078369801,-100.0,0.111240712804,100.0,0.0,-100.0,0.116602360143,100.0,1536978.51183,0.0,0.0,0.0,0.0,0.0,0.0
1402598426042378747,0,6.66666290951,-0.114322152727,-15.929328607,0.043815185726,-0.185747417721,0.0,-0.179426713744,0.0,-2.64766730868,0.0,0.0,0.0,0.0,-0.679035642627,11.6338316612,52.3312991966,0.0115078369801,-100.0,0.111240712804,100.0,0.0,-100.0,0.116602360143,100.0,1536978.51183,0.0,0.0,0.0,0.0,0.0,0.0
1402598426063375360,0,6.66666290951,-0.114322152727,-15.929328607,0.043815185726,-0.185747417721,0.0,-0.179426713744,0.0,-2.64766730868,0.0,0.0,0.0,0.0,-0.679035642627,11.6338316612,52.3312991966,0.00997313658639,-100.0,0.111240712804,100.0,0.0,-100.0,0.116602360143,100.0,1536978.51183,0.0,0.0,0.0,0.0,0.0,0.0
1402598426083041494,0,6.66445943073,-0.114322152727,-15.9324696943,0.043815185726,-0.156910282968,0.0,-0.181960767687,0.0,-2.61454256071,0.0,0.0,0.0,0.0,-0.679035642627,11.6338316612,52.3312991966,0.00997313658639,-100.0,0.111240712804,100.0,0.0,-100.0,0.116602360143,100.0,1536978.51183,0.0,0.0,0.0,0.0,0.0,0.0
1402598426103274754,0,6.66445943073,-0.114322152727,-15.9324696943,0.043815185726,-0.156910282968,0.0,-0.181960767687,0.0,-2.61454256071,0.0,0.0,0.0,0.0,-0.679035642627,11.6338316612,52.3312991966,0.00843891302987,-100.0,0.111240712804,100.0,0.0,-100.0,0.116602360143,100.0,1536978.51183,0.0,0.0,0.0,0.0,0.0,0.0
1402598426122730831,0,6.65680802931,-0.114322152727,-15.9421302714,0.043815185726,-0.135632877979,0.0,-0.190247847676,0.0,-2.57471951588,0.0,0.0,0.0,0.0,-0.679035642627,11.6338316612,52.3312991966,0.00843891302987,-100.0,0.111240712804,100.0,0.0,-100.0,0.116602360143,100.0,1536978.51183,0.0,0.0,0.0,0.0,0.0,0.0
1402598426143097353,0,6.65680802931,-0.114322152727,-15.9421302714,0.043815185726,-0.135632877979,0.0,-0.190247847676,0.0,-2.57471951588,0.0,0.0,0.0,0.0,-0.679035642627,11.6338316612,52.3312991966,0.00843891302987,-100.0,0.112774936361,100.0,0.0,-100.0,0.116602360143,100.0,1536978.51183,0.0,0.0,0.0,0.0,0.0,0.0
1402598426162834749,0,6.53185127719,-0.114322152727,-16.0111301091,0.043815185726,-0.351583641862,0.0,-0.395479853907,0.0,-2.56534994794,0.0,0.0,0.0,0.0,-0.679035642627,11.6338316612,52.3312991966,0.00690445105478,-100.0,0.112774936361,100.0,0.0,-100.0,0.116602360143,100.0,1536978.51183,0.0,0.0,0.0,0.0,0.0,0.0
1402598426183547909,0,6.53185127719,-0.114322152727,-16.0111301091,0.043815185726,-0.351583641862,0.0,-0.395479853907,0.0,-2.56534994794,0.0,0.0,0.0,0.0,-0.679035642627,11.6338316612,52.3312991966,0.00690445105478,-100.0,0.112774936361,100.0,0.0,-100.0,0.116602360143,100.0,1536978.51183,0.0,0.0,0.0,0.0,0.0,0.0
1402598426202674666,0,6.52451902395,-0.114322152727,-16.019489344,0.043815185726,-0.348482760222,0.0,-0.408245911074,0.0,-2.54903388671,0.0,0.0,0.0,0.0,-0.679035642627,11.6338316612,52.3312991966,0.00843891302987,-100.0,0.112774936361,100.0,0.0,-100.0,0.116602360143,100.0,1536978.51183,0.0,0.0,0.0,0.0,0.0,0.0
1402598426223593870,0,6.52451902395,-0.114322152727,-16.019489344,0.043815185726,-0.348482760222,0.0,-0.408245911074,0.0,-2.54903388671,0.0,0.0,0.0,0.0,-0.679035642627,11.6338316612,52.3312991966,0.00690445105478,-100.0,0.112774936361,100.0,0.0,-100.0,0.116602360143,100.0,1536978.51183,0.0,0.0,0.0,0.0,0.0,0.0
1402598426242639715,0,6.51731066603,-0.114322152727,-16.0284031716,0.043815185726,-0.339953676852,0.0,-0.420795942059,0.0,-2.53256368447,0.0,0.0,0.0,0.0,-0.679035642627,11.6338316612,52.3312991966,0.00843891302987,-100.0,0.112774936361,100.0,0.0,-100.0,0.116602360143,100.0,1536978.51183,0.0,0.0,0.0,0.0,0.0,0.0
1402598426263245147,0,6.51731066603,-0.114322152727,-16.0284031716,0.043815185726,-0.339953676852,0.0,-0.420795942059,0.0,-2.53256368447,0.0,0.0,0.0,0.0,-0.679035642627,11.6338316612,52.3312991966,0.00690445105478,-100.0,0.111240712804,100.0,0.0,-100.0,0.116602360143,100.0,1536978.51183,0.0,0.0,0.0,0.0,0.0,0.0
1402598426282668686,0,6.50786878831,-0.114322152727,-16.0514592688,0.043815185726,-0.337696760163,0.0,-0.449948480906,0.0,-2.50248125946,0.0,0.0,0.0,0.0,-0.679035642627,11.6338316612,52.3312991966,0.00843891302987,-100.0,0.111240712804,100.0,0.0,-100.0,0.116602360143,100.0,1536978.51183,0.0,0.0,0.0,0.0,0.0,0.0
1402598426303048515,0,6.50786878831,-0.114322152727,-16.0514592688,0.043815185726,-0.337696760163,0.0,-0.449948480906,0.0,-2.50248125946,0.0,0.0,0.0,0.0,-0.679035642627,11.6338316612,52.3312991966,0.00843891302987,-100.0,0.111240712804,100.0,0.0,-100.0,0.116602360143,100.0,1536978.51183,0.0,0.0,0.0,0.0,0.0,0.0
1402598426322616356,0,6.52707299741,-0.114322152727,-16.0586684353,0.043815185726,-0.268474121095,0.0,-0.419940182828,0.0,-2.45869344569,0.0,0.0,0.0,0.0,-0.679035642627,11.6338316612,52.3312991966,0.00690445105478,-100.0,0.112774936361,100.0,0.0,-100.0,0.116602360143,100.0,1536978.51183,0.0,0.0,0.0,0.0,0.0,0.0
1402598426343096452,0,6.52707299741,-0.114322152727,-16.0586684353,0.043815185726,-0.268474121095,0.0,-0.419940182828,0.0,-2.45869344569,0.0,0.0,0.0,0.0,-0.679035642627,11.6338316612,52.3312991966,0.00537022749826,-100.0,0.111240712804,100.0,0.0,-100.0,0.116602360143,100.0,1536978.51183,0.0,0.0,0.0,0.0,0.0,0.0
1402598426362556514,0,6.51377295841,-0.114322152727,-16.0810594989,0.043815185726,-0.258264700861,0.0,-0.434421225594,0.0,-2.41839810937,0.0,0.0,0.0,0.0,-0.679035642627,11.6338316612,52.3312991966,0.00537022749826,-100.0,0.111240712804,100.0,0.0,-100.0,0.116602360143,100.0,1536978.51183,0.0,0.0,0.0,0.0,0.0,0.0
1402598426383117666,0,6.51377295841,-0.114322152727,-16.0810594989,0.043815185726,-0.258264700861,0.0,-0.434421225594,0.0,-2.41839810937,0.0,0.0,0.0,0.0,-0.679035642627,11.6338316612,52.3312991966,0.00383600394174,-100.0,0.111240712804,100.0,0.0,-100.0,0.116602360143,100.0,1536978.51183,0.0,0.0,0.0,0.0,0.0,0.0
1402598426402532531,0,6.50572872468,-0.114322152727,-16.0950728234,0.043815185726,-0.249521121047,0.0,-0.438468696957,0.0,-2.39405591089,0.0,0.0,0.0,0.0,-0.679035642627,11.6338316612,52.3312991966,0.00383600394174,-100.0,0.111240712804,100.0,0.0,-100.0,0.116602360143,100.0,1536978.51183,0.0,0.0,0.0,0.0,0.0,0.0
1402598426423218551,0,6.47523722158,-0.114322152727,-16.1134111692,0.043815185726,-0.289553870167,0.0,-0.48584031545,0.0,-2.38711546495,0.0,0.0,0.0,0.0,-0.679035642627,11.6338316612,52.3312991966,0.00383600394174,-100.0,0.111240712804,100.0,0.0,-100.0,0.116602360143,100.0,1536978.51183,0.0,0.0,0.0,0.0,0.0,0.0
1402598426442551698,0,6.47523722158,-0.114322152727,-16.1134111692,0.043815185726,-0.289553870167,0.0,-0.48584031545,0.0,-2.38711546495,0.0,0.0,0.0,0.0,-0.679035642627,11.6338316612,52.3312991966,0.00383600394174,-100.0,0.112774936361,100.0,0.0,-100.0,0.116602360143,100.0,1536978.51183,0.0,0.0,0.0,0.0,0.0,0.0
1402598426463074082,0,6.46941417547,-0.114322152727,-16.1231211385,0.043815185726,-0.286552320501,0.0,-0.492563217901,0.0,-2.37201700642,0.0,0.0,0.0,0.0,-0.679035642627,11.6338316612,52.3312991966,-0.000767381983555,-100.0,0.111240712804,100.0,0.0,-100.0,0.116602360143,100.0,1536978.51183,0.0,0.0,0.0,0.0,0.0,0.0
1402598426482597040,0,6.46941417547,-0.114322152727,-16.1231211385,0.043815185726,-0.286552320501,0.0,-0.492563217901,0.0,-2.37201700642,0.0,0.0,0.0,0.0,-0.679035642627,11.6338316612,52.3312991966,0.000767318410122,-100.0,0.111240712804,100.0,0.0,-100.0,0.116602360143,100.0,1536978.51183,0.0,0.0,0.0,0.0,0.0,0.0
