rosbagTimestamp,header,seq,stamp,secs,nsecs,frame_id,child_frame_id,pose,pose,position,x,y,z,orientation,x,y,z,w,covariance,twist,twist,linear,x,y,z,angular,x,y,z,covariance
1402415859710115314,,141189,,1402415859,708981037,/enu,/imu,,,,8.17837453086,22.1790744841,-34.9589875102,,0.485080071346,0.874450809459,0.0032273685728,0.00476343490298,"[0.02465434364329423, -0.00509966085977137, -0.004083695065577801, -4.341232591777229e-07, 2.676986071203127e-06, -7.411250178668865e-05, -0.00509966085977137, 0.02789910970508037, 0.010232777462762958, -1.907561274624277e-06, 2.1424935309898125e-06, -5.4869434537240615e-05, -0.004083695065577801, 0.010232777462762958, 0.2081614332054596, 3.30662305089376e-06, -6.046899026600343e-06, 6.36775834726427e-06, -4.341232591777229e-07, -1.907561274624277e-06, 3.30662305089376e-06, 4.241876648942221e-06, -8.74344362710391e-08, -9.182656447622122e-07, 2.676986071203127e-06, 2.1424935309898125e-06, -6.046899026600343e-06, -8.74344362710391e-08, 4.456456268122251e-06, -1.7322657767207064e-07, -7.411250178668865e-05, -5.4869434537240615e-05, 6.36775834726427e-06, -9.182656447622122e-07, -1.7322657767207064e-07, 9.701989018058651e-05]",,,,0.0969432207982,-0.21863781937,0.5471817191,,-0.00881089707624,0.0701149940569,0.0473103263136,"[0.00023960215221193202, -4.617562846575237e-06, 3.2020721023819624e-05, 1.0362980426938486e-10, -1.6242200045407224e-08, -1.824984449178203e-08, -4.617562846575237e-06, 0.00027890705435948534, 3.230055526535072e-05, 1.9163944423875782e-08, 1.212609064150229e-09, -2.931112422931822e-10, 3.2020721023819624e-05, 3.230055526535072e-05, 0.00015471251776055304, 2.2822250771371712e-09, -1.912171800685775e-09, 2.9441464974858595e-10, 1.0362980426938486e-10, 1.9163944423875782e-08, 2.2822250771371712e-09, 2.927910491597023e-09, -8.343873412433352e-12, -1.6093167969609894e-11, -1.6242200045407224e-08, 1.212609064150229e-09, -1.912171800685775e-09, -8.343873412433352e-12, 2.890039233631266e-09, 1.2694694681371853e-12, -1.824984449178203e-08, -2.931112422931822e-10, 2.9441464974858595e-10, -1.6093167969609894e-11, 1.2694694681371853e-12, 2.9275589904286744e-09]"
1402415859719905993,,141190,,1402415859,718996047,/enu,/imu,,,,8.17610247119,22.1788021521,-34.964420801,,0.485309938657,0.874324376232,0.00341256589321,0.00441621566844,"[0.024656913938601917, -0.005099492122741021, -0.004083423649349563, -4.4601880683955595e-07, 2.9109605827038044e-06, -7.418596935785876e-05, -0.005099492122741021, 0.027901600871377493, 0.01023003994173516, -2.1158354072953904e-06, 2.1575892435295044e-06, -5.4860702547979136e-05, -0.004083423649349563, 0.01023003994173516, 0.20817425749031895, 3.3263210487683486e-06, -6.050982630855715e-06, 6.3727368971593094e-06, -4.4601880683955595e-07, -2.1158354072953904e-06, 3.3263210487683486e-06, 4.2819575054650695e-06, -8.742529329801247e-08, -9.180724001779759e-07, 2.9109605827038044e-06, 2.1575892435295044e-06, -6.050982630855715e-06, -8.742529329801247e-08, 4.49656523802746e-06, -1.7425774213937113e-07, -7.418596935785876e-05, -5.4860702547979136e-05, 6.3727368971593094e-06, -9.180724001779759e-07, -1.7425774213937113e-07, 9.704758623465698e-05]",,,,0.114383222444,-0.218432865299,0.537676901864,,0.00157119199956,0.0783985758946,0.0513969030574,"[0.00024439255993704575, -4.715462268721189e-06, 3.212383566824126e-05, 1.1094465206716645e-10, -1.655441150277048e-08, -1.8320777532850647e-08, -4.715462268721189e-06, 0.00028442791466995525, 3.256713357888866e-05, 1.949922307006154e-08, 1.2306379058169408e-09, -3.189518884183612e-10, 3.212383566824126e-05, 3.256713357888866e-05, 0.00015513058912956974, 2.2916744102387833e-09, -1.92021700194889e-09, 2.802925708930528e-10, 1.1094465206716645e-10, 1.949922307006154e-08, 2.2916744102387833e-09, 2.9279104535507665e-09, -8.343862032112276e-12, -1.6092735376983317e-11, -1.655441150277048e-08, 1.2306379058169408e-09, -1.92021700194889e-09, -8.343862032112276e-12, 2.890039190265932e-09, 1.2696163879873155e-12, -1.8320777532850647e-08, -3.189518884183612e-10, 2.802925708930528e-10, -1.6092735376983317e-11, 1.2696163879873155e-12, 2.9275521675797848e-09]"
1402415859730976212,,141191,,1402415859,729976892,/enu,/imu,,,,8.1733638065,22.1787617682,-34.9703908201,,0.485529646429,0.874205080236,0.00343438319132,0.00382689684703,"[0.02465983410989289, -0.005099337638472776, -0.004083115600119502, -4.589881491095797e-07, 3.172957290957289e-06, -7.42846106870647e-05, -0.005099337638472776, 0.02790444000247099, 0.010226982723103364, -2.3493111910837366e-06, 2.1742218719831813e-06, -5.485956088634428e-05, -0.004083115600119502, 0.010226982723103364, 0.2081883877917292, 3.3486579189929905e-06, -6.055084721845713e-06, 6.377921173675651e-06, -4.589881491095797e-07, -2.3493111910837366e-06, 3.3486579189929905e-06, 4.330154593245386e-06, -8.741620021584782e-08, -9.178849518368248e-07, 3.172957290957289e-06, 2.1742218719831813e-06, -6.055084721845713e-06, -8.741620021584782e-08, 4.544791197379649e-06, -1.7529988350452836e-07, -7.42846106870647e-05, -5.485956088634428e-05, 6.377921173675651e-06, -9.178849518368248e-07, -1.7529988350452836e-07, 9.708351818504997e-05]",,,,0.131364637276,-0.215751924434,0.530011797901,,0.0488428336507,0.0956284264512,0.0447700459107,"[0.00024977072961075356, -4.815887731103402e-06, 3.2261563019796605e-05, 1.1744896902353134e-10, -1.689931508913874e-08, -1.839862877591817e-08, -4.815887731103402e-06, 0.000290658268790452, 3.2792712605250904e-05, 1.9870957047763363e-08, 1.2484919969932683e-09, -3.492903733430428e-10, 3.2261563019796605e-05, 3.2792712605250904e-05, 0.0001556059178660857, 2.2916854728818686e-09, -1.932882345723264e-09, 2.613610626510188e-10, 1.1744896902353134e-10, 1.9870957047763363e-08, 2.2916854728818686e-09, 2.927910414736764e-09, -8.343850510535751e-12, -1.609229833548326e-11, -1.689931508913874e-08, 1.2484919969932683e-09, -1.932882345723264e-09, -8.343850510535751e-12, 2.890039145857107e-09, 1.2697653951433632e-12, -1.839862877591817e-08, -3.492903733430428e-10, 2.613610626510188e-10, -1.609229833548326e-11, 1.2697653951433632e-12, 2.9275453408807536e-09]"
1402415859740916471,,141192,,1402415859,739975929,/enu,/imu,,,,8.177012881,22.1965327191,-34.9697727209,,0.486166443914,0.873855835367,0.00198431495577,0.00377230724477,"[0.024648777511751277, -0.005100346488770175, -0.004083896280280807, -4.0592703751456456e-07, 2.257140074901684e-06, -7.39664897203885e-05, -0.005100346488770175, 0.02789612929837019, 0.010232585741659578, -1.5352021889521851e-06, 2.1172310017922917e-06, -5.4629185675783595e-05, -0.004083896280280807, 0.010232585741659578, 0.20814067472842135, 3.3181644345722053e-06, -6.0847289996557045e-06, 6.383116666666615e-06, -4.0592703751456456e-07, -1.5352021889521851e-06, 3.3181644345722053e-06, 4.173954269167094e-06, -9.10798587654042e-08, -9.56087266039304e-07, 2.257140074901684e-06, 2.1172310017922917e-06, -6.0847289996557045e-06, -9.10798587654042e-08, 4.38803644280008e-06, -1.0725814368473353e-07, -7.39664897203885e-05, -5.4629185675783595e-05, 6.383116666666615e-06, -9.56087266039304e-07, -1.0725814368473353e-07, 9.707876679962368e-05]",,,,0.174883820671,-0.189074671447,0.526530469935,,0.0181401915031,0.125889356068,0.0518392583297,"[0.00022972813170429578, -3.2411524495426243e-06, 3.148894331976328e-05, 1.520911829428336e-10, -1.5627644968941428e-08, -1.6654976377470325e-08, -3.2411524495426243e-06, 0.00027185135843605274, 3.174790478792839e-05, 1.8588750809588686e-08, 1.1628157792300236e-09, -2.7030545749901933e-09, 3.148894331976328e-05, 3.174790478792839e-05, 0.00015406252191486785, 2.150989369597883e-09, -1.8467298502360549e-09, 2.8966233135059486e-10, 1.520911829428336e-10, 1.8588750809588686e-08, 2.150989369597883e-09, 2.927805642920663e-09, -8.345033989783788e-12, -1.6127755742318884e-11, -1.5627644968941428e-08, 1.1628157792300236e-09, -1.8467298502360549e-09, -8.345033989783788e-12, 2.8899347297982357e-09, 1.2649585503630346e-12, -1.6654976377470325e-08, -2.7030545749901933e-09, 2.8966233135059486e-10, -1.6127755742318884e-11, 1.2649585503630346e-12, 2.9275258125857057e-09]"
1402415859750909108,,141193,,1402415859,749974012,/enu,/imu,,,,8.17462196634,22.1971854045,-34.9751517186,,0.486401167213,0.873727000744,0.00219514445131,0.00319594219533,"[0.024651327965549988, -0.005100152663563949, -0.004083658045746763, -4.1774260788624635e-07, 2.483980251703775e-06, -7.407751048810459e-05, -0.005100152663563949, 0.027898577353494294, 0.010229833692726033, -1.7363453518385388e-06, 2.1326660297794912e-06, -5.463777980787745e-05, -0.004083658045746763, 0.010229833692726033, 0.2081534828236504, 3.33970618136517e-06, -6.088263612813418e-06, 6.387847789798409e-06, -4.1774260788624635e-07, -1.7363453518385388e-06, 3.33970618136517e-06, 4.213901421122855e-06, -9.10702107053337e-08, -9.558869380436094e-07, 2.483980251703775e-06, 2.1326660297794912e-06, -6.088263612813418e-06, -9.10702107053337e-08, 4.428009735251912e-06, -1.0828289376612458e-07, -7.407751048810459e-05, -5.463777980787745e-05, 6.387847789798409e-06, -9.558869380436094e-07, -1.0828289376612458e-07, 9.710627610046903e-05]",,,,0.191784786165,-0.187570457536,0.517563266196,,0.0194655640887,0.121140102072,0.0526124017974,"[0.00023431819617347272, -3.3337988812442553e-06, 3.160935495988041e-05, 1.5897151968427888e-10, -1.593266067226182e-08, -1.6726157595951713e-08, -3.3337988812442553e-06, 0.000277227581551115, 3.1965259262511345e-05, 1.8918186275158068e-08, 1.180431603877333e-09, -2.7359345188720432e-09, 3.160935495988041e-05, 3.1965259262511345e-05, 0.00015449270670069747, 2.1552059318325234e-09, -1.8592691426157182e-09, 2.7022289020015804e-10, 1.5897151968427888e-10, 1.8918186275158068e-08, 2.1552059318325234e-09, 2.9278056055217125e-09, -8.345023179696489e-12, -1.612732417144734e-11, -1.593266067226182e-08, 1.180431603877333e-09, -1.8592691426157182e-09, -8.345023179696489e-12, 2.8899346879573484e-09, 1.2651012193715223e-12, -1.6726157595951713e-08, -2.7359345188720432e-09, 2.7022289020015804e-10, -1.612732417144734e-11, 1.2651012193715223e-12, 2.927518966436675e-09]"
1402415859760874047,,141194,,1402415859,759988069,/enu,/imu,,,,8.17199262542,22.1977831553,-34.9801585165,,0.486649846305,0.873589718727,0.00247406495116,0.00260948833432,"[0.024654009382623437, -0.005099919212064237, -0.004083472022090353, -4.295204774231035e-07, 2.7156614143386502e-06, -7.420312730764916e-05, -0.005099919212064237, 0.02790112966169413, 0.010226970978066206, -1.9419555722706816e-06, 2.1482275138576105e-06, -5.4652940974371465e-05, -0.004083472022090353, 0.010226970978066206, 0.2081665533325592, 3.361882908318993e-06, -6.091476961386084e-06, 6.392429973658044e-06, -4.295204774231035e-07, -1.9419555722706816e-06, 3.361882908318993e-06, 4.253975253819174e-06, -9.106048781395189e-08, -9.556850502290987e-07, 2.7156614143386502e-06, 2.1482275138576105e-06, -6.091476961386084e-06, -9.106048781395189e-08, 4.468110197867087e-06, -1.0931779424809492e-07, -7.420312730764916e-05, -5.4652940974371465e-05, 6.392429973658044e-06, -9.556850502290987e-07, -1.0931779424809492e-07, 9.713390848750378e-05]",,,,0.20622415285,-0.186960378455,0.521442967024,,0.00853123514775,0.129313236204,0.0559258431393,"[0.00023899450708443864, -3.4320583151789546e-06, 3.174676948491509e-05, 1.6665127092535233e-10, -1.624087380329333e-08, -1.6797588107794988e-08, -3.4320583151789546e-06, 0.0002826959622463913, 3.219475402776617e-05, 1.9250875952517733e-08, 1.1991191999621296e-09, -2.7686228951524205e-09, 3.174676948491509e-05, 3.219475402776617e-05, 0.0001549367888346922, 2.161428573160405e-09, -1.8733313507509594e-09, 2.4892587700696647e-10, 1.6665127092535233e-10, 1.9250875952517733e-08, 2.161428573160405e-09, 2.9278055673419647e-09, -8.345011926355863e-12, -1.6126888186481853e-11, -1.624087380329333e-08, 1.1991191999621296e-09, -1.8733313507509594e-09, -8.345011926355863e-12, 2.88993464521932e-09, 1.265245883883272e-12, -1.6797588107794988e-08, -2.7686228951524205e-09, 2.4892587700696647e-10, -1.6126888186481853e-11, 1.265245883883272e-12, 2.9275121166305946e-09]"
1402415859770913755,,141195,,1402415859,770001888,/enu,/imu,,,,8.16927602604,22.1988167557,-34.9857138902,,0.486913476647,0.873443547317,0.00282191988867,0.00191642322041,"[0.02465669429533362, -0.005099717011215721, -0.004083196453165367, -4.4127185228898226e-07, 2.951713513856081e-06, -7.434193060197029e-05, -0.005099717011215721, 0.02790373222250198, 0.010224161393736775, -2.151630510553794e-06, 2.1638927288735417e-06, -5.4675215943769716e-05, -0.004083196453165367, 0.010224161393736775, 0.20817944661507806, 3.384631177772467e-06, -6.0943342593411985e-06, 6.396802014206873e-06, -4.4127185228898226e-07, -2.151630510553794e-06, 3.384631177772467e-06, 4.294045866037163e-06, -9.105068565343248e-08, -9.554814543066245e-07, 2.951713513856081e-06, 2.1638927288735417e-06, -6.0943342593411985e-06, -9.105068565343248e-08, 4.508207932661374e-06, -1.1036300580033954e-07, -7.434193060197029e-05, -5.4675215943769716e-05, 6.396802014206873e-06, -9.554814543066245e-07, -1.1036300580033954e-07, 9.716153193879234e-05]",,,,0.221870514683,-0.187522392761,0.518407858208,,0.00687451819442,0.154605773452,0.059460180202,"[0.0002437385358305944, -3.5382333155638598e-06, 3.191790485883587e-05, 1.7484705643260763e-10, -1.655125702911852e-08, -1.6869263715434823e-08, -3.5382333155638598e-06, 0.0002882537014414582, 3.242454360485805e-05, 1.958628407197587e-08, 1.2187691808161977e-09, -2.8009727155765286e-09, 3.191790485883587e-05, 3.242454360485805e-05, 0.00015539873334202166, 2.1680083127021856e-09, -1.8918917987804743e-09, 2.2314398566390884e-10, 1.7484705643260763e-10, 1.958628407197587e-08, 2.1680083127021856e-09, 2.9278055284276783e-09, -8.3450006331138e-12, -1.6126447742950708e-11, -1.655125702911852e-08, 1.2187691808161977e-09, -1.8918917987804743e-09, -8.3450006331138e-12, 2.889934601272043e-09, 1.2653925756047942e-12, -1.6869263715434823e-08, -2.8009727155765286e-09, 2.2314398566390884e-10, -1.6126447742950708e-11, 1.2653925756047942e-12, 2.9275052630967437e-09]"
1402415859810909602,,141196,,1402415859,780972957,/enu,/imu,,,,8.16637791202,22.1998195428,-34.9912376461,,0.48716214065,0.873305103191,0.00314180216994,0.00117240635686,"[0.02465975014293748, -0.005099445536146982, -0.0040830147356324615, -4.540713148372892e-07, 3.215623752360335e-06, -7.451122019190352e-05, -0.005099445536146982, 0.02790657596923841, 0.01022114728390259, -2.386332264768299e-06, 2.1811222392638136e-06, -5.4708041670887585e-05, -0.0040830147356324615, 0.01022114728390259, 0.2081935793902474, 3.4102571271967355e-06, -6.097070311202916e-06, 6.401350884110315e-06, -4.540713148372892e-07, -2.386332264768299e-06, 3.4102571271967355e-06, 4.34215635603674e-06, -9.104092894702886e-08, -9.552831925778607e-07, 3.215623752360335e-06, 2.1811222392638136e-06, -6.097070311202916e-06, -9.104092894702886e-08, 4.556346292249093e-06, -1.1141963107150042e-07, -7.451122019190352e-05, -5.4708041670887585e-05, 6.401350884110315e-06, -9.552831925778607e-07, -1.1141963107150042e-07, 9.719731396924463e-05]",,,,0.238755681459,-0.185448860233,0.510657073325,,0.0152685475027,0.146763982071,0.0510661601315,"[0.0002490784053792612, -3.6535518818690197e-06, 3.210897217267812e-05, 1.8265387399965267e-10, -1.6894409434271807e-08, -1.6947603659723337e-08, -3.6535518818690197e-06, 0.00029449178692563286, 3.2667298359419694e-05, 1.995688932118926e-08, 1.2389906135100521e-09, -2.838718372233705e-09, 3.210897217267812e-05, 3.2667298359419694e-05, 0.00015593246688814114, 2.1732846390260616e-09, -1.9114407180438097e-09, 1.9635391902344713e-10, 1.8265387399965267e-10, 1.995688932118926e-08, 2.1732846390260616e-09, 2.9278054887610787e-09, -8.344989305897345e-12, -1.6126002811161057e-11, -1.6894409434271807e-08, 1.2389906135100521e-09, -1.9114407180438097e-09, -8.344989305897345e-12, 2.889934556864625e-09, 1.265541411143008e-12, -1.6947603659723337e-08, -2.838718372233705e-09, 1.9635391902344713e-10, -1.6126002811161057e-11, 1.265541411143008e-12, 2.927498405738573e-09]"
1402415859810948095,,141197,,1402415859,790951967,/enu,/imu,,,,8.18424704721,22.2127324942,-34.9593323764,,0.488512387032,0.872555438975,0.00162756898276,-6.81937032266e-05,"[0.024648190681012264, -0.005100802165224915, -0.0040835744283901085, -3.7534575733125203e-07, 2.2470590043233578e-06, -7.38932677994147e-05, -0.005100802165224915, 0.027898013622002844, 0.010226837178806274, -1.5509527065134545e-06, 2.082074208939426e-06, -5.429051770141839e-05, -0.0040835744283901085, 0.010226837178806274, 0.20814569260881205, 3.3543431537050837e-06, -6.100612501780061e-06, 6.3982818261130214e-06, -3.7534575733125203e-07, -1.5509527065134545e-06, 3.3543431537050837e-06, 4.189000057366751e-06, -9.415126991326206e-08, -1.023475740306814e-06, 2.2470590043233578e-06, 2.082074208939426e-06, -6.100612501780061e-06, -9.415126991326206e-08, 4.4000392739534456e-06, 8.220676815066259e-09, -7.38932677994147e-05, -5.429051770141839e-05, 6.3982818261130214e-06, -1.023475740306814e-06, 8.220676815066259e-09, 9.712469323633528e-05]",,,,0.261651469514,-0.147949084845,0.498147111634,,0.0390173866165,0.163882789607,0.0576946634418,"[0.0002282478567803922, -2.5115369959041882e-06, 3.188158762528453e-05, 2.551935259701922e-10, -1.5599059029038283e-08, -1.4380277314375333e-08, -2.5115369959041882e-06, 0.00027504213804570527, 3.108441065145598e-05, 1.8652611953369e-08, 1.1797108773648479e-09, -4.441491077762225e-09, 3.188158762528453e-05, 3.108441065145598e-05, 0.0001543932966933657, 1.9715354476359048e-09, -1.90617960186718e-09, 2.215928989206429e-10, 2.551935259701922e-10, 1.8652611953369e-08, 1.9715354476359048e-09, 2.9277005131740956e-09, -8.346794259921825e-12, -1.6192556445358578e-11, -1.5599059029038283e-08, 1.1797108773648479e-09, -1.90617960186718e-09, -8.346794259921825e-12, 2.8898318705404864e-09, 1.259001044620926e-12, -1.4380277314375333e-08, -4.441491077762225e-09, 2.215928989206429e-10, -1.6192556445358578e-11, 1.259001044620926e-12, 2.9274482542621686e-09]"
1402415859810974488,,141198,,1402415859,800952911,/enu,/imu,,,,8.18157072821,22.2144150546,-34.9645811139,,0.48880362604,0.872391180909,0.00195423875028,-0.000907520765249,"[0.02465084345842371, -0.005100538271929817, -0.004083389419296579, -3.8691011884075883e-07, 2.4755843183620318e-06, -7.406012927233046e-05, -0.005100538271929817, 0.027900579212711284, 0.010224002989171328, -1.7534817531258121e-06, 2.0978624288715244e-06, -5.4325673802531923e-05, -0.004083389419296579, 0.010224002989171328, 0.20815858747800045, 3.3786118726060186e-06, -6.102980656551836e-06, 6.402595643145339e-06, -3.8691011884075883e-07, -1.7534817531258121e-06, 3.3786118726060186e-06, 4.228969160976944e-06, -9.414052138680284e-08, -1.023258954719342e-06, 2.4755843183620318e-06, 2.0978624288715244e-06, -6.102980656551836e-06, -9.414052138680284e-08, 4.440032681571411e-06, 7.173563546423116e-09, -7.406012927233046e-05, -5.4325673802531923e-05, 6.402595643145339e-06, -1.023258954719342e-06, 7.173563546423116e-09, 9.715215530002433e-05]",,,,0.275662297075,-0.145597297077,0.497262571683,,0.0251009679603,0.178351446177,0.0656469125212,"[0.000232798417084788, -2.601534847807787e-06, 3.206781172312719e-05, 2.651527722277161e-10, -1.5902693449186192e-08, -1.4451957143714856e-08, -2.601534847807787e-06, 0.0002804498532311245, 3.1252932496632975e-05, 1.8982200399661083e-08, 1.2001237267157357e-09, -4.484201745758429e-09, 3.206781172312719e-05, 3.1252932496632975e-05, 0.0001548571904061654, 1.9723449105071428e-09, -1.9273314959694726e-09, 1.969426737964765e-10, 2.651527722277161e-10, 1.8982200399661083e-08, 1.9723449105071428e-09, 2.9277004742693454e-09, -8.346783583343058e-12, -1.6192112382149568e-11, -1.5902693449186192e-08, 1.2001237267157357e-09, -1.9273314959694726e-09, -8.346783583343058e-12, 2.889831828453678e-09, 1.2591435861913e-12, -1.4451957143714856e-08, -4.484201745758429e-09, 1.969426737964765e-10, -1.6192112382149568e-11, 1.2591435861913e-12, 2.9274413739106854e-09]"
1402415859850873051,,141199,,1402415859,810947895,/enu,/imu,,,,8.178865761,22.2157775467,-34.9689646794,,0.489063353273,0.87224360885,0.00222941745389,-0.00177566980483,"[0.024653646575419474, -0.005100211213882346, -0.004083363090648395, -3.984106063330729e-07, 2.7083678398135803e-06, -7.424067159678305e-05, -0.005100211213882346, 0.027903185476470922, 0.010221084509747142, -1.960004395610212e-06, 2.113740227473406e-06, -5.436524726850202e-05, -0.004083363090648395, 0.010221084509747142, 0.20817173928215024, 3.403448173140686e-06, -6.105108653986389e-06, 6.406545155980469e-06, -3.984106063330729e-07, -1.960004395610212e-06, 3.403448173140686e-06, 4.26888925064605e-06, -9.412968178545215e-08, -1.0230401641226084e-06, 2.7083678398135803e-06, 2.113740227473406e-06, -6.105108653986389e-06, -9.412968178545215e-08, 4.479977550351965e-06, 6.1160448783719586e-09, -7.424067159678305e-05, -5.436524726850202e-05, 6.406545155980469e-06, -1.0230401641226084e-06, 6.1160448783719586e-09, 9.717956191397076e-05]",,,,0.28974254305,-0.14302081345,0.496314035266,,0.0369188779711,0.178461893683,0.0587991599153,"[0.00023742916325643533, -2.6916875416855275e-06, 3.226643104371846e-05, 2.7417661684125327e-10, -1.6208955645786335e-08, -1.4523223976887835e-08, -2.6916875416855275e-06, 0.00028595078616862297, 3.140591028996797e-05, 1.931466173368984e-08, 1.219541189074618e-09, -4.5280809285107595e-09, 3.226643104371846e-05, 3.140591028996797e-05, 0.00015531414249767266, 1.970656099339451e-09, -1.9493122329645073e-09, 1.7260888609078036e-10, 2.7417661684125327e-10, 1.931466173368984e-08, 1.970656099339451e-09, 2.927700434708497e-09, -8.346772652141448e-12, -1.6191663794726874e-11, -1.6208955645786335e-08, 1.219541189074618e-09, -1.9493122329645073e-09, -8.346772652141448e-12, 2.889831785413057e-09, 1.2592879538118316e-12, -1.4523223976887835e-08, -4.5280809285107595e-09, 1.7260888609078036e-10, -1.6191663794726874e-11, 1.2592879538118316e-12, 2.92743448981217e-09]"
1402415859850901230,,141200,,1402415859,821943998,/enu,/imu,,,,8.17594172299,22.2179856462,-34.9747067136,,0.489349565741,0.872079694728,0.0026420163129,-0.00265109454415,"[0.0246567175943172, -0.005099901145786149, -0.0040830760223096564, -4.1100789271369895e-07, 2.969545389263721e-06, -7.445493147116035e-05, -0.005099901145786149, 0.027906048529497338, 0.010218128396835892, -2.19202838671402e-06, 2.1312669183292695e-06, -5.441545440279901e-05, -0.0040830760223096564, 0.010218128396835892, 0.20818557290573894, 3.4314126749566067e-06, -6.107149211356454e-06, 6.410877036284526e-06, -4.1100789271369895e-07, -2.19202838671402e-06, 3.4314126749566067e-06, 4.317220178240012e-06, -9.411888857229835e-08, -1.022826476955227e-06, 2.969545389263721e-06, 2.1312669183292695e-06, -6.107149211356454e-06, -9.411888857229835e-08, 4.528333985438442e-06, 5.046963411662321e-09, -7.445493147116035e-05, -5.441545440279901e-05, 6.410877036284526e-06, -1.022826476955227e-06, 5.046963411662321e-09, 9.721550386256216e-05]",,,,0.303673653167,-0.142687028742,0.494259595974,,0.0123994742544,0.175590251611,0.0590200643566,"[0.00024266304490805414, -2.7989061898188703e-06, 3.249797158674889e-05, 2.846703688150067e-10, -1.6548941104798995e-08, -1.4601709755841022e-08, -2.7989061898188703e-06, 0.0002921313880313129, 3.160725419708238e-05, 1.968299366295081e-08, 1.2418580787794307e-09, -4.577076113518655e-09, 3.249797158674889e-05, 3.160725419708238e-05, 0.00015587305787640053, 1.9738316377535605e-09, -1.9734736714752665e-09, 1.4479801215111773e-10, 2.846703688150067e-10, 1.968299366295081e-08, 1.9738316377535605e-09, 2.9277003943092437e-09, -8.346761500900231e-12, -1.6191210688622915e-11, -1.6548941104798995e-08, 1.2418580787794307e-09, -1.9734736714752665e-09, -8.346761500900231e-12, 2.8898317417065667e-09, 1.2594344019663805e-12, -1.4601709755841022e-08, -4.577076113518655e-09, 1.4479801215111773e-10, -1.6191210688622915e-11, 1.2594344019663805e-12, 2.927427602066288e-09]"
1402415859850923065,,141201,,1402415859,831929922,/enu,/imu,,,,8.18660425751,22.2451052976,-34.932227045,,0.491026739301,0.8711408041,0.000391420016877,-0.00250749161648,"[0.02464499232217921, -0.005101482525318607, -0.00408351293811926, -3.164053686178008e-07, 2.004701511431842e-06, -7.366116673824861e-05, -0.005101482525318607, 0.027897393667777638, 0.01022390291515928, -1.3752651002805083e-06, 2.0081414865452616e-06, -5.386547727584525e-05, -0.00408351293811926, 0.01022390291515928, 0.20813790831444265, 3.3584518179647453e-06, -6.090852534895065e-06, 6.386765912435802e-06, -3.164053686178008e-07, -1.3752651002805083e-06, 3.3584518179647453e-06, 4.172791279227635e-06, -9.665379150991711e-08, -1.1089727771162003e-06, 2.004701511431842e-06, 2.0081414865452616e-06, -6.090852534895065e-06, -9.665379150991711e-08, 4.379089992831344e-06, 1.5173844770997334e-07, -7.366116673824861e-05, -5.386547727584525e-05, 6.386765912435802e-06, -1.1089727771162003e-06, 1.5173844770997334e-07, 9.708493986287342e-05]",,,,0.36292974828,-0.104894900993,0.487103982232,,0.0370319600615,0.18099918664,0.0611206732604,"[0.0002230938869484289, -1.0528007282275988e-06, 3.1225406633531846e-05, 3.707719860548224e-10, -1.5318754614842682e-08, -1.2104603642260776e-08, -1.0528007282275988e-06, 0.0002742136075757686, 3.011952333503804e-05, 1.8408153085655136e-08, 1.1605905104418547e-09, -8.7898644043833e-09, 3.1225406633531846e-05, 3.011952333503804e-05, 0.00015415261172747646, 1.7810069473529953e-09, -1.8079967214764568e-09, 2.7169489514832673e-10, 3.707719860548224e-10, 1.8408153085655136e-08, 1.7810069473529953e-09, 2.9275988238186113e-09, -8.348859758722489e-12, -1.6275011720979847e-11, -1.5318754614842682e-08, 1.1605905104418547e-09, -1.8079967214764568e-09, -8.348859758722489e-12, 2.8897338479609656e-09, 1.2531418617514532e-12, -1.2104603642260776e-08, -8.7898644043833e-09, 2.7169489514832673e-10, -1.6275011720979847e-11, 1.2531418617514532e-12, 2.9273503324096316e-09]"
1402415859850949816,,141202,,1402415859,841912031,/enu,/imu,,,,8.18381060072,22.2478383527,-34.9372551418,,0.491305191117,0.870980936834,0.000743455327367,-0.00329607773208,"[0.024647656788122415, -0.0051012284497043365, -0.004083275356583178, -3.275529685329934e-07, 2.2296264050335406e-06, -7.386493238218404e-05, -0.0051012284497043365, 0.027899945987775066, 0.010221061593894973, -1.5746490695553234e-06, 2.0239474016752908e-06, -5.391267771061121e-05, -0.004083275356583178, 0.010221061593894973, 0.20815058097508277, 3.3846261012828144e-06, -6.092616141338044e-06, 6.3904888614155884e-06, -3.275529685329934e-07, -1.5746490695553234e-06, 3.3846261012828144e-06, 4.2126096823384e-06, -9.664175505845799e-08, -1.1087389122461636e-06, 2.2296264050335406e-06, 2.0239474016752908e-06, -6.092616141338044e-06, -9.664175505845799e-08, 4.418929988214153e-06, 1.5067550381929655e-07, -7.386493238218404e-05, -5.391267771061121e-05, 6.3904888614155884e-06, -1.1087389122461636e-06, 1.5067550381929655e-07, 9.711218715067228e-05]",,,,0.378487325226,-0.10199389452,0.490262024855,,0.0161573323684,0.172384261057,0.0627773995325,"[0.0002275703023425386, -1.126148114625002e-06, 3.138626493940126e-05, 3.82021096782303e-10, -1.5620217606671298e-08, -1.217786679239815e-08, -1.126148114625002e-06, 0.000279555602371336, 3.026556295898788e-05, 1.8734899811534352e-08, 1.1813695021779528e-09, -8.847229027480212e-09, 3.138626493940126e-05, 3.026556295898788e-05, 0.00015461513919259976, 1.7810348102711545e-09, -1.8255395017989157e-09, 2.521772296103956e-10, 3.82021096782303e-10, 1.8734899811534352e-08, 1.7810348102711545e-09, 2.927598783864523e-09, -8.348849284543869e-12, -1.6274556230598958e-11, -1.5620217606671298e-08, 1.1813695021779528e-09, -1.8255395017989157e-09, -8.348849284543869e-12, 2.8897338061363634e-09, 1.253282216429633e-12, -1.217786679239815e-08, -8.847229027480212e-09, 2.521772296103956e-10, -1.6274556230598958e-11, 1.253282216429633e-12, 2.927343422574855e-09]"
1402415859890861381,,141203,,1402415859,851914882,/enu,/imu,,,,8.1810995739,22.2505815889,-34.9419976923,,0.491591025269,0.870815929549,0.00106573023274,-0.00409205791905,"[0.0246504857980276, -0.005100844572937873, -0.004083229484733556, -3.386598057317079e-07, 2.4592840820920568e-06, -7.408323385244171e-05, -0.005100844572937873, 0.02790249046378124, 0.010218254108455099, -1.7784254695432985e-06, 2.039886865592643e-06, -5.396619981086389e-05, -0.004083229484733556, 0.010218254108455099, 0.20816351783487352, 3.4114500130915297e-06, -6.0941032398472864e-06, 6.394356827115092e-06, -3.386598057317079e-07, -1.7784254695432985e-06, 3.4114500130915297e-06, 4.252592731224608e-06, -9.66296196318488e-08, -1.1085033083848865e-06, 2.4592840820920568e-06, 2.039886865592643e-06, -6.0941032398472864e-06, -9.66296196318488e-08, 4.458935078895196e-06, 1.4960214281154455e-07, -7.408323385244171e-05, -5.396619981086389e-05, 6.394356827115092e-06, -1.1085033083848865e-06, 1.4960214281154455e-07, 9.713959615675129e-05]",,,,0.393303206437,-0.102765982026,0.490399839667,,0.0220110631909,0.170396201162,0.0646550199409,"[0.00023214064637811874, -1.1966777430585613e-06, 3.155982576260983e-05, 3.9406881036655055e-10, -1.5925083644783306e-08, -1.2251476260394223e-08, -1.1966777430585613e-06, 0.00028500233592620576, 3.0402053689715032e-05, 1.9065267273819482e-08, 1.2027245234192177e-09, -8.904715495672847e-09, 3.155982576260983e-05, 3.0402053689715032e-05, 0.00015507558579177085, 1.7798703637527389e-09, -1.8434937060578528e-09, 2.331675249856975e-10, 3.9406881036655055e-10, 1.9065267273819482e-08, 1.7798703637527389e-09, 2.927598743118362e-09, -8.348838790235623e-12, -1.6274096185723168e-11, -1.5925083644783306e-08, 1.2027245234192177e-09, -1.8434937060578528e-09, -8.348838790235623e-12, 2.88973376340847e-09, 1.2534245947360554e-12, -1.2251476260394223e-08, -8.904715495672847e-09, 2.331675249856975e-10, -1.6274096185723168e-11, 1.2534245947360554e-12, 2.9273365090828576e-09]"
1402415859890900965,,141204,,1402415859,861915111,/enu,/imu,,,,8.17808322523,22.2535389108,-34.946867012,,0.491890303767,0.870642729454,0.0013531861093,-0.00483069313907,"[0.024653359453238256, -0.005100521102907003, -0.004083066900825238, -3.496987751868006e-07, 2.693193050102629e-06, -7.43148987039652e-05, -0.005100521102907003, 0.02790517582291317, 0.010215356455720772, -1.986207640711784e-06, 2.055908532600716e-06, -5.4025418213958126e-05, -0.004083066900825238, 0.010215356455720772, 0.20817656423989364, 3.4388567151611226e-06, -6.095288073960303e-06, 6.398048541006054e-06, -3.496987751868006e-07, -1.986207640711784e-06, 3.4388567151611226e-06, 4.2925534673322394e-06, -9.661738325783847e-08, -1.1082658080123422e-06, 2.693193050102629e-06, 2.055908532600716e-06, -6.095288073960303e-06, -9.661738325783847e-08, 4.4989183078944675e-06, 1.4851838834607642e-07, -7.43148987039652e-05, -5.4025418213958126e-05, 6.398048541006054e-06, -1.1082658080123422e-06, 1.4851838834607642e-07, 9.716697686411332e-05]",,,,0.408170992527,-0.0997569630576,0.491934365587,,0.0224528535553,0.157032021802,0.0676371193722,"[0.00023680156415591965, -1.2616151715610628e-06, 3.173700025030788e-05, 4.0740258068530443e-10, -1.6232883830177583e-08, -1.2325348789295737e-08, -1.2616151715610628e-06, 0.0002905380551513399, 3.053466232346898e-05, 1.9398430431742306e-08, 1.2249694433854242e-09, -8.961977158932564e-09, 3.173700025030788e-05, 3.053466232346898e-05, 0.0001555281130839616, 1.7783608626399851e-09, -1.859908842004988e-09, 2.156357943976745e-10, 4.0740258068530443e-10, 1.9398430431742306e-08, 1.7783608626399851e-09, 2.927598701569236e-09, -8.348828010059635e-12, -1.6273631684243707e-11, -1.6232883830177583e-08, 1.2249694433854242e-09, -1.859908842004988e-09, -8.348828010059635e-12, 2.8897337200998967e-09, 1.2535689446826565e-12, -1.2325348789295737e-08, -8.961977158932564e-09, 2.156357943976745e-10, -1.6273631684243707e-11, 1.2535689446826565e-12, 2.927329592119333e-09]"
1402415859890919273,,141205,,1402415859,872881889,/enu,/imu,,,,8.17470806333,22.2568200387,-34.9521002098,,0.492238026096,0.870440560086,0.00162726418083,-0.0056841035711,"[0.024656628856855257, -0.00510009602407219, -0.004082980091683889, -3.617162163631752e-07, 2.9547272761780456e-06, -7.458616329167503e-05, -0.00510009602407219, 0.02790812695115333, 0.01021222427818815, -2.2188300470203695e-06, 2.073525522845259e-06, -5.40969988264663e-05, -0.004082980091683889, 0.01021222427818815, 0.20819066719790927, 3.469638381980232e-06, -6.096266402680195e-06, 6.40164240528085e-06, -3.617162163631752e-07, -2.2188300470203695e-06, 3.469638381980232e-06, 4.3406252562896104e-06, -9.660518468419946e-08, -1.1080329248332316e-06, 2.9547272761780456e-06, 2.073525522845259e-06, -6.096266402680195e-06, -9.660518468419946e-08, 4.547013283670011e-06, 1.474233107825147e-07, -7.458616329167503e-05, -5.40969988264663e-05, 6.40164240528085e-06, -1.1080329248332316e-06, 1.474233107825147e-07, 9.720258859675987e-05]",,,,0.424599761234,-0.0992465264773,0.490449468246,,0.0328349426003,0.160235006722,0.0721654862122,"[0.00024204657162689135, -1.3276458054877095e-06, 3.194984623666526e-05, 4.234291202826824e-10, -1.657331328490167e-08, -1.2406830434917623e-08, -1.3276458054877095e-06, 0.00029676067403345164, 3.06598060241947e-05, 1.976708680903767e-08, 1.2503898346099215e-09, -9.024968599486324e-09, 3.194984623666526e-05, 3.06598060241947e-05, 0.00015605982483919557, 1.7743015328475552e-09, -1.8792497874704802e-09, 1.9676216162589854e-10, 4.234291202826824e-10, 1.976708680903767e-08, 1.7743015328475552e-09, 2.9275986592855806e-09, -8.348816940857967e-12, -1.627316252449328e-11, -1.657331328490167e-08, 1.2503898346099215e-09, -1.8792497874704802e-09, -8.348816940857967e-12, 2.889733675685867e-09, 1.253715081332689e-12, -1.2406830434917623e-08, -9.024968599486324e-09, 1.9676216162589854e-10, -1.627316252449328e-11, 1.253715081332689e-12, 2.9273226714049475e-09]"
1402415859890941696,,141206,,1402415859,882883071,/enu,/imu,,,,8.17160842916,22.2601253678,-34.9570813241,,0.492532741178,0.870268205956,0.00181079730679,-0.00643968813579,"[0.024659642954324153, -0.005099704908209778, -0.004082854216115413, -3.726171532783548e-07, 3.197738505794303e-06, -7.484707291436982e-05, -0.005099704908209778, 0.027910908709323543, 0.010209299476532426, -2.4351546040848266e-06, 2.0897359585470514e-06, -5.4167421655900664e-05, -0.004082854216115413, 0.010209299476532426, 0.20820378018054997, 3.4983424917485875e-06, -6.096866586232805e-06, 6.405153246844341e-06, -3.726171532783548e-07, -2.4351546040848266e-06, 3.4983424917485875e-06, 4.380590597881117e-06, -9.659272902462879e-08, -1.1077912784346013e-06, 3.197738505794303e-06, 2.0897359585470514e-06, -6.096866586232805e-06, -9.659272902462879e-08, 4.587002128967287e-06, 1.4631682983606156e-07, -7.484707291436982e-05, -5.4167421655900664e-05, 6.405153246844341e-06, -1.1077912784346013e-06, 1.4631682983606156e-07, 9.72299608455315e-05]",,,,0.439186797885,-0.0962736748494,0.50161873771,,0.0422230016783,0.149742469143,0.0668640035237,"[0.0002468907771155553, -1.3847890077498184e-06, 3.214753865560267e-05, 4.377308987396739e-10, -1.688735392498835e-08, -1.2480693639830764e-08, -1.3847890077498184e-06, 0.00030250139133108824, 3.075798203477511e-05, 2.0106870938876234e-08, 1.2730093972927575e-09, -9.082672270313848e-09, 3.214753865560267e-05, 3.075798203477511e-05, 0.00015649778689539364, 1.7683795636533016e-09, -1.8958909071824548e-09, 1.8153523640128842e-10, 4.377308987396739e-10, 2.0106870938876234e-08, 1.7683795636533016e-09, 2.9275986161302565e-09, -8.348805966257181e-12, -1.6272688432783375e-11, -1.688735392498835e-08, 1.2730093972927575e-09, -1.8958909071824548e-09, -8.348805966257181e-12, 2.889733630590054e-09, 1.2538635164187351e-12, -1.2480693639830764e-08, -9.082672270313848e-09, 1.8153523640128842e-10, -1.6272688432783375e-11, 1.2538635164187351e-12, 2.9273157464521e-09]"
1402415859930862366,,141207,,1402415859,892879009,/enu,/imu,,,,8.16846391587,22.2635711336,-34.9621434582,,0.492882653941,0.870064564916,0.00200397532924,-0.00709411058059,"[0.024662782076411774, -0.0050993160078391195, -0.004082805420556351, -3.8343223073420316e-07, 3.4445914760665514e-06, -7.512187445107618e-05, -0.0050993160078391195, 0.027913729594803635, 0.010206479922161825, -2.6550884687811083e-06, 2.1060138430774694e-06, -5.4242224861416515e-05, -0.004082805420556351, 0.010206479922161825, 0.2082165778756453, 3.527655391647027e-06, -6.097214431555433e-06, 6.4083105241545824e-06, -3.8343223073420316e-07, -2.6550884687811083e-06, 3.527655391647027e-06, 4.420512587098564e-06, -9.65801762731814e-08, -1.1075477200480705e-06, 3.4445914760665514e-06, 2.1060138430774694e-06, -6.097214431555433e-06, -9.65801762731814e-08, 4.626948089041645e-06, 1.4520012203557916e-07, -7.512187445107618e-05, -5.4242224861416515e-05, 6.4083105241545824e-06, -1.1075477200480705e-06, 1.4520012203557916e-07, 9.725728348820983e-05]",,,,0.453431447414,-0.094267917581,0.513862472329,,0.0305155382131,0.133175304668,0.0795655058963,"[0.00025182891123815427, -1.4335183979041258e-06, 3.234584413461154e-05, 4.5537789210711486e-10, -1.7204495001053092e-08, -1.2555667133784897e-08, -1.4335183979041258e-06, 0.0003083251989497427, 3.0865187797969595e-05, 2.0449406808680788e-08, 1.2984290667047087e-09, -9.138923112517956e-09, 3.234584413461154e-05, 3.0865187797969595e-05, 0.00015693285741823402, 1.764456043097038e-09, -1.910094316182727e-09, 1.67164298155944e-10, 4.5537789210711486e-10, 2.0449406808680788e-08, 1.764456043097038e-09, 2.927598572066149e-09, -8.34879471117132e-12, -1.6272209725677203e-11, -1.7204495001053092e-08, 1.2984290667047087e-09, -1.910094316182727e-09, -8.34879471117132e-12, 2.889733584152663e-09, 1.254013688112726e-12, -1.2555667133784897e-08, -9.138923112517956e-09, 1.67164298155944e-10, -1.6272209725677203e-11, 1.254013688112726e-12, 2.9273088179750065e-09]"
1402415859930892726,,141208,,1402415859,902853012,/enu,/imu,,,,8.16519418514,22.2670822444,-34.967230301,,0.493202682026,0.869878135844,0.00219370313869,-0.00763746619394,"[0.024665959941785495, -0.0050988735715869725, -0.004082663291180169, -3.9416195538633504e-07, 3.695068147373143e-06, -7.540924431094609e-05, -0.0050988735715869725, 0.027916605322809658, 0.010203517506073186, -2.8784662044263535e-06, 2.122344654512009e-06, -5.43216209401614e-05, -0.004082663291180169, 0.010203517506073186, 0.20822974221375037, 3.5575106734779497e-06, -6.09730520682341e-06, 6.411284844784629e-06, -3.9416195538633504e-07, -2.8784662044263535e-06, 3.5575106734779497e-06, 4.460257832118497e-06, -9.65675257282797e-08, -1.1073022598371602e-06, 3.695068147373143e-06, 2.122344654512009e-06, -6.09730520682341e-06, -9.65675257282797e-08, 4.66671777000946e-06, 1.440732756512483e-07, -7.540924431094609e-05, -5.43216209401614e-05, 6.411284844784629e-06, -1.1073022598371602e-06, 1.440732756512483e-07, 9.72844209939199e-05]",,,,0.467461242388,-0.0926488475754,0.516652713253,,0.0202438957298,0.113736498401,0.0729386488423,"[0.00025685474087160256, -1.483224759284987e-06, 3.2533845395833194e-05, 4.7247505884584e-10, -1.752423354344752e-08, -1.262986075366344e-08, -1.483224759284987e-06, 0.0003142221178171153, 3.09870278146795e-05, 2.0793947550885745e-08, 1.3233001356258643e-09, -9.196028377575962e-09, 3.2533845395833194e-05, 3.09870278146795e-05, 0.0001573608986734153, 1.762341989767494e-09, -1.921216238212423e-09, 1.5418218738823462e-10, 4.7247505884584e-10, 2.0793947550885745e-08, 1.762341989767494e-09, 2.9275985273152087e-09, -8.348783286630662e-12, -1.6271726508792307e-11, -1.752423354344752e-08, 1.3233001356258643e-09, -1.921216238212423e-09, -8.348783286630662e-12, 2.889733537294239e-09, 1.2541660889042314e-12, -1.262986075366344e-08, -9.196028377575962e-09, 1.5418218738823462e-10, -1.6271726508792307e-11, 1.2541660889042314e-12, 2.927301885848665e-09]"
1402415859930919706,,141209,,1402415859,912856101,/enu,/imu,,,,8.16197781321,22.270731018,-34.9723145422,,0.493521202124,0.869691012859,0.00237854516229,-0.00828901254476,"[0.024669250217441152, -0.005098429369755647, -0.004082611563885345, -4.0487038755625016e-07, 3.950645282022505e-06, -7.571051592267152e-05, -0.005098429369755647, 0.027919553638219036, 0.010200628964371437, -3.1065919486078597e-06, 2.1388136363362523e-06, -5.4406449548848614e-05, -0.004082611563885345, 0.010200628964371437, 0.20824266831740434, 3.5880299180264313e-06, -6.0971241252198675e-06, 6.414166069067889e-06, -4.0487038755625016e-07, -3.1065919486078597e-06, 3.5880299180264313e-06, 4.500234291112713e-06, -9.65547839343165e-08, -1.1070552381358514e-06, 3.950645282022505e-06, 2.1388136363362523e-06, -6.0971241252198675e-06, -9.65547839343165e-08, 4.706719147075572e-06, 1.429362767096122e-07, -7.571051592267152e-05, -5.4406449548848614e-05, 6.414166069067889e-06, -1.1070552381358514e-06, 1.429362767096122e-07, 9.73117880092723e-05]",,,,0.481423833454,-0.091925782461,0.522797149822,,0.0317304622345,0.131739483448,0.0723864201253,"[0.00026197239064202883, -1.5350674438777968e-06, 3.275127567402814e-05, 4.897434927171926e-10, -1.7847497068659125e-08, -1.2704360412104466e-08, -1.5350674438777968e-06, 0.00032023889229055756, 3.1087896498442e-05, 2.114270321787791e-08, 1.3484176107626395e-09, -9.253459799629576e-09, 3.275127567402814e-05, 3.1087896498442e-05, 0.00015779688722681494, 1.7577412681100704e-09, -1.936101048360943e-09, 1.3979801751692921e-10, 4.897434927171926e-10, 2.114270321787791e-08, 1.7577412681100704e-09, 2.9275984817750456e-09, -8.348771718322832e-12, -1.6271238656874697e-11, -1.7847497068659125e-08, 1.3484176107626395e-09, -1.936101048360943e-09, -8.348771718322832e-12, 2.88973348939121e-09, 1.254320304262702e-12, -1.2704360412104466e-08, -9.253459799629576e-09, 1.3979801751692921e-10, -1.6271238656874697e-11, 1.254320304262702e-12, 2.9272949502188534e-09]"
1402415859930944291,,141210,,1402415859,923852920,/enu,/imu,,,,8.15839579548,22.2750747638,-34.9782630551,,0.493902932263,0.86946864883,0.0024802957032,-0.00883234601502,"[0.024672981375962272, -0.005097882680021332, -0.0040825429645866655, -4.1654412899961285e-07, 4.2364626780950815e-06, -7.605815573649402e-05, -0.005097882680021332, 0.027922917657722233, 0.010197331550952884, -3.3620238158967223e-06, 2.156952637496399e-06, -5.4506321386891664e-05, -0.0040825429645866655, 0.010197331550952884, 0.20825718036818167, 3.6223147513811566e-06, -6.09659705735434e-06, 6.417115009003539e-06, -4.1654412899961285e-07, -3.3620238158967223e-06, 3.6223147513811566e-06, 4.548563212527446e-06, -9.654208942878928e-08, -1.1068128473660256e-06, 4.2364626780950815e-06, 2.156952637496399e-06, -6.09659705735434e-06, -9.654208942878928e-08, 4.755073720671831e-06, 1.417878771447799e-07, -7.605815573649402e-05, -5.4506321386891664e-05, 6.417115009003539e-06, -1.1068128473660256e-06, 1.417878771447799e-07, 9.734763100349556e-05]",,,,0.497650545969,-0.0893735267242,0.531911257723,,0.0321722526323,0.095291721824,0.0792341902704,"[0.0002677677081003949, -1.5747071397958197e-06, 3.296148139406426e-05, 5.11600861558311e-10, -1.8206915593029334e-08, -1.2786890310943969e-08, -1.5747071397958197e-06, 0.0003270063544384916, 3.119177653454259e-05, 2.1529538137495503e-08, 1.3778618529652347e-09, -9.316482075495337e-09, 3.296148139406426e-05, 3.119177653454259e-05, 0.00015829122922760477, 1.7520597069636239e-09, -1.9457021011507032e-09, 1.289630492080525e-10, 5.11600861558311e-10, 2.1529538137495503e-08, 1.7520597069636239e-09, 2.927598435322736e-09, -8.348759952542277e-12, -1.6270746211893012e-11, -1.8206915593029334e-08, 1.3778618529652347e-09, -1.9457021011507032e-09, -8.348759952542277e-12, 2.8897334403924266e-09, 1.2544764194968729e-12, -1.2786890310943969e-08, -9.316482075495337e-09, 1.289630492080525e-10, -1.6270746211893012e-11, 1.2544764194968729e-12, 2.927288011015368e-09]"
1402415859970862721,,141211,,1402415859,933856964,/enu,/imu,,,,8.20667424848,22.2953287636,-34.9238953941,,0.497821824504,0.867208679507,0.000146194957952,-0.0110686883863,"[0.02465883088793808, -0.005100413845770237, -0.004082614066764917, -2.6998971167241256e-07, 2.9372067237239577e-06, -7.451022376500462e-05, -0.005100413845770237, 0.02791251674075488, 0.010203590052949046, -2.2841095099018516e-06, 1.949107618356727e-06, -5.346810802376165e-05, -0.004082614066764917, 0.010203590052949046, 0.2082087230596853, 3.4950892932971055e-06, -6.032159798146187e-06, 6.298050361398806e-06, -2.6998971167241256e-07, -2.2841095099018516e-06, 3.4950892932971055e-06, 4.362518504021093e-06, -1.0193012416843813e-07, -1.2526696369601468e-06, 2.9372067237239577e-06, 1.949107618356727e-06, -6.032159798146187e-06, -1.0193012416843813e-07, 4.564367073656905e-06, 3.9843831222971224e-07, -7.451022376500462e-05, -5.346810802376165e-05, 6.298050361398806e-06, -1.2526696369601468e-06, 3.9843831222971224e-07, 9.698431759994196e-05]",,,,0.503631598586,-0.0191900853862,0.514749219769,,0.0204692906803,0.103134023416,0.0762576853267,"[0.0002420213152994191, -9.576602962103548e-07, 3.3069136424107726e-05, 6.897117085537122e-10, -1.6583302912628102e-08, -8.094391595129746e-09, -9.576602962103548e-07, 0.00030276013024174687, 2.8123150447040624e-05, 1.992311343346788e-08, 1.3829914209293839e-09, -1.1057971856545157e-08, 3.3069136424107726e-05, 2.8123150447040624e-05, 0.00015660245305947185, 1.3987118181363313e-09, -1.9865121685735125e-09, 3.297474203064623e-10, 6.897117085537122e-10, 1.992311343346788e-08, 1.3987118181363313e-09, 2.9274746522344707e-09, -8.351655490432523e-12, -1.6419094738810536e-11, -1.6583302912628102e-08, 1.3829914209293839e-09, -1.9865121685735125e-09, -8.351655490432523e-12, 2.889613102871391e-09, 1.2427926068417313e-12, -8.094391595129746e-09, -1.1057971856545157e-08, 3.297474203064623e-10, -1.6419094738810536e-11, 1.2427926068417313e-12, 2.927101141496541e-09]"
1402415859970895735,,141212,,1402415859,943851947,/enu,/imu,,,,8.20375174696,22.2996402142,-34.9289003827,,0.498160957186,0.867008608732,0.00015842564923,-0.0114764114837,"[0.024661987923134312, -0.005099958904723048, -0.004082520443659232, -2.8014462878637435e-07, 3.1797263405010107e-06, -7.482252493660029e-05, -0.005099958904723048, 0.02791537868066812, 0.010200635139147738, -2.5006426721154582e-06, 1.9652798957212923e-06, -5.355005918225035e-05, -0.004082520443659232, 0.010200635139147738, 0.20822184438103877, 3.526652582814482e-06, -6.0319142014088e-06, 6.300612889873291e-06, -2.8014462878637435e-07, -2.5006426721154582e-06, 3.526652582814482e-06, 4.402432439076632e-06, -1.0191508856478492e-07, -1.2523967614094507e-06, 3.1797263405010107e-06, 1.9652798957212923e-06, -6.0319142014088e-06, -1.0191508856478492e-07, 4.604299983777542e-06, 3.972914174062018e-07, -7.482252493660029e-05, -5.355005918225035e-05, 6.300612889873291e-06, -1.2523967614094507e-06, 3.972914174062018e-07, 9.701157187717278e-05]",,,,0.517394805053,-0.0164116863364,0.526567390399,,0.0378095892135,0.0724295456078,0.0785770894005,"[0.00024692287367625765, -9.658082713506451e-07, 3.322698970181011e-05, 7.117625905271016e-10, -1.689969608944831e-08, -8.169180035145582e-09, -9.658082713506451e-07, 0.00030854939582901, 2.8147646462599218e-05, 2.026395012744838e-08, 1.410156169077915e-09, -1.1137733176778418e-08, 3.322698970181011e-05, 2.8147646462599218e-05, 0.00015699817923426655, 1.388608184971267e-09, -1.990372231665079e-09, 3.2773448101569897e-10, 7.117625905271016e-10, 2.026395012744838e-08, 1.388608184971267e-09, 2.927474605697253e-09, -8.351644892636618e-12, -1.641859480293135e-11, -1.689969608944831e-08, 1.410156169077915e-09, -1.990372231665079e-09, -8.351644892636618e-12, 2.8896130570891257e-09, 1.242940284414181e-12, -8.169180035145582e-09, -1.1137733176778418e-08, 3.2773448101569897e-10, -1.641859480293135e-11, 1.242940284414181e-12, 2.92709418545118e-09]"
1402415859970918094,,141213,,1402415859,953844070,/enu,/imu,,,,8.20093109403,22.304338832,-34.934361491,,0.498491878835,0.866812883197,0.000233568804578,-0.0118835055582,"[0.024665263885552846, -0.005099483970769179, -0.004082478716847759, -2.902450757484175e-07, 3.426419400222854e-06, -7.51474381395449e-05, -0.005099483970769179, 0.02791827678786223, 0.01019771188547487, -2.7211316301736077e-06, 1.9815242797176322e-06, -5.363592777953338e-05, -0.004082478716847759, 0.01019771188547487, 0.208234846768243, 3.5587955028399794e-06, -6.031437163798082e-06, 6.303108385323716e-06, -2.902450757484175e-07, -2.7211316301736077e-06, 3.5587955028399794e-06, 4.442322111094435e-06, -1.0189994155370634e-07, -1.2521222033376708e-06, 3.426419400222854e-06, 1.9815242797176322e-06, -6.031437163798082e-06, -1.0189994155370634e-07, 4.6442090537858035e-06, 3.9613462815951996e-07, -7.51474381395449e-05, -5.363592777953338e-05, 6.303108385323716e-06, -1.2521222033376708e-06, 3.9613462815951996e-07, 9.70387959991713e-05]",,,,0.531283994744,-0.0148946083913,0.525067004216,,0.0269857078124,0.0786146201204,0.0753741139854,"[0.00025190549117999443, -9.800217039046164e-07, 3.339614425517279e-05, 7.338537146300102e-10, -1.721862865859597e-08, -8.243874379880407e-09, -9.800217039046164e-07, 0.00031442368174605087, 2.818459615259587e-05, 2.060732495857297e-08, 1.4376707837295396e-09, -1.1217806285684613e-08, 3.339614425517279e-05, 2.818459615259587e-05, 0.0001574047931979041, 1.380498770644988e-09, -1.9952555158406405e-09, 3.23940422887837e-10, 7.338537146300102e-10, 2.060732495857297e-08, 1.380498770644988e-09, 2.927474558329078e-09, -8.351634144319197e-12, -1.6418090196986823e-11, -1.721862865859597e-08, 1.4376707837295396e-09, -1.9952555158406405e-09, -8.351634144319197e-12, 2.889613010530859e-09, 1.2430898444898079e-12, -8.243874379880407e-09, -1.1217806285684613e-08, 3.23940422887837e-10, -1.6418090196986823e-11, 1.2430898444898079e-12, 2.9270872258030687e-09]"
1402415859970942409,,141214,,1402415859,963845968,/enu,/imu,,,,8.19809578664,22.3090419308,-34.9396758701,,0.498808396995,0.866626838793,0.00026881895727,-0.0121668856961,"[0.02466866165848893, -0.005098965840590028, -0.004082510075919378, -3.0025453729761826e-07, 3.677567335602797e-06, -7.548631463772024e-05, -0.005098965840590028, 0.027921287920598885, 0.010194667924168978, -2.9458524677397995e-06, 1.997875261318708e-06, -5.3724948120231274e-05, -0.004082510075919378, 0.010194667924168978, 0.2082480879564279, 3.5916034046503486e-06, -6.030794985167325e-06, 6.305612480292474e-06, -3.0025453729761826e-07, -2.9458524677397995e-06, 3.5916034046503486e-06, 4.482288631353748e-06, -1.0188468779888184e-07, -1.2518461266352741e-06, 3.677567335602797e-06, 1.997875261318708e-06, -6.030794985167325e-06, -1.0188468779888184e-07, 4.684195401028601e-06, 3.9496797274368524e-07, -7.548631463772024e-05, -5.3724948120231274e-05, 6.305612480292474e-06, -1.2518461266352741e-06, 3.9496797274368524e-07, 9.706609273847175e-05]",,,,0.545388477522,-0.00987025252974,0.539306744249,,0.0215737667731,0.0531011869023,0.0719502428799,"[0.00025699865931906027, -9.906344278379773e-07, 3.354567951738041e-05, 7.561272098066343e-10, -1.7541617944899987e-08, -8.318144196238861e-09, -9.906344278379773e-07, 0.0003203955034354, 2.8227462085976653e-05, 2.095422730948643e-08, 1.4651892775129654e-09, -1.1298385060878179e-08, 3.354567951738041e-05, 2.8227462085976653e-05, 0.00015779898025582108, 1.3729845409563435e-09, -1.9957472663412738e-09, 3.2158470994461455e-10, 7.561272098066343e-10, 2.095422730948643e-08, 1.3729845409563435e-09, 2.9274745101449047e-09, -8.351623119297606e-12, -1.6417581025885395e-11, -1.7541617944899987e-08, 1.4651892775129654e-09, -1.9957472663412738e-09, -8.351623119297606e-12, 2.8896129629832387e-09, 1.2432412513975604e-12, -8.318144196238861e-09, -1.1298385060878179e-08, 3.2158470994461455e-10, -1.6417581025885395e-11, 1.2432412513975604e-12, 2.9270802628364417e-09]"
1402415860010943888,,141215,,1402415859,973844051,/enu,/imu,,,,8.1950208909,22.3136623006,-34.9446263205,,0.499180388691,0.866408844928,0.000272371914837,-0.0124329718654,"[0.024672076882959585, -0.005098504509131473, -0.004082329698473554, -3.1016724439693974e-07, 3.932600985880186e-06, -7.583859887381168e-05, -0.005098504509131473, 0.027924300949236456, 0.010191751133327789, -3.174291433841576e-06, 2.01430151464231e-06, -5.381664433036706e-05, -0.004082329698473554, 0.010191751133327789, 0.20826112535335756, 3.6250339498957363e-06, -6.029987913996886e-06, 6.307803176397858e-06, -3.1016724439693974e-07, -3.174291433841576e-06, 3.6250339498957363e-06, 4.5222231937040295e-06, -1.0186932636096285e-07, -1.25156849647851e-06, 3.932600985880186e-06, 2.01430151464231e-06, -6.029987913996886e-06, -1.0186932636096285e-07, 4.724150221956744e-06, 3.9379151943257384e-07, -7.583859887381168e-05, -5.381664433036706e-05, 6.307803176397858e-06, -1.25156849647851e-06, 3.9379151943257384e-07, 9.709335153742807e-05]",,,,0.559057305449,-0.00773926890043,0.548916967718,,0.0252185421883,0.0470265598541,0.0848726404591,"[0.00026218252134621014, -9.895972053087886e-07, 3.369694985712313e-05, 7.817338918823724e-10, -1.7867466969118695e-08, -8.393889681280868e-09, -9.895972053087886e-07, 0.00032646235097571677, 2.8256197108186437e-05, 2.130405098386108e-08, 1.4953878077629997e-09, -1.1377892840050523e-08, 3.369694985712313e-05, 2.8256197108186437e-05, 0.00015818749628965668, 1.3644243182683023e-09, -1.995223424469042e-09, 3.2010815105316617e-10, 7.817338918823724e-10, 2.130405098386108e-08, 1.3644243182683023e-09, 2.927474461058544e-09, -8.351611995149079e-12, -1.6417067244953108e-11, -1.7867466969118695e-08, 1.4953878077629997e-09, -1.995223424469042e-09, -8.351611995149079e-12, 2.8896129145876804e-09, 1.2433945098213898e-12, -8.393889681280868e-09, -1.1377892840050523e-08, 3.2010815105316617e-10, -1.6417067244953108e-11, 1.2433945098213898e-12, 2.927073296094024e-09]"
1402415860010977518,,141216,,1402415859,984850883,/enu,/imu,,,,8.24739216341,22.3466426615,-34.8237700856,,0.50427982329,0.863431999936,-0.00358402496696,-0.013198336029,"[0.02465795246142434, -0.00510113692481964, -0.004082216206274046, -1.6417645071866438e-07, 2.6425024587535696e-06, -7.412939395802164e-05, -0.00510113692481964, 0.027914158051098297, 0.010197810440261103, -2.12614939856705e-06, 1.7877654443945476e-06, -5.271811537897374e-05, -0.004082216206274046, 0.010197810440261103, 0.2082139628230929, 3.484326836100759e-06, -5.944845366426257e-06, 6.14323640306301e-06, -1.6417645071866438e-07, -2.12614939856705e-06, 3.484326836100759e-06, 4.34953915860634e-06, -1.077507697764126e-07, -1.3962928744509528e-06, 2.6425024587535696e-06, 1.7877654443945476e-06, -5.944845366426257e-06, -1.077507697764126e-07, 4.5469535228801236e-06, 6.757237769183614e-07, -7.412939395802164e-05, -5.271811537897374e-05, 6.14323640306301e-06, -1.3962928744509528e-06, 6.757237769183614e-07, 9.666871876427388e-05]",,,,0.601627287611,0.0748302512699,0.519291064636,,0.0230150581692,0.0214007767435,0.0870889047336,"[0.00023786393983167523, -5.86849180916303e-07, 3.268818055810946e-05, 9.733228881929896e-10, -1.626484662586127e-08, -2.862584787630445e-09, -5.86849180916303e-07, 0.0003040297071883051, 2.4770686156162787e-05, 1.971707803202228e-08, 1.5035700789933364e-09, -1.55777077423834e-08, 3.268818055810946e-05, 2.4770686156162787e-05, 0.0001563138402883241, 9.573170366823384e-10, -1.8610038776708207e-09, 7.240547874913133e-10, 9.733228881929896e-10, 1.971707803202228e-08, 9.573170366823384e-10, 2.9273535048597106e-09, -8.354618362630236e-12, -1.6576551677256397e-11, -1.626484662586127e-08, 1.5035700789933364e-09, -1.8610038776708207e-09, -8.354618362630236e-12, 2.8894950871236505e-09, 1.2248416156131328e-12, -2.862584787630445e-09, -1.55777077423834e-08, 7.240547874913133e-10, -1.6576551677256397e-11, 1.2248416156131328e-12, 2.9268524072780156e-09]"
1402415860011055801,,141217,,1402415859,994827985,/enu,/imu,,,,8.24476775258,22.3522526801,-34.8287762573,,0.504620149025,0.863229897322,-0.00360398960847,-0.0134037616264,"[0.024661239650102484, -0.005100650176751497, -0.004082216682088346, -1.7352861596254164e-07, 2.8800460822504757e-06, -7.447353671615465e-05, -0.005100650176751497, 0.027916972249005762, 0.010194875226243775, -2.3391297257452343e-06, 1.8036824510245216e-06, -5.2799686069457586e-05, -0.004082216682088346, 0.010194875226243775, 0.2082269645679651, 3.5178947868317577e-06, -5.94429606521274e-06, 6.145162138691047e-06, -1.7352861596254164e-07, -2.3391297257452343e-06, 3.5178947868317577e-06, 4.3893094721083585e-06, -1.0773310233755276e-07, -1.3959920182889269e-06, 2.8800460822504757e-06, 1.8036824510245216e-06, -5.94429606521274e-06, -1.0773310233755276e-07, 4.586737223861105e-06, 6.745461597332976e-07, -7.447353671615465e-05, -5.2799686069457586e-05, 6.145162138691047e-06, -1.3959920182889269e-06, 6.745461597332976e-07, 9.669577432745661e-05]",,,,0.615692954841,0.075190197446,0.521179476284,,0.0236777439294,0.0343231648481,0.0778113025178,"[0.00024270235318398528, -5.677286020050569e-07, 3.278468728013953e-05, 1.0003405591037054e-09, -1.6579396961597075e-08, -2.9389235003838067e-09, -5.677286020050569e-07, 0.00030976470617929204, 2.4732934287944915e-05, 2.0055045159667234e-08, 1.5339961823078155e-09, -1.5683100687807093e-08, 3.278468728013953e-05, 2.4732934287944915e-05, 0.00015669611082256776, 9.445939673671516e-10, -1.855429483189528e-09, 7.273632536684592e-10, 1.0003405591037054e-09, 2.0055045159667234e-08, 9.445939673671516e-10, 2.9273534553260626e-09, -8.354608401778362e-12, -1.6576028284271274e-11, -1.6579396961597075e-08, 1.5339961823078155e-09, -1.855429483189528e-09, -8.354608401778362e-12, 2.889495041745789e-09, 1.2249875733311395e-12, -2.9389235003838067e-09, -1.5683100687807093e-08, 7.273632536684592e-10, -1.6576028284271274e-11, 1.2249875733311395e-12, 2.9268454276194774e-09]"
1402415860011078267,,141218,,1402415860,4816055,/enu,/imu,,,,8.24225087033,22.3582667356,-34.8341661695,,0.504996326602,0.863007404621,-0.0037537048584,-0.0135218115613,"[0.02466457364420029, -0.005100204463921623, -0.0040821177251839065, -1.8278958486616635e-07, 3.1219330804822233e-06, -7.483050856554693e-05, -0.005100204463921623, 0.027919904880129978, 0.0101918713197759, -2.5562718910311295e-06, 1.8196981607363224e-06, -5.2885079647931065e-05, -0.0040821177251839065, 0.0101918713197759, 0.2082400756953962, 3.5520875172937843e-06, -5.943555990559881e-06, 6.147229531382505e-06, -1.8278958486616635e-07, -2.5562718910311295e-06, 3.5520875172937843e-06, 4.429166080498613e-06, -1.0771531411681819e-07, -1.395689736489124e-06, 3.1219330804822233e-06, 1.8196981607363224e-06, -5.943555990559881e-06, -1.0771531411681819e-07, 4.62660759398581e-06, 6.733589688696417e-07, -7.483050856554693e-05, -5.2885079647931065e-05, 6.147229531382505e-06, -1.395689736489124e-06, 6.733589688696417e-07, 9.672291213931533e-05]",,,,0.629921915277,0.0788634129923,0.531849918655,,0.0371523701737,0.00615898546245,0.0865366845122,"[0.00024765185078588954, -5.306703790543627e-07, 3.2859766975744286e-05, 1.0299363963116583e-09, -1.6897755976059876e-08, -3.0165190702303715e-09, -5.306703790543627e-07, 0.0003156061727813259, 2.4666249356208666e-05, 2.0396538426561212e-08, 1.5661371260942773e-09, -1.57883710546034e-08, 3.2859766975744286e-05, 2.4666249356208666e-05, 0.00015705488826428914, 9.285149393605884e-10, -1.8451761479322173e-09, 7.336435029125601e-10, 1.0299363963116583e-09, 2.0396538426561212e-08, 9.285149393605884e-10, 2.927353404845958e-09, -8.354598287014417e-12, -1.657550028958898e-11, -1.6897755976059876e-08, 1.5661371260942773e-09, -1.8451761479322173e-09, -8.354598287014417e-12, 2.8894949954745173e-09, 1.2251353337567946e-12, -3.0165190702303715e-09, -1.57883710546034e-08, 7.336435029125601e-10, -1.657550028958898e-11, 1.2251353337567946e-12, 2.926838444526881e-09]"
