rosbagTimestamp,header,seq,stamp,secs,nsecs,frame_id,child_frame_id,pose,pose,position,x,y,z,orientation,x,y,z,w,covariance,twist,twist,linear,x,y,z,angular,x,y,z,covariance
1402415859731212467,,187362,,1402415859,699018955,/enu,/base_link,,,,8.24834925889,22.069174607,-34.8527047496,,0.00504762334331,0.00301811327848,-0.874566479031,-0.48486996839,"[0.024637245035312436, -0.00510986632580975, -0.004083977471880264, -5.323446637242087e-07, 2.874934245983163e-06, -6.337343168411036e-05, -0.00510986632580975, 0.027890037451488263, 0.010235798934447416, -2.190293882035338e-06, 2.1247203648724684e-06, -4.822718846646665e-05, -0.004083977471880264, 0.010235798934447416, 0.2081486136719628, 2.830069966934473e-06, -6.331777105550201e-06, 6.475499920908453e-06, -5.323446637242087e-07, -2.190293882035338e-06, 2.830069966934473e-06, 4.202217779745048e-06, -8.744351824704511e-08, -9.184579059247934e-07, 2.874934245983163e-06, 2.1247203648724684e-06, -6.331777105550201e-06, -8.744351824704511e-08, 4.416769790925301e-06, -1.722052959926896e-07, -6.337343168411036e-05, -4.822718846646665e-05, 6.475499920908453e-06, -9.184579059247934e-07, -1.722052959926896e-07, 9.699261738588575e-05]",,,,0.0749716787866,0.227604766817,-0.559942336969,,-0.0211810459713,-0.0655866361339,-0.0445491239468,"[0.00023492020588921682, 4.516334485693524e-06, -3.1930639451433645e-05, 9.813383127739478e-11, 1.622293712927312e-08, 1.81795804339411e-08, 4.516334485693524e-06, 0.00027351729834189197, 3.202302565662268e-05, -1.912810607163558e-08, 1.1944688144000274e-09, -6.491388046464635e-10, -3.1930639451433645e-05, 3.202302565662268e-05, 0.00015429713501608584, -2.2698220379302273e-09, -1.5298600357276615e-09, 3.070509267490527e-10, 9.813383127739478e-11, -1.912810607163558e-08, -2.2698220379302273e-09, 2.9279105289001237e-09, 8.343884745678647e-12, 1.6093596110900193e-11, 1.622293712927312e-08, 1.1944688144000274e-09, -1.5298600357276615e-09, 8.343884745678647e-12, 2.8900392761326144e-09, 1.2693245334750234e-12, 1.81795804339411e-08, -6.491388046464635e-10, 3.070509267490527e-10, 1.6093596110900193e-11, 1.2693245334750234e-12, 2.9275658096829253e-09]"
1402415859731701646,,187363,,1402415859,708981037,/enu,/base_link,,,,8.24604027668,22.0686873066,-34.8583186274,,0.004763434903,0.00322736857292,-0.874450809464,-0.485080071336,"[0.024639743333546047, -0.005109739167328644, -0.00408375097293917, -5.442951002093955e-07, 3.1064916306662877e-06, -6.341964747424961e-05, -0.005109739167328644, 0.027892567654680386, 0.01023299528123642, -2.3967265237999303e-06, 2.13957339032739e-06, -4.821173299626598e-05, -0.00408375097293917, 0.01023299528123642, 0.2081615923232663, 2.8442672240990225e-06, -6.338811819728046e-06, 6.480850326548673e-06, -5.442951002093955e-07, -2.3967265237999303e-06, 2.8442672240990225e-06, 4.24187664894424e-06, -8.743443627299756e-08, -9.182656447702035e-07, 3.1064916306662877e-06, 2.13957339032739e-06, -6.338811819728046e-06, -8.743443627299756e-08, 4.456456268121961e-06, -1.7322657769093477e-07, -6.341964747424961e-05, -4.821173299626598e-05, 6.480850326548673e-06, -9.182656447702035e-07, -1.7322657769093477e-07, 9.701989018060437e-05]",,,,0.0899317213943,0.225669251496,-0.556296668305,,-0.00881089707624,-0.0701149940569,-0.0473103263136,"[0.00023960542955230678, 4.615301164813908e-06, -3.20187631846106e-05, 1.0446418785222144e-10, 1.6531203964172333e-08, 1.8249971452556193e-08, 4.615301164813908e-06, 0.00027891104253069095, 3.230090272340744e-05, -1.9458827588134928e-08, 1.2116096259884688e-09, -6.753032262277451e-10, -3.20187631846106e-05, 3.230090272340744e-05, 0.00015471206943752302, -2.281140374614314e-09, -1.5364666965924207e-09, 2.9457969071708855e-10, 1.0446418785222144e-10, -1.9458827588134928e-08, -2.281140374614314e-09, 2.9279104916040926e-09, 8.343873436106434e-12, 1.6093167945425382e-11, 1.6531203964172333e-08, 1.2116096259884688e-09, -1.5364666965924207e-09, 8.343873436106434e-12, 2.8900392338407106e-09, 1.2694694417073543e-12, 1.8249971452556193e-08, -6.753032262277451e-10, 2.9457969071708855e-10, 1.6093167945425382e-11, 1.2694694417073543e-12, 2.927558990362215e-09]"
1402415859731722160,,187364,,1402415859,718996047,/enu,/base_link,,,,8.24375376071,22.0683129691,-34.8638541803,,0.00441621566852,0.00341256589319,-0.87432437623,-0.485309938661,"[0.02464233160061619, -0.005109575800164946, -0.004083492790157481, -5.562531128665974e-07, 3.3439124676206226e-06, -6.348024322870414e-05, -0.005109575800164946, 0.027895103327015905, 0.01023027902921418, -2.6085713617361297e-06, 2.1545919840354257e-06, -4.8202642918694e-05, -0.004083492790157481, 0.01023027902921418, 0.20817441271763504, 2.859101878662835e-06, -6.345536663062206e-06, 6.48596845701245e-06, -5.562531128665974e-07, -2.6085713617361297e-06, 2.859101878662835e-06, 4.281957505464397e-06, -8.742529329632882e-08, -9.180724001198378e-07, 3.3439124676206226e-06, 2.1545919840354257e-06, -6.345536663062206e-06, -8.742529329632882e-08, 4.4965652380269794e-06, -1.7425774216614815e-07, -6.348024322870414e-05, -4.8202642918694e-05, 6.48596845701245e-06, -9.180724001198378e-07, -1.7425774216614815e-07, 9.70475862349232e-05]",,,,0.106543364855,0.224957343494,-0.547868716749,,0.00157119199956,-0.0783985758946,-0.0513969030574,"[0.0002443958997197414, 4.7131924370448475e-06, -3.212183804616369e-05, 1.1177903790103911e-10, 1.6843415424608336e-08, 1.8320904489972864e-08, 4.7131924370448475e-06, 0.00028443197661517477, 3.2567486161357375e-05, -1.9794106171483927e-08, 1.2296384699897867e-09, -7.011429352493177e-10, -3.212183804616369e-05, 3.2567486161357375e-05, 0.00015513013871483613, -2.290589707937046e-09, -1.5445118912744544e-09, 2.804576128167904e-10, 1.1177903790103911e-10, -1.9794106171483927e-08, -2.290589707937046e-09, 2.9279104535499906e-09, 8.34386195054785e-12, 1.609273540592074e-11, 1.6843415424608336e-08, 1.2296384699897867e-09, -1.5445118912744544e-09, 8.34386195054785e-12, 2.890039190411845e-09, 1.2696162930506463e-12, 1.8320904489972864e-08, -7.011429352493177e-10, 2.804576128167904e-10, 1.609273540592074e-11, 1.2696162930506463e-12, 2.9275521675997037e-09]"
1402415859731736721,,187365,,1402415859,729976892,/enu,/base_link,,,,8.24106177006,22.0681774437,-34.8699602941,,0.00382689684697,0.00343438319129,-0.874205080236,-0.485529646429,"[0.024645270492906934, -0.005109432553204023, -0.004083199827822424, -5.692762677052416e-07, 3.610008776645767e-06, -6.356575776916905e-05, -0.005109432553204023, 0.027897984947624965, 0.010227245990415669, -2.846335047127995e-06, 2.171133111787481e-06, -4.8194682325759444e-05, -0.004083199827822424, 0.010227245990415669, 0.2081885394938648, 2.8757046747352213e-06, -6.35310630351038e-06, 6.491298044794996e-06, -5.692762677052416e-07, -2.846335047127995e-06, 2.8757046747352213e-06, 4.3301545932445244e-06, -8.741620021579304e-08, -9.178849517983055e-07, 3.610008776645767e-06, 2.171133111787481e-06, -6.35310630351038e-06, -8.741620021579304e-08, 4.544791197379346e-06, -1.7529988357242348e-07, -6.356575776916905e-05, -4.8194682325759444e-05, 6.491298044794996e-06, -9.178849517983055e-07, -1.7529988357242348e-07, 9.708351818525858e-05]",,,,0.121801794631,0.216687747036,-0.542443493363,,0.0488428336507,-0.0956284264512,-0.0447700459107,"[0.0002497741383741526, 4.813608913779032e-06, -3.2259521826450964e-05, 1.1828334859322067e-10, 1.718831898426137e-08, 1.8398755740567043e-08, 4.813608913779032e-06, 0.0002906624129704888, 3.27930699711769e-05, -2.0165840075947322e-08, 1.2474925695917914e-09, -7.314804925623218e-10, -3.2259521826450964e-05, 3.27930699711769e-05, 0.00015560546415882082, -2.2906007806418658e-09, -1.55717725794363e-09, 2.6152613092235633e-10, 1.1828334859322067e-10, -2.0165840075947322e-08, -2.2906007806418658e-09, 2.9279104147088994e-09, 8.343850453782642e-12, 1.6092298299775674e-11, 1.718831898426137e-08, 1.2474925695917914e-09, -1.55717725794363e-09, 8.343850453782642e-12, 2.8900391460406303e-09, 1.2697654852774113e-12, 1.8398755740567043e-08, -7.314804925623218e-10, 2.6152613092235633e-10, 1.6092298299775674e-11, 1.2697654852774113e-12, 2.9275453409070927e-09]"
1402415859741085818,,187366,,1402415859,739975929,/enu,/base_link,,,,8.24470044069,22.0860981078,-34.8691705587,,0.00377230724472,0.00198431495579,-0.873855835367,-0.486166443914,"[0.02463412003823854, -0.005110396260867695, -0.004083927828470397, -5.206803723850484e-07, 2.6867424286421588e-06, -6.325588240402289e-05, -0.005110396260867695, 0.027889542527290447, 0.010232763624292113, -2.0198314636865808e-06, 2.1191334602233753e-06, -4.7961638380663426e-05, -0.004083927828470397, 0.010232763624292113, 0.20814083522796487, 2.8633574072970237e-06, -6.371700859768118e-06, 6.495967540369677e-06, -5.206803723850484e-07, -2.0198314636865808e-06, 2.8633574072970237e-06, 4.173954269167567e-06, -9.10798587649445e-08, -9.560872660317674e-07, 2.6867424286421588e-06, 2.1191334602233753e-06, -6.371700859768118e-06, -9.10798587649445e-08, 4.388036442800127e-06, -1.0725814368797174e-07, -6.325588240402289e-05, -4.7961638380663426e-05, 6.495967540369677e-06, -9.560872660317674e-07, -1.0725814368797174e-07, 9.707876679887118e-05]",,,,0.16229488506,0.193999755885,-0.542896086201,,0.0181401915031,-0.125889356068,-0.0518392583297,"[0.00022973128613274353, 3.239088275239879e-06, -3.148705882951707e-05, 1.5292568826483532e-10, 1.5916638389208297e-08, 1.6655102867592196e-08, 3.239088275239879e-06, 0.00027185585815297304, 3.174823326699304e-05, -1.8883627988763095e-08, 1.1618168604517954e-09, -3.0852457050116794e-09, -3.148705882951707e-05, 3.174823326699304e-05, 0.00015406209060479087, -2.1499045178051905e-09, -1.4710383577214074e-09, 2.8982677836304715e-10, 1.5292568826483532e-10, -1.8883627988763095e-08, -2.1499045178051905e-09, 2.9278056429233804e-09, 8.345033866067712e-12, 1.6127755688528824e-11, 1.5916638389208297e-08, 1.1618168604517954e-09, -1.4710383577214074e-09, 8.345033866067712e-12, 2.8899347296478295e-09, 1.2649584391800565e-12, 1.6655102867592196e-08, -3.0852457050116794e-09, 2.8982677836304715e-10, 1.6127755688528824e-11, 1.2649584391800565e-12, 2.9275258125033913e-09]"
1402415859779019410,,187367,,1402415859,749974012,/enu,/base_link,,,,8.24233142518,22.0866212073,-34.874706773,,0.00319594219535,0.00219514445134,-0.873727000741,-0.486401167217,"[0.02463667498923274, -0.005110215985639106, -0.0040837018938469005, -5.325824100931346e-07, 2.9167806662893284e-06, -6.335136644966313e-05, -0.005110215985639106, 0.027892027617173545, 0.010230032181975046, -2.224338301683343e-06, 2.1344814613352116e-06, -4.7966413995630727e-05, -0.0040837018938469005, 0.010230032181975046, 0.2081536392476769, 2.879942618346121e-06, -6.378027550916386e-06, 6.50087216579813e-06, -5.325824100931346e-07, -2.224338301683343e-06, 2.879942618346121e-06, 4.213901421121997e-06, -9.107021070395601e-08, -9.558869380838504e-07, 2.9167806662893284e-06, 2.1344814613352116e-06, -6.378027550916386e-06, -9.107021070395601e-08, 4.42800973525242e-06, -1.082828937307352e-07, -6.335136644966313e-05, -4.7966413995630727e-05, 6.50087216579813e-06, -9.558869380838504e-07, -1.082828937307352e-07, 9.710627610073077e-05]",,,,0.179670775954,0.192463513357,-0.533311479479,,0.0194655640887,-0.121140102072,-0.0526124017974,"[0.00023432141160502492, 3.3317265268533447e-06, -3.160743207156517e-05, 1.5980601672403433e-10, 1.6221654112056225e-08, 1.672628410212219e-08, 3.3317265268533447e-06, 0.0002772321557037472, 3.196559298025685e-05, -1.9213063387650377e-08, 1.1794326652611743e-09, -3.1181247283608326e-09, -3.160743207156517e-05, 3.196559298025685e-05, 0.00015449227213078335, -2.1541210795817376e-09, -1.4835776081868311e-09, 2.703873486887279e-10, 1.5980601672403433e-10, -1.9213063387650377e-08, -2.1541210795817376e-09, 2.927805605468147e-09, 8.34502321395543e-12, 1.6127324163295347e-11, 1.6221654112056225e-08, 1.1794326652611743e-09, -1.4835776081868311e-09, 8.34502321395543e-12, 2.8899346879179936e-09, 1.2651012475741158e-12, 1.672628410212219e-08, -3.1181247283608326e-09, 2.703873486887279e-10, 1.6127324163295347e-11, 1.2651012475741158e-12, 2.9275189663833174e-09]"
1402415859779074687,,187368,,1402415859,759988069,/enu,/base_link,,,,8.23971534777,22.0870743993,-34.8798819068,,0.00260948833434,0.00247406495124,-0.87358971873,-0.486649846299,"[0.024639356477754917, -0.005109998004668827, -0.004083528287370554, -5.444598147544409e-07, 3.151607385320959e-06, -6.345997093133325e-05, -0.005109998004668827, 0.027894617613161206, 0.010227190576337284, -2.4332566890864143e-06, 2.149955113438998e-06, -4.797859662604814e-05, -0.004083528287370554, 0.010227190576337284, 0.2081667052928293, 2.8970739451215022e-06, -6.384003407891692e-06, 6.505641727757861e-06, -5.444598147544409e-07, -2.4332566890864143e-06, 2.8970739451215022e-06, 4.25397525382194e-06, -9.10604878154464e-08, -9.55685050266077e-07, 3.151607385320959e-06, 2.149955113438998e-06, -6.384003407891692e-06, -9.10604878154464e-08, 4.468110197864758e-06, -1.0931779432508467e-07, -6.345997093133325e-05, -4.797859662604814e-05, 6.505641727757861e-06, -9.55685050266077e-07, -1.0931779432508467e-07, 9.71339084874396e-05]",,,,0.193292829228,0.193377614546,-0.538253687726,,0.00853123514775,-0.129313236204,-0.0559258431393,"[0.00023899778415865778, 3.429977775668093e-06, -3.174480793537804e-05, 1.674857710183776e-10, 1.6529867291446597e-08, 1.6797714639746814e-08, 3.429977775668093e-06, 0.0002827006114356245, 3.219509356571412e-05, -1.9545753004449473e-08, 1.1981202435433825e-09, -3.1508121510485483e-09, -3.174480793537804e-05, 3.219509356571412e-05, 0.0001549363506083703, -2.1603437190839504e-09, -1.4976398605076223e-09, 2.4909036043210485e-10, 1.674857710183776e-10, -1.9545753004449473e-08, -2.1603437190839504e-09, 2.9278055673408728e-09, 8.345011735519473e-12, 1.6126888157046954e-11, 1.6529867291446597e-08, 1.1981202435433825e-09, -1.4976398605076223e-09, 8.345011735519473e-12, 2.889934645285516e-09, 1.2652458636953603e-12, 1.6797714639746814e-08, -3.1508121510485483e-09, 2.4909036043210485e-10, 1.6126888157046954e-11, 1.2652458636953603e-12, 2.9275121165269642e-09]"
1402415859818836195,,187369,,1402415859,770001888,/enu,/base_link,,,,8.23701996987,22.0879388613,-34.8856387233,,0.00191642322049,0.00282191988873,-0.873443547308,-0.486913476663,"[0.02464203583721423, -0.00510981474066833, -0.004083265063312149, -5.563309448673346e-07, 3.39063785055315e-06, -6.357936354972712e-05, -0.00510981474066833, 0.027897256631345235, 0.010224402735417824, -2.6460912932090126e-06, 2.1655278737190116e-06, -4.799715138483961e-05, -0.004083265063312149, 0.010224402735417824, 0.20817959388717977, 2.9146607486568153e-06, -6.389657742235899e-06, 6.510225942809321e-06, -5.563309448673346e-07, -2.6460912932090126e-06, 2.9146607486568153e-06, 4.294045866033811e-06, -9.105068564912224e-08, -9.554814543168859e-07, 3.39063785055315e-06, 2.1655278737190116e-06, -6.389657742235899e-06, -9.105068564912224e-08, 4.5082079326646895e-06, -1.1036300582217936e-07, -6.357936354972712e-05, -4.799715138483961e-05, 6.510225942809321e-06, -9.554814543168859e-07, -1.1036300582217936e-07, 9.716153193900196e-05]",,,,0.206409937338,0.194564764366,-0.538506608775,,0.00687451819442,-0.154605773452,-0.059460180202,"[0.00024374187498139586, 3.5361446036283164e-06, -3.191590481534244e-05, 1.7568155617843328e-10, 1.6840250508584347e-08, 1.686939026332568e-08, 3.5361446036283164e-06, 0.0002882584261233002, 3.24248897069521e-05, -1.988116106385649e-08, 1.2177702263490543e-09, -3.1831610333924218e-09, -3.191590481534244e-05, 3.24248897069521e-05, 0.00015539829028967053, -2.1669234638586486e-09, -1.5162003344559657e-09, 2.233084807132026e-10, 1.7568155617843328e-10, -1.988116106385649e-08, -2.1669234638586486e-09, 2.9278055284232666e-09, 8.345000462028489e-12, 1.6126447758286427e-11, 1.6840250508584347e-08, 1.2177702263490543e-09, -1.5162003344559657e-09, 8.345000462028489e-12, 2.889934600895514e-09, 1.2653924300089144e-12, 1.686939026332568e-08, -3.1831610333924218e-09, 2.233084807132026e-10, 1.6126447758286427e-11, 1.2653924300089144e-12, 2.9275052630358545e-09]"
1402415859858820889,,187370,,1402415859,780972957,/enu,/base_link,,,,8.23415816863,22.0887749862,-34.8913721075,,0.00117240635684,0.00314180216995,-0.873305103196,-0.487162140641,"[0.024645085082058014, -0.005109566006309397, -0.004083097507601288, -5.692475847348854e-07, 3.6582747028046048e-06, -6.372856749052019e-05, -0.005109566006309397, 0.02790013885194601, 0.01022141301690836, -2.884718766729194e-06, 2.182661693478116e-06, -4.8024243087261176e-05, -0.004083097507601288, 0.01022141301690836, 0.20819372164806027, 2.9342309541951234e-06, -6.3958064272765854e-06, 6.51498770055483e-06, -5.692475847348854e-07, -2.884718766729194e-06, 2.9342309541951234e-06, 4.34215635603901e-06, -9.1040928949162e-08, -9.55283192610963e-07, 3.6582747028046048e-06, 2.182661693478116e-06, -6.3958064272765854e-06, -9.1040928949162e-08, 4.556346292247646e-06, -1.1141963107861458e-07, -6.372856749052019e-05, -4.8024243087261176e-05, 6.51498770055483e-06, -9.55283192610963e-07, -1.1141963107861458e-07, 9.719731396891831e-05]",,,,0.224079283248,0.190560606305,-0.529736390994,,0.0152685475027,-0.146763982071,-0.0510661601315,"[0.0002490818131606027, 3.6514542271004757e-06, -3.210692947440993e-05, 1.834883700249127e-10, 1.7183402863373028e-08, 1.694773022236334e-08, 3.6514542271004757e-06, 0.00029449659554233023, 3.266765110077316e-05, -2.0251766254584464e-08, 1.2379915305047849e-09, -3.2209057650026634e-09, -3.210692947440993e-05, 3.266765110077316e-05, 0.00015593201875387216, -2.1721997910607323e-09, -1.5357492311429997e-09, 1.965184366217081e-10, 1.834883700249127e-10, -2.0251766254584464e-08, -2.1721997910607323e-09, 2.927805488759402e-09, 8.34498920667129e-12, 1.6126002795580467e-11, 1.7183402863373028e-08, 1.2379915305047849e-09, -1.5357492311429997e-09, 8.34498920667129e-12, 2.8899345572421536e-09, 1.2655413444139922e-12, 1.694773022236334e-08, -3.2209057650026634e-09, 1.965184366217081e-10, 1.6126002795580467e-11, 1.2655413444139922e-12, 2.9274984056773566e-09]"
1402415859858849288,,187371,,1402415859,790951967,/enu,/base_link,,,,8.25204890979,22.1016213818,-34.8595555637,,-6.81937032626e-05,0.00162756898278,-0.872555438982,-0.48851238702,"[0.024633460736989243, -0.005110855846305999, -0.004083598976242211, -4.984652014333701e-07, 2.686996391398926e-06, -6.310026836784122e-05, -0.005110855846305999, 0.027891462899090457, 0.010227020964949691, -2.0383168519106556e-06, 2.0920257728121898e-06, -4.760282424207289e-05, -0.004083598976242211, 0.010227020964949691, 0.2081458450031609, 2.8952590877635896e-06, -6.388496923988996e-06, 6.511449718693407e-06, -4.984652014333701e-07, -2.0383168519106556e-06, 2.8952590877635896e-06, 4.1890000573695195e-06, -9.415126991602793e-08, -1.0234757403687032e-06, 2.686996391398926e-06, 2.0920257728121898e-06, -6.388496923988996e-06, -9.415126991602793e-08, 4.40003927395095e-06, 8.220676797596689e-09, -6.310026836784122e-05, -4.760282424207289e-05, 6.511449718693407e-06, -1.0234757403687032e-06, 8.220676797596689e-09, 9.712469323571699e-05]",,,,0.245263190553,0.151547652428,-0.519451874297,,0.0390173866165,-0.163882789607,-0.0576946634418,"[0.0002282510054902194, 2.509759911780222e-06, -3.187971279769726e-05, 2.5602820160842565e-10, 1.5888042172885337e-08, 1.4380403203109456e-08, 2.509759911780222e-06, 0.00027504710252778346, 3.108473223075747e-05, -1.8947487028388237e-08, 1.1787125630780414e-09, -4.8236786092512045e-09, -3.187971279769726e-05, 3.108473223075747e-05, 0.00015439284992482406, -1.9704503605980676e-09, -1.5305014649777086e-09, 2.2175656631543888e-10, 2.5602820160842565e-10, -1.8947487028388237e-08, -1.9704503605980676e-09, 2.9277005131423422e-09, 8.346794069511476e-12, 1.6192556431889674e-11, 1.5888042172885337e-08, 1.1787125630780414e-09, -1.5305014649777086e-09, 8.346794069511476e-12, 2.8898318709087754e-09, 1.2590011753650385e-12, 1.4380403203109456e-08, -4.8236786092512045e-09, 2.2175656631543888e-10, 1.6192556431889674e-11, 1.2590011753650385e-12, 2.927448254253004e-09]"
1402415859858872177,,187372,,1402415859,800952911,/enu,/base_link,,,,8.24941278112,22.1031201898,-34.8650367154,,-0.000907520765204,0.00195423875027,-0.872391180901,-0.488803626054,"[0.024636098144633307, -0.005110616151693332, -0.004083425540182825, -5.101705612636143e-07, 2.9183651885387585e-06, -6.324633135672869e-05, -0.005110616151693332, 0.027894059786795627, 0.010224207793327993, -2.2438774737891613e-06, 2.107720327814901e-06, -4.763247274189802e-05, -0.004083425540182825, 0.010224207793327993, 0.20815873491932446, 2.914312487964012e-06, -6.393739203723864e-06, 6.515998197430549e-06, -5.101705612636143e-07, -2.2438774737891613e-06, 2.914312487964012e-06, 4.228969160973922e-06, -9.414052138353724e-08, -1.023258954686289e-06, 2.9183651885387585e-06, 2.107720327814901e-06, -6.393739203723864e-06, -9.414052138353724e-08, 4.440032681574064e-06, 7.173563632118934e-09, -6.324633135672869e-05, -4.763247274189802e-05, 6.515998197430549e-06, -1.023258954686289e-06, 7.173563632118934e-09, 9.715215530015076e-05]",,,,0.257827152471,0.151621298908,-0.520448259658,,0.0251009679603,-0.178351446177,-0.0656469125212,"[0.0002328016265217923, 2.5997494906080117e-06, -3.2065899538371205e-05, 2.659874483756973e-10, 1.619167663656465e-08, 1.4452083069956877e-08, 2.5997494906080117e-06, 0.0002804548947355214, 3.12532600147828e-05, -1.9277075421448885e-08, 1.1991253176157172e-09, -4.866388349000197e-09, -3.2065899538371205e-05, 3.12532600147828e-05, 0.0001548567381383284, -1.9712598287457687e-09, -1.5516533234168554e-09, 1.9710637596074654e-10, 2.659874483756973e-10, -1.9277075421448885e-08, -1.9712598287457687e-09, 2.9277004742176727e-09, 8.346783420437859e-12, 1.6192112487953774e-11, 1.619167663656465e-08, 1.1991253176157172e-09, -1.5516533234168554e-09, 8.346783420437859e-12, 2.8898318281338783e-09, 1.2591435298858387e-12, 1.4452083069956877e-08, -4.866388349000197e-09, 1.9710637596074654e-10, 1.6192112487953774e-11, 1.2591435298858387e-12, 2.927441374050319e-09]"
1402415859858892216,,187373,,1402415859,810947895,/enu,/base_link,,,,8.24676557207,22.1043102058,-34.8696529499,,-0.00177566980485,0.00222941745396,-0.87224360885,-0.489063353273,"[0.024638884784436262, -0.005110315325293475, -0.004083411240530809, -5.218001806129248e-07, 3.1539660318753585e-06, -6.340716761228742e-05, -0.005110315325293475, 0.027896695667786374, 0.010221310823616893, -2.453424981475912e-06, 2.123503752041929e-06, -4.766483320187739e-05, -0.004083411240530809, 0.010221310823616893, 0.20817188188928026, 2.933974029063959e-06, -6.398821029964206e-06, 6.520171206815062e-06, -5.218001806129248e-07, -2.453424981475912e-06, 2.933974029063959e-06, 4.268889250645795e-06, -9.412968178560783e-08, -1.0230401641607349e-06, 3.1539660318753585e-06, 2.123503752041929e-06, -6.398821029964206e-06, -9.412968178560783e-08, 4.479977550351758e-06, 6.116044904100228e-09, -6.340716761228742e-05, -4.766483320187739e-05, 6.520171206815062e-06, -1.0230401641607349e-06, 6.116044904100228e-09, 9.717956191440753e-05]",,,,0.271896353673,0.146972816436,-0.519514081468,,0.0369188779711,-0.178461893683,-0.0587991599153,"[0.0002374324339459598, 2.689893959175845e-06, -3.2264481242901115e-05, 2.750112824383236e-10, 1.6497938809726473e-08, 1.4523349920463478e-08, 2.689893959175845e-06, 0.0002859559055735082, 3.140624332723377e-05, -1.9609536691952808e-08, 1.2185427650072205e-09, -4.910266584139977e-09, -3.2264481242901115e-05, 3.140624332723377e-05, 0.00015531368451463307, -1.9695710083203055e-09, -1.573634114434918e-09, 1.7277260278815592e-10, 2.750112824383236e-10, -1.9609536691952808e-08, -1.9695710083203055e-09, 2.927700434765493e-09, 8.346772717711067e-12, 1.6191663806692433e-11, 1.6497938809726473e-08, 1.2185427650072205e-09, -1.573634114434918e-09, 8.346772717711067e-12, 2.8898317854419065e-09, 1.2592881443841894e-12, 1.4523349920463478e-08, -4.910266584139977e-09, 1.7277260278815592e-10, 1.6191663806692433e-11, 1.2592881443841894e-12, 2.9274344898147306e-09]"
1402415859898864664,,187374,,1402415859,821943998,/enu,/base_link,,,,8.24387983366,22.1063173887,-34.8756472453,,-0.00265109454407,0.00264201631294,-0.872079694724,-0.489349565748,"[0.02464193352462015, -0.005110034846920308, -0.004083137640223422, -5.34554350631917e-07, 3.4186855010521766e-06, -6.359799470928259e-05, -0.005110034846920308, 0.027899593615563996, 0.010218378894666941, -2.689184442697376e-06, 2.1409332281668066e-06, -4.770915518252884e-05, -0.004083137640223422, 0.010218378894666941, 0.2081857096822823, 2.9556863443617436e-06, -6.404300899893351e-06, 6.524757200472185e-06, -5.34554350631917e-07, -2.689184442697376e-06, 2.9556863443617436e-06, 4.317220178238717e-06, -9.411888857073433e-08, -1.022826476930982e-06, 3.4186855010521766e-06, 2.1409332281668066e-06, -6.404300899893351e-06, -9.411888857073433e-08, 4.528333985438682e-06, 5.046963384966966e-09, -6.359799470928259e-05, -4.770915518252884e-05, 6.524757200472185e-06, -1.022826476930982e-06, 5.046963384966966e-09, 9.721550386258842e-05]",,,,0.286114628011,0.149119689684,-0.517086328697,,0.0123994742544,-0.175590251611,-0.0590200643566,"[0.00024266638359471995, 2.7971035863819097e-06, -3.249598000396851e-05, 2.855050482521379e-10, 1.6837924315594703e-08, 1.4601835714512558e-08, 2.7971035863819097e-06, 0.0002921365938413646, 3.160759406824462e-05, -1.997786856142467e-08, 1.2408596897476262e-09, -4.959260839313125e-09, -3.249598000396851e-05, 3.160759406824462e-05, 0.00015587259361164962, -1.9727465615995984e-09, -1.5977955013960282e-09, 1.449617232996904e-10, 2.855050482521379e-10, -1.997786856142467e-08, -1.9727465615995984e-09, 2.927700394282739e-09, 8.346761610907336e-12, 1.619121063984628e-11, 1.6837924315594703e-08, 1.2408596897476262e-09, -1.5977955013960282e-09, 8.346761610907336e-12, 2.889831742136375e-09, 1.259434264788328e-12, 1.4601835714512558e-08, -4.959260839313125e-09, 1.449617232996904e-10, 1.619121063984628e-11, 1.259434264788328e-12, 2.927427602115857e-09]"
1402415859898895834,,187375,,1402415859,831929922,/enu,/base_link,,,,8.25430968669,22.1335808674,-34.8328467133,,-0.00250749161651,0.000391420016885,-0.8711408041,-0.491026739301,"[0.024630214181855573, -0.005111499275870571, -0.004083522126302194, -4.4969472436117404e-07, 2.4568223884096906e-06, -6.28181955787658e-05, -0.005111499275870571, 0.027890873958557164, 0.01022407227874541, -1.8650477867390903e-06, 2.0280210639086543e-06, -4.71817508200934e-05, -0.004083522126302194, 0.01022407227874541, 0.20813805450837664, 2.8996043904301117e-06, -6.376576159006861e-06, 6.50017570320335e-06, -4.4969472436117404e-07, -1.8650477867390903e-06, 2.8996043904301117e-06, 4.172791279227664e-06, -9.665379151011607e-08, -1.1089727770827298e-06, 2.4568223884096906e-06, 2.0280210639086543e-06, -6.376576159006861e-06, -9.665379151011607e-08, 4.379089992831908e-06, 1.5173844767696126e-07, -6.28181955787658e-05, -4.71817508200934e-05, 6.50017570320335e-06, -1.1089727770827298e-06, 1.5173844767696126e-07, 9.708493986320765e-05]",,,,0.344829829616,0.109137392508,-0.510633876495,,0.0370319600615,-0.18099918664,-0.0611206732604,"[0.0002230969795966334, 1.0513060117471977e-06, -3.122355842867546e-05, 3.716068611735063e-10, 1.560772802749729e-08, 1.2104728953097233e-08, 1.0513060117471977e-06, 0.00027421965374249674, 3.0119816862202057e-05, -1.8703028720294472e-08, 1.1595927603467084e-09, -9.172047444880282e-09, -3.122355842867546e-05, 3.0119816862202057e-05, 0.00015415219048437145, -1.7799215883363099e-09, -1.4323312939001007e-09, 2.718577928346802e-10, 3.716068611735063e-10, -1.8703028720294472e-08, -1.7799215883363099e-09, 2.927598823762479e-09, 8.348859893184041e-12, 1.6275011732561157e-11, 1.560772802749729e-08, 1.1595927603467084e-09, -1.4323312939001007e-09, 8.348859893184041e-12, 2.8897338479857785e-09, 1.2531417171847134e-12, 1.2104728953097233e-08, -9.172047444880282e-09, 2.718577928346802e-10, 1.6275011732561157e-11, 1.2531417171847134e-12, 2.9273503324909517e-09]"
1402415859899158794,,187376,,1402415859,841912031,/enu,/base_link,,,,8.25154639323,22.1361327322,-34.8380992819,,-0.00329607773205,0.000743455327352,-0.870980936839,-0.491305191107,"[0.02463285457047701, -0.005111272419944969, -0.004083295941314983, -4.6099425875613153e-07, 2.6846234604051855e-06, -6.300146478838091e-05, -0.005111272419944969, 0.027893456235073378, 0.010221251386013505, -2.0674611825847764e-06, 2.043736694366128e-06, -4.722442947216793e-05, -0.004083295941314983, 0.010221251386013505, 0.20815072157871797, 2.9205765059841712e-06, -6.381155306691363e-06, 6.504140861925551e-06, -4.6099425875613153e-07, -2.0674611825847764e-06, 2.9205765059841712e-06, 4.212609682340866e-06, -9.664175506058023e-08, -1.1087389122847265e-06, 2.6846234604051855e-06, 2.043736694366128e-06, -6.381155306691363e-06, -9.664175506058023e-08, 4.4189299882125605e-06, 1.5067550377260664e-07, -6.300146478838091e-05, -4.722442947216793e-05, 6.504140861925551e-06, -1.1087389122847265e-06, 1.5067550377260664e-07, 9.711218715081897e-05]",,,,0.361248899121,0.10853922322,-0.512671978806,,0.0161573323684,-0.172384261057,-0.0627773995325,"[0.00022757345528334752, 1.1246448269137194e-06, -3.138437929835416e-05, 3.828559866475994e-10, 1.59091910365712e-08, 1.2177992146930341e-08, 1.1246448269137194e-06, 0.0002795617288020928, 3.0265861727738637e-05, -1.9029775387365385e-08, 1.1803717456325797e-09, -9.229411144573471e-09, -3.138437929835416e-05, 3.0265861727738637e-05, 0.00015461471338861247, -1.7799494588586303e-09, -1.4498741408030612e-09, 2.523401505750319e-10, 3.828559866475994e-10, -1.9029775387365385e-08, -1.7799494588586303e-09, 2.927598783878891e-09, 8.348849389844643e-12, 1.6274556244580572e-11, 1.59091910365712e-08, 1.1803717456325797e-09, -1.4498741408030612e-09, 8.348849389844643e-12, 2.889733805907931e-09, 1.2532823859697543e-12, 1.2177992146930341e-08, -9.229411144573471e-09, 2.523401505750319e-10, 1.6274556244580572e-11, 1.2532823859697543e-12, 2.9273434224932653e-09]"
1402415859899218911,,187377,,1402415859,851914882,/enu,/base_link,,,,8.24886758211,22.1386982869,-34.843064453,,-0.00409205791915,0.00106573023275,-0.870815929549,-0.491591025269,"[0.024635657300138076, -0.005110917431118873, -0.004083261796605446, -4.722490351885994e-07, 2.917161935474902e-06, -6.319958304207176e-05, -0.005110917431118873, 0.027896030328433487, 0.010218464835928982, -2.2742752088906046e-06, 2.0595855550048518e-06, -4.7273235315763206e-05, -0.004083261796605446, 0.010218464835928982, 0.20816365269509227, 2.9421804924229523e-06, -6.385480169215687e-06, 6.508247377358374e-06, -4.722490351885994e-07, -2.2742752088906046e-06, 2.9421804924229523e-06, 4.252592731224598e-06, -9.662961963124123e-08, -1.108503308378503e-06, 2.917161935474902e-06, 2.0595855550048518e-06, -6.385480169215687e-06, -9.662961963124123e-08, 4.458935078895276e-06, 1.4960214287691352e-07, -6.319958304207176e-05, -4.7273235315763206e-05, 6.508247377358374e-06, -1.108503308378503e-06, 1.4960214287691352e-07, 9.713959615693737e-05]",,,,0.37626358633,0.108970028297,-0.512551345804,,0.0220110631909,-0.170396201162,-0.0646550199409,"[0.00023214386029217414, 1.1951658168495168e-06, -3.1557902284666175e-05, 3.949036923269505e-10, 1.62140569863476e-08, 1.2251601583717029e-08, 1.1951658168495168e-06, 0.00028500854337682515, 3.0402357589337337e-05, -1.936014277512122e-08, 1.2017267449796874e-09, -9.286896683424651e-09, -3.1557902284666175e-05, 3.0402357589337337e-05, 0.00015507515532017603, -1.7787850189899762e-09, -1.4678282814282155e-09, 2.3333044962234635e-10, 3.949036923269505e-10, -1.936014277512122e-08, -1.7787850189899762e-09, 2.9275987431559954e-09, 8.348838918378023e-12, 1.6274096182467944e-11, 1.62140569863476e-08, 1.2017267449796874e-09, -1.4678282814282155e-09, 8.348838918378023e-12, 2.889733763825061e-09, 1.2534247546654168e-12, 1.2251601583717029e-08, -9.286896683424651e-09, 2.3333044962234635e-10, 1.6274096182467944e-11, 1.2534247546654168e-12, 2.9273365088978918e-09]"
1402415859938838164,,187378,,1402415859,861915111,/enu,/base_link,,,,8.24587312171,22.1414876494,-34.8481390974,,-0.00483069313922,0.00135318610939,-0.870642729457,-0.491890303763,"[0.02463850350615624, -0.005110623276311044, -0.004083111379033648, -4.83426539877857e-07, 3.1540065544654946e-06, -6.34120007213544e-05, -0.005110623276311044, 0.02789874619519531, 0.01021558845354604, -2.4851376555857928e-06, 2.075515976605132e-06, -4.732872194982526e-05, -0.004083111379033648, 0.01021558845354604, 0.20817669309527215, 2.964396288051337e-06, -6.389458356213299e-06, 6.512168862041637e-06, -4.83426539877857e-07, -2.4851376555857928e-06, 2.964396288051337e-06, 4.292553467334483e-06, -9.6617383258367e-08, -1.1082658079381049e-06, 3.1540065544654946e-06, 2.075515976605132e-06, -6.389458356213299e-06, -9.6617383258367e-08, 4.498918307893423e-06, 1.4851838835859644e-07, -6.34120007213544e-05, -4.732872194982526e-05, 6.512168862041637e-06, -1.1082658079381049e-06, 1.4851838835859644e-07, 9.716697686370418e-05]",,,,0.392467790354,0.106304503223,-0.512348528421,,0.0224528535553,-0.157032021802,-0.0676371193722,"[0.00023680483962993203, 1.2600945331974832e-06, -3.1735038399513e-05, 4.082374643910562e-10, 1.6521857162843508e-08, 1.2325474165712361e-08, 1.2600945331974832e-06, 0.0002905443441224691, 3.053497124289418e-05, -1.9693305881963723e-08, 1.2239715715718723e-09, -9.344157381892111e-09, -3.1735038399513e-05, 3.053497124289418e-05, 0.0001555276783437871, -1.7772755117243392e-09, -1.48424347729592e-09, 2.1579876975612717e-10, 4.082374643910562e-10, -1.9693305881963723e-08, -1.7772755117243392e-09, 2.9275987015359947e-09, 8.34882793650026e-12, 1.6273631702968375e-11, 1.6521857162843508e-08, 1.2239715715718723e-09, -1.48424347729592e-09, 8.34882793650026e-12, 2.8897337200280358e-09, 1.2535687393866852e-12, 1.2325474165712361e-08, -9.344157381892111e-09, 2.1579876975612717e-10, 1.6273631702968375e-11, 1.2535687393866852e-12, 2.927329592277524e-09]"
1402415859938865159,,187379,,1402415859,872881889,/enu,/base_link,,,,8.24252794676,22.1445846477,-34.8536023391,,-0.00568410357108,0.00162726418081,-0.870440560085,-0.492238026098,"[0.024641739626580474, -0.00511023265524022, -0.004083038304912001, -4.955984956531038e-07, 3.4191475492619424e-06, -6.366151744373075e-05, -0.00511023265524022, 0.027901730085214602, 0.010212480209831436, -2.721525026216532e-06, 2.093039722076538e-06, -4.7395251015375575e-05, -0.004083038304912001, 0.010212480209831436, 0.20819078939518318, 2.98899394411358e-06, -6.3938171536174e-06, 6.516010498079031e-06, -4.955984956531038e-07, -2.721525026216532e-06, 2.98899394411358e-06, 4.340625256288144e-06, -9.660518468378208e-08, -1.1080329248014645e-06, 3.4191475492619424e-06, 2.093039722076538e-06, -6.3938171536174e-06, -9.660518468378208e-08, 4.547013283670981e-06, 1.4742331078941117e-07, -6.366151744373075e-05, -4.7395251015375575e-05, 6.516010498079031e-06, -1.1080329248014645e-06, 1.4742331078941117e-07, 9.720258859662962e-05]",,,,0.408576260552,0.105344545423,-0.51128001912,,0.0328349426003,-0.160235006722,-0.0721654862122,"[0.0002420499151869257, 1.326115513933906e-06, -3.194784206435943e-05, 4.2426400257324957e-10, 1.6862286712723553e-08, 1.2406955826102055e-08, 1.326115513933906e-06, 0.00029676705311357113, 3.066012029623302e-05, -2.006196219671336e-08, 1.2493920052090702e-09, -9.407147877516657e-09, -3.194784206435943e-05, 3.066012029623302e-05, 0.00015605938507062535, -1.773216194425269e-09, -1.5035843912532e-09, 1.9692512615484545e-10, 4.2426400257324957e-10, -2.006196219671336e-08, -1.773216194425269e-09, 2.9275986592208574e-09, 8.34881701682353e-12, 1.6273162453941917e-11, 1.6862286712723553e-08, 1.2493920052090702e-09, -1.5035843912532e-09, 8.34881701682353e-12, 2.889733675876385e-09, 1.2537150891162104e-12, 1.2406955826102055e-08, -9.407147877516657e-09, 1.9692512615484545e-10, 1.6273162453941917e-11, 1.2537150891162104e-12, 2.9273226715001875e-09]"
1402415859938897358,,187380,,1402415859,882883071,/enu,/base_link,,,,8.2394636089,22.1477393336,-34.8587797536,,-0.00643968813576,0.00181079730679,-0.870268205957,-0.492532741176,"[0.02464472303905236, -0.005109874191024958, -0.0040829254295056076, -5.066190148166445e-07, 3.6650950486231262e-06, -6.39048444527764e-05, -0.005109874191024958, 0.02790454091092088, 0.010209577635751347, -2.9409489226951984e-06, 2.109160089629028e-06, -4.746062637129028e-05, -0.0040829254295056076, 0.010209577635751347, 0.20820389624626798, 3.0125549138515976e-06, -6.397278287027768e-06, 6.519730985151303e-06, -5.066190148166445e-07, -2.9409489226951984e-06, 3.0125549138515976e-06, 4.380590597881619e-06, -9.659272902545006e-08, -1.1077912784033176e-06, 3.6650950486231262e-06, 2.109160089629028e-06, -6.397278287027768e-06, -9.659272902545006e-08, 4.587002128968433e-06, 1.4631682980288203e-07, -6.39048444527764e-05, -4.746062637129028e-05, 6.519730985151303e-06, -1.1077912784033176e-06, 1.4631682980288203e-07, 9.722996084558094e-05]",,,,0.424212550962,0.10074369514,-0.521085258712,,0.0422230016783,-0.149742469143,-0.0668640035237,"[0.000246894183483638, 1.3832499454786977e-06, -3.214549532211743e-05, 4.385657861834232e-10, 1.7176327340072485e-08, 1.2480819028311551e-08, 1.3832499454786977e-06, 0.00030250785337074585, 3.0758300634496904e-05, -2.0401746259486526e-08, 1.2720115381285833e-09, -9.464850555714364e-09, -3.214549532211743e-05, 3.0758300634496904e-05, 0.00015649734280015197, -1.7672942166180826e-09, -1.5202255823218716e-09, 1.8169822550077334e-10, 4.385657861834232e-10, -2.0401746259486526e-08, -1.7672942166180826e-09, 2.927598616130424e-09, 8.34880614678081e-12, 1.6272688454592838e-11, 1.7176327340072485e-08, 1.2720115381285833e-09, -1.5202255823218716e-09, 8.34880614678081e-12, 2.8897336306288057e-09, 1.2538633462671724e-12, 1.2480819028311551e-08, -9.464850555714364e-09, 1.8169822550077334e-10, 1.6272688454592838e-11, 1.2538633462671724e-12, 2.9273157465945347e-09]"
1402415859938918670,,187381,,1402415859,892879009,/enu,/base_link,,,,8.23632158638,22.151034194,-34.8640164331,,-0.00709411058044,0.00200397532937,-0.870064564916,-0.492882653941,"[0.024647828893903816, -0.00510951727913297, -0.004082889940030386, -5.175557748989671e-07, 3.9149636083432575e-06, -6.416203250886389e-05, -0.00510951727913297, 0.027907394051097333, 0.01020678049104233, -3.164021880749467e-06, 2.125344466885727e-06, -4.753355029471385e-05, -0.004082889940030386, 0.01020678049104233, 0.20821668720184647, 3.0367131714567563e-06, -6.400335181551456e-06, 6.523103433983545e-06, -5.175557748989671e-07, -3.164021880749467e-06, 3.0367131714567563e-06, 4.420512587098569e-06, -9.658017627478862e-08, -1.1075477200703074e-06, 3.9149636083432575e-06, 2.125344466885727e-06, -6.400335181551456e-06, -9.658017627478862e-08, 4.626948089042233e-06, 1.4520012206265648e-07, -6.416203250886389e-05, -4.753355029471385e-05, 6.523103433983545e-06, -1.1075477200703074e-06, 1.4520012206265648e-07, 9.72572834883273e-05]",,,,0.440113916961,0.101559879526,-0.531175261926,,0.0305155382131,-0.133175304668,-0.0795655058963,"[0.00025183238103433636, 1.4319703666522188e-06, -3.234376099288836e-05, 4.5621277052308173e-10, 1.7493468408066983e-08, 1.255579256413916e-08, 1.4319703666522188e-06, 0.0003083317441216734, 3.086551117824173e-05, -2.074428205870537e-08, 1.2974310993486049e-09, -9.521100452039297e-09, -3.234376099288836e-05, 3.086551117824173e-05, 0.00015693240963037187, -1.763370699789075e-09, -1.534428945605255e-09, 1.6732732390680855e-10, 4.5621277052308173e-10, -2.074428205870537e-08, -1.763370699789075e-09, 2.9275985720392746e-09, 8.3487947356006e-12, 1.627220974663148e-11, 1.7493468408066983e-08, 1.2974310993486049e-09, -1.534428945605255e-09, 8.3487947356006e-12, 2.8897335840577865e-09, 1.2540136804241362e-12, 1.255579256413916e-08, -9.521100452039297e-09, 1.6732732390680855e-10, 1.627220974663148e-11, 1.2540136804241362e-12, 2.9273088180740175e-09]"
1402415859978834730,,187382,,1402415859,902853012,/enu,/base_link,,,,8.23304314636,22.1544105013,-34.8692520817,,-0.00763746619387,0.00219370313875,-0.869878135844,-0.493202682026,"[0.024650973320091855, -0.005109106682246886, -0.00408276159443616, -5.283915436095533e-07, 4.1685409667235175e-06, -6.443336497320083e-05, -0.005109106682246886, 0.027910303167448282, 0.010203840695418671, -3.3906097228988473e-06, 2.1415819441475664e-06, -4.7612140764211726e-05, -0.00408276159443616, 0.010203840695418671, 0.20822984458330446, 3.0614924131696977e-06, -6.403072542413748e-06, 6.526277166634148e-06, -5.283915436095533e-07, -3.3906097228988473e-06, 3.0614924131696977e-06, 4.460257832119121e-06, -9.656752572867537e-08, -1.1073022598765923e-06, 4.1685409667235175e-06, 2.1415819441475664e-06, -6.403072542413748e-06, -9.656752572867537e-08, 4.666717770010534e-06, 1.4407327557526355e-07, -6.443336497320083e-05, -4.7612140764211726e-05, 6.526277166634148e-06, -1.1073022598765923e-06, 1.4407327557526355e-07, 9.72844209939733e-05]",,,,0.456087592553,0.100106482352,-0.53143845804,,0.0202438957298,-0.113736498401,-0.0729386488423,"[0.0002568582746156433, 1.4816678600590414e-06, -3.253172180060739e-05, 4.733099398525697e-10, 1.7813206879902545e-08, 1.2629986176067753e-08, 1.4816678600590414e-06, 0.0003142287467443815, 3.0987355904211e-05, -2.1088822734138028e-08, 1.3223021995786625e-09, -9.578204762746401e-09, -3.253172180060739e-05, 3.0987355904211e-05, 0.000157360447993586, -1.761256642362489e-09, -1.5455508721951773e-09, 1.543452067607309e-10, 4.733099398525697e-10, -2.1088822734138028e-08, -1.761256642362489e-09, 2.927598527277891e-09, 8.34878332376311e-12, 1.6271726413100364e-11, 1.7813206879902545e-08, 1.3223021995786625e-09, -1.5455508721951773e-09, 8.34878332376311e-12, 2.889733537135832e-09, 1.2541661317283453e-12, 1.2629986176067753e-08, -9.578204762746401e-09, 1.543452067607309e-10, 1.6271726413100364e-11, 1.2541661317283453e-12, 2.927301885757667e-09]"
1402415859978904353,,187383,,1402415859,912856101,/enu,/base_link,,,,8.22983701656,22.1579151619,-34.8745094253,,-0.00828901254497,0.00237854516243,-0.869691012858,-0.493521202126,"[0.02465422630174634, -0.005108697623111254, -0.004082723838087679, -5.392137334165477e-07, 4.427115138078354e-06, -6.471766407806372e-05, -0.005108697623111254, 0.027913282949504653, 0.010200975491890491, -3.6218678991597743e-06, 2.1579572796031426e-06, -4.769433134758155e-05, -0.004082723838087679, 0.010200975491890491, 0.2082427637175107, 3.0868587437836783e-06, -6.405641392243029e-06, 6.529365785278592e-06, -5.392137334165477e-07, -3.6218678991597743e-06, 3.0868587437836783e-06, 4.5002342911115836e-06, -9.65547839332628e-08, -1.1070552381575903e-06, 4.427115138078354e-06, 2.1579572796031426e-06, -6.405641392243029e-06, -9.65547839332628e-08, 4.706719147074053e-06, 1.4293627669594381e-07, -6.471766407806372e-05, -4.769433134758155e-05, 6.529365785278592e-06, -1.1070552381575903e-06, 1.4293627669594381e-07, 9.731178800958538e-05]",,,,0.468249885112,0.0981629708532,-0.539923282666,,0.0317304622345,-0.131739483448,-0.0723864201253,"[0.0002619759890387219, 1.5335016444389196e-06, -3.274911154322373e-05, 4.9057835631764e-10, 1.8136470422714653e-08, 1.2704485841788754e-08, 1.5335016444389196e-06, 0.0003202456059010702, 3.1088229263697624e-05, -2.1437578340244798e-08, 1.3474196869698876e-09, -9.635635232522413e-09, -3.274911154322373e-05, 3.1088229263697624e-05, 0.00015779643267669247, -1.7566559252706251e-09, -1.5604357387818786e-09, 1.3996108051254895e-10, 4.9057835631764e-10, -2.1437578340244798e-08, -1.7566559252706251e-09, 2.9275984817714333e-09, 8.348771823955106e-12, 1.6271238758163547e-11, 1.8136470422714653e-08, 1.3474196869698876e-09, -1.5604357387818786e-09, 8.348771823955106e-12, 2.8897334890832566e-09, 1.2543201253522155e-12, 1.2704485841788754e-08, -9.635635232522413e-09, 1.3996108051254895e-10, 1.6271238758163547e-11, 1.2543201253522155e-12, 2.92729495010139e-09]"
1402415859978926615,,187384,,1402415859,923852920,/enu,/base_link,,,,8.22623845755,22.1621298355,-34.8805955504,,-0.00883234601516,0.00248029570326,-0.869468648833,-0.493902932259,"[0.024657917726855338, -0.0051081880816828025, -0.004082671374689478, -5.509884730330238e-07, 4.716896277424159e-06, -6.504882586887229e-05, -0.0051081880816828025, 0.027916684516108767, 0.01019770390701261, -3.881365925957993e-06, 2.1760014753945064e-06, -4.779355686008258e-05, -0.004082671374689478, 0.01019770390701261, 0.20825726778269577, 3.11510142642065e-06, -6.408306121592827e-06, 6.532510511632179e-06, -5.509884730330238e-07, -3.881365925957993e-06, 3.11510142642065e-06, 4.548563212525389e-06, -9.654208943062292e-08, -1.1068128473560518e-06, 4.716896277424159e-06, 2.1760014753945064e-06, -6.408306121592827e-06, -9.654208943062292e-08, 4.755073720674872e-06, 1.4178787716489686e-07, -6.504882586887229e-05, -4.779355686008258e-05, 6.532510511632179e-06, -1.1068128473560518e-06, 1.4178787716489686e-07, 9.734763100318604e-05]",,,,0.488121373777,0.0964567461961,-0.544299181542,,0.0321722526323,-0.095291721824,-0.0792341902704,"[0.00026777137838055164, 1.5731313703766488e-06, -3.295927149846631e-05, 5.124357471019259e-10, 1.8495888940549825e-08, 1.2787015742378627e-08, 1.5731313703766488e-06, 0.00032701316180165803, 3.11921139676959e-05, -2.1824413195051773e-08, 1.376863873447222e-09, -9.698656605848181e-09, -3.295927149846631e-05, 3.11921139676959e-05, 0.0001582907721815413, -1.7509743791109027e-09, -1.5700367769418016e-09, 1.2912615681874686e-10, 5.124357471019259e-10, -2.1824413195051773e-08, -1.7509743791109027e-09, 2.9275984352345796e-09, 8.34875987327442e-12, 1.6270746192703928e-11, 1.8495888940549825e-08, 1.376863873447222e-09, -1.5700367769418016e-09, 8.34875987327442e-12, 2.889733440600262e-09, 1.2544764288748257e-12, 1.2787015742378627e-08, -9.698656605848181e-09, 1.2912615681874686e-10, 1.6270746192703928e-11, 1.2544764288748257e-12, 2.9272880109485737e-09]"
1402415859978992491,,187385,,1402415859,933856964,/enu,/base_link,,,,8.27410922356,22.1819615358,-34.8264350287,,-0.0110686883865,0.000146194957796,-0.867208679504,-0.497821824508,"[0.024643807285970324, -0.005110525363123371, -0.004082671223864111, -4.2194280993742037e-07, 3.427226032091552e-06, -6.347598972018704e-05, -0.005110525363123371, 0.027906249400294163, 0.01020385695384082, -2.7937624452762842e-06, 1.985911879962287e-06, -4.680554925627966e-05, -0.004082671223864111, 0.01020385695384082, 0.20820881943445602, 3.00737154324586e-06, -6.328417537488858e-06, 6.413199210175282e-06, -4.2194280993742037e-07, -2.7937624452762842e-06, 3.00737154324586e-06, 4.3625185040198396e-06, -1.019301241667949e-07, -1.252669636891887e-06, 3.427226032091552e-06, 1.985911879962287e-06, -6.328417537488858e-06, -1.019301241667949e-07, 4.564367073655769e-06, 3.984383121709716e-07, -6.347598972018704e-05, -4.680554925627966e-05, 6.413199210175282e-06, -1.252669636891887e-06, 3.984383121709716e-07, 9.69843176000221e-05]",,,,0.493318196233,0.0270566554105,-0.528156642818,,0.0204692906803,-0.103134023416,-0.0762576853267,"[0.00024202466085658145, 9.566772534846723e-07, -3.306714168122887e-05, 6.905468813468126e-10, 1.687226423075717e-08, 8.094515861456426e-09, 9.566772534846723e-07, 0.0003027670691067704, 2.8123427110099622e-05, -2.0217995381902722e-08, 1.3819947081324206e-09, -1.144013691653363e-08, -3.306714168122887e-05, 2.8123427110099622e-05, 0.00015660198540067325, -1.3976261021428234e-09, -1.6108624612034065e-09, 3.299089830103363e-10, 6.905468813468126e-10, -2.0217995381902722e-08, -1.3976261021428234e-09, 2.9274746522774105e-09, 8.351655534937406e-12, 1.6419094717793008e-11, 1.687226423075717e-08, 1.3819947081324206e-09, -1.6108624612034065e-09, 8.351655534937406e-12, 2.8896131027240944e-09, 1.2427926965272114e-12, 8.094515861456426e-09, -1.144013691653363e-08, 3.299089830103363e-10, 1.6419094717793008e-11, 1.2427926965272114e-12, 2.9271011414570196e-09]"
1402415860018829577,,187386,,1402415859,943851947,/enu,/base_link,,,,8.27116553933,22.1861790067,-34.8315347912,,-0.0114764114837,0.000158425649256,-0.867008608731,-0.498160957189,"[0.024646928799118263, -0.005110101297185959, -0.004082591426135415, -4.3217337695649777e-07, 3.6731085079936705e-06, -6.377623246936614e-05, -0.005110101297185959, 0.027909144408509858, 0.010200923516552014, -3.013723504053457e-06, 2.0019872740249793e-06, -4.6887862588390425e-05, -0.004082591426135415, 0.010200923516552014, 0.2082219334218194, 3.033992721187699e-06, -6.330759553192933e-06, 6.415934260606699e-06, -4.3217337695649777e-07, -3.013723504053457e-06, 3.033992721187699e-06, 4.402432439075107e-06, -1.0191508856515833e-07, -1.252396761381184e-06, 3.6731085079936705e-06, 2.0019872740249793e-06, -6.330759553192933e-06, -1.0191508856515833e-07, 4.604299983776305e-06, 3.9729141737027684e-07, -6.377623246936614e-05, -4.6887862588390425e-05, 6.415934260606699e-06, -1.252396761381184e-06, 3.9729141737027684e-07, 9.701157187753823e-05]",,,,0.510151850483,0.0228457490367,-0.535983231333,,0.0378095892135,-0.0724295456078,-0.0785770894005,"[0.0002469262825122839, 9.648160173943716e-07, -3.322495421359196e-05, 7.125977620865803e-10, 1.7188657424439203e-08, 8.169304309826593e-09, 9.648160173943716e-07, 0.0003085564235991574, 2.8147925908836232e-05, -2.055883199588742e-08, 1.4091594278463878e-09, -1.1519897280488208e-08, -3.322495421359196e-05, 2.8147925908836232e-05, 0.00015699771057197935, -1.3875224604637658e-09, -1.6147225553444391e-09, 3.2789606987766355e-10, 7.125977620865803e-10, -2.055883199588742e-08, -1.3875224604637658e-09, 2.9274746056698055e-09, 8.351644998444726e-12, 1.6418594750044792e-11, 1.7188657424439203e-08, 1.4091594278463878e-09, -1.6147225553444391e-09, 8.351644998444726e-12, 2.889613057242764e-09, 1.2429402449019192e-12, 8.169304309826593e-09, -1.1519897280488208e-08, 3.2789606987766355e-10, 1.6418594750044792e-11, 1.2429402449019192e-12, 2.92709418558146e-09]"
1402415860018900911,,187387,,1402415859,953844070,/enu,/base_link,,,,8.26831928507,22.1907742862,-34.837098727,,-0.0118835055582,0.000233568804558,-0.866812883201,-0.498491878829,"[0.02465016571549159, -0.005109658715423344, -0.004082563651333996, -4.4236012187152704e-07, 3.923119503969779e-06, -6.408818127541123e-05, -0.005109658715423344, 0.027912076111706388, 0.01019802220519921, -3.2375890202908102e-06, 2.0181315762248614e-06, -4.697453554266368e-05, -0.004082563651333996, 0.01019802220519921, 0.2082349281902419, 3.0611467499233755e-06, -6.332845369050476e-06, 6.418616126296053e-06, -4.4236012187152704e-07, -3.2375890202908102e-06, 3.0611467499233755e-06, 4.442322111093734e-06, -1.018999415570827e-07, -1.2521222033425639e-06, 3.923119503969779e-06, 2.0181315762248614e-06, -6.332845369050476e-06, -1.018999415570827e-07, 4.644209053782405e-06, 3.961346282499536e-07, -6.408818127541123e-05, -4.697453554266368e-05, 6.418616126296053e-06, -1.2521222033425639e-06, 3.961346282499536e-07, 9.703879599959248e-05]",,,,0.523422532718,0.0219946724273,-0.535286904827,,0.0269857078124,-0.0786146201204,-0.0753741139854,"[0.00025190896380153377, 9.79020282326664e-07, -3.339406779429134e-05, 7.346888708586322e-10, 1.7507589944175687e-08, 8.243998718039714e-09, 9.79020282326664e-07, 0.00031443079901008925, 2.818487885780543e-05, -2.0902206760517522e-08, 1.4366740264671858e-09, -1.1599969440704176e-08, -3.339406779429134e-05, 2.818487885780543e-05, 0.00015740432326569596, -1.3794130591868743e-09, -1.6196058021553869e-09, 3.241020260973083e-10, 7.346888708586322e-10, -2.0902206760517522e-08, -1.3794130591868743e-09, 2.927474558368194e-09, 8.351634171417702e-12, 1.6418090169471193e-11, 1.7507589944175687e-08, 1.4366740264671858e-09, -1.6196058021553869e-09, 8.351634171417702e-12, 2.8896130105587893e-09, 1.243089943482189e-12, 8.243998718039714e-09, -1.1599969440704176e-08, 3.241020260973083e-10, 1.6418090169471193e-11, 1.243089943482189e-12, 2.927087225987529e-09]"
1402415860018916265,,187388,,1402415859,963845968,/enu,/base_link,,,,8.26544527615,22.1953951915,-34.842482344,,-0.0121668856958,0.000268818957169,-0.866626838796,-0.498808396989,"[0.024653524906126267, -0.00510917231863025, -0.004082609543417415, -4.524325948961507e-07, 4.177732303060167e-06, -6.441611955139954e-05, -0.00510917231863025, 0.027915122622202443, 0.010195000415197428, -3.465819750693359e-06, 2.0343801114668743e-06, -4.7065586410890974e-05, -0.004082609543417415, 0.010195000415197428, 0.20824816153706782, 3.08904221799987e-06, -6.334710009983718e-06, 6.42128568052455e-06, -4.524325948961507e-07, -3.465819750693359e-06, 3.08904221799987e-06, 4.482288631355651e-06, -1.0188468780109194e-07, -1.251846126693639e-06, 4.177732303060167e-06, 2.0343801114668743e-06, -6.334710009983718e-06, -1.0188468780109194e-07, 4.684195401026084e-06, 3.9496797271545336e-07, -6.441611955139954e-05, -4.7065586410890974e-05, 6.42128568052455e-06, -1.251846126693639e-06, 3.9496797271545336e-07, 9.706609273879193e-05]",,,,0.540078358827,0.0170664074264,-0.546209898551,,0.0215737667731,-0.0531011869023,-0.0719502428799,"[0.00025700219653904994, 9.8962387558968e-07, -3.354356111658789e-05, 7.56962366738629e-10, 1.783057923061311e-08, 8.318268493228038e-09, 9.8962387558968e-07, 0.000320402711030268, 2.8227747923557247e-05, -2.124910904488634e-08, 1.4641924804731072e-09, -1.1680547269840118e-08, -3.354356111658789e-05, 2.8227747923557247e-05, 0.00015779851019558073, -1.3718988345693428e-09, -1.6200975785323657e-09, 3.2174635680377325e-10, 7.56962366738629e-10, -2.124910904488634e-08, -1.3718988345693428e-09, 2.9274745101274256e-09, 8.351623103331307e-12, 1.6417581027888025e-11, 1.783057923061311e-08, 1.4641924804731072e-09, -1.6200975785323657e-09, 8.351623103331307e-12, 2.889612962992366e-09, 1.2432412928689838e-12, 8.318268493228038e-09, -1.1680547269840118e-08, 3.2174635680377325e-10, 1.6417581027888025e-11, 1.2432412928689838e-12, 2.9270802630355437e-09]"
1402415860018983998,,187389,,1402415859,973844051,/enu,/base_link,,,,8.26231735814,22.1999320007,-34.8474938438,,-0.0124329718656,0.000272371914926,-0.866408844928,-0.499180388691,"[0.024656898967856913, -0.0051087430389459105, -0.004082443948226055, -4.6241062982601073e-07, 4.436260129383006e-06, -6.47573300883713e-05, -0.0051087430389459105, 0.02791817275113624, 0.010192106091048337, -3.697778987474267e-06, 2.050698535775723e-06, -4.7160698178063495e-05, -0.004082443948226055, 0.010192106091048337, 0.2082611907309352, 3.1175497425385766e-06, -6.336336761138764e-06, 6.423649554697797e-06, -4.6241062982601073e-07, -3.697778987474267e-06, 3.1175497425385766e-06, 4.5222231937032705e-06, -1.0186932635971717e-07, -1.2515684964398418e-06, 4.436260129383006e-06, 2.050698535775723e-06, -6.336336761138764e-06, -1.0186932635971717e-07, 4.724150221957162e-06, 3.937915194176497e-07, -6.47573300883713e-05, -4.7160698178063495e-05, 6.423649554697797e-06, -1.2515684964398418e-06, 3.937915194176497e-07, 9.709335153730839e-05]",,,,0.554354649435,0.0162508579411,-0.555030420503,,0.0252185421883,-0.0470265598541,-0.0848726404591,"[0.00026218612373571517, 9.885772654377817e-07, -3.369478904365799e-05, 7.825690539987273e-10, 1.8156428245192247e-08, 8.394014023036492e-09, 9.885772654377817e-07, 0.0003264696492071839, 2.8256486207342703e-05, -2.1598932641537614e-08, 1.4943910146141193e-09, -1.1760054051605193e-08, -3.369478904365799e-05, 2.8256486207342703e-05, 0.00015818702636624202, -1.3633386135807714e-09, -1.6195737497412895e-09, 3.2026979174674067e-10, 7.825690539987273e-10, -2.1598932641537614e-08, -1.3633386135807714e-09, 2.927474461065936e-09, 8.351611965802475e-12, 1.6417067252801343e-11, 1.8156428245192247e-08, 1.4943910146141193e-09, -1.6195737497412895e-09, 8.351611965802475e-12, 2.88961291452318e-09, 1.2433945517085412e-12, 8.394014023036492e-09, -1.1760054051605193e-08, 3.2026979174674067e-10, 1.6417067252801343e-11, 1.2433945517085412e-12, 2.9270732959260413e-09]"
1402415860058860027,,187390,,1402415859,984850883,/enu,/base_link,,,,8.31386657341,22.2327169811,-34.7263010254,,-0.013198336029,-0.00358402496695,-0.863431999937,-0.504279823288,"[0.024642889272894063, -0.005111127854710658, -0.004082267958723671, -3.3376056512713893e-07, 3.1626783000243567e-06, -6.304992270267452e-05, -0.005111127854710658, 0.02790805004035581, 0.010198057788081147, -2.6429196739729904e-06, 1.8431885214401236e-06, -4.615569208119598e-05, -0.004082267958723671, 0.010198057788081147, 0.20821403419544302, 2.9959405069515587e-06, -6.234840793527989e-06, 6.257397434296505e-06, -3.3376056512713893e-07, -2.6429196739729904e-06, 2.9959405069515587e-06, 4.349539158605495e-06, -1.0775076977802775e-07, -1.3962928745427813e-06, 3.1626783000243567e-06, 1.8431885214401236e-06, -6.234840793527989e-06, -1.0775076977802775e-07, 4.5469535228758325e-06, 6.757237769175339e-07, -6.304992270267452e-05, -4.615569208119598e-05, 6.257397434296505e-06, -1.3962928745427813e-06, 6.757237769175339e-07, 9.66687187649817e-05]",,,,0.599487209914,-0.0658101994726,-0.522073165599,,0.0230150581692,-0.0214007767435,-0.0870889047336,"[0.00023786722169636716, 5.865299706473181e-07, -3.2686214665015234e-05, 9.74158356559821e-10, 1.655379613602371e-08, 2.862707270142475e-09, 5.865299706473181e-07, 0.0003040377799763354, 2.47708830956216e-05, -2.0011968330421978e-08, 1.5025753829579459e-09, -1.595985619657198e-08, -3.2686214665015234e-05, 2.47708830956216e-05, 0.0001563134052596702, -9.562309316976537e-10, -1.4853695163530458e-09, 7.242140363292205e-10, 9.74158356559821e-10, -2.0011968330421978e-08, -9.562309316976537e-10, 2.927353504809369e-09, 8.354618373538554e-12, 1.657655169177238e-11, 1.655379613602371e-08, 1.5025753829579459e-09, -1.4853695163530458e-09, 8.354618373538554e-12, 2.889495087173731e-09, 1.2248416030845155e-12, 2.862707270142475e-09, -1.595985619657198e-08, 7.242140363292205e-10, 1.657655169177238e-11, 1.2248416030845155e-12, 2.9268524074740256e-09]"
1402415860058887437,,187391,,1402415859,994827985,/enu,/base_link,,,,8.31118866112,22.2382585327,-34.7313507973,,-0.0134037616262,-0.00360398960825,-0.863229897323,-0.504620149023,"[0.02464613607609023, -0.005110670492028922, -0.004082282234120197, -3.4316762396308597e-07, 3.403811675725127e-06, -6.33845060214231e-05, -0.005110670492028922, 0.02791090010339802, 0.010195143174277646, -2.8594903465289516e-06, 1.8589847343258451e-06, -4.624072774730517e-05, -0.004082282234120197, 0.010195143174277646, 0.2082270278303757, 3.024669874024593e-06, -6.23668546511569e-06, 6.25949883714801e-06, -3.4316762396308597e-07, -2.8594903465289516e-06, 3.024669874024593e-06, 4.389309472108143e-06, -1.0773310233867763e-07, -1.395992018385552e-06, 3.403811675725127e-06, 1.8589847343258451e-06, -6.23668546511569e-06, -1.0773310233867763e-07, 4.586737223862001e-06, 6.745461596058135e-07, -6.33845060214231e-05, -4.624072774730517e-05, 6.25949883714801e-06, -1.395992018385552e-06, 6.745461596058135e-07, 9.669577432721757e-05]",,,,0.612260638356,-0.0674425025087,-0.525641487696,,0.0236777439294,-0.0343231648481,-0.0778113025178,"[0.00024270569795837863, 5.673998081263915e-07, -3.278267993802128e-05, 1.001176014040366e-09, 1.6868346455380338e-08, 2.9390460157339253e-09, 5.673998081263915e-07, 0.0003097728739626301, 2.4733133480146673e-05, -2.034993539547365e-08, 1.5330014686687681e-09, -1.606524821458148e-08, -3.278267993802128e-05, 2.4733133480146673e-05, 0.00015669567724339072, -9.435078643684438e-10, -1.4797951283418338e-09, 7.275225186559302e-10, 1.001176014040366e-09, -2.034993539547365e-08, -9.435078643684438e-10, 2.927353455355263e-09, 8.354608436791231e-12, 1.6576028225308112e-11, 1.6868346455380338e-08, 1.5330014686687681e-09, -1.4797951283418338e-09, 8.354608436791231e-12, 2.8894950418335677e-09, 1.2249875251924178e-12, 2.9390460157339253e-09, -1.606524821458148e-08, 7.275225186559302e-10, 1.6576028225308112e-11, 1.2249875251924178e-12, 2.926845427457285e-09]"
