rosbagTimestamp,transforms,-,header,seq,stamp,secs,nsecs,frame_id,child_frame_id,transform,translation,x,y,z,rotation,x,y,z,w
1402415859717756821,,errorv,,0,,1402415859,717479452,base_link,/z_drive,,,0.0,0.0,0.0,,0.0,0.0,0.0,1.0
1402415859717788959,,errorv,,0,,1402415859,717505338,/z_drive,port,,,-0.3,0.3048,0.0,,0.0,0.0,0.0,1.0
1402415859717811215,,errorv,,0,,1402415859,717513313,/z_drive,starboard,,,-0.3,-0.3048,0.0,,0.0,0.0,0.0,1.0
1402415859731131385,,errorv,,0,,1402415859,658037900,/enu,/base_link,,,8.23628983661,22.0470206742,-34.8973975382,,-0.0050801661793,-0.00614283377396,0.875031198203,0.484000888094
1402415859731340153,,errorv,,0,,1402415859,668023109,/enu,/base_link,,,8.23407492795,22.0453558364,-34.9033147953,,-0.00498644926952,-0.00612814485676,0.874930788382,0.484183536177
1402415859731369372,,errorv,,0,,1402415859,677997112,/enu,/base_link,,,8.23191399415,22.0438610799,-34.9093240511,,-0.00479754131105,-0.00621792603894,0.874824107935,0.484377023783
1402415859731390035,,errorv,,0,,1402415859,688005924,/enu,/base_link,,,8.25081390762,22.0697923217,-34.8463573008,,-0.00530693965834,-0.00273932947825,0.874687215336,0.484651016498
1402415859737893867,,errorv,,0,,1402415859,837694890,/base_link,/gps,,,-0.84,0.0,-0.14,,0.0,0.0,0.0,1.0
1402415859737924923,,errorv,,0,,1402415859,837713384,base_link,imu,,,0.13,0.0,-0.1,,1.0,0.0,0.0,0.0
1402415859737956014,,errorv,,0,,1402415859,737485108,base_link,/z_drive,,,0.0,0.0,0.0,,0.0,0.0,0.0,1.0
1402415859738007547,,errorv,,0,,1402415859,737529580,/z_drive,port,,,-0.3,0.3048,0.0,,0.0,0.0,0.0,1.0
1402415859738039866,,errorv,,0,,1402415859,737541622,/z_drive,starboard,,,-0.3,-0.3048,0.0,,0.0,0.0,0.0,1.0
1402415859757777808,,errorv,,0,,1402415859,757478408,base_link,/z_drive,,,0.0,0.0,0.0,,0.0,0.0,0.0,1.0
1402415859757809740,,errorv,,0,,1402415859,757497318,/z_drive,port,,,-0.3,0.3048,0.0,,0.0,0.0,0.0,1.0
1402415859757828298,,errorv,,0,,1402415859,757507268,/z_drive,starboard,,,-0.3,-0.3048,0.0,,0.0,0.0,0.0,1.0
1402415859771171682,,errorv,,0,,1402415859,699018955,/enu,/base_link,,,8.24834925889,22.069174607,-34.8527047496,,-0.00504762334331,-0.00301811327848,0.874566479031,0.48486996839
1402415859771200024,,errorv,,0,,1402415859,708981037,/enu,/base_link,,,8.24604027668,22.0686873066,-34.8583186274,,-0.004763434903,-0.00322736857292,0.874450809464,0.485080071336
1402415859771227083,,errorv,,0,,1402415859,718996047,/enu,/base_link,,,8.24375376071,22.0683129691,-34.8638541803,,-0.00441621566852,-0.00341256589319,0.87432437623,0.485309938661
1402415859771250673,,errorv,,0,,1402415859,729976892,/enu,/base_link,,,8.24106177006,22.0681774437,-34.8699602941,,-0.00382689684697,-0.00343438319129,0.874205080236,0.485529646429
1402415859771273138,,errorv,,0,,1402415859,739975929,/enu,/base_link,,,8.24470044069,22.0860981078,-34.8691705587,,-0.00377230724472,-0.00198431495579,0.873855835367,0.486166443914
1402415859777742167,,errorv,,0,,1402415859,777563227,base_link,/z_drive,,,0.0,0.0,0.0,,0.0,0.0,0.0,1.0
1402415859777771686,,errorv,,0,,1402415859,777579447,/z_drive,port,,,-0.3,0.3048,0.0,,0.0,0.0,0.0,1.0
1402415859777801514,,errorv,,0,,1402415859,777588752,/z_drive,starboard,,,-0.3,-0.3048,0.0,,0.0,0.0,0.0,1.0
1402415859797804355,,errorv,,0,,1402415859,797480517,base_link,/z_drive,,,0.0,0.0,0.0,,0.0,0.0,0.0,1.0
1402415859797827920,,errorv,,0,,1402415859,797501551,/z_drive,port,,,-0.3,0.3048,0.0,,0.0,0.0,0.0,1.0
1402415859797845939,,errorv,,0,,1402415859,797509952,/z_drive,starboard,,,-0.3,-0.3048,0.0,,0.0,0.0,0.0,1.0
1402415859811193150,,errorv,,0,,1402415859,749974012,/enu,/base_link,,,8.24233142518,22.0866212073,-34.874706773,,-0.00319594219535,-0.00219514445134,0.873727000741,0.486401167217
1402415859811224453,,errorv,,0,,1402415859,759988069,/enu,/base_link,,,8.23971534777,22.0870743993,-34.8798819068,,-0.00260948833434,-0.00247406495124,0.87358971873,0.486649846299
1402415859811265632,,errorv,,0,,1402415859,770001888,/enu,/base_link,,,8.23701996987,22.0879388613,-34.8856387233,,-0.00191642322049,-0.00282191988873,0.873443547308,0.486913476663
1402415859817847861,,errorv,,0,,1402415859,817639568,base_link,/z_drive,,,0.0,0.0,0.0,,0.0,0.0,0.0,1.0
1402415859818104833,,errorv,,0,,1402415859,817674653,/z_drive,port,,,-0.3,0.3048,0.0,,0.0,0.0,0.0,1.0
1402415859818129244,,errorv,,0,,1402415859,817836770,/z_drive,starboard,,,-0.3,-0.3048,0.0,,0.0,0.0,0.0,1.0
1402415859819394252,,errorv,,0,,1402415859,780972957,/enu,/base_link,,,8.23415816863,22.0887749862,-34.8913721075,,-0.00117240635684,-0.00314180216995,0.873305103196,0.487162140641
1402415859819420131,,errorv,,0,,1402415859,790951967,/enu,/base_link,,,8.25204890979,22.1016213818,-34.8595555637,,6.81937032626e-05,-0.00162756898278,0.872555438982,0.48851238702
1402415859837746908,,errorv,,0,,1402415859,837511250,base_link,/z_drive,,,0.0,0.0,0.0,,0.0,0.0,0.0,1.0
1402415859837793676,,errorv,,0,,1402415859,837550315,/z_drive,port,,,-0.3,0.3048,0.0,,0.0,0.0,0.0,1.0
1402415859837818464,,errorv,,0,,1402415859,837584501,/z_drive,starboard,,,-0.3,-0.3048,0.0,,0.0,0.0,0.0,1.0
1402415859838059566,,errorv,,0,,1402415859,937798587,/base_link,/gps,,,-0.84,0.0,-0.14,,0.0,0.0,0.0,1.0
1402415859838151122,,errorv,,0,,1402415859,937928513,base_link,imu,,,0.13,0.0,-0.1,,1.0,0.0,0.0,0.0
1402415859857798186,,errorv,,0,,1402415859,857622384,base_link,/z_drive,,,0.0,0.0,0.0,,0.0,0.0,0.0,1.0
1402415859857818793,,errorv,,0,,1402415859,857653491,/z_drive,port,,,-0.3,0.3048,0.0,,0.0,0.0,0.0,1.0
1402415859857836381,,errorv,,0,,1402415859,857664847,/z_drive,starboard,,,-0.3,-0.3048,0.0,,0.0,0.0,0.0,1.0
1402415859859044097,,errorv,,0,,1402415859,800952911,/enu,/base_link,,,8.24941278112,22.1031201898,-34.8650367154,,0.000907520765204,-0.00195423875027,0.872391180901,0.488803626054
1402415859859104341,,errorv,,0,,1402415859,810947895,/enu,/base_link,,,8.24676557207,22.1043102058,-34.8696529499,,0.00177566980485,-0.00222941745396,0.87224360885,0.489063353273
1402415859877713483,,errorv,,0,,1402415859,877505632,base_link,/z_drive,,,0.0,0.0,0.0,,0.0,0.0,0.0,1.0
1402415859877782358,,errorv,,0,,1402415859,877531729,/z_drive,port,,,-0.3,0.3048,0.0,,0.0,0.0,0.0,1.0
1402415859877806882,,errorv,,0,,1402415859,877544267,/z_drive,starboard,,,-0.3,-0.3048,0.0,,0.0,0.0,0.0,1.0
1402415859897821590,,errorv,,0,,1402415859,897518853,base_link,/z_drive,,,0.0,0.0,0.0,,0.0,0.0,0.0,1.0
1402415859897934729,,errorv,,0,,1402415859,897542095,/z_drive,port,,,-0.3,0.3048,0.0,,0.0,0.0,0.0,1.0
1402415859897957926,,errorv,,0,,1402415859,897553324,/z_drive,starboard,,,-0.3,-0.3048,0.0,,0.0,0.0,0.0,1.0
1402415859899123548,,errorv,,0,,1402415859,821943998,/enu,/base_link,,,8.24387983366,22.1063173887,-34.8756472453,,0.00265109454407,-0.00264201631294,0.872079694724,0.489349565748
1402415859899158786,,errorv,,0,,1402415859,831929922,/enu,/base_link,,,8.25430968669,22.1335808674,-34.8328467133,,0.00250749161651,-0.000391420016885,0.8711408041,0.491026739301
1402415859899211860,,errorv,,0,,1402415859,841912031,/enu,/base_link,,,8.25154639323,22.1361327322,-34.8380992819,,0.00329607773205,-0.000743455327352,0.870980936839,0.491305191107
1402415859899238090,,errorv,,0,,1402415859,851914882,/enu,/base_link,,,8.24886758211,22.1386982869,-34.843064453,,0.00409205791915,-0.00106573023275,0.870815929549,0.491591025269
1402415859917758011,,errorv,,0,,1402415859,917554391,base_link,/z_drive,,,0.0,0.0,0.0,,0.0,0.0,0.0,1.0
1402415859917823201,,errorv,,0,,1402415859,917580163,/z_drive,port,,,-0.3,0.3048,0.0,,0.0,0.0,0.0,1.0
1402415859917853093,,errorv,,0,,1402415859,917596093,/z_drive,starboard,,,-0.3,-0.3048,0.0,,0.0,0.0,0.0,1.0
1402415859937679656,,errorv,,0,,1402415859,937502088,base_link,/z_drive,,,0.0,0.0,0.0,,0.0,0.0,0.0,1.0
1402415859937715831,,errorv,,0,,1402415859,937531619,/z_drive,port,,,-0.3,0.3048,0.0,,0.0,0.0,0.0,1.0
1402415859937809047,,errorv,,0,,1402415859,937542431,/z_drive,starboard,,,-0.3,-0.3048,0.0,,0.0,0.0,0.0,1.0
1402415859938149410,,errorv,,0,,1402415860,37911537,/base_link,/gps,,,-0.84,0.0,-0.14,,0.0,0.0,0.0,1.0
1402415859938221095,,errorv,,0,,1402415860,38038598,base_link,imu,,,0.13,0.0,-0.1,,1.0,0.0,0.0,0.0
1402415859939229789,,errorv,,0,,1402415859,861915111,/enu,/base_link,,,8.24587312171,22.1414876494,-34.8481390974,,0.00483069313922,-0.00135318610939,0.870642729457,0.491890303763
1402415859939254579,,errorv,,0,,1402415859,872881889,/enu,/base_link,,,8.24252794676,22.1445846477,-34.8536023391,,0.00568410357108,-0.00162726418081,0.870440560085,0.492238026098
1402415859939273553,,errorv,,0,,1402415859,882883071,/enu,/base_link,,,8.2394636089,22.1477393336,-34.8587797536,,0.00643968813576,-0.00181079730679,0.870268205957,0.492532741176
1402415859939314899,,errorv,,0,,1402415859,892879009,/enu,/base_link,,,8.23632158638,22.151034194,-34.8640164331,,0.00709411058044,-0.00200397532937,0.870064564916,0.492882653941
1402415859957679577,,errorv,,0,,1402415859,957504519,base_link,/z_drive,,,0.0,0.0,0.0,,0.0,0.0,0.0,1.0
1402415859957750523,,errorv,,0,,1402415859,957523335,/z_drive,port,,,-0.3,0.3048,0.0,,0.0,0.0,0.0,1.0
1402415859957784472,,errorv,,0,,1402415859,957533362,/z_drive,starboard,,,-0.3,-0.3048,0.0,,0.0,0.0,0.0,1.0
1402415859977594911,,errorv,,0,,1402415859,977452458,base_link,/z_drive,,,0.0,0.0,0.0,,0.0,0.0,0.0,1.0
1402415859977665981,,errorv,,0,,1402415859,977476291,/z_drive,port,,,-0.3,0.3048,0.0,,0.0,0.0,0.0,1.0
1402415859977684566,,errorv,,0,,1402415859,977482433,/z_drive,starboard,,,-0.3,-0.3048,0.0,,0.0,0.0,0.0,1.0
1402415859979092515,,errorv,,0,,1402415859,902853012,/enu,/base_link,,,8.23304314636,22.1544105013,-34.8692520817,,0.00763746619387,-0.00219370313875,0.869878135844,0.493202682026
1402415859979120621,,errorv,,0,,1402415859,912856101,/enu,/base_link,,,8.22983701656,22.1579151619,-34.8745094253,,0.00828901254497,-0.00237854516243,0.869691012858,0.493521202126
1402415859979143886,,errorv,,0,,1402415859,923852920,/enu,/base_link,,,8.22623845755,22.1621298355,-34.8805955504,,0.00883234601516,-0.00248029570326,0.869468648833,0.493902932259
1402415859979237793,,errorv,,0,,1402415859,933856964,/enu,/base_link,,,8.27410922356,22.1819615358,-34.8264350287,,0.0110686883865,-0.000146194957796,0.867208679504,0.497821824508
1402415859998057003,,errorv,,0,,1402415859,997573627,base_link,/z_drive,,,0.0,0.0,0.0,,0.0,0.0,0.0,1.0
1402415859998089548,,errorv,,0,,1402415859,997615519,/z_drive,port,,,-0.3,0.3048,0.0,,0.0,0.0,0.0,1.0
1402415859998107486,,errorv,,0,,1402415859,997622835,/z_drive,starboard,,,-0.3,-0.3048,0.0,,0.0,0.0,0.0,1.0
1402415860017993580,,errorv,,0,,1402415860,17519809,base_link,/z_drive,,,0.0,0.0,0.0,,0.0,0.0,0.0,1.0
1402415860018029087,,errorv,,0,,1402415860,17559206,/z_drive,port,,,-0.3,0.3048,0.0,,0.0,0.0,0.0,1.0
1402415860018053992,,errorv,,0,,1402415860,17566070,/z_drive,starboard,,,-0.3,-0.3048,0.0,,0.0,0.0,0.0,1.0
1402415860019145017,,errorv,,0,,1402415859,943851947,/enu,/base_link,,,8.27116553933,22.1861790067,-34.8315347912,,0.0114764114837,-0.000158425649256,0.867008608731,0.498160957189
1402415860019195952,,errorv,,0,,1402415859,953844070,/enu,/base_link,,,8.26831928507,22.1907742862,-34.837098727,,0.0118835055582,-0.000233568804558,0.866812883201,0.498491878829
1402415860019240230,,errorv,,0,,1402415859,963845968,/enu,/base_link,,,8.26544527615,22.1953951915,-34.842482344,,0.0121668856958,-0.000268818957169,0.866626838796,0.498808396989
1402415860019298892,,errorv,,0,,1402415859,973844051,/enu,/base_link,,,8.26231735814,22.1999320007,-34.8474938438,,0.0124329718656,-0.000272371914926,0.866408844928,0.499180388691
1402415860037923316,,errorv,,0,,1402415860,37554699,base_link,/z_drive,,,0.0,0.0,0.0,,0.0,0.0,0.0,1.0
1402415860037958397,,errorv,,0,,1402415860,37604816,/z_drive,port,,,-0.3,0.3048,0.0,,0.0,0.0,0.0,1.0
1402415860038001616,,errorv,,0,,1402415860,37617062,/z_drive,starboard,,,-0.3,-0.3048,0.0,,0.0,0.0,0.0,1.0
1402415860038296632,,errorv,,0,,1402415860,138022335,/base_link,/gps,,,-0.84,0.0,-0.14,,0.0,0.0,0.0,1.0
1402415860038364128,,errorv,,0,,1402415860,138140971,base_link,imu,,,0.13,0.0,-0.1,,1.0,0.0,0.0,0.0
1402415860057973900,,errorv,,0,,1402415860,57590037,base_link,/z_drive,,,0.0,0.0,0.0,,0.0,0.0,0.0,1.0
1402415860058348750,,errorv,,0,,1402415860,57636360,/z_drive,port,,,-0.3,0.3048,0.0,,0.0,0.0,0.0,1.0
1402415860058380001,,errorv,,0,,1402415860,58023753,/z_drive,starboard,,,-0.3,-0.3048,0.0,,0.0,0.0,0.0,1.0
1402415860059156847,,errorv,,0,,1402415859,984850883,/enu,/base_link,,,8.31386657341,22.2327169811,-34.7263010254,,0.013198336029,0.00358402496695,0.863431999937,0.504279823288
1402415860059353941,,errorv,,0,,1402415859,994827985,/enu,/base_link,,,8.31118866112,22.2382585327,-34.7313507973,,0.0134037616262,0.00360398960825,0.863229897323,0.504620149023
1402415860059378845,,errorv,,0,,1402415860,4816055,/enu,/base_link,,,8.30860737871,22.2442294905,-34.7367472717,,0.013521811561,0.00375370485835,0.863007404623,0.504996326598
1402415860059435204,,errorv,,0,,1402415860,14827966,/enu,/base_link,,,8.30608894543,22.2500845908,-34.7418296264,,0.0135962696584,0.00382261182445,0.862773195908,0.505393847917
1402415860078006254,,errorv,,0,,1402415860,77598006,base_link,/z_drive,,,0.0,0.0,0.0,,0.0,0.0,0.0,1.0
1402415860078038987,,errorv,,0,,1402415860,77639109,/z_drive,port,,,-0.3,0.3048,0.0,,0.0,0.0,0.0,1.0
1402415860078068299,,errorv,,0,,1402415860,77826756,/z_drive,starboard,,,-0.3,-0.3048,0.0,,0.0,0.0,0.0,1.0
1402415860098228384,,errorv,,0,,1402415860,97788977,base_link,/z_drive,,,0.0,0.0,0.0,,0.0,0.0,0.0,1.0
1402415860098255847,,errorv,,0,,1402415860,97829177,/z_drive,port,,,-0.3,0.3048,0.0,,0.0,0.0,0.0,1.0
1402415860098325111,,errorv,,0,,1402415860,97834886,/z_drive,starboard,,,-0.3,-0.3048,0.0,,0.0,0.0,0.0,1.0
1402415860099411487,,errorv,,0,,1402415860,24831056,/enu,/base_link,,,8.30337569376,22.2561792141,-34.7471208584,,0.0135764971809,0.00395836272921,0.862533185325,0.505802841335
1402415860099443502,,errorv,,0,,1402415860,35828113,/enu,/base_link,,,8.37835501722,22.2651793779,-34.5364878835,,0.0159523829884,0.00713971903077,0.858959696448,0.511744844396
1402415860099514665,,errorv,,0,,1402415860,45828104,/enu,/base_link,,,8.37641906128,22.2720012175,-34.5414392511,,0.0158291939315,0.00729661338157,0.858726005219,0.512138500811
1402415860099540011,,errorv,,0,,1402415860,55953025,/enu,/base_link,,,8.37441320803,22.2788658162,-34.5463264167,,0.015731668734,0.00749420291637,0.858474914182,0.512559433862
1402415860117819516,,errorv,,0,,1402415860,117525367,base_link,/z_drive,,,0.0,0.0,0.0,,0.0,0.0,0.0,1.0
1402415860117851854,,errorv,,0,,1402415860,117562705,/z_drive,port,,,-0.3,0.3048,0.0,,0.0,0.0,0.0,1.0
1402415860117887672,,errorv,,0,,1402415860,117573810,/z_drive,starboard,,,-0.3,-0.3048,0.0,,0.0,0.0,0.0,1.0
1402415860137659396,,errorv,,0,,1402415860,137491348,base_link,/z_drive,,,0.0,0.0,0.0,,0.0,0.0,0.0,1.0
1402415860137949036,,errorv,,0,,1402415860,137512433,/z_drive,port,,,-0.3,0.3048,0.0,,0.0,0.0,0.0,1.0
1402415860137973476,,errorv,,0,,1402415860,137650773,/z_drive,starboard,,,-0.3,-0.3048,0.0,,0.0,0.0,0.0,1.0
1402415860138306848,,errorv,,0,,1402415860,238125395,/base_link,/gps,,,-0.84,0.0,-0.14,,0.0,0.0,0.0,1.0
1402415860138421843,,errorv,,0,,1402415860,238243058,base_link,imu,,,0.13,0.0,-0.1,,1.0,0.0,0.0,0.0
1402415860139086640,,errorv,,0,,1402415860,66817998,/enu,/base_link,,,8.37232817175,22.2864678505,-34.5517459829,,0.0155021419618,0.00767981129437,0.858226290093,0.512979862262
1402415860139323537,,errorv,,0,,1402415860,76790094,/enu,/base_link,,,8.37032729395,22.2935731482,-34.5567006641,,0.0153402477943,0.00784112478913,0.857985986558,0.513384106132
1402415860139382340,,errorv,,0,,1402415860,86791038,/enu,/base_link,,,8.37628590944,22.3194895528,-34.5496316223,,0.0144341043915,0.00946246710651,0.857103294419,0.514855378764
1402415860139413068,,errorv,,0,,1402415860,96811056,/enu,/base_link,,,8.37432876766,22.3272298993,-34.5547604386,,0.0142011077863,0.00960650942492,0.856851280903,0.515278493564
1402415860139444513,,errorv,,0,,1402415860,107770919,/enu,/base_link,,,8.37205639342,22.3357292249,-34.5600353104,,0.013827654228,0.00983690824089,0.856578088013,0.515738315768
1402415860157746417,,errorv,,0,,1402415860,157496084,base_link,/z_drive,,,0.0,0.0,0.0,,0.0,0.0,0.0,1.0
1402415860157782656,,errorv,,0,,1402415860,157515682,/z_drive,port,,,-0.3,0.3048,0.0,,0.0,0.0,0.0,1.0
1402415860157805361,,errorv,,0,,1402415860,157525607,/z_drive,starboard,,,-0.3,-0.3048,0.0,,0.0,0.0,0.0,1.0
1402415860177728170,,errorv,,0,,1402415860,177466339,base_link,/z_drive,,,0.0,0.0,0.0,,0.0,0.0,0.0,1.0
1402415860177820466,,errorv,,0,,1402415860,177484284,/z_drive,port,,,-0.3,0.3048,0.0,,0.0,0.0,0.0,1.0
1402415860177849880,,errorv,,0,,1402415860,177493856,/z_drive,starboard,,,-0.3,-0.3048,0.0,,0.0,0.0,0.0,1.0
1402415860179121773,,errorv,,0,,1402415860,117850065,/enu,/base_link,,,8.37008195667,22.3439367613,-34.5654083451,,0.0135109609807,0.0100806585786,0.856317957618,0.516173797975
1402415860179146938,,errorv,,0,,1402415860,127774000,/enu,/base_link,,,8.36791984991,22.3519265941,-34.5702881752,,0.0131857478438,0.010273204726,0.856057912718,0.516609569589
1402415860179171204,,errorv,,0,,1402415860,138791084,/enu,/base_link,,,8.37433095689,22.3914514657,-34.5305542007,,0.0111893292125,0.0130611096332,0.854826414286,0.51862896927
1402415860187419657,,errorv,,0,,1402415860,148775100,/enu,/base_link,,,8.37207381955,22.4004879755,-34.5355400545,,0.0108160441789,0.0133173639672,0.854565046165,0.519060924053
1402415860187448046,,errorv,,0,,1402415860,158756017,/enu,/base_link,,,8.36999306824,22.4096148638,-34.5405998758,,0.0104931914562,0.0134849894699,0.854306943171,0.519487915972
1402415860197681938,,errorv,,0,,1402415860,197530457,base_link,/z_drive,,,0.0,0.0,0.0,,0.0,0.0,0.0,1.0
1402415860197967222,,errorv,,0,,1402415860,197550791,/z_drive,port,,,-0.3,0.3048,0.0,,0.0,0.0,0.0,1.0
1402415860197985475,,errorv,,0,,1402415860,197692267,/z_drive,starboard,,,-0.3,-0.3048,0.0,,0.0,0.0,0.0,1.0
1402415860217845814,,errorv,,0,,1402415860,217470439,base_link,/z_drive,,,0.0,0.0,0.0,,0.0,0.0,0.0,1.0
1402415860217869427,,errorv,,0,,1402415860,217487929,/z_drive,port,,,-0.3,0.3048,0.0,,0.0,0.0,0.0,1.0
1402415860217940523,,errorv,,0,,1402415860,217497502,/z_drive,starboard,,,-0.3,-0.3048,0.0,,0.0,0.0,0.0,1.0
1402415860227090920,,errorv,,0,,1402415860,168746948,/enu,/base_link,,,8.3679372628,22.4189115368,-34.5455888434,,0.0101066692906,0.0136977441673,0.854039939836,0.519928849175
1402415860227116604,,errorv,,0,,1402415860,179752111,/enu,/base_link,,,8.36569496049,22.4290685446,-34.5508945606,,0.00973094102553,0.0138881925767,0.853744227208,0.520416392328
1402415860237587155,,errorv,,0,,1402415860,237431412,base_link,/z_drive,,,0.0,0.0,0.0,,0.0,0.0,0.0,1.0
1402415860237686535,,errorv,,0,,1402415860,237443069,/z_drive,port,,,-0.3,0.3048,0.0,,0.0,0.0,0.0,1.0
1402415860237709316,,errorv,,0,,1402415860,237500198,/z_drive,starboard,,,-0.3,-0.3048,0.0,,0.0,0.0,0.0,1.0
1402415860238411989,,errorv,,0,,1402415860,338233576,/base_link,/gps,,,-0.84,0.0,-0.14,,0.0,0.0,0.0,1.0
1402415860238534081,,errorv,,0,,1402415860,338347241,base_link,imu,,,0.13,0.0,-0.1,,1.0,0.0,0.0,0.0
1402415860257754763,,errorv,,0,,1402415860,257482080,base_link,/z_drive,,,0.0,0.0,0.0,,0.0,0.0,0.0,1.0
1402415860257784284,,errorv,,0,,1402415860,257499200,/z_drive,port,,,-0.3,0.3048,0.0,,0.0,0.0,0.0,1.0
1402415860257807759,,errorv,,0,,1402415860,257507071,/z_drive,starboard,,,-0.3,-0.3048,0.0,,0.0,0.0,0.0,1.0
1402415860267096842,,errorv,,0,,1402415860,189744949,/enu,/base_link,,,8.36954623539,22.4582690146,-34.536191299,,0.00843372854509,0.0157384170693,0.852866913036,0.521822961452
1402415860267168611,,errorv,,0,,1402415860,200751066,/enu,/base_link,,,8.36721788407,22.4691868585,-34.5414795464,,0.00801149466769,0.0159268369391,0.852577538334,0.522296556514
1402415860267193007,,errorv,,0,,1402415860,210752010,/enu,/base_link,,,8.36497987327,22.4794854127,-34.5467636303,,0.0077070039569,0.0161363156195,0.852313562863,0.522725369547
1402415860267379372,,errorv,,0,,1402415860,220748901,/enu,/base_link,,,8.36273538107,22.4897188425,-34.551683515,,0.00733082966753,0.0163126612118,0.852072750583,0.523117753221
1402415860277868949,,errorv,,0,,1402415860,277569642,base_link,/z_drive,,,0.0,0.0,0.0,,0.0,0.0,0.0,1.0
1402415860277895756,,errorv,,0,,1402415860,277677789,/z_drive,port,,,-0.3,0.3048,0.0,,0.0,0.0,0.0,1.0
1402415860277967064,,errorv,,0,,1402415860,277692035,/z_drive,starboard,,,-0.3,-0.3048,0.0,,0.0,0.0,0.0,1.0
1402415860297741131,,errorv,,0,,1402415860,297595427,base_link,/z_drive,,,0.0,0.0,0.0,,0.0,0.0,0.0,1.0
1402415860297901553,,errorv,,0,,1402415860,297614144,/z_drive,port,,,-0.3,0.3048,0.0,,0.0,0.0,0.0,1.0
1402415860297928270,,errorv,,0,,1402415860,297640125,/z_drive,starboard,,,-0.3,-0.3048,0.0,,0.0,0.0,0.0,1.0
1402415860307071377,,errorv,,0,,1402415860,230721950,/enu,/base_link,,,8.36050865376,22.4999824041,-34.5565061181,,0.00698421061019,0.0165026307248,0.851816038175,0.523534450718
1402415860307141732,,errorv,,0,,1402415860,241719007,/enu,/base_link,,,8.35807373037,22.5116084894,-34.5620527973,,0.00666419301726,0.0166625332557,0.851532499624,0.523994609324
1402415860307209857,,errorv,,0,,1402415860,251717090,/enu,/base_link,,,8.35595224394,22.5224172288,-34.5672337652,,0.0063215795271,0.0167267790721,0.851294622146,0.524383179363
1402415860307236831,,errorv,,0,,1402415860,262720108,/enu,/base_link,,,8.35344221644,22.5340879666,-34.5724462802,,0.00602396682871,0.0168166541209,0.851031248603,0.524811133523
1402415860317742545,,errorv,,0,,1402415860,317527254,base_link,/z_drive,,,0.0,0.0,0.0,,0.0,0.0,0.0,1.0
1402415860317780449,,errorv,,0,,1402415860,317549435,/z_drive,port,,,-0.3,0.3048,0.0,,0.0,0.0,0.0,1.0
1402415860317803898,,errorv,,0,,1402415860,317603158,/z_drive,starboard,,,-0.3,-0.3048,0.0,,0.0,0.0,0.0,1.0
1402415860337763306,,errorv,,0,,1402415860,337499568,base_link,/z_drive,,,0.0,0.0,0.0,,0.0,0.0,0.0,1.0
1402415860337932535,,errorv,,0,,1402415860,337640978,/z_drive,port,,,-0.3,0.3048,0.0,,0.0,0.0,0.0,1.0
1402415860337969022,,errorv,,0,,1402415860,337672097,/z_drive,starboard,,,-0.3,-0.3048,0.0,,0.0,0.0,0.0,1.0
1402415860338548017,,errorv,,0,,1402415860,438338296,/base_link,/gps,,,-0.84,0.0,-0.14,,0.0,0.0,0.0,1.0
1402415860338651991,,errorv,,0,,1402415860,438450118,base_link,imu,,,0.13,0.0,-0.1,,1.0,0.0,0.0,0.0
1402415860347258479,,errorv,,0,,1402415860,272720098,/enu,/base_link,,,8.31059696975,22.523093292,-34.6265252947,,0.00485650426785,0.0142576264082,0.853211674158,0.521347267697
1402415860347385823,,errorv,,0,,1402415860,282718896,/enu,/base_link,,,8.30776737455,22.5336430039,-34.6315374867,,0.00461830132197,0.014357963273,0.852981974392,0.521722408515
1402415860347413631,,errorv,,0,,1402415860,292668104,/enu,/base_link,,,8.30513077844,22.5443423029,-34.6366210842,,0.00441516287471,0.014367396085,0.852743196474,0.522114092066
1402415860347500850,,errorv,,0,,1402415860,303694009,/enu,/base_link,,,8.301959814,22.5561811927,-34.6419197807,,0.00419039956493,0.0144348591807,0.852491170302,0.522525482584
1402415860357905329,,errorv,,0,,1402415860,357575882,base_link,/z_drive,,,0.0,0.0,0.0,,0.0,0.0,0.0,1.0
1402415860357937281,,errorv,,0,,1402415860,357596656,/z_drive,port,,,-0.3,0.3048,0.0,,0.0,0.0,0.0,1.0
1402415860357956250,,errorv,,0,,1402415860,357605086,/z_drive,starboard,,,-0.3,-0.3048,0.0,,0.0,0.0,0.0,1.0
1402415860377630997,,errorv,,0,,1402415860,377489789,base_link,/z_drive,,,0.0,0.0,0.0,,0.0,0.0,0.0,1.0
1402415860377703708,,errorv,,0,,1402415860,377502184,/z_drive,port,,,-0.3,0.3048,0.0,,0.0,0.0,0.0,1.0
1402415860377800804,,errorv,,0,,1402415860,377508445,/z_drive,starboard,,,-0.3,-0.3048,0.0,,0.0,0.0,0.0,1.0
1402415860387244544,,errorv,,0,,1402415860,313698053,/enu,/base_link,,,8.29899955771,22.5670565642,-34.6468456706,,0.00405824865941,0.0144447838594,0.852248023729,0.52292273319
1402415860387272905,,errorv,,0,,1402415860,323695898,/enu,/base_link,,,8.27317394923,22.5607689171,-34.6143486273,,0.00285889364549,0.0131277257894,0.85354410768,0.520847334434
1402415860387296895,,errorv,,0,,1402415860,333683013,/enu,/base_link,,,8.26963817975,22.5714598511,-34.6188086342,,0.00274664294197,0.0130709471033,0.853319959097,0.521216513265
1402415860387341846,,errorv,,0,,1402415860,344696998,/enu,/base_link,,,8.2660673687,22.5837399549,-34.6242900651,,0.00261754021091,0.0130539171295,0.853085566079,0.521601150957
1402415860397828495,,errorv,,0,,1402415860,397542617,base_link,/z_drive,,,0.0,0.0,0.0,,0.0,0.0,0.0,1.0
1402415860397860922,,errorv,,0,,1402415860,397562381,/z_drive,port,,,-0.3,0.3048,0.0,,0.0,0.0,0.0,1.0
1402415860397885092,,errorv,,0,,1402415860,397570842,/z_drive,starboard,,,-0.3,-0.3048,0.0,,0.0,0.0,0.0,1.0
1402415860417794999,,errorv,,0,,1402415860,417505988,base_link,/z_drive,,,0.0,0.0,0.0,,0.0,0.0,0.0,1.0
1402415860417828401,,errorv,,0,,1402415860,417523577,/z_drive,port,,,-0.3,0.3048,0.0,,0.0,0.0,0.0,1.0
1402415860417852260,,errorv,,0,,1402415860,417532829,/z_drive,starboard,,,-0.3,-0.3048,0.0,,0.0,0.0,0.0,1.0
1402415860427257510,,errorv,,0,,1402415860,354693889,/enu,/base_link,,,8.28461361559,22.5815725262,-34.4974729717,,0.00323158810628,0.0135723671603,0.852061504451,0.523255712172
1402415860427305664,,errorv,,0,,1402415860,364697933,/enu,/base_link,,,8.28152064576,22.592841762,-34.5019651048,,0.00322488249485,0.0135114131649,0.851868204805,0.523571965913
1402415860427322447,,errorv,,0,,1402415860,374680995,/enu,/base_link,,,8.2785604692,22.6042483994,-34.5065968606,,0.00323008885822,0.01344915713,0.851678807751,0.523881565935
1402415860427341639,,errorv,,0,,1402415860,384648084,/enu,/base_link,,,8.275692875,22.6156060809,-34.5108746719,,0.00323632464871,0.0134095521949,0.851491096565,0.524187583393
1402415860437765410,,errorv,,0,,1402415860,437572868,base_link,/z_drive,,,0.0,0.0,0.0,,0.0,0.0,0.0,1.0
1402415860437858405,,errorv,,0,,1402415860,437593496,/z_drive,port,,,-0.3,0.3048,0.0,,0.0,0.0,0.0,1.0
1402415860437884665,,errorv,,0,,1402415860,437602094,/z_drive,starboard,,,-0.3,-0.3048,0.0,,0.0,0.0,0.0,1.0
1402415860438644037,,errorv,,0,,1402415860,538444815,/base_link,/gps,,,-0.84,0.0,-0.14,,0.0,0.0,0.0,1.0
1402415860438730630,,errorv,,0,,1402415860,538554823,base_link,imu,,,0.13,0.0,-0.1,,1.0,0.0,0.0,0.0
1402415860457639486,,errorv,,0,,1402415860,457475976,base_link,/z_drive,,,0.0,0.0,0.0,,0.0,0.0,0.0,1.0
1402415860457662481,,errorv,,0,,1402415860,457494258,/z_drive,port,,,-0.3,0.3048,0.0,,0.0,0.0,0.0,1.0
1402415860457694037,,errorv,,0,,1402415860,457504282,/z_drive,starboard,,,-0.3,-0.3048,0.0,,0.0,0.0,0.0,1.0
1402415860467124287,,errorv,,0,,1402415860,394669055,/enu,/base_link,,,8.2863717568,22.6127416748,-34.4262561731,,0.00391356054914,0.0132571447917,0.850865189904,0.525202209407
1402415860467177499,,errorv,,0,,1402415860,404628992,/enu,/base_link,,,8.28335547788,22.6241097734,-34.4301805344,,0.00395591192941,0.0131528316237,0.850677005921,0.525509262885
1402415860467193933,,errorv,,0,,1402415860,415631055,/enu,/base_link,,,8.27998459776,22.6368552238,-34.434690038,,0.00414014995424,0.0130985218976,0.850463906076,0.52585400288
1402415860467263333,,errorv,,0,,1402415860,425627946,/enu,/base_link,,,8.277055688,22.648439697,-34.4385140091,,0.00423087020389,0.0130568761976,0.850280055129,0.526151542402
1402415860477834512,,errorv,,0,,1402415860,477651326,base_link,/z_drive,,,0.0,0.0,0.0,,0.0,0.0,0.0,1.0
1402415860477904452,,errorv,,0,,1402415860,477668885,/z_drive,port,,,-0.3,0.3048,0.0,,0.0,0.0,0.0,1.0
1402415860478019394,,errorv,,0,,1402415860,477699690,/z_drive,starboard,,,-0.3,-0.3048,0.0,,0.0,0.0,0.0,1.0
1402415860497681621,,errorv,,0,,1402415860,497504402,base_link,/z_drive,,,0.0,0.0,0.0,,0.0,0.0,0.0,1.0
1402415860497772495,,errorv,,0,,1402415860,497522644,/z_drive,port,,,-0.3,0.3048,0.0,,0.0,0.0,0.0,1.0
1402415860497799144,,errorv,,0,,1402415860,497529924,/z_drive,starboard,,,-0.3,-0.3048,0.0,,0.0,0.0,0.0,1.0
1402415860507259352,,errorv,,0,,1402415860,435631036,/enu,/base_link,,,8.27119080286,22.6279747822,-34.420820515,,0.00567529202252,0.0109443483561,0.850234821727,0.526259213908
1402415860507316369,,errorv,,0,,1402415860,445630073,/enu,/base_link,,,8.26816523659,22.6392439266,-34.4247000788,,0.00591080117477,0.0108646871485,0.850063411262,0.526535105986
1402415860507392300,,errorv,,0,,1402415860,455627918,/enu,/base_link,,,8.2652907226,22.6505389779,-34.4284324974,,0.00602923379022,0.0107714045615,0.849882360422,0.526827864323
1402415860507419286,,errorv,,0,,1402415860,465605020,/enu,/base_link,,,8.26220767739,22.6619825518,-34.432274576,,0.00622722148212,0.0106124005434,0.849733411076,0.52706899811
1402415860517764725,,errorv,,0,,1402415860,517479869,base_link,/z_drive,,,0.0,0.0,0.0,,0.0,0.0,0.0,1.0
1402415860517793155,,errorv,,0,,1402415860,517498350,/z_drive,port,,,-0.3,0.3048,0.0,,0.0,0.0,0.0,1.0
1402415860517865516,,errorv,,0,,1402415860,517568181,/z_drive,starboard,,,-0.3,-0.3048,0.0,,0.0,0.0,0.0,1.0
1402415860537722081,,errorv,,0,,1402415860,537526491,base_link,/z_drive,,,0.0,0.0,0.0,,0.0,0.0,0.0,1.0
1402415860537800939,,errorv,,0,,1402415860,537548922,/z_drive,port,,,-0.3,0.3048,0.0,,0.0,0.0,0.0,1.0
1402415860537828172,,errorv,,0,,1402415860,537559505,/z_drive,starboard,,,-0.3,-0.3048,0.0,,0.0,0.0,0.0,1.0
1402415860538765347,,errorv,,0,,1402415860,638539474,/base_link,/gps,,,-0.84,0.0,-0.14,,0.0,0.0,0.0,1.0
1402415860538939831,,errorv,,0,,1402415860,638657352,base_link,imu,,,0.13,0.0,-0.1,,1.0,0.0,0.0,0.0
1402415860547082193,,errorv,,0,,1402415860,476600885,/enu,/base_link,,,8.25900634843,22.6747647317,-34.4365757992,,0.00636394408946,0.0104964427313,0.849557858739,0.527352604583
1402415860547104857,,errorv,,0,,1402415860,486601114,/enu,/base_link,,,8.2325593415,22.6627947467,-34.4579754946,,0.00664411547781,0.00830928766923,0.850434504758,0.52597334969
1402415860547283333,,errorv,,0,,1402415860,496603012,/enu,/base_link,,,8.22945411479,22.6741689411,-34.461842062,,0.00682139140092,0.00828213515751,0.850301365256,0.526186718857
1402415860547349744,,errorv,,0,,1402415860,506601095,/enu,/base_link,,,8.22611826113,22.6855192844,-34.4656375465,,0.00717104424913,0.00826691667132,0.850172230431,0.526390931549
1402415860547403160,,errorv,,0,,1402415860,516603946,/enu,/base_link,,,8.22296243136,22.6969804681,-34.4694302319,,0.00743455832744,0.00821683950376,0.850053939305,0.526579064494
1402415860557830623,,errorv,,0,,1402415860,557665521,base_link,/z_drive,,,0.0,0.0,0.0,,0.0,0.0,0.0,1.0
1402415860557864833,,errorv,,0,,1402415860,557683987,/z_drive,port,,,-0.3,0.3048,0.0,,0.0,0.0,0.0,1.0
1402415860557880233,,errorv,,0,,1402415860,557691939,/z_drive,starboard,,,-0.3,-0.3048,0.0,,0.0,0.0,0.0,1.0
1402415860577686292,,errorv,,0,,1402415860,577462709,base_link,/z_drive,,,0.0,0.0,0.0,,0.0,0.0,0.0,1.0
1402415860577777117,,errorv,,0,,1402415860,577477668,/z_drive,port,,,-0.3,0.3048,0.0,,0.0,0.0,0.0,1.0
1402415860577811942,,errorv,,0,,1402415860,577485083,/z_drive,starboard,,,-0.3,-0.3048,0.0,,0.0,0.0,0.0,1.0
1402415860587202398,,errorv,,0,,1402415860,526602983,/enu,/base_link,,,8.21967318486,22.7085125266,-34.4731589107,,0.00755188080293,0.00802192072641,0.849969334565,0.526716952625
1402415860587228529,,errorv,,0,,1402415860,536603927,/enu,/base_link,,,8.19956786578,22.6762892513,-34.4373220349,,0.00866295586033,0.00490961080857,0.850448527095,0.525964021279
1402415860587296561,,errorv,,0,,1402415860,546601057,/enu,/base_link,,,8.19626501614,22.6873149564,-34.4410770568,,0.00884203718555,0.00476720416983,0.850381192292,0.526071211851
1402415860595312503,,errorv,,0,,1402415860,557620048,/enu,/base_link,,,8.19245544361,22.6996189957,-34.4454694985,,0.0091038811681,0.00467105362985,0.850354279055,0.526111110602
1402415860595339868,,errorv,,0,,1402415860,567576885,/enu,/base_link,,,8.18893597954,22.7106698446,-34.4490576284,,0.00927393031918,0.00453521931647,0.850334721577,0.526140938612
1402415860597742617,,errorv,,0,,1402415860,597519352,base_link,/z_drive,,,0.0,0.0,0.0,,0.0,0.0,0.0,1.0
1402415860597766149,,errorv,,0,,1402415860,597536182,/z_drive,port,,,-0.3,0.3048,0.0,,0.0,0.0,0.0,1.0
1402415860597830110,,errorv,,0,,1402415860,597540651,/z_drive,starboard,,,-0.3,-0.3048,0.0,,0.0,0.0,0.0,1.0
1402415860617702325,,errorv,,0,,1402415860,617478737,base_link,/z_drive,,,0.0,0.0,0.0,,0.0,0.0,0.0,1.0
1402415860617772180,,errorv,,0,,1402415860,617492044,/z_drive,port,,,-0.3,0.3048,0.0,,0.0,0.0,0.0,1.0
1402415860617798013,,errorv,,0,,1402415860,617495923,/z_drive,starboard,,,-0.3,-0.3048,0.0,,0.0,0.0,0.0,1.0
1402415860635077942,,errorv,,0,,1402415860,577574968,/enu,/base_link,,,8.18558241915,22.7219928659,-34.4529940532,,0.00954986540212,0.00442010970146,0.850303793503,0.526186964353
1402415860635101632,,errorv,,0,,1402415860,587578058,/enu,/base_link,,,8.20523579553,22.7489212469,-34.4097311776,,0.0098888285839,0.00643054827512,0.849345886672,0.5277048644
1402415860637741303,,errorv,,0,,1402415860,637514929,base_link,/z_drive,,,0.0,0.0,0.0,,0.0,0.0,0.0,1.0
1402415860637791931,,errorv,,0,,1402415860,637529214,/z_drive,port,,,-0.3,0.3048,0.0,,0.0,0.0,0.0,1.0
1402415860637814826,,errorv,,0,,1402415860,637533470,/z_drive,starboard,,,-0.3,-0.3048,0.0,,0.0,0.0,0.0,1.0
1402415860638858844,,errorv,,0,,1402415860,738633696,/base_link,/gps,,,-0.84,0.0,-0.14,,0.0,0.0,0.0,1.0
1402415860638945023,,errorv,,0,,1402415860,738758127,base_link,imu,,,0.13,0.0,-0.1,,1.0,0.0,0.0,0.0
1402415860657728144,,errorv,,0,,1402415860,657495885,base_link,/z_drive,,,0.0,0.0,0.0,,0.0,0.0,0.0,1.0
1402415860657759764,,errorv,,0,,1402415860,657522859,/z_drive,port,,,-0.3,0.3048,0.0,,0.0,0.0,0.0,1.0
1402415860657783858,,errorv,,0,,1402415860,657536298,/z_drive,starboard,,,-0.3,-0.3048,0.0,,0.0,0.0,0.0,1.0
1402415860675177824,,errorv,,0,,1402415860,597574949,/enu,/base_link,,,8.20215489707,22.7608678212,-34.4138571279,,0.010011187094,0.00624466100854,0.849353947884,0.527691814941
1402415860675309308,,errorv,,0,,1402415860,607578039,/enu,/base_link,,,8.19916677721,22.7725337222,-34.4173359427,,0.0102470363948,0.00612690679624,0.849394549091,0.527623311874
1402415860675349572,,errorv,,0,,1402415860,618562936,/enu,/base_link,,,8.19558269334,22.7857263174,-34.4216356621,,0.0103595744596,0.00599013921701,0.849451602123,0.527530826683
1402415860675384926,,errorv,,0,,1402415860,628575086,/enu,/base_link,,,8.19272130711,22.7977324061,-34.4254859766,,0.010526042756,0.00596822051556,0.849506766003,0.527438941758
1402415860677658013,,errorv,,0,,1402415860,677526397,base_link,/z_drive,,,0.0,0.0,0.0,,0.0,0.0,0.0,1.0
1402415860677818753,,errorv,,0,,1402415860,677544555,/z_drive,port,,,-0.3,0.3048,0.0,,0.0,0.0,0.0,1.0
1402415860677845935,,errorv,,0,,1402415860,677690570,/z_drive,starboard,,,-0.3,-0.3048,0.0,,0.0,0.0,0.0,1.0
1402415860697770777,,errorv,,0,,1402415860,697592351,base_link,/z_drive,,,0.0,0.0,0.0,,0.0,0.0,0.0,1.0
1402415860697915358,,errorv,,0,,1402415860,697609405,/z_drive,port,,,-0.3,0.3048,0.0,,0.0,0.0,0.0,1.0
1402415860697942978,,errorv,,0,,1402415860,697613777,/z_drive,starboard,,,-0.3,-0.3048,0.0,,0.0,0.0,0.0,1.0
1402415860715137890,,errorv,,0,,1402415860,638561964,/enu,/base_link,,,8.16236697254,22.8229181732,-34.3885746155,,0.00784199133493,0.00716593870931,0.851467526295,0.524299727407
1402415860715209073,,errorv,,0,,1402415860,648550987,/enu,/base_link,,,8.15876183731,22.8354737465,-34.3924512085,,0.00803283317649,0.00709717727566,0.851560346065,0.524147002925
1402415860715344321,,errorv,,0,,1402415860,658571004,/enu,/base_link,,,8.15543040907,22.8480834646,-34.3961034139,,0.00804414088392,0.00690112958931,0.85166298144,0.523982664076
1402415860715371900,,errorv,,0,,1402415860,668574094,/enu,/base_link,,,8.15176284834,22.8609166729,-34.4001918376,,0.00808404119633,0.00673952818888,0.851785584964,0.523784826322
1402415860717649255,,errorv,,0,,1402415860,717489066,base_link,/z_drive,,,0.0,0.0,0.0,,0.0,0.0,0.0,1.0
1402415860717680216,,errorv,,0,,1402415860,717501974,/z_drive,port,,,-0.3,0.3048,0.0,,0.0,0.0,0.0,1.0
1402415860717714029,,errorv,,0,,1402415860,717507078,/z_drive,starboard,,,-0.3,-0.3048,0.0,,0.0,0.0,0.0,1.0
1402415860737668426,,errorv,,0,,1402415860,737437132,base_link,/z_drive,,,0.0,0.0,0.0,,0.0,0.0,0.0,1.0
1402415860737704305,,errorv,,0,,1402415860,737485423,/z_drive,port,,,-0.3,0.3048,0.0,,0.0,0.0,0.0,1.0
1402415860737773492,,errorv,,0,,1402415860,737494920,/z_drive,starboard,,,-0.3,-0.3048,0.0,,0.0,0.0,0.0,1.0
1402415860738925731,,errorv,,0,,1402415860,838741023,/base_link,/gps,,,-0.84,0.0,-0.14,,0.0,0.0,0.0,1.0
1402415860739039348,,errorv,,0,,1402415860,838859753,base_link,imu,,,0.13,0.0,-0.1,,1.0,0.0,0.0,0.0
1402415860755249525,,errorv,,0,,1402415860,679563999,/enu,/base_link,,,8.14790526505,22.8746697578,-34.403906597,,0.00795777878523,0.00644438328979,0.851944605758,0.523531787383
1402415860755276867,,errorv,,0,,1402415860,689558982,/enu,/base_link,,,8.12369424042,22.89923578,-34.3931598275,,0.00596041689171,0.00732663072568,0.853514521852,0.520983449737
1402415860755301498,,errorv,,0,,1402415860,699561119,/enu,/base_link,,,8.1199246071,22.912541375,-34.3970661794,,0.00601798509532,0.00725616334678,0.85369416087,0.520689361948
1402415860755319898,,errorv,,0,,1402415860,709563016,/enu,/base_link,,,8.11588878352,22.9257443891,-34.4005878893,,0.0059174106917,0.00708931461871,0.853888322974,0.52037434387
1402415860757693597,,errorv,,0,,1402415860,757463624,base_link,/z_drive,,,0.0,0.0,0.0,,0.0,0.0,0.0,1.0
1402415860757722013,,errorv,,0,,1402415860,757481648,/z_drive,port,,,-0.3,0.3048,0.0,,0.0,0.0,0.0,1.0
1402415860757745957,,errorv,,0,,1402415860,757488342,/z_drive,starboard,,,-0.3,-0.3048,0.0,,0.0,0.0,0.0,1.0
1402415860777671393,,errorv,,0,,1402415860,777484739,base_link,/z_drive,,,0.0,0.0,0.0,,0.0,0.0,0.0,1.0
1402415860777753620,,errorv,,0,,1402415860,777505185,/z_drive,port,,,-0.3,0.3048,0.0,,0.0,0.0,0.0,1.0
1402415860777778285,,errorv,,0,,1402415860,777515833,/z_drive,starboard,,,-0.3,-0.3048,0.0,,0.0,0.0,0.0,1.0
1402415860795105243,,errorv,,0,,1402415860,720520019,/enu,/base_link,,,8.111639774,22.9402430763,-34.4044006883,,0.00600343317561,0.00699662188799,0.854112045416,0.520007326821
1402415860795672688,,errorv,,0,,1402415860,730520963,/enu,/base_link,,,8.10793293875,22.9537206084,-34.4083030201,,0.00595324215796,0.00679240014371,0.854334618922,0.519644860573
1402415860795696882,,errorv,,0,,1402415860,740519046,/enu,/base_link,,,8.0953090304,22.9736874952,-34.390166694,,0.00485014095558,0.00743941787703,0.855262963675,0.518118127612
1402415860795716499,,errorv,,0,,1402415860,750519990,/enu,/base_link,,,8.09142020099,22.9873630581,-34.3936620576,,0.00470693969524,0.00718642335334,0.855490667697,0.517746962832
1402415860797711923,,errorv,,0,,1402415860,797529577,base_link,/z_drive,,,0.0,0.0,0.0,,0.0,0.0,0.0,1.0
1402415860797738171,,errorv,,0,,1402415860,797555778,/z_drive,port,,,-0.3,0.3048,0.0,,0.0,0.0,0.0,1.0
1402415860797762688,,errorv,,0,,1402415860,797566530,/z_drive,starboard,,,-0.3,-0.3048,0.0,,0.0,0.0,0.0,1.0
1402415860817699233,,errorv,,0,,1402415860,817481427,base_link,/z_drive,,,0.0,0.0,0.0,,0.0,0.0,0.0,1.0
1402415860817921266,,errorv,,0,,1402415860,817581530,/z_drive,port,,,-0.3,0.3048,0.0,,0.0,0.0,0.0,1.0
1402415860817950428,,errorv,,0,,1402415860,817613599,/z_drive,starboard,,,-0.3,-0.3048,0.0,,0.0,0.0,0.0,1.0
1402415860835204561,,errorv,,0,,1402415860,760521888,/enu,/base_link,,,8.08748039267,23.0012130322,-34.3975439383,,0.00472688490909,0.00705288309249,0.855748404841,0.517322511602
1402415860835327183,,errorv,,0,,1402415860,770520925,/enu,/base_link,,,8.08354669471,23.0149457702,-34.4010683657,,0.00478348254356,0.00697715857283,0.856025015428,0.516865176341
1402415860835358043,,errorv,,0,,1402415860,781522035,/enu,/base_link,,,8.06068569655,23.0261756926,-34.349972338,,0.00308647870571,0.00698867363342,0.857477819096,0.51446420852
1402415860835378160,,errorv,,0,,1402415860,791520118,/enu,/base_link,,,8.05644212588,23.0400850087,-34.3533722944,,0.00312381323966,0.00687480434085,0.857760136838,0.513994675563
1402415860837654810,,errorv,,0,,1402415860,837448394,base_link,/z_drive,,,0.0,0.0,0.0,,0.0,0.0,0.0,1.0
1402415860837719626,,errorv,,0,,1402415860,837470935,/z_drive,port,,,-0.3,0.3048,0.0,,0.0,0.0,0.0,1.0
1402415860837782040,,errorv,,0,,1402415860,837508357,/z_drive,starboard,,,-0.3,-0.3048,0.0,,0.0,0.0,0.0,1.0
1402415860839048195,,errorv,,0,,1402415860,938842061,/base_link,/gps,,,-0.84,0.0,-0.14,,0.0,0.0,0.0,1.0
1402415860839169260,,errorv,,0,,1402415860,938961304,base_link,imu,,,0.13,0.0,-0.1,,1.0,0.0,0.0,0.0
1402415860857648072,,errorv,,0,,1402415860,857453517,base_link,/z_drive,,,0.0,0.0,0.0,,0.0,0.0,0.0,1.0
1402415860857673432,,errorv,,0,,1402415860,857471684,/z_drive,port,,,-0.3,0.3048,0.0,,0.0,0.0,0.0,1.0
1402415860857744389,,errorv,,0,,1402415860,857481810,/z_drive,starboard,,,-0.3,-0.3048,0.0,,0.0,0.0,0.0,1.0
1402415860875168741,,errorv,,0,,1402415860,801525115,/enu,/base_link,,,8.05218087685,23.0542159099,-34.3572270969,,0.00299690694373,0.00661247916859,0.85804616053,0.513521255712
1402415860875358933,,errorv,,0,,1402415860,811520099,/enu,/base_link,,,8.04788647729,23.0685784542,-34.3614379058,,0.00295673920201,0.00635991514485,0.85836162492,0.512997202758
1402415860875423495,,errorv,,0,,1402415860,822524070,/enu,/base_link,,,8.04322596527,23.0842153788,-34.3657793935,,0.00275701747725,0.00605868148166,0.858706667727,0.512424189549
1402415860875448869,,errorv,,0,,1402415860,832524061,/enu,/base_link,,,7.97825917211,23.108171305,-34.2579454422,,-0.00310016913449,0.00720748719638,0.862967770773,0.505198047984
1402415860877647958,,errorv,,0,,1402415860,877496762,base_link,/z_drive,,,0.0,0.0,0.0,,0.0,0.0,0.0,1.0
1402415860877719669,,errorv,,0,,1402415860,877513029,/z_drive,port,,,-0.3,0.3048,0.0,,0.0,0.0,0.0,1.0
1402415860877742287,,errorv,,0,,1402415860,877559868,/z_drive,starboard,,,-0.3,-0.3048,0.0,,0.0,0.0,0.0,1.0
1402415860897679851,,errorv,,0,,1402415860,897501150,base_link,/z_drive,,,0.0,0.0,0.0,,0.0,0.0,0.0,1.0
1402415860897735807,,errorv,,0,,1402415860,897520626,/z_drive,port,,,-0.3,0.3048,0.0,,0.0,0.0,0.0,1.0
1402415860897825049,,errorv,,0,,1402415860,897562255,/z_drive,starboard,,,-0.3,-0.3048,0.0,,0.0,0.0,0.0,1.0
1402415860915307963,,errorv,,0,,1402415860,842523097,/enu,/base_link,,,7.97304401499,23.1233734492,-34.261969574,,-0.00317900455018,0.00702800611515,0.863300251013,0.504631724787
1402415860915329003,,errorv,,0,,1402415860,852519989,/enu,/base_link,,,7.96743086547,23.1383135618,-34.2656987304,,-0.00329459800116,0.00683257076136,0.863638747472,0.504054139419
1402415860915342743,,errorv,,0,,1402415860,863521099,/enu,/base_link,,,7.96156242284,23.1549224501,-34.2699224831,,-0.00320956809621,0.00674312168934,0.864043954506,0.503360977495
1402415860915409441,,errorv,,0,,1402415860,873522043,/enu,/base_link,,,7.95617472544,23.1701871212,-34.2741197745,,-0.00329688464475,0.00650971191796,0.864414191477,0.50272742095
1402415860917669226,,errorv,,0,,1402415860,917531012,base_link,/z_drive,,,0.0,0.0,0.0,,0.0,0.0,0.0,1.0
1402415860917694591,,errorv,,0,,1402415860,917548529,/z_drive,port,,,-0.3,0.3048,0.0,,0.0,0.0,0.0,1.0
1402415860917839830,,errorv,,0,,1402415860,917559390,/z_drive,starboard,,,-0.3,-0.3048,0.0,,0.0,0.0,0.0,1.0
1402415860937730952,,errorv,,0,,1402415860,937494325,base_link,/z_drive,,,0.0,0.0,0.0,,0.0,0.0,0.0,1.0
1402415860937758080,,errorv,,0,,1402415860,937525724,/z_drive,port,,,-0.3,0.3048,0.0,,0.0,0.0,0.0,1.0
1402415860937830306,,errorv,,0,,1402415860,937534152,/z_drive,starboard,,,-0.3,-0.3048,0.0,,0.0,0.0,0.0,1.0
1402415860939182976,,errorv,,0,,1402415861,38936959,/base_link,/gps,,,-0.84,0.0,-0.14,,0.0,0.0,0.0,1.0
1402415860939279132,,errorv,,0,,1402415861,39073372,base_link,imu,,,0.13,0.0,-0.1,,1.0,0.0,0.0,0.0
1402415860955189713,,errorv,,0,,1402415860,883521080,/enu,/base_link,,,7.89077383646,23.1796527406,-34.1677561632,,-0.00826060032934,0.00631372028724,0.867937659605,0.496564314523
1402415860955327952,,errorv,,0,,1402415860,893523931,/enu,/base_link,,,7.8841553448,23.1951766237,-34.1712529648,,-0.00837525170418,0.00609513940456,0.868324505016,0.49588835278
1402415860955357849,,errorv,,0,,1402415860,903525114,/enu,/base_link,,,7.87766399361,23.2108595974,-34.1750963202,,-0.00822459324906,0.00602037983364,0.868714628034,0.495208043284
1402415860955462021,,errorv,,0,,1402415860,914443016,/enu,/base_link,,,7.87038256687,23.2280198618,-34.1792076928,,-0.00825793273858,0.00585828436032,0.8691561947,0.494434016089
1402415860955485975,,errorv,,0,,1402415860,924525022,/enu,/base_link,,,7.86383914831,23.2439738076,-34.1831345144,,-0.00809845509052,0.00577508844577,0.869558289617,0.493730133106
1402415860957838041,,errorv,,0,,1402415860,957698379,base_link,/z_drive,,,0.0,0.0,0.0,,0.0,0.0,0.0,1.0
1402415860957868048,,errorv,,0,,1402415860,957718780,/z_drive,port,,,-0.3,0.3048,0.0,,0.0,0.0,0.0,1.0
1402415860957913431,,errorv,,0,,1402415860,957728569,/z_drive,starboard,,,-0.3,-0.3048,0.0,,0.0,0.0,0.0,1.0
1402415860977809857,,errorv,,0,,1402415860,977580347,base_link,/z_drive,,,0.0,0.0,0.0,,0.0,0.0,0.0,1.0
1402415860977910206,,errorv,,0,,1402415860,977602564,/z_drive,port,,,-0.3,0.3048,0.0,,0.0,0.0,0.0,1.0
1402415860977936748,,errorv,,0,,1402415860,977609815,/z_drive,starboard,,,-0.3,-0.3048,0.0,,0.0,0.0,0.0,1.0
1402415860995142496,,errorv,,0,,1402415860,934524059,/enu,/base_link,,,7.80327108288,23.2672217451,-34.0900557742,,-0.0131535494662,0.00670034959992,0.87277808781,0.487893942256
1402415860995189595,,errorv,,0,,1402415860,944432973,/enu,/base_link,,,7.79573094822,23.2834938196,-34.0932556668,,-0.0131384744982,0.00656973414308,0.873194436672,0.487150587444
1402415860995230282,,errorv,,0,,1402415860,955441951,/enu,/base_link,,,7.78732777833,23.3017815819,-34.0971054632,,-0.0129662481239,0.00657617052604,0.873682264071,0.486279684789
1402415860997827472,,errorv,,0,,1402415860,997637921,base_link,/z_drive,,,0.0,0.0,0.0,,0.0,0.0,0.0,1.0
1402415860997855686,,errorv,,0,,1402415860,997663153,/z_drive,port,,,-0.3,0.3048,0.0,,0.0,0.0,0.0,1.0
1402415860997925909,,errorv,,0,,1402415860,997675325,/z_drive,starboard,,,-0.3,-0.3048,0.0,,0.0,0.0,0.0,1.0
1402415861003291542,,errorv,,0,,1402415860,965426921,/enu,/base_link,,,7.77968622525,23.3182976337,-34.1003573085,,-0.0130134226898,0.00642285641941,0.874131008184,0.485473354858
1402415861003315753,,errorv,,0,,1402415860,975470066,/enu,/base_link,,,7.77193332525,23.3350985051,-34.103662649,,-0.0128435623506,0.00644869875953,0.874587422656,0.484654822861
1402415861017732625,,errorv,,0,,1402415861,17507853,base_link,/z_drive,,,0.0,0.0,0.0,,0.0,0.0,0.0,1.0
1402415861017764801,,errorv,,0,,1402415861,17529661,/z_drive,port,,,-0.3,0.3048,0.0,,0.0,0.0,0.0,1.0
1402415861017782900,,errorv,,0,,1402415861,17538064,/z_drive,starboard,,,-0.3,-0.3048,0.0,,0.0,0.0,0.0,1.0
1402415861037908729,,errorv,,0,,1402415861,37524556,base_link,/z_drive,,,0.0,0.0,0.0,,0.0,0.0,0.0,1.0
1402415861037936014,,errorv,,0,,1402415861,37548109,/z_drive,port,,,-0.3,0.3048,0.0,,0.0,0.0,0.0,1.0
1402415861038051414,,errorv,,0,,1402415861,37557638,/z_drive,starboard,,,-0.3,-0.3048,0.0,,0.0,0.0,0.0,1.0
1402415861039222452,,errorv,,0,,1402415861,139043356,/base_link,/gps,,,-0.84,0.0,-0.14,,0.0,0.0,0.0,1.0
1402415861039372652,,errorv,,0,,1402415861,139171900,base_link,imu,,,0.13,0.0,-0.1,,1.0,0.0,0.0,0.0
1402415861043080243,,errorv,,0,,1402415860,985424995,/enu,/base_link,,,7.76412221803,23.3516076615,-34.1068202156,,-0.0127965721947,0.0063243731429,0.875043248825,0.483834230631
1402415861043209070,,errorv,,0,,1402415860,996421098,/enu,/base_link,,,7.75579221887,23.3701558797,-34.1106141868,,-0.0126358369917,0.00630733181773,0.875547625423,0.482925365668
1402415861057645895,,errorv,,0,,1402415861,57482491,base_link,/z_drive,,,0.0,0.0,0.0,,0.0,0.0,0.0,1.0
1402415861057715456,,errorv,,0,,1402415861,57501557,/z_drive,port,,,-0.3,0.3048,0.0,,0.0,0.0,0.0,1.0
1402415861057744069,,errorv,,0,,1402415861,57511313,/z_drive,starboard,,,-0.3,-0.3048,0.0,,0.0,0.0,0.0,1.0
1402415861077698887,,errorv,,0,,1402415861,77519430,base_link,/z_drive,,,0.0,0.0,0.0,,0.0,0.0,0.0,1.0
1402415861077726947,,errorv,,0,,1402415861,77566568,/z_drive,port,,,-0.3,0.3048,0.0,,0.0,0.0,0.0,1.0
1402415861077791472,,errorv,,0,,1402415861,77579101,/z_drive,starboard,,,-0.3,-0.3048,0.0,,0.0,0.0,0.0,1.0
1402415861083382156,,errorv,,0,,1402415861,5412101,/enu,/base_link,,,7.74861121241,23.3851591645,-34.1132808587,,-0.0124794481008,0.00640643089137,0.875981221407,0.482141183431
1402415861083417750,,errorv,,0,,1402415861,16444921,/enu,/base_link,,,7.73991952477,23.4037973008,-34.1173086994,,-0.0123537286594,0.00634092731733,0.876530207268,0.48114652007
1402415861083440743,,errorv,,0,,1402415861,26417016,/enu,/base_link,,,7.73201011385,23.4204954641,-34.1205554812,,-0.0121906990178,0.00642078845317,0.877036836246,0.480225518066
1402415861083462514,,errorv,,0,,1402415861,36401033,/enu,/base_link,,,7.71263843045,23.4329163307,-34.1252972748,,-0.012580154657,0.00593816943583,0.877735612735,0.478943286819
1402415861097679037,,errorv,,0,,1402415861,97508437,base_link,/z_drive,,,0.0,0.0,0.0,,0.0,0.0,0.0,1.0
1402415861097753367,,errorv,,0,,1402415861,97525993,/z_drive,port,,,-0.3,0.3048,0.0,,0.0,0.0,0.0,1.0
1402415861097780515,,errorv,,0,,1402415861,97530495,/z_drive,starboard,,,-0.3,-0.3048,0.0,,0.0,0.0,0.0,1.0
1402415861117696646,,errorv,,0,,1402415861,117533255,base_link,/z_drive,,,0.0,0.0,0.0,,0.0,0.0,0.0,1.0
1402415861117768983,,errorv,,0,,1402415861,117550918,/z_drive,port,,,-0.3,0.3048,0.0,,0.0,0.0,0.0,1.0
1402415861117885140,,errorv,,0,,1402415861,117555515,/z_drive,starboard,,,-0.3,-0.3048,0.0,,0.0,0.0,0.0,1.0
1402415861123197414,,errorv,,0,,1402415861,46413898,/enu,/base_link,,,7.70466609318,23.4498339789,-34.128797536,,-0.0124404627962,0.00604785057634,0.87825223125,0.477997569758
1402415861123222282,,errorv,,0,,1402415861,56415081,/enu,/base_link,,,7.69644698482,23.4667603658,-34.1323454751,,-0.012301391618,0.00605358944762,0.878775342434,0.477038706342
1402415861123365562,,errorv,,0,,1402415861,67399024,/enu,/base_link,,,7.68734367011,23.4853707821,-34.1360807802,,-0.0121104601624,0.00615791763281,0.879342676716,0.475995665642
1402415861123390153,,errorv,,0,,1402415861,77487945,/enu,/base_link,,,7.67899946219,23.5022751092,-34.1392687807,,-0.0119789704568,0.00621625964235,0.879860869726,0.475039695508
1402415861137888681,,errorv,,0,,1402415861,137700601,base_link,/z_drive,,,0.0,0.0,0.0,,0.0,0.0,0.0,1.0
1402415861137925065,,errorv,,0,,1402415861,137728104,/z_drive,port,,,-0.3,0.3048,0.0,,0.0,0.0,0.0,1.0
1402415861137965125,,errorv,,0,,1402415861,137739438,/z_drive,starboard,,,-0.3,-0.3048,0.0,,0.0,0.0,0.0,1.0
1402415861139354255,,errorv,,0,,1402415861,239140728,/base_link,/gps,,,-0.84,0.0,-0.14,,0.0,0.0,0.0,1.0
1402415861139489395,,errorv,,0,,1402415861,239273914,base_link,imu,,,0.13,0.0,-0.1,,1.0,0.0,0.0,0.0
1402415861157645171,,errorv,,0,,1402415861,157476089,base_link,/z_drive,,,0.0,0.0,0.0,,0.0,0.0,0.0,1.0
1402415861157674467,,errorv,,0,,1402415861,157489738,/z_drive,port,,,-0.3,0.3048,0.0,,0.0,0.0,0.0,1.0
1402415861157697938,,errorv,,0,,1402415861,157494161,/z_drive,starboard,,,-0.3,-0.3048,0.0,,0.0,0.0,0.0,1.0
1402415861166917715,,errorv,,0,,1402415861,87382078,/enu,/base_link,,,7.64587251194,23.5308289592,-34.0797145227,,-0.0149767276493,0.00764321067966,0.881419271269,0.472035324096
1402415861166990361,,errorv,,0,,1402415861,97402095,/enu,/base_link,,,7.6371637595,23.5484276576,-34.0830119241,,-0.0148278112769,0.00781854010108,0.881954946555,0.47103553867
1402415861167017057,,errorv,,0,,1402415861,107372999,/enu,/base_link,,,7.62819405209,23.5657916537,-34.086035591,,-0.014718475938,0.00779626181527,0.882509404284,0.469999719275
1402415861167035144,,errorv,,0,,1402415861,117373943,/enu,/base_link,,,7.61947035474,23.5834242971,-34.0893287873,,-0.0146498259446,0.00794583996026,0.883059329077,0.468965315943
1402415861177669722,,errorv,,0,,1402415861,177491748,base_link,/z_drive,,,0.0,0.0,0.0,,0.0,0.0,0.0,1.0
1402415861177699810,,errorv,,0,,1402415861,177511184,/z_drive,port,,,-0.3,0.3048,0.0,,0.0,0.0,0.0,1.0
1402415861177766616,,errorv,,0,,1402415861,177523880,/z_drive,starboard,,,-0.3,-0.3048,0.0,,0.0,0.0,0.0,1.0
1402415861197653323,,errorv,,0,,1402415861,197488875,base_link,/z_drive,,,0.0,0.0,0.0,,0.0,0.0,0.0,1.0
1402415861197680343,,errorv,,0,,1402415861,197505214,/z_drive,port,,,-0.3,0.3048,0.0,,0.0,0.0,0.0,1.0
1402415861197703480,,errorv,,0,,1402415861,197509522,/z_drive,starboard,,,-0.3,-0.3048,0.0,,0.0,0.0,0.0,1.0
1402415861203004689,,errorv,,0,,1402415861,128390073,/enu,/base_link,,,7.60954045614,23.6029090942,-34.0930674858,,-0.0144405904988,0.00808459545547,0.883685869314,0.467787764951
1402415861203245754,,errorv,,0,,1402415861,138367891,/enu,/base_link,,,7.55354120348,23.586505672,-34.0350921649,,-0.0166267364219,0.00562840182697,0.884999845904,0.465260298627
1402415861203297056,,errorv,,0,,1402415861,148386001,/enu,/base_link,,,7.54383598146,23.6039616909,-34.0383749184,,-0.0164693556068,0.00584189598635,0.8855745376,0.464168472575
1402415861203327112,,errorv,,0,,1402415861,158384084,/enu,/base_link,,,7.53393954362,23.6213728244,-34.0415947517,,-0.0164062913284,0.00602435141265,0.886146493791,0.463075514724
1402415861217665263,,errorv,,0,,1402415861,217487349,base_link,/z_drive,,,0.0,0.0,0.0,,0.0,0.0,0.0,1.0
1402415861217731209,,errorv,,0,,1402415861,217507455,/z_drive,port,,,-0.3,0.3048,0.0,,0.0,0.0,0.0,1.0
1402415861217745245,,errorv,,0,,1402415861,217516958,/z_drive,starboard,,,-0.3,-0.3048,0.0,,0.0,0.0,0.0,1.0
1402415861237636036,,errorv,,0,,1402415861,237476121,base_link,/z_drive,,,0.0,0.0,0.0,,0.0,0.0,0.0,1.0
1402415861237753793,,errorv,,0,,1402415861,237492136,/z_drive,port,,,-0.3,0.3048,0.0,,0.0,0.0,0.0,1.0
1402415861237778187,,errorv,,0,,1402415861,237501785,/z_drive,starboard,,,-0.3,-0.3048,0.0,,0.0,0.0,0.0,1.0
1402415861239442394,,errorv,,0,,1402415861,339255212,/base_link,/gps,,,-0.84,0.0,-0.14,,0.0,0.0,0.0,1.0
1402415861239557919,,errorv,,0,,1402415861,339372793,base_link,imu,,,0.13,0.0,-0.1,,1.0,0.0,0.0,0.0
1402415861243083869,,errorv,,0,,1402415861,168373107,/enu,/base_link,,,7.52407544594,23.6387611257,-34.0447171909,,-0.0162278270152,0.00624275002738,0.886713642876,0.461991992614
1402415861243106447,,errorv,,0,,1402415861,179369926,/enu,/base_link,,,7.51310590593,23.6579059734,-34.048096875,,-0.0160888686366,0.00640634387508,0.88734125482,0.460788025625
1402415861243202086,,errorv,,0,,1402415861,189369916,/enu,/base_link,,,7.51687791695,23.6848876296,-33.9686539514,,-0.0165602649152,0.00840650680902,0.887966746892,0.459532528427
1402415861243225500,,errorv,,0,,1402415861,199363946,/enu,/base_link,,,7.50713600428,23.7029168686,-33.9719575006,,-0.0163890542328,0.00860996713203,0.888537032783,0.458431247561
1402415861257718145,,errorv,,0,,1402415861,257497836,base_link,/z_drive,,,0.0,0.0,0.0,,0.0,0.0,0.0,1.0
1402415861257741752,,errorv,,0,,1402415861,257515917,/z_drive,port,,,-0.3,0.3048,0.0,,0.0,0.0,0.0,1.0
1402415861257805016,,errorv,,0,,1402415861,257525845,/z_drive,starboard,,,-0.3,-0.3048,0.0,,0.0,0.0,0.0,1.0
1402415861277751561,,errorv,,0,,1402415861,277465914,base_link,/z_drive,,,0.0,0.0,0.0,,0.0,0.0,0.0,1.0
1402415861277814464,,errorv,,0,,1402415861,277488077,/z_drive,port,,,-0.3,0.3048,0.0,,0.0,0.0,0.0,1.0
1402415861277879177,,errorv,,0,,1402415861,277497839,/z_drive,starboard,,,-0.3,-0.3048,0.0,,0.0,0.0,0.0,1.0
1402415861283107504,,errorv,,0,,1402415861,209342956,/enu,/base_link,,,7.49706683391,23.7205174435,-33.9744837067,,-0.0163277123747,0.00875078646535,0.889109714256,0.457319085061
1402415861283128832,,errorv,,0,,1402415861,219366073,/enu,/base_link,,,7.48714042936,23.7386772243,-33.9779478005,,-0.0162041578732,0.00894365763905,0.88969536309,0.456179347573
1402415861283191771,,errorv,,0,,1402415861,229336977,/enu,/base_link,,,7.47693012937,23.7563655747,-33.9805262314,,-0.0160991192264,0.00912704068071,0.890282792203,0.455031938875
1402415861283255606,,errorv,,0,,1402415861,239361047,/enu,/base_link,,,7.46682268388,23.7743651033,-33.9835094809,,-0.015991938668,0.00924391869427,0.890868033774,0.45388649932
1402415861297847514,,errorv,,0,,1402415861,297502984,base_link,/z_drive,,,0.0,0.0,0.0,,0.0,0.0,0.0,1.0
1402415861297873396,,errorv,,0,,1402415861,297520126,/z_drive,port,,,-0.3,0.3048,0.0,,0.0,0.0,0.0,1.0
1402415861297946491,,errorv,,0,,1402415861,297529331,/z_drive,starboard,,,-0.3,-0.3048,0.0,,0.0,0.0,0.0,1.0
1402415861317693018,,errorv,,0,,1402415861,317467499,base_link,/z_drive,,,0.0,0.0,0.0,,0.0,0.0,0.0,1.0
1402415861317747400,,errorv,,0,,1402415861,317489541,/z_drive,port,,,-0.3,0.3048,0.0,,0.0,0.0,0.0,1.0
1402415861317880915,,errorv,,0,,1402415861,317496888,/z_drive,starboard,,,-0.3,-0.3048,0.0,,0.0,0.0,0.0,1.0
1402415861323199709,,errorv,,0,,1402415861,249347925,/enu,/base_link,,,7.4565798795,23.7924194628,-33.9866788958,,-0.0159090138988,0.00935974211912,0.891428263692,0.45278576523
1402415861323264906,,errorv,,0,,1402415861,260332107,/enu,/base_link,,,7.44540109217,23.812181215,-33.989910487,,-0.0156946302475,0.00963433846065,0.89205967727,0.451542235336
1402415861323415257,,errorv,,0,,1402415861,270329952,/enu,/base_link,,,7.43971582258,23.7279809458,-33.8822406728,,-0.0108302654646,0.00378680465196,0.89249555436,0.450910247064
1402415861323439681,,errorv,,0,,1402415861,280344009,/enu,/base_link,,,7.42959919518,23.744483097,-33.885027845,,-0.0107021669041,0.00390681415775,0.893042507156,0.449828056971
1402415861337697787,,errorv,,0,,1402415861,337458387,base_link,/z_drive,,,0.0,0.0,0.0,,0.0,0.0,0.0,1.0
1402415861337728300,,errorv,,0,,1402415861,337529068,/z_drive,port,,,-0.3,0.3048,0.0,,0.0,0.0,0.0,1.0
1402415861337753884,,errorv,,0,,1402415861,337542678,/z_drive,starboard,,,-0.3,-0.3048,0.0,,0.0,0.0,0.0,1.0
1402415861339540527,,errorv,,0,,1402415861,439346959,/base_link,/gps,,,-0.84,0.0,-0.14,,0.0,0.0,0.0,1.0
1402415861339678806,,errorv,,0,,1402415861,439469096,base_link,imu,,,0.13,0.0,-0.1,,1.0,0.0,0.0,0.0
1402415861357623056,,errorv,,0,,1402415861,357488947,base_link,/z_drive,,,0.0,0.0,0.0,,0.0,0.0,0.0,1.0
1402415861357885776,,errorv,,0,,1402415861,357512632,/z_drive,port,,,-0.3,0.3048,0.0,,0.0,0.0,0.0,1.0
1402415861357915788,,errorv,,0,,1402415861,357648365,/z_drive,starboard,,,-0.3,-0.3048,0.0,,0.0,0.0,0.0,1.0
1402415861363269470,,errorv,,0,,1402415861,290363073,/enu,/base_link,,,7.419248859,23.7611447063,-33.8881083689,,-0.0107281770768,0.00394709362851,0.893587372169,0.448743729726
1402415861363335950,,errorv,,0,,1402415861,300333023,/enu,/base_link,,,7.40925771689,23.7776105298,-33.8908324511,,-0.0105179805602,0.00409159164894,0.894124542485,0.447676148001
1402415861363354462,,errorv,,0,,1402415861,310301065,/enu,/base_link,,,7.39900856066,23.7941066238,-33.8936699191,,-0.0104778106854,0.00418065753229,0.894658074029,0.446609077561
1402415861363417693,,errorv,,0,,1402415861,321295022,/enu,/base_link,,,7.38010914493,23.787436844,-33.8688582334,,-0.00971517165304,0.00280274992899,0.895323940814,0.445300798381
1402415861377658370,,errorv,,0,,1402415861,377503328,base_link,/z_drive,,,0.0,0.0,0.0,,0.0,0.0,0.0,1.0
1402415861377791275,,errorv,,0,,1402415861,377520564,/z_drive,port,,,-0.3,0.3048,0.0,,0.0,0.0,0.0,1.0
1402415861377821035,,errorv,,0,,1402415861,377529916,/z_drive,starboard,,,-0.3,-0.3048,0.0,,0.0,0.0,0.0,1.0
1402415861397702700,,errorv,,0,,1402415861,397467555,base_link,/z_drive,,,0.0,0.0,0.0,,0.0,0.0,0.0,1.0
1402415861397726484,,errorv,,0,,1402415861,397487717,/z_drive,port,,,-0.3,0.3048,0.0,,0.0,0.0,0.0,1.0
1402415861397825505,,errorv,,0,,1402415861,397497561,/z_drive,starboard,,,-0.3,-0.3048,0.0,,0.0,0.0,0.0,1.0
