rosbagTimestamp,control_method,x_current,x_desired,y_current,y_desired,z_current,z_desired,x_velocity_current,x_velocity_desired,y_velocity_current,y_velocity_desired,z_velocity_current,z_velocity_desired,yaw_current,yaw_desired,yaw_velocity_current,yaw_velocity_desired,roll_current,roll_desired,roll_velocity_current,roll_velocity_desired,pitch_current,pitch_desired,pitch_velocity_current,pitch_velocity_desired,required_force_x,required_force_y,required_moment_z,resultant_force_x,resultant_force_y,resultant_moment_z,current_port_servo_angle,current_port_thruster_force,current_starboard_servo_angle,current_starboard_thruster_force,estimated_port_servo_angle,estimated_port_thruster_force,estimated_starboard_servo_angle,estimated_starboard_thruster_force,cost_value,step,user_defined_1,user_defined_2,user_defined_3,user_defined_4,user_defined_5
1402753064368689276,3,-9.58804288963,-0.00591572024346,6.10018354119,-0.122189614607,5.96059203841,0.10862951003,-0.00132166328931,0.0,-0.0316245719977,0.0,0.124928839446,0.0,-1.74692009539,0.0,-0.00187829135293,0.0,0.00135762750134,0.0,-0.000477869607654,0.0,0.0691724766449,0.0,-0.00241627633247,0.0,0.0,0.0,0.0,100.0,-0.0,30.48,0.00230154196664,0.0,-0.00383606751517,0.0,-0.0,0.0,-0.0,100.0,1014515.2,0.0,0.0,0.0,0.0,0.0,0.0
1402753064387096688,3,-9.5840487621,-0.00591572024346,6.10485101721,-0.122189614607,5.94444196925,0.10862951003,0.0127671064524,0.0,-0.0373683496196,0.0,0.124821168466,0.0,-1.74744055778,0.0,-0.0104496473404,0.0,-0.000246695621531,0.0,0.00593167442593,0.0,0.0696921940902,0.0,-0.00418774673002,0.0,0.0,0.0,0.0,100.0,-0.0,30.48,0.00230154196664,0.0,-0.00383606751517,0.0,-0.0,0.0,-0.0,100.0,1014515.2,0.0,0.0,0.0,0.0,0.0,0.0
1402753064408177964,3,-9.5840487621,-0.00591572024346,6.10485101721,-0.122189614607,5.94444196925,0.10862951003,0.0127671064524,0.0,-0.0373683496196,0.0,0.124821168466,0.0,-1.74744055778,0.0,-0.0104496473404,0.0,-0.000246695621531,0.0,0.00593167442593,0.0,0.0696921940902,0.0,-0.00418774673002,0.0,0.0,0.0,0.0,100.0,-0.0,30.48,0.00230154196664,0.0,-0.00383606751517,0.0,-0.0,0.0,-0.0,100.0,1014515.2,0.0,0.0,0.0,0.0,0.0,0.0
1402753064427052707,3,-9.58983261565,-0.00591572024346,6.10859929179,-0.122189614607,5.93235828449,0.10862951003,0.0014128787226,0.0,-0.0387780115464,0.0,0.12443178226,0.0,-1.74745231231,0.0,-0.00196698626527,0.0,0.000756010299922,0.0,0.000776483939675,0.0,0.0702667229293,0.0,-0.00229415703221,0.0,0.0,0.0,0.0,100.0,-0.0,30.48,0.00230154196664,0.0,-0.00383606751517,0.0,-0.0,0.0,-0.0,100.0,1014515.2,0.0,0.0,0.0,0.0,0.0,0.0
1402753064447208329,3,-9.58983261565,-0.00591572024346,6.10859929179,-0.122189614607,5.93235828449,0.10862951003,0.0014128787226,0.0,-0.0387780115464,0.0,0.12443178226,0.0,-1.74745231231,0.0,-0.00196698626527,0.0,0.000756010299922,0.0,0.000776483939675,0.0,0.0702667229293,0.0,-0.00229415703221,0.0,0.0,0.0,0.0,100.0,-0.0,30.48,0.00230154196664,0.0,-0.00383606751517,0.0,-0.0,0.0,-0.0,100.0,1014515.2,0.0,0.0,0.0,0.0,0.0,0.0
1402753064467103542,3,-9.58973678889,-0.00591572024346,6.10688703774,-0.122189614607,5.93770559841,0.10862951003,0.00106479266364,0.0,-0.0398451710464,0.0,0.126771502963,0.0,-1.74774470141,0.0,-0.00309142278964,0.0,0.000715445165161,0.0,0.00638796442491,0.0,0.070504720769,0.0,-0.00040485742878,0.0,0.0,0.0,0.0,100.0,-0.0,30.48,0.00230154196664,0.0,-0.00383606751517,0.0,-0.0,0.0,-0.0,100.0,1014515.2,0.0,0.0,0.0,0.0,0.0,0.0
1402753064487132011,3,-9.58973678889,-0.00591572024346,6.10688703774,-0.122189614607,5.93770559841,0.10862951003,0.00106479266364,0.0,-0.0398451710464,0.0,0.126771502963,0.0,-1.74774470141,0.0,-0.00309142278964,0.0,0.000715445165161,0.0,0.00638796442491,0.0,0.070504720769,0.0,-0.00040485742878,0.0,0.0,0.0,0.0,100.0,-0.0,30.48,0.00230154196664,0.0,-0.00383606751517,0.0,-0.0,0.0,-0.0,100.0,1014515.2,0.0,0.0,0.0,0.0,0.0,0.0
1402753064507708482,3,-9.58760349783,-0.00591572024346,6.10332292291,-0.122189614607,5.9474565674,0.10862951003,0.00423365027885,0.0,-0.0441920075242,0.0,0.13099255951,0.0,-1.7479835753,0.0,0.00311839172311,0.0,0.00024287457847,0.0,0.00148538760587,0.0,0.0709924692568,0.0,0.00857375722352,0.0,0.0,0.0,0.0,100.0,-0.0,30.48,0.00230154196664,0.0,-0.00383606751517,0.0,-0.0,0.0,-0.0,100.0,1014515.2,0.0,0.0,0.0,0.0,0.0,0.0
1402753064527078611,3,-9.58760349783,-0.00591572024346,6.10332292291,-0.122189614607,5.9474565674,0.10862951003,0.00423365027885,0.0,-0.0441920075242,0.0,0.13099255951,0.0,-1.7479835753,0.0,0.00311839172311,0.0,0.00024287457847,0.0,0.00148538760587,0.0,0.0709924692568,0.0,0.00857375722352,0.0,0.0,0.0,0.0,100.0,-0.0,30.48,0.00230154196664,0.0,-0.00383606751517,0.0,-0.0,0.0,-0.0,100.0,1014515.2,0.0,0.0,0.0,0.0,0.0,0.0
1402753064547140409,3,-9.58735790459,-0.00591572024346,6.101415945,-0.122189614607,5.9528715766,0.10862951003,0.00436835444649,0.0,-0.0463379596134,0.0,0.132735475209,0.0,-1.74829688064,0.0,-0.00336346036019,0.0,7.37122111447e-05,0.0,0.00601050459423,0.0,0.0712047223229,0.0,0.00688122580251,0.0,0.0,0.0,0.0,100.0,-0.0,30.48,0.00230154196664,0.0,-0.00383606751517,0.0,-0.0,0.0,-0.0,100.0,1014515.2,0.0,0.0,0.0,0.0,0.0,0.0
1402753064568237192,3,-9.58735790459,-0.00591572024346,6.101415945,-0.122189614607,5.9528715766,0.10862951003,0.00436835444649,0.0,-0.0463379596134,0.0,0.132735475209,0.0,-1.74829688064,0.0,-0.00336346036019,0.0,7.37122111447e-05,0.0,0.00601050459423,0.0,0.0712047223229,0.0,0.00688122580251,0.0,0.0,0.0,0.0,100.0,-0.0,30.48,0.00230154196664,0.0,-0.00383606751517,0.0,-0.0,0.0,-0.0,100.0,1014515.2,0.0,0.0,0.0,0.0,0.0,0.0
1402753064586916407,3,-9.58882302559,-0.00591572024346,6.10805320318,-0.122189614607,5.93699639392,0.10862951003,0.00845473745498,0.0,-0.0450183373704,0.0,0.130987926413,0.0,-1.74875038789,0.0,-0.00865511337209,0.0,-0.000541268362093,0.0,0.00530862626902,0.0,0.0709882410704,0.0,0.00423692896628,0.0,0.0,0.0,0.0,100.0,-0.0,30.48,0.00230154196664,0.0,-0.00383606751517,0.0,-0.0,0.0,-0.0,100.0,1014515.2,0.0,0.0,0.0,0.0,0.0,0.0
1402753064607214058,3,-9.58882302559,-0.00591572024346,6.10805320318,-0.122189614607,5.93699639392,0.10862951003,0.00845473745498,0.0,-0.0450183373704,0.0,0.130987926413,0.0,-1.74875038789,0.0,-0.00865511337209,0.0,-0.000541268362093,0.0,0.00530862626902,0.0,0.0709882410704,0.0,0.00423692896628,0.0,0.0,0.0,0.0,100.0,-0.0,30.48,0.00230154196664,0.0,-0.00383606751517,0.0,-0.0,0.0,-0.0,100.0,1014515.2,0.0,0.0,0.0,0.0,0.0,0.0
1402753064627155787,3,-9.59248404099,-0.00591572024346,6.11731679246,-0.122189614607,5.92304246184,0.10862951003,0.00406030794813,0.0,-0.0400151899426,0.0,0.132793085052,0.0,-1.7491148686,0.0,-0.00761688635313,0.0,-7.20193156639e-05,0.0,0.00981665877295,0.0,0.0703679828629,0.0,0.00244229950241,0.0,0.0,0.0,0.0,100.0,-0.0,30.48,0.00230154196664,0.0,-0.00383606751517,0.0,-0.0,0.0,-0.0,100.0,1014515.2,0.0,0.0,0.0,0.0,0.0,0.0
1402753064647979463,3,-9.59248404099,-0.00591572024346,6.11731679246,-0.122189614607,5.92304246184,0.10862951003,0.00406030794813,0.0,-0.0400151899426,0.0,0.132793085052,0.0,-1.7491148686,0.0,-0.00761688635313,0.0,-7.20193156639e-05,0.0,0.00981665877295,0.0,0.0703679828629,0.0,0.00244229950241,0.0,0.0,0.0,0.0,100.0,-0.0,30.48,0.00230154196664,0.0,-0.00383606751517,0.0,-0.0,0.0,-0.0,100.0,1014515.2,0.0,0.0,0.0,0.0,0.0,0.0
1402753064667092735,3,-9.59511045601,-0.00591572024346,6.12701154285,-0.122189614607,5.89800073975,0.10862951003,0.00575865680164,0.0,-0.0393821762389,0.0,0.128255333415,0.0,-1.74959146296,0.0,-0.00625907329001,0.0,-0.000442249242001,0.0,0.00207919136138,0.0,0.0702958953534,0.0,0.00745152869775,0.0,0.0,0.0,0.0,100.0,-0.0,30.48,0.00230154196664,0.0,-0.00383606751517,0.0,-0.0,0.0,-0.0,100.0,1014515.2,0.0,0.0,0.0,0.0,0.0,0.0
1402753064687645658,3,-9.59511045601,-0.00591572024346,6.12701154285,-0.122189614607,5.89800073975,0.10862951003,0.00575865680164,0.0,-0.0393821762389,0.0,0.128255333415,0.0,-1.74959146296,0.0,-0.00625907329001,0.0,-0.000442249242001,0.0,0.00207919136138,0.0,0.0702958953534,0.0,0.00745152869775,0.0,0.0,0.0,0.0,100.0,-0.0,30.48,0.00230154196664,0.0,-0.00383606751517,0.0,-0.0,0.0,-0.0,100.0,1014515.2,0.0,0.0,0.0,0.0,0.0,0.0
1402753064707340200,3,-9.59494553419,-0.00591572024346,6.12620379599,-0.122189614607,5.90058871871,0.10862951003,0.00546442859733,0.0,-0.0402378190059,0.0,0.128434507325,0.0,-1.74978988492,0.0,-0.00778517834401,0.0,-0.00053262633071,0.0,-0.000783041971897,0.0,0.0703148122453,0.0,0.000314792454618,0.0,0.0,0.0,0.0,100.0,-0.0,30.48,0.00230154196664,0.0,-0.00383606751517,0.0,-0.0,0.0,-0.0,100.0,1014515.2,0.0,0.0,0.0,0.0,0.0,0.0
1402753064727069233,3,-9.59494553419,-0.00591572024346,6.12620379599,-0.122189614607,5.90058871871,0.10862951003,0.00546442859733,0.0,-0.0402378190059,0.0,0.128434507325,0.0,-1.74978988492,0.0,-0.00778517834401,0.0,-0.00053262633071,0.0,-0.000783041971897,0.0,0.0703148122453,0.0,0.000314792454618,0.0,0.0,0.0,0.0,100.0,-0.0,30.48,0.00230154196664,0.0,-0.00383606751517,0.0,-0.0,0.0,-0.0,100.0,1014515.2,0.0,0.0,0.0,0.0,0.0,0.0
1402753064748535052,3,-9.5934267791,-0.00591572024346,6.12814298741,-0.122189614607,5.90256104188,0.10862951003,0.00492730574343,0.0,-0.0402180429789,0.0,0.130877667746,0.0,-1.7501774834,0.0,-0.00994233932263,0.0,-0.000334809003225,0.0,-0.00601155643236,0.0,0.0701233606281,0.0,0.00366601927922,0.0,0.0,0.0,0.0,100.0,-0.0,30.48,0.00230154196664,0.0,-0.00383606751517,0.0,-0.0,0.0,-0.0,100.0,1014515.2,0.0,0.0,0.0,0.0,0.0,0.0
1402753064767117408,3,-9.5934267791,-0.00591572024346,6.12814298741,-0.122189614607,5.90256104188,0.10862951003,0.00492730574343,0.0,-0.0402180429789,0.0,0.130877667746,0.0,-1.7501774834,0.0,-0.00994233932263,0.0,-0.000334809003225,0.0,-0.00601155643236,0.0,0.0701233606281,0.0,0.00366601927922,0.0,0.0,0.0,0.0,100.0,-0.0,30.48,0.00230154196664,0.0,-0.00383606751517,0.0,-0.0,0.0,-0.0,100.0,1014515.2,0.0,0.0,0.0,0.0,0.0,0.0
1402753064787007126,3,-9.5919573698,-0.00591572024346,6.13072776352,-0.122189614607,5.88371125633,0.10862951003,0.0106891481225,0.0,-0.0544348713414,0.0,0.128890276778,0.0,-1.75027739913,0.0,-0.00620331953566,0.0,-0.00144520202804,0.0,-0.00589300565549,0.0,0.071539158861,0.0,1.19752128606e-05,0.0,0.0,0.0,0.0,100.0,-0.0,30.48,0.00230154196664,0.0,-0.00383606751517,0.0,-0.0,0.0,-0.0,100.0,1014515.2,0.0,0.0,0.0,0.0,0.0,0.0
1402753064807082036,3,-9.5919573698,-0.00591572024346,6.13072776352,-0.122189614607,5.88371125633,0.10862951003,0.0106891481225,0.0,-0.0544348713414,0.0,0.128890276778,0.0,-1.75027739913,0.0,-0.00620331953566,0.0,-0.00144520202804,0.0,-0.00589300565549,0.0,0.071539158861,0.0,1.19752128606e-05,0.0,0.0,0.0,0.0,100.0,-0.0,30.48,0.00230154196664,0.0,-0.00383606751517,0.0,-0.0,0.0,-0.0,100.0,1014515.2,0.0,0.0,0.0,0.0,0.0,0.0
1402753064827112634,3,-9.59536829182,-0.00591572024346,6.13957648047,-0.122189614607,5.87318006742,0.10862951003,0.00334272010489,0.0,-0.0430929469905,0.0,0.12840266356,0.0,-1.75048659246,0.0,-0.00363712280522,0.0,-0.000518253138998,0.0,-0.00787616230499,0.0,0.0699572667904,0.0,0.00389360608003,0.0,0.0,0.0,0.0,100.0,-0.0,30.48,0.00230154196664,0.0,-0.00383606751517,0.0,-0.0,0.0,-0.0,100.0,1014515.2,0.0,0.0,0.0,0.0,0.0,0.0
1402753064847175113,3,-9.59536829182,-0.00591572024346,6.13957648047,-0.122189614607,5.87318006742,0.10862951003,0.00334272010489,0.0,-0.0430929469905,0.0,0.12840266356,0.0,-1.75048659246,0.0,-0.00363712280522,0.0,-0.000518253138998,0.0,-0.00787616230499,0.0,0.0699572667904,0.0,0.00389360608003,0.0,0.0,0.0,0.0,100.0,-0.0,30.48,0.00230154196664,0.0,-0.00383606751517,0.0,-0.0,0.0,-0.0,100.0,1014515.2,0.0,0.0,0.0,0.0,0.0,0.0
1402753064867487055,3,-9.59517115046,-0.00591572024346,6.1378594723,-0.122189614607,5.87827537218,0.10862951003,0.00358661318241,0.0,-0.0441276130058,0.0,0.130024906123,0.0,-1.75079132929,0.0,-0.00585549908262,0.0,-0.000669076108629,0.0,-0.00116339066249,0.0,0.0697896742929,0.0,-0.000544358030956,0.0,0.0,0.0,0.0,100.0,-0.0,30.48,0.00230154196664,0.0,-0.00383606751517,0.0,-0.0,0.0,-0.0,100.0,1014515.2,0.0,0.0,0.0,0.0,0.0,0.0
1402753064886952263,3,-9.59517115046,-0.00591572024346,6.1378594723,-0.122189614607,5.87827537218,0.10862951003,0.00358661318241,0.0,-0.0441276130058,0.0,0.130024906123,0.0,-1.75079132929,0.0,-0.00585549908262,0.0,-0.000669076108629,0.0,-0.00116339066249,0.0,0.0697896742929,0.0,-0.000544358030956,0.0,0.0,0.0,0.0,100.0,-0.0,30.48,0.00230154196664,0.0,-0.00383606751517,0.0,-0.0,0.0,-0.0,100.0,1014515.2,0.0,0.0,0.0,0.0,0.0,0.0
1402753064907546118,3,-9.59126070782,-0.00591572024346,6.13735982232,-0.122189614607,5.8691283927,0.10862951003,0.013979007725,0.0,-0.0578957140546,0.0,0.130188986814,0.0,-1.75103094307,0.0,-0.00979178080006,0.0,-0.00204178670566,0.0,0.000618757527005,0.0,0.071075423493,0.0,0.00932886209008,0.0,0.0,0.0,0.0,100.0,-0.0,30.48,0.00230154196664,0.0,-0.00383606751517,0.0,-0.0,0.0,-0.0,100.0,1014515.2,0.0,0.0,0.0,0.0,0.0,0.0
1402753064927393473,3,-9.59126070782,-0.00591572024346,6.13735982232,-0.122189614607,5.8691283927,0.10862951003,0.013979007725,0.0,-0.0578957140546,0.0,0.130188986814,0.0,-1.75103094307,0.0,-0.00979178080006,0.0,-0.00204178670566,0.0,0.000618757527005,0.0,0.071075423493,0.0,0.00932886209008,0.0,0.0,0.0,0.0,100.0,-0.0,30.48,0.00230154196664,0.0,-0.00383606751517,0.0,-0.0,0.0,-0.0,100.0,1014515.2,0.0,0.0,0.0,0.0,0.0,0.0
1402753064947065856,3,-9.59675986077,-0.00591572024346,6.14527019946,-0.122189614607,5.85664493874,0.10862951003,0.00239924088321,0.0,-0.0494252984697,0.0,0.129000199509,0.0,-1.75147733859,0.0,-0.0181766988719,0.0,-0.000792765093864,0.0,-0.00299437498138,0.0,0.0702628696953,0.0,-0.0006756760779,0.0,0.0,0.0,0.0,100.0,-0.0,30.48,0.00230154196664,0.0,-0.00383606751517,0.0,-0.0,0.0,-0.0,100.0,1014515.2,0.0,0.0,0.0,0.0,0.0,0.0
1402753064967055373,3,-9.59675986077,-0.00591572024346,6.14527019946,-0.122189614607,5.85664493874,0.10862951003,0.00239924088321,0.0,-0.0494252984697,0.0,0.129000199509,0.0,-1.75147733859,0.0,-0.0181766988719,0.0,-0.000792765093864,0.0,-0.00299437498138,0.0,0.0702628696953,0.0,-0.0006756760779,0.0,0.0,0.0,0.0,100.0,-0.0,30.48,0.00230154196664,0.0,-0.00383606751517,0.0,-0.0,0.0,-0.0,100.0,1014515.2,0.0,0.0,0.0,0.0,0.0,0.0
1402753064988090859,3,-9.59675986077,-0.00591572024346,6.14527019946,-0.122189614607,5.85664493874,0.10862951003,0.00239924088321,0.0,-0.0494252984697,0.0,0.129000199509,0.0,-1.75147733859,0.0,-0.0181766988719,0.0,-0.000792765093864,0.0,-0.00299437498138,0.0,0.0702628696953,0.0,-0.0006756760779,0.0,0.0,0.0,0.0,100.0,-0.0,30.48,0.00230154196664,0.0,-0.00383606751517,0.0,-0.0,0.0,-0.0,100.0,1014515.2,0.0,0.0,0.0,0.0,0.0,0.0
1402753065007393515,3,-9.59173979016,-0.00591572024346,6.1481128079,-0.122189614607,5.85268891651,0.10862951003,0.00844410500581,0.0,-0.0487092195442,0.0,0.130928372263,0.0,-1.75199389962,0.0,-0.00850660217396,0.0,-0.00164573647414,0.0,-0.00013507700244,0.0,0.0700221399296,0.0,-0.002229151846,0.0,0.0,0.0,0.0,100.0,-0.0,30.48,0.00230154196664,0.0,-0.00383606751517,0.0,-0.0,0.0,-0.0,100.0,1014515.2,0.0,0.0,0.0,0.0,0.0,0.0
1402753065027962516,3,-9.59709337253,-0.00591572024346,6.15293213343,-0.122189614607,5.83494214834,0.10862951003,-0.00021453870293,0.0,-0.0537674347767,0.0,0.129232011589,0.0,-1.75245254619,0.0,-0.0103393393872,0.0,-0.000930230649606,0.0,0.00256199194274,0.0,0.0708419901269,0.0,0.00754591540419,0.0,0.0,0.0,0.0,100.0,-0.0,30.48,0.00230154196664,0.0,-0.00383606751517,0.0,-0.0,0.0,-0.0,100.0,1014515.2,0.0,0.0,0.0,0.0,0.0,0.0
1402753065047156005,3,-9.59709337253,-0.00591572024346,6.15293213343,-0.122189614607,5.83494214834,0.10862951003,-0.00021453870293,0.0,-0.0537674347767,0.0,0.129232011589,0.0,-1.75245254619,0.0,-0.0103393393872,0.0,-0.000930230649606,0.0,0.00256199194274,0.0,0.0708419901269,0.0,0.00754591540419,0.0,0.0,0.0,0.0,100.0,-0.0,30.48,0.00230154196664,0.0,-0.00383606751517,0.0,-0.0,0.0,-0.0,100.0,1014515.2,0.0,0.0,0.0,0.0,0.0,0.0
1402753065067337935,3,-9.59719738667,-0.00591572024346,6.15079928707,-0.122189614607,5.84005344703,0.10862951003,-0.00108080468994,0.0,-0.0540910505585,0.0,0.130907820341,0.0,-1.75293429922,0.0,-0.0108949411975,0.0,-0.000933725473353,0.0,0.00265117731007,0.0,0.0708408945271,0.0,-0.00357719953053,0.0,0.0,0.0,0.0,100.0,-0.0,30.48,0.00230154196664,0.0,-0.00383606751517,0.0,-0.0,0.0,-0.0,100.0,1014515.2,0.0,0.0,0.0,0.0,0.0,0.0
1402753065087103651,3,-9.59719738667,-0.00591572024346,6.15079928707,-0.122189614607,5.84005344703,0.10862951003,-0.00108080468994,0.0,-0.0540910505585,0.0,0.130907820341,0.0,-1.75293429922,0.0,-0.0108949411975,0.0,-0.000933725473353,0.0,0.00265117731007,0.0,0.0708408945271,0.0,-0.00357719953053,0.0,0.0,0.0,0.0,100.0,-0.0,30.48,0.00230154196664,0.0,-0.00383606751517,0.0,-0.0,0.0,-0.0,100.0,1014515.2,0.0,0.0,0.0,0.0,0.0,0.0
1402753065107330213,3,-9.58725121927,-0.00591572024346,6.15534360221,-0.122189614607,5.83780357171,0.10862951003,0.0192241421754,0.0,-0.0479956960479,0.0,0.132128033743,0.0,-1.75371329976,0.0,-0.0148307148831,0.0,-0.00278044458951,0.0,-0.00025383354116,0.0,0.0698699758461,0.0,0.00398412670551,0.0,0.0,0.0,0.0,100.0,-0.0,30.48,0.00230154196664,0.0,-0.00383606751517,0.0,-0.0,0.0,-0.0,100.0,1014515.2,0.0,0.0,0.0,0.0,0.0,0.0
1402753065127648736,3,-9.58725121927,-0.00591572024346,6.15534360221,-0.122189614607,5.83780357171,0.10862951003,0.0192241421754,0.0,-0.0479956960479,0.0,0.132128033743,0.0,-1.75371329976,0.0,-0.0148307148831,0.0,-0.00278044458951,0.0,-0.00025383354116,0.0,0.0698699758461,0.0,0.00398412670551,0.0,0.0,0.0,0.0,100.0,-0.0,30.48,0.00230154196664,0.0,-0.00383606751517,0.0,-0.0,0.0,-0.0,100.0,1014515.2,0.0,0.0,0.0,0.0,0.0,0.0
1402753065147024218,3,-9.58743503516,-0.00591572024346,6.15930602841,-0.122189614607,5.82485829839,0.10862951003,0.0196754644354,0.0,-0.0504466369378,0.0,0.131303336401,0.0,-1.75428545841,0.0,-0.0143412774786,0.0,-0.00282937376139,0.0,-0.00256637856224,0.0,0.0701492615097,0.0,0.00179316481118,0.0,0.0,0.0,0.0,100.0,-0.0,30.48,0.00230154196664,0.0,-0.00383606751517,0.0,-0.0,0.0,-0.0,100.0,1014515.2,0.0,0.0,0.0,0.0,0.0,0.0
1402753065167232273,3,-9.58743503516,-0.00591572024346,6.15930602841,-0.122189614607,5.82485829839,0.10862951003,0.0196754644354,0.0,-0.0504466369378,0.0,0.131303336401,0.0,-1.75428545841,0.0,-0.0143412774786,0.0,-0.00282937376139,0.0,-0.00256637856224,0.0,0.0701492615097,0.0,0.00179316481118,0.0,0.0,0.0,0.0,100.0,-0.0,30.48,0.00230154196664,0.0,-0.00383606751517,0.0,-0.0,0.0,-0.0,100.0,1014515.2,0.0,0.0,0.0,0.0,0.0,0.0
1402753065187189205,3,-9.58960847904,-0.00591572024346,6.16504456201,-0.122189614607,5.82041092681,0.10862951003,0.0112801021031,0.0,-0.0413129085518,0.0,0.13311376937,0.0,-1.75465735015,0.0,-0.00597911597928,0.0,-0.00173268435824,0.0,0.00293652363036,0.0,0.0692421072018,0.0,0.00343264813014,0.0,0.0,0.0,0.0,100.0,-0.0,30.48,0.00230154196664,0.0,-0.00383606751517,0.0,-0.0,0.0,-0.0,100.0,1014515.2,0.0,0.0,0.0,0.0,0.0,0.0
1402753065207257541,3,-9.58960847904,-0.00591572024346,6.16504456201,-0.122189614607,5.82041092681,0.10862951003,0.0112801021031,0.0,-0.0413129085518,0.0,0.13311376937,0.0,-1.75465735015,0.0,-0.00597911597928,0.0,-0.00173268435824,0.0,0.00293652363036,0.0,0.0692421072018,0.0,0.00343264813014,0.0,0.0,0.0,0.0,100.0,-0.0,30.48,0.00230154196664,0.0,-0.00383606751517,0.0,-0.0,0.0,-0.0,100.0,1014515.2,0.0,0.0,0.0,0.0,0.0,0.0
1402753065227086006,3,-9.58674630261,-0.00591572024346,6.16711537954,-0.122189614607,5.81985696506,0.10862951003,0.0135090416596,0.0,-0.0389219668045,0.0,0.134726160512,0.0,-1.7551249678,0.0,-0.00927673474708,0.0,-0.00181228944289,0.0,0.00051447635885,0.0,0.0690444610568,0.0,-0.00230538961889,0.0,0.0,0.0,0.0,100.0,-0.0,30.48,0.00230154196664,0.0,-0.00383606751517,0.0,-0.0,0.0,-0.0,100.0,1014515.2,0.0,0.0,0.0,0.0,0.0,0.0
1402753065247113285,3,-9.58674630261,-0.00591572024346,6.16711537954,-0.122189614607,5.81985696506,0.10862951003,0.0135090416596,0.0,-0.0389219668045,0.0,0.134726160512,0.0,-1.7551249678,0.0,-0.00927673474708,0.0,-0.00181228944289,0.0,0.00051447635885,0.0,0.0690444610568,0.0,-0.00230538961889,0.0,0.0,0.0,0.0,100.0,-0.0,30.48,0.00230154196664,0.0,-0.00383606751517,0.0,-0.0,0.0,-0.0,100.0,1014515.2,0.0,0.0,0.0,0.0,0.0,0.0
1402753065267052965,3,-9.58609217841,-0.00591572024346,6.16564287766,-0.122189614607,5.82517292005,0.10862951003,0.0152088351071,0.0,-0.0369630645598,0.0,0.13526513025,0.0,-1.75552635314,0.0,-0.00919949171433,0.0,-0.00200191418015,0.0,-0.000474815111305,0.0,0.069033183374,0.0,0.0038428178139,0.0,0.0,0.0,0.0,100.0,-0.0,30.48,0.00230154196664,0.0,-0.00383606751517,0.0,-0.0,0.0,-0.0,100.0,1014515.2,0.0,0.0,0.0,0.0,0.0,0.0
1402753065287089577,3,-9.58609217841,-0.00591572024346,6.16564287766,-0.122189614607,5.82517292005,0.10862951003,0.0152088351071,0.0,-0.0369630645598,0.0,0.13526513025,0.0,-1.75552635314,0.0,-0.00919949171433,0.0,-0.00200191418015,0.0,-0.000474815111305,0.0,0.069033183374,0.0,0.0038428178139,0.0,0.0,0.0,0.0,100.0,-0.0,30.48,0.00230154196664,0.0,-0.00383606751517,0.0,-0.0,0.0,-0.0,100.0,1014515.2,0.0,0.0,0.0,0.0,0.0,0.0
1402753065307175530,3,-9.58521215322,-0.00591572024346,6.16682284801,-0.122189614607,5.805729518,0.10862951003,0.0187195127682,0.0,-0.0522008181598,0.0,0.133145289086,0.0,-1.75598039301,0.0,-0.00347233600643,0.0,-0.00287114773994,0.0,0.00635218571362,0.0,0.0712348473892,0.0,0.00543734873813,0.0,0.0,0.0,0.0,100.0,-0.0,30.48,0.00230154196664,0.0,-0.00383606751517,0.0,-0.0,0.0,-0.0,100.0,1014515.2,0.0,0.0,0.0,0.0,0.0,0.0
1402753065328875777,3,-9.58521215322,-0.00591572024346,6.16682284801,-0.122189614607,5.805729518,0.10862951003,0.0187195127682,0.0,-0.0522008181598,0.0,0.133145289086,0.0,-1.75598039301,0.0,-0.00347233600643,0.0,-0.00287114773994,0.0,0.00635218571362,0.0,0.0712348473892,0.0,0.00543734873813,0.0,0.0,0.0,0.0,100.0,-0.0,30.48,0.00230154196664,0.0,-0.00383606751517,0.0,-0.0,0.0,-0.0,100.0,1014515.2,0.0,0.0,0.0,0.0,0.0,0.0
1402753065347041796,3,-9.58669894577,-0.00591572024346,6.1752114037,-0.122189614607,5.79489019193,0.10862951003,0.0128575304882,0.0,-0.0407389401841,0.0,0.132730386978,0.0,-1.7560646751,0.0,0.000928205962054,0.0,-0.00217127599919,0.0,0.00211251458193,0.0,0.0704396971235,0.0,0.00253233609551,0.0,0.0,0.0,0.0,100.0,-0.0,30.48,0.00230154196664,0.0,-0.00383606751517,0.0,-0.0,0.0,-0.0,100.0,1014515.2,0.0,0.0,0.0,0.0,0.0,0.0
1402753065366896854,3,-9.58669894577,-0.00591572024346,6.1752114037,-0.122189614607,5.79489019193,0.10862951003,0.0128575304882,0.0,-0.0407389401841,0.0,0.132730386978,0.0,-1.7560646751,0.0,0.000928205962054,0.0,-0.00217127599919,0.0,0.00211251458193,0.0,0.0704396971235,0.0,0.00253233609551,0.0,0.0,0.0,0.0,100.0,-0.0,30.48,0.00230154196664,0.0,-0.00383606751517,0.0,-0.0,0.0,-0.0,100.0,1014515.2,0.0,0.0,0.0,0.0,0.0,0.0
1402753065386877733,3,-9.58745871668,-0.00591572024346,6.18238664386,-0.122189614607,5.78344051685,0.10862951003,0.00976019820709,0.0,-0.034458723099,0.0,0.132279074484,0.0,-1.7561094893,0.0,-0.000429109340434,0.0,-0.00180571946522,0.0,0.00145444785661,0.0,0.0700433973641,0.0,-0.0009649055854,0.0,0.0,0.0,0.0,100.0,-0.0,30.48,0.00230154196664,0.0,-0.00383606751517,0.0,-0.0,0.0,-0.0,100.0,1014515.2,0.0,0.0,0.0,0.0,0.0,0.0
1402753065407245433,3,-9.58745871668,-0.00591572024346,6.18238664386,-0.122189614607,5.78344051685,0.10862951003,0.00976019820709,0.0,-0.034458723099,0.0,0.132279074484,0.0,-1.7561094893,0.0,-0.000429109340434,0.0,-0.00180571946522,0.0,0.00145444785661,0.0,0.0700433973641,0.0,-0.0009649055854,0.0,0.0,0.0,0.0,100.0,-0.0,30.48,0.00230154196664,0.0,-0.00383606751517,0.0,-0.0,0.0,-0.0,100.0,1014515.2,0.0,0.0,0.0,0.0,0.0,0.0
1402753065426895131,3,-9.58539893614,-0.00591572024346,6.18417744678,-0.122189614607,5.77194765175,0.10862951003,0.015419023471,0.0,-0.0435019373952,0.0,0.131419152624,0.0,-1.75628735412,0.0,0.00043082178877,0.0,-0.00246686425532,0.0,0.00263903442709,0.0,0.0712824384548,0.0,-0.00305153260148,0.0,0.0,0.0,0.0,100.0,-0.0,30.48,0.00230154196664,0.0,-0.00383606751517,0.0,-0.0,0.0,-0.0,100.0,1014515.2,0.0,0.0,0.0,0.0,0.0,0.0
1402753065447663504,3,-9.58539893614,-0.00591572024346,6.18417744678,-0.122189614607,5.77194765175,0.10862951003,0.015419023471,0.0,-0.0435019373952,0.0,0.131419152624,0.0,-1.75628735412,0.0,0.00043082178877,0.0,-0.00246686425532,0.0,0.00263903442709,0.0,0.0712824384548,0.0,-0.00305153260148,0.0,0.0,0.0,0.0,100.0,-0.0,30.48,0.00230154196664,0.0,-0.00383606751517,0.0,-0.0,0.0,-0.0,100.0,1014515.2,0.0,0.0,0.0,0.0,0.0,0.0
1402753065467097653,3,-9.58473931421,-0.00591572024346,6.18247066329,-0.122189614607,5.77717707642,0.10862951003,0.0168047413112,0.0,-0.0431297577099,0.0,0.13155367328,0.0,-1.75623866398,0.0,0.00210946623872,0.0,-0.00230255536852,0.0,0.00238465866078,0.0,0.0714045215365,0.0,0.000366610040973,0.0,0.0,0.0,0.0,100.0,-0.0,30.48,0.00230154196664,0.0,-0.00383606751517,0.0,-0.0,0.0,-0.0,100.0,1014515.2,0.0,0.0,0.0,0.0,0.0,0.0
1402753065487049816,3,-9.58473931421,-0.00591572024346,6.18247066329,-0.122189614607,5.77717707642,0.10862951003,0.0168047413112,0.0,-0.0431297577099,0.0,0.13155367328,0.0,-1.75623866398,0.0,0.00210946623872,0.0,-0.00230255536852,0.0,0.00238465866078,0.0,0.0714045215365,0.0,0.000366610040973,0.0,0.0,0.0,0.0,100.0,-0.0,30.48,0.00230154196664,0.0,-0.00383606751517,0.0,-0.0,0.0,-0.0,100.0,1014515.2,0.0,0.0,0.0,0.0,0.0,0.0
1402753065507135642,3,-9.58819333767,-0.00591572024346,6.1905808084,-0.122189614607,5.77405746424,0.10862951003,0.00847987579957,0.0,-0.0256016633629,0.0,0.131761892091,0.0,-1.75609621257,0.0,0.00568048275174,0.0,-0.00104110281071,0.0,0.000644161739035,0.0,0.0697223510757,0.0,0.00427202995435,0.0,0.0,0.0,0.0,100.0,-0.0,30.48,0.00230154196664,0.0,-0.00383606751517,0.0,-0.0,0.0,-0.0,100.0,1014515.2,0.0,0.0,0.0,0.0,0.0,0.0
1402753065527329953,3,-9.58819333767,-0.00591572024346,6.1905808084,-0.122189614607,5.77405746424,0.10862951003,0.00847987579957,0.0,-0.0256016633629,0.0,0.131761892091,0.0,-1.75609621257,0.0,0.00568048275174,0.0,-0.00104110281071,0.0,0.000644161739035,0.0,0.0697223510757,0.0,0.00427202995435,0.0,0.0,0.0,0.0,100.0,-0.0,30.48,0.00230154196664,0.0,-0.00383606751517,0.0,-0.0,0.0,-0.0,100.0,1014515.2,0.0,0.0,0.0,0.0,0.0,0.0
1402753065546939287,3,-9.58806964904,-0.00591572024346,6.19071095358,-0.122189614607,5.76461753341,0.10862951003,0.010915322661,0.0,-0.0360029683744,0.0,0.130310959029,0.0,-1.75616845752,0.0,0.00939779333653,0.0,-0.00164597167349,0.0,0.00319632496965,0.0,0.071348839345,0.0,0.0046412394596,0.0,0.0,0.0,0.0,100.0,-0.0,30.48,0.00230154196664,0.0,-0.00383606751517,0.0,-0.0,0.0,-0.0,100.0,1014515.2,0.0,0.0,0.0,0.0,0.0,0.0
1402753065567265928,3,-9.58806964904,-0.00591572024346,6.19071095358,-0.122189614607,5.76461753341,0.10862951003,0.010915322661,0.0,-0.0360029683744,0.0,0.130310959029,0.0,-1.75616845752,0.0,0.00939779333653,0.0,-0.00164597167349,0.0,0.00319632496965,0.0,0.071348839345,0.0,0.0046412394596,0.0,0.0,0.0,0.0,100.0,-0.0,30.48,0.00230154196664,0.0,-0.00383606751517,0.0,-0.0,0.0,-0.0,100.0,1014515.2,0.0,0.0,0.0,0.0,0.0,0.0
1402753065587020481,3,-9.58663525477,-0.00591572024346,6.19453676606,-0.122189614607,5.7580682344,0.10862951003,0.0146940982332,0.0,-0.034519476596,0.0,0.13003292918,0.0,-1.75617996256,0.0,-0.000256616847066,0.0,-0.00195737437426,0.0,0.00561299005723,0.0,0.0713247971512,0.0,0.000834458445422,0.0,0.0,0.0,0.0,100.0,-0.0,30.48,0.00230154196664,0.0,-0.00383606751517,0.0,-0.0,0.0,-0.0,100.0,1014515.2,0.0,0.0,0.0,0.0,0.0,0.0
1402753065607225218,3,-9.58629952757,-0.00591572024346,6.19381118397,-0.122189614607,5.7607388186,0.10862951003,0.014961871042,0.0,-0.033597020889,0.0,0.129924731022,0.0,-1.75621085882,0.0,0.000448023349382,0.0,-0.00185811399272,0.0,-0.000786557583331,0.0,0.0713206234655,0.0,0.000856820969275,0.0,0.0,0.0,0.0,100.0,-0.0,30.48,0.00230154196664,0.0,-0.00383606751517,0.0,-0.0,0.0,-0.0,100.0,1014515.2,0.0,0.0,0.0,0.0,0.0,0.0
1402753065627244559,3,-9.58629952757,-0.00591572024346,6.19381118397,-0.122189614607,5.7607388186,0.10862951003,0.014961871042,0.0,-0.033597020889,0.0,0.129924731022,0.0,-1.75621085882,0.0,0.000448023349382,0.0,-0.00185811399272,0.0,-0.000786557583331,0.0,0.0713206234655,0.0,0.000856820969275,0.0,0.0,0.0,0.0,100.0,-0.0,30.48,0.00230154196664,0.0,-0.00383606751517,0.0,-0.0,0.0,-0.0,100.0,1014515.2,0.0,0.0,0.0,0.0,0.0,0.0
1402753065647095775,3,-9.58967038496,-0.00591572024346,6.19994161916,-0.122189614607,5.75717746239,0.10862951003,0.0074583164322,0.0,-0.0228242249038,0.0,0.131152941096,0.0,-1.75613018234,0.0,-0.0022304705216,0.0,-0.00079694196165,0.0,0.00231445587861,0.0,0.0702187285944,0.0,-0.00955902613846,0.0,0.0,0.0,0.0,100.0,-0.0,30.48,0.00230154196664,0.0,-0.00383606751517,0.0,-0.0,0.0,-0.0,100.0,1014515.2,0.0,0.0,0.0,0.0,0.0,0.0
1402753065667018292,3,-9.58967038496,-0.00591572024346,6.19994161916,-0.122189614607,5.75717746239,0.10862951003,0.0074583164322,0.0,-0.0228242249038,0.0,0.131152941096,0.0,-1.75613018234,0.0,-0.0022304705216,0.0,-0.00079694196165,0.0,0.00231445587861,0.0,0.0702187285944,0.0,-0.00955902613846,0.0,0.0,0.0,0.0,100.0,-0.0,30.48,0.00230154196664,0.0,-0.00383606751517,0.0,-0.0,0.0,-0.0,100.0,1014515.2,0.0,0.0,0.0,0.0,0.0,0.0
1402753065687341961,3,-9.58568466308,-0.00591572024346,6.20225119968,-0.122189614607,5.7467605092,0.10862951003,0.0209056708333,0.0,-0.030181088692,0.0,0.12975885331,0.0,-1.75652404136,0.0,-0.0038395820945,0.0,-0.00206515014347,0.0,-0.00123178892005,0.0,0.0709855927164,0.0,0.00451864740394,0.0,0.0,0.0,0.0,100.0,-0.0,30.48,0.00230154196664,0.0,-0.00383606751517,0.0,-0.0,0.0,-0.0,100.0,1014515.2,0.0,0.0,0.0,0.0,0.0,0.0
1402753065707120432,3,-9.58568466308,-0.00591572024346,6.20225119968,-0.122189614607,5.7467605092,0.10862951003,0.0209056708333,0.0,-0.030181088692,0.0,0.12975885331,0.0,-1.75652404136,0.0,-0.0038395820945,0.0,-0.00206515014347,0.0,-0.00123178892005,0.0,0.0709855927164,0.0,0.00451864740394,0.0,0.0,0.0,0.0,100.0,-0.0,30.48,0.00230154196664,0.0,-0.00383606751517,0.0,-0.0,0.0,-0.0,100.0,1014515.2,0.0,0.0,0.0,0.0,0.0,0.0
1402753065727347773,3,-9.58625936847,-0.00591572024346,6.20028844298,-0.122189614607,5.74312237906,0.10862951003,0.0209497377588,0.0,-0.043180122247,0.0,0.130401497717,0.0,-1.75658379439,0.0,-0.00659028993367,0.0,-0.00231701262595,0.0,-0.00432878858813,0.0,0.0723234552854,0.0,0.00361928401154,0.0,0.0,0.0,0.0,100.0,-0.0,30.48,0.00230154196664,0.0,-0.00383606751517,0.0,-0.0,0.0,-0.0,100.0,1014515.2,0.0,0.0,0.0,0.0,0.0,0.0
1402753065747104911,3,-9.58625936847,-0.00591572024346,6.20028844298,-0.122189614607,5.74312237906,0.10862951003,0.0209497377588,0.0,-0.043180122247,0.0,0.130401497717,0.0,-1.75658379439,0.0,-0.00659028993367,0.0,-0.00231701262595,0.0,-0.00432878858813,0.0,0.0723234552854,0.0,0.00361928401154,0.0,0.0,0.0,0.0,100.0,-0.0,30.48,0.00230154196664,0.0,-0.00383606751517,0.0,-0.0,0.0,-0.0,100.0,1014515.2,0.0,0.0,0.0,0.0,0.0,0.0
1402753065767655108,3,-9.58545452275,-0.00591572024346,6.1984310098,-0.122189614607,5.74853146268,0.10862951003,0.0208307253698,0.0,-0.0456669206132,0.0,0.132844526179,0.0,-1.75670143341,0.0,-0.00253996222416,0.0,-0.00233875562751,0.0,-0.00555017456454,0.0,0.0721361764962,0.0,5.74799588814e-05,0.0,0.0,0.0,0.0,100.0,-0.0,30.48,0.00230154196664,0.0,-0.00383606751517,0.0,-0.0,0.0,-0.0,100.0,1014515.2,0.0,0.0,0.0,0.0,0.0,0.0
1402753065787389869,3,-9.58545452275,-0.00591572024346,6.1984310098,-0.122189614607,5.74853146268,0.10862951003,0.0208307253698,0.0,-0.0456669206132,0.0,0.132844526179,0.0,-1.75670143341,0.0,-0.00253996222416,0.0,-0.00233875562751,0.0,-0.00555017456454,0.0,0.0721361764962,0.0,5.74799588814e-05,0.0,0.0,0.0,0.0,100.0,-0.0,30.48,0.00230154196664,0.0,-0.00383606751517,0.0,-0.0,0.0,-0.0,100.0,1014515.2,0.0,0.0,0.0,0.0,0.0,0.0
1402753065807142673,3,-9.58890751892,-0.00591572024346,6.20281099823,-0.122189614607,5.74509522029,0.10862951003,0.0128297548473,0.0,-0.0417950368245,0.0,0.134170123322,0.0,-1.75667044744,0.0,-0.00173915406827,0.0,-0.00132148456334,0.0,-0.00818068113234,0.0,0.0712319013535,0.0,-0.00379055014055,0.0,0.0,0.0,0.0,100.0,-0.0,30.48,0.00230154196664,0.0,-0.00383606751517,0.0,-0.0,0.0,-0.0,100.0,1014515.2,0.0,0.0,0.0,0.0,0.0,0.0
1402753065827032905,3,-9.58890751892,-0.00591572024346,6.20281099823,-0.122189614607,5.74509522029,0.10862951003,0.0128297548473,0.0,-0.0417950368245,0.0,0.134170123322,0.0,-1.75667044744,0.0,-0.00173915406827,0.0,-0.00132148456334,0.0,-0.00818068113234,0.0,0.0712319013535,0.0,-0.00379055014055,0.0,0.0,0.0,0.0,100.0,-0.0,30.48,0.00230154196664,0.0,-0.00383606751517,0.0,-0.0,0.0,-0.0,100.0,1014515.2,0.0,0.0,0.0,0.0,0.0,0.0
1402753065847644492,3,-9.58715755617,-0.00591572024346,6.20710118678,-0.122189614607,5.73746920394,0.10862951003,0.0193781717587,0.0,-0.0416214775691,0.0,0.134830843493,0.0,-1.75675038678,0.0,-0.000398322580532,0.0,-0.00191566964059,0.0,-0.00323043937335,0.0,0.0706001835421,0.0,0.00340638521572,0.0,0.0,0.0,0.0,100.0,-0.0,30.48,0.00230154196664,0.0,-0.00383606751517,0.0,-0.0,0.0,-0.0,100.0,1014515.2,0.0,0.0,0.0,0.0,0.0,0.0
1402753065866970263,3,-9.58715755617,-0.00591572024346,6.20710118678,-0.122189614607,5.73746920394,0.10862951003,0.0193781717587,0.0,-0.0416214775691,0.0,0.134830843493,0.0,-1.75675038678,0.0,-0.000398322580532,0.0,-0.00191566964059,0.0,-0.00323043937335,0.0,0.0706001835421,0.0,0.00340638521572,0.0,0.0,0.0,0.0,100.0,-0.0,30.48,0.00230154196664,0.0,-0.00383606751517,0.0,-0.0,0.0,-0.0,100.0,1014515.2,0.0,0.0,0.0,0.0,0.0,0.0
1402753065887118617,3,-9.58668510887,-0.00591572024346,6.20919241255,-0.122189614607,5.73346068667,0.10862951003,0.0198354217813,0.0,-0.0438772882723,0.0,0.13523348617,0.0,-1.75667003652,0.0,0.00214902862345,0.0,-0.0020523477194,0.0,-0.00339687515629,0.0,0.0704458856483,0.0,-0.00767379859947,0.0,0.0,0.0,0.0,100.0,-0.0,30.48,0.00230154196664,0.0,-0.00383606751517,0.0,-0.0,0.0,-0.0,100.0,1014515.2,0.0,0.0,0.0,0.0,0.0,0.0
1402753065907123534,3,-9.58668510887,-0.00591572024346,6.20919241255,-0.122189614607,5.73346068667,0.10862951003,0.0198354217813,0.0,-0.0438772882723,0.0,0.13523348617,0.0,-1.75667003652,0.0,0.00214902862345,0.0,-0.0020523477194,0.0,-0.00339687515629,0.0,0.0704458856483,0.0,-0.00767379859947,0.0,0.0,0.0,0.0,100.0,-0.0,30.48,0.00230154196664,0.0,-0.00383606751517,0.0,-0.0,0.0,-0.0,100.0,1014515.2,0.0,0.0,0.0,0.0,0.0,0.0
1402753065928065116,3,-9.59039980428,-0.00591572024346,6.20944463423,-0.122189614607,5.74174551602,0.10862951003,0.00926021794856,0.0,-0.0399397754216,0.0,0.1375771258,0.0,-1.75666638714,0.0,0.0010717513992,0.0,-0.00067429146613,0.0,-0.000938222593705,0.0,0.0697392698271,0.0,-0.00772052502534,0.0,0.0,0.0,0.0,100.0,-0.0,30.48,0.00230154196664,0.0,-0.00383606751517,0.0,-0.0,0.0,-0.0,100.0,1014515.2,0.0,0.0,0.0,0.0,0.0,0.0
1402753065947257154,3,-9.59039980428,-0.00591572024346,6.20944463423,-0.122189614607,5.74174551602,0.10862951003,0.00926021794856,0.0,-0.0399397754216,0.0,0.1375771258,0.0,-1.75666638714,0.0,0.0010717513992,0.0,-0.00067429146613,0.0,-0.000938222593705,0.0,0.0697392698271,0.0,-0.00772052502534,0.0,0.0,0.0,0.0,100.0,-0.0,30.48,0.00230154196664,0.0,-0.00383606751517,0.0,-0.0,0.0,-0.0,100.0,1014515.2,0.0,0.0,0.0,0.0,0.0,0.0
1402753065967308806,3,-9.59010528614,-0.00591572024346,6.2076348485,-0.122189614607,5.74756284444,0.10862951003,0.00996768292718,0.0,-0.0427162071594,0.0,0.138559907544,0.0,-1.75673632648,0.0,1.97103098098e-05,0.0,-0.000840560954469,0.0,0.00517122843699,0.0,0.0699663370108,0.0,0.00325949939335,0.0,0.0,0.0,0.0,100.0,-0.0,30.48,0.00230154196664,0.0,-0.00383606751517,0.0,-0.0,0.0,-0.0,100.0,1014515.2,0.0,0.0,0.0,0.0,0.0,0.0
1402753065987090486,3,-9.59010528614,-0.00591572024346,6.2076348485,-0.122189614607,5.74756284444,0.10862951003,0.00996768292718,0.0,-0.0427162071594,0.0,0.138559907544,0.0,-1.75673632648,0.0,1.97103098098e-05,0.0,-0.000840560954469,0.0,0.00517122843699,0.0,0.0699663370108,0.0,0.00325949939335,0.0,0.0,0.0,0.0,100.0,-0.0,30.48,0.00230154196664,0.0,-0.00383606751517,0.0,-0.0,0.0,-0.0,100.0,1014515.2,0.0,0.0,0.0,0.0,0.0,0.0
1402753066008390508,3,-9.58589875247,-0.00591572024346,6.20973815444,-0.122189614607,5.73510685025,0.10862951003,0.0208744347429,0.0,-0.0499758635272,0.0,0.137131443956,0.0,-1.75687298018,0.0,-0.000461963950752,0.0,-0.00235566126531,0.0,0.0141235517814,0.0,0.0710938380346,0.0,-0.00650264915713,0.0,0.0,0.0,0.0,100.0,-0.0,30.48,0.00230154196664,0.0,-0.00383606751517,0.0,-0.0,0.0,-0.0,100.0,1014515.2,0.0,0.0,0.0,0.0,0.0,0.0
1402753066027277458,3,-9.58589875247,-0.00591572024346,6.20973815444,-0.122189614607,5.73510685025,0.10862951003,0.0208744347429,0.0,-0.0499758635272,0.0,0.137131443956,0.0,-1.75687298018,0.0,-0.000461963950752,0.0,-0.00235566126531,0.0,0.0141235517814,0.0,0.0710938380346,0.0,-0.00650264915713,0.0,0.0,0.0,0.0,100.0,-0.0,30.48,0.00230154196664,0.0,-0.00383606751517,0.0,-0.0,0.0,-0.0,100.0,1014515.2,0.0,0.0,0.0,0.0,0.0,0.0
1402753066047094172,3,-9.58115835427,-0.00591572024346,6.20538799463,-0.122189614607,5.74224161257,0.10862951003,0.0278757269939,0.0,-0.0562652561788,0.0,0.138096985455,0.0,-1.75695542282,0.0,0.00278893295386,0.0,-0.00323592762156,0.0,0.010385672506,0.0,0.0722858054746,0.0,-0.00671473967672,0.0,0.0,0.0,0.0,100.0,-0.0,30.48,0.00230154196664,0.0,-0.00383606751517,0.0,-0.0,0.0,-0.0,100.0,1014515.2,0.0,0.0,0.0,0.0,0.0,0.0
1402753066067038403,3,-9.58115835427,-0.00591572024346,6.20538799463,-0.122189614607,5.74224161257,0.10862951003,0.0278757269939,0.0,-0.0562652561788,0.0,0.138096985455,0.0,-1.75695542282,0.0,0.00278893295386,0.0,-0.00323592762156,0.0,0.010385672506,0.0,0.0722858054746,0.0,-0.00671473967672,0.0,0.0,0.0,0.0,100.0,-0.0,30.48,0.00230154196664,0.0,-0.00383606751517,0.0,-0.0,0.0,-0.0,100.0,1014515.2,0.0,0.0,0.0,0.0,0.0,0.0
1402753066087260600,3,-9.58330704048,-0.00591572024346,6.21232002005,-0.122189614607,5.73430271503,0.10862951003,0.0236768043565,0.0,-0.0444183194871,0.0,0.135862270076,0.0,-1.7569747736,0.0,0.00339993108091,0.0,-0.0022575105802,0.0,0.00618323244332,0.0,0.0715062794516,0.0,-0.0117124755129,0.0,0.0,0.0,0.0,100.0,-0.0,30.48,0.00230154196664,0.0,-0.00383606751517,0.0,-0.0,0.0,-0.0,100.0,1014515.2,0.0,0.0,0.0,0.0,0.0,0.0
1402753066107077451,3,-9.58330704048,-0.00591572024346,6.21232002005,-0.122189614607,5.73430271503,0.10862951003,0.0236768043565,0.0,-0.0444183194871,0.0,0.135862270076,0.0,-1.7569747736,0.0,0.00339993108091,0.0,-0.0022575105802,0.0,0.00618323244332,0.0,0.0715062794516,0.0,-0.0117124755129,0.0,0.0,0.0,0.0,100.0,-0.0,30.48,0.00230154196664,0.0,-0.00383606751517,0.0,-0.0,0.0,-0.0,100.0,1014515.2,0.0,0.0,0.0,0.0,0.0,0.0
1402753066127654479,3,-9.58967453602,-0.00591572024346,6.21621377203,-0.122189614607,5.72490782457,0.10862951003,0.0106717466268,0.0,-0.043438414346,0.0,0.134839545807,0.0,-1.75690567725,0.0,0.00455726672913,0.0,-0.000401215132479,0.0,0.0075473964398,0.0,0.0723360934463,0.0,-0.00980478050225,0.0,0.0,0.0,0.0,100.0,-0.0,30.48,0.00230154196664,0.0,-0.00383606751517,0.0,-0.0,0.0,-0.0,100.0,1014515.2,0.0,0.0,0.0,0.0,0.0,0.0
1402753066147107402,3,-9.58967453602,-0.00591572024346,6.21621377203,-0.122189614607,5.72490782457,0.10862951003,0.0106717466268,0.0,-0.043438414346,0.0,0.134839545807,0.0,-1.75690567725,0.0,0.00455726672913,0.0,-0.000401215132479,0.0,0.0075473964398,0.0,0.0723360934463,0.0,-0.00980478050225,0.0,0.0,0.0,0.0,100.0,-0.0,30.48,0.00230154196664,0.0,-0.00383606751517,0.0,-0.0,0.0,-0.0,100.0,1014515.2,0.0,0.0,0.0,0.0,0.0,0.0
1402753066167193027,3,-9.58575145801,-0.00591572024346,6.22142894493,-0.122189614607,5.71878501367,0.10862951003,0.0160952081073,0.0,-0.037479514144,0.0,0.134751856002,0.0,-1.75689132626,0.0,0.00515280572551,0.0,-0.000326595649999,0.0,0.00369536230109,0.0,0.0721521464687,0.0,-0.00698094659745,0.0,0.0,0.0,0.0,100.0,-0.0,30.48,0.00230154196664,0.0,-0.00383606751517,0.0,-0.0,0.0,-0.0,100.0,1014515.2,0.0,0.0,0.0,0.0,0.0,0.0
1402753066187301576,3,-9.58575145801,-0.00591572024346,6.22142894493,-0.122189614607,5.71878501367,0.10862951003,0.0160952081073,0.0,-0.037479514144,0.0,0.134751856002,0.0,-1.75689132626,0.0,0.00515280572551,0.0,-0.000326595649999,0.0,0.00369536230109,0.0,0.0721521464687,0.0,-0.00698094659745,0.0,0.0,0.0,0.0,100.0,-0.0,30.48,0.00230154196664,0.0,-0.00383606751517,0.0,-0.0,0.0,-0.0,100.0,1014515.2,0.0,0.0,0.0,0.0,0.0,0.0
1402753066207156009,3,-9.58540430368,-0.00591572024346,6.22062319006,-0.122189614607,5.72164632503,0.10862951003,0.0149877121681,0.0,-0.0369240182126,0.0,0.135351499349,0.0,-1.75684730883,0.0,0.0043128180573,0.0,-2.61255271177e-05,0.0,0.000874582883163,0.0,0.0722606280142,0.0,-0.0136001324872,0.0,0.0,0.0,0.0,100.0,-0.0,30.48,0.00230154196664,0.0,-0.00383606751517,0.0,-0.0,0.0,-0.0,100.0,1014515.2,0.0,0.0,0.0,0.0,0.0,0.0
1402753066227357002,3,-9.58540430368,-0.00591572024346,6.22062319006,-0.122189614607,5.72164632503,0.10862951003,0.0149877121681,0.0,-0.0369240182126,0.0,0.135351499349,0.0,-1.75684730883,0.0,0.0043128180573,0.0,-2.61255271177e-05,0.0,0.000874582883163,0.0,0.0722606280142,0.0,-0.0136001324872,0.0,0.0,0.0,0.0,100.0,-0.0,30.48,0.00230154196664,0.0,-0.00383606751517,0.0,-0.0,0.0,-0.0,100.0,1014515.2,0.0,0.0,0.0,0.0,0.0,0.0
1402753066247601920,3,-9.58183732246,-0.00591572024346,6.21852920865,-0.122189614607,5.72640574627,0.10862951003,0.0184661765602,0.0,-0.0415031255556,0.0,0.138012727883,0.0,-1.75680418126,0.0,-0.00301562786936,0.0,6.61511468016e-05,0.0,-0.00204072531289,0.0,0.0728517891239,0.0,-0.0147637530696,0.0,0.0,0.0,0.0,100.0,-0.0,30.48,0.00230154196664,0.0,-0.00383606751517,0.0,-0.0,0.0,-0.0,100.0,1014515.2,0.0,0.0,0.0,0.0,0.0,0.0
1402753066267199804,3,-9.58183732246,-0.00591572024346,6.21852920865,-0.122189614607,5.72640574627,0.10862951003,0.0184661765602,0.0,-0.0415031255556,0.0,0.138012727883,0.0,-1.75680418126,0.0,-0.00301562786936,0.0,6.61511468016e-05,0.0,-0.00204072531289,0.0,0.0728517891239,0.0,-0.0147637530696,0.0,0.0,0.0,0.0,100.0,-0.0,30.48,0.00230154196664,0.0,-0.00383606751517,0.0,-0.0,0.0,-0.0,100.0,1014515.2,0.0,0.0,0.0,0.0,0.0,0.0
1402753066287349524,3,-9.58409508048,-0.00591572024346,6.21727094041,-0.122189614607,5.71845217392,0.10862951003,0.0149820380856,0.0,-0.0544724117896,0.0,0.137964756157,0.0,-1.75680804133,0.0,-0.00472742484755,0.0,0.000518046781884,0.0,0.00213775310365,0.0,0.0744434844363,0.0,-0.00989488327627,0.0,0.0,0.0,0.0,100.0,-0.0,30.48,0.00230154196664,0.0,-0.00383606751517,0.0,-0.0,0.0,-0.0,100.0,1014515.2,0.0,0.0,0.0,0.0,0.0,0.0
1402753066307156361,3,-9.58409508048,-0.00591572024346,6.21727094041,-0.122189614607,5.71845217392,0.10862951003,0.0149820380856,0.0,-0.0544724117896,0.0,0.137964756157,0.0,-1.75680804133,0.0,-0.00472742484755,0.0,0.000518046781884,0.0,0.00213775310365,0.0,0.0744434844363,0.0,-0.00989488327627,0.0,0.0,0.0,0.0,100.0,-0.0,30.48,0.00230154196664,0.0,-0.00383606751517,0.0,-0.0,0.0,-0.0,100.0,1014515.2,0.0,0.0,0.0,0.0,0.0,0.0
1402753066327069804,3,-9.58134902045,-0.00591572024346,6.22073803106,-0.122189614607,5.71836644952,0.10862951003,0.0204277039676,0.0,-0.0461390883386,0.0,0.138435040848,0.0,-1.75707444978,0.0,-0.00261087166742,0.0,0.000567550429472,0.0,-0.000475958110661,0.0,0.0734299368368,0.0,-0.00167705889938,0.0,0.0,0.0,0.0,100.0,-0.0,30.48,0.00230154196664,0.0,-0.00383606751517,0.0,-0.0,0.0,-0.0,100.0,1014515.2,0.0,0.0,0.0,0.0,0.0,0.0
1402753066347215083,3,-9.58134902045,-0.00591572024346,6.22073803106,-0.122189614607,5.71836644952,0.10862951003,0.0204277039676,0.0,-0.0461390883386,0.0,0.138435040848,0.0,-1.75707444978,0.0,-0.00261087166742,0.0,0.000567550429472,0.0,-0.000475958110661,0.0,0.0734299368368,0.0,-0.00167705889938,0.0,0.0,0.0,0.0,100.0,-0.0,30.48,0.00230154196664,0.0,-0.00383606751517,0.0,-0.0,0.0,-0.0,100.0,1014515.2,0.0,0.0,0.0,0.0,0.0,0.0
1402753066367077378,3,-9.58051830996,-0.00591572024346,6.21895938338,-0.122189614607,5.72390076696,0.10862951003,0.0218023945348,0.0,-0.0458692068886,0.0,0.139612247946,0.0,-1.75723168362,0.0,-0.00704466664078,0.0,0.000739861959577,0.0,-0.00571004760049,0.0,0.0732031544643,0.0,0.00392305200998,0.0,0.0,0.0,0.0,100.0,-0.0,30.48,0.00230154196664,0.0,-0.00383606751517,0.0,-0.0,0.0,-0.0,100.0,1014515.2,0.0,0.0,0.0,0.0,0.0,0.0
1402753066387160324,3,-9.58051830996,-0.00591572024346,6.21895938338,-0.122189614607,5.72390076696,0.10862951003,0.0218023945348,0.0,-0.0458692068886,0.0,0.139612247946,0.0,-1.75723168362,0.0,-0.00704466664078,0.0,0.000739861959577,0.0,-0.00571004760049,0.0,0.0732031544643,0.0,0.00392305200998,0.0,0.0,0.0,0.0,100.0,-0.0,30.48,0.00230154196664,0.0,-0.00383606751517,0.0,-0.0,0.0,-0.0,100.0,1014515.2,0.0,0.0,0.0,0.0,0.0,0.0
1402753066407134761,3,-9.58579772388,-0.00591572024346,6.22203792608,-0.122189614607,5.7198341876,0.10862951003,0.0115547051934,0.0,-0.0429648869568,0.0,0.139995863697,0.0,-1.75737502386,0.0,-0.00239112502602,0.0,0.00175382563724,0.0,-0.00315798066138,0.0,0.0725909928686,0.0,0.00196568933332,0.0,0.0,0.0,0.0,100.0,-0.0,30.48,0.00230154196664,0.0,-0.00383606751517,0.0,-0.0,0.0,-0.0,100.0,1014515.2,0.0,0.0,0.0,0.0,0.0,0.0
1402753066427271180,3,-9.58579772388,-0.00591572024346,6.22203792608,-0.122189614607,5.7198341876,0.10862951003,0.0115547051934,0.0,-0.0429648869568,0.0,0.139995863697,0.0,-1.75737502386,0.0,-0.00239112502602,0.0,0.00175382563724,0.0,-0.00315798066138,0.0,0.0725909928686,0.0,0.00196568933332,0.0,0.0,0.0,0.0,100.0,-0.0,30.48,0.00230154196664,0.0,-0.00383606751517,0.0,-0.0,0.0,-0.0,100.0,1014515.2,0.0,0.0,0.0,0.0,0.0,0.0
1402753066447823698,3,-9.586958751,-0.00591572024346,6.22285187723,-0.122189614607,5.72247071273,0.10862951003,0.0100421774355,0.0,-0.0390889870405,0.0,0.140631877269,0.0,-1.75752250086,0.0,-0.00480604933861,0.0,0.00189910314557,0.0,-0.0140710611113,0.0,0.0719259931287,0.0,0.0030762602913,0.0,0.0,0.0,0.0,100.0,-0.0,30.48,0.00230154196664,0.0,-0.00383606751517,0.0,-0.0,0.0,-0.0,100.0,1014515.2,0.0,0.0,0.0,0.0,0.0,0.0
1402753066467101071,3,-9.586958751,-0.00591572024346,6.22285187723,-0.122189614607,5.72247071273,0.10862951003,0.0100421774355,0.0,-0.0390889870405,0.0,0.140631877269,0.0,-1.75752250086,0.0,-0.00480604933861,0.0,0.00189910314557,0.0,-0.0140710611113,0.0,0.0719259931287,0.0,0.0030762602913,0.0,0.0,0.0,0.0,100.0,-0.0,30.48,0.00230154196664,0.0,-0.00383606751517,0.0,-0.0,0.0,-0.0,100.0,1014515.2,0.0,0.0,0.0,0.0,0.0,0.0
1402753066487008151,3,-9.58533114064,-0.00591572024346,6.22547081235,-0.122189614607,5.71835975617,0.10862951003,0.0144808695599,0.0,-0.0385898257243,0.0,0.14101949693,0.0,-1.75771533661,0.0,-0.00195703946353,0.0,0.00127246455789,0.0,-0.0135295571733,0.0,0.0712699157516,0.0,0.00716173264917,0.0,0.0,0.0,0.0,100.0,-0.0,30.48,0.00230154196664,0.0,-0.00383606751517,0.0,-0.0,0.0,-0.0,100.0,1014515.2,0.0,0.0,0.0,0.0,0.0,0.0
1402753066507107879,3,-9.58533114064,-0.00591572024346,6.22547081235,-0.122189614607,5.71835975617,0.10862951003,0.0144808695599,0.0,-0.0385898257243,0.0,0.14101949693,0.0,-1.75771533661,0.0,-0.00195703946353,0.0,0.00127246455789,0.0,-0.0135295571733,0.0,0.0712699157516,0.0,0.00716173264917,0.0,0.0,0.0,0.0,100.0,-0.0,30.48,0.00230154196664,0.0,-0.00383606751517,0.0,-0.0,0.0,-0.0,100.0,1014515.2,0.0,0.0,0.0,0.0,0.0,0.0
1402753066527388958,3,-9.58477505057,-0.00591572024346,6.22378187682,-0.122189614607,5.72434096331,0.10862951003,0.0155467947598,0.0,-0.0396942729324,0.0,0.14308642135,0.0,-1.75789283879,0.0,-0.000588594232377,0.0,0.000802040179926,0.0,-0.00585495499096,0.0,0.0709796005679,0.0,0.0156414885071,0.0,0.0,0.0,0.0,100.0,-0.0,30.48,0.00230154196664,0.0,-0.00383606751517,0.0,-0.0,0.0,-0.0,100.0,1014515.2,0.0,0.0,0.0,0.0,0.0,0.0
1402753066547637270,3,-9.58477505057,-0.00591572024346,6.22378187682,-0.122189614607,5.72434096331,0.10862951003,0.0155467947598,0.0,-0.0396942729324,0.0,0.14308642135,0.0,-1.75789283879,0.0,-0.000588594232377,0.0,0.000802040179926,0.0,-0.00585495499096,0.0,0.0709796005679,0.0,0.0156414885071,0.0,0.0,0.0,0.0,100.0,-0.0,30.48,0.00230154196664,0.0,-0.00383606751517,0.0,-0.0,0.0,-0.0,100.0,1014515.2,0.0,0.0,0.0,0.0,0.0,0.0
1402753066568144852,3,-9.58517903823,-0.00591572024346,6.22442752319,-0.122189614607,5.71439974185,0.10862951003,0.0163528796154,0.0,-0.0497364108254,0.0,0.141937759189,0.0,-1.7581485851,0.0,-0.00328560906371,0.0,-4.88885844745e-05,0.0,-0.00332282104621,0.0,0.0718780802661,0.0,0.011192978014,0.0,0.0,0.0,0.0,100.0,-0.0,30.48,0.00230154196664,0.0,-0.00383606751517,0.0,-0.0,0.0,-0.0,100.0,1014515.2,0.0,0.0,0.0,0.0,0.0,0.0
1402753066587135731,3,-9.58517903823,-0.00591572024346,6.22442752319,-0.122189614607,5.71439974185,0.10862951003,0.0163528796154,0.0,-0.0497364108254,0.0,0.141937759189,0.0,-1.7581485851,0.0,-0.00328560906371,0.0,-4.88885844745e-05,0.0,-0.00332282104621,0.0,0.0718780802661,0.0,0.011192978014,0.0,0.0,0.0,0.0,100.0,-0.0,30.48,0.00230154196664,0.0,-0.00383606751517,0.0,-0.0,0.0,-0.0,100.0,1014515.2,0.0,0.0,0.0,0.0,0.0,0.0
1402753066607426248,3,-9.58546763877,-0.00591572024346,6.22761249185,-0.122189614607,5.71368353275,0.10862951003,0.0134658907908,0.0,-0.0448659038432,0.0,0.142276696253,0.0,-1.75827516376,0.0,-0.000428391011362,0.0,-0.000116803656385,0.0,-0.00379432004303,0.0,0.0711508199595,0.0,0.0110726276935,0.0,0.0,0.0,0.0,100.0,-0.0,30.48,0.00230154196664,0.0,-0.00383606751517,0.0,-0.0,0.0,-0.0,100.0,1014515.2,0.0,0.0,0.0,0.0,0.0,0.0
1402753066627120321,3,-9.58546763877,-0.00591572024346,6.22761249185,-0.122189614607,5.71368353275,0.10862951003,0.0134658907908,0.0,-0.0448659038432,0.0,0.142276696253,0.0,-1.75827516376,0.0,-0.000428391011362,0.0,-0.000116803656385,0.0,-0.00379432004303,0.0,0.0711508199595,0.0,0.0110726276935,0.0,0.0,0.0,0.0,100.0,-0.0,30.48,0.00230154196664,0.0,-0.00383606751517,0.0,-0.0,0.0,-0.0,100.0,1014515.2,0.0,0.0,0.0,0.0,0.0,0.0
1402753066648315787,3,-9.58162019971,-0.00591572024346,6.23150998635,-0.122189614607,5.70563975102,0.10862951003,0.0213770723043,0.0,-0.0454977932875,0.0,0.142035348552,0.0,-1.75856594659,0.0,0.00265527965833,0.0,-0.00138907239987,0.0,0.00134275041934,0.0,0.0710412695624,0.0,0.0114532493401,0.0,0.0,0.0,0.0,100.0,-0.0,30.48,0.00230154196664,0.0,-0.00383606751517,0.0,-0.0,0.0,-0.0,100.0,1014515.2,0.0,0.0,0.0,0.0,0.0,0.0
1402753066667110357,3,-9.58162019971,-0.00591572024346,6.23150998635,-0.122189614607,5.70563975102,0.10862951003,0.0213770723043,0.0,-0.0454977932875,0.0,0.142035348552,0.0,-1.75856594659,0.0,0.00265527965833,0.0,-0.00138907239987,0.0,0.00134275041934,0.0,0.0710412695624,0.0,0.0114532493401,0.0,0.0,0.0,0.0,100.0,-0.0,30.48,0.00230154196664,0.0,-0.00383606751517,0.0,-0.0,0.0,-0.0,100.0,1014515.2,0.0,0.0,0.0,0.0,0.0,0.0
1402753066687258542,3,-9.58076535921,-0.00591572024346,6.23720052501,-0.122189614607,5.69899440914,0.10862951003,0.0216554809239,0.0,-0.0409192691341,0.0,0.143258793373,0.0,-1.75879626541,0.0,-0.000514199787492,0.0,-0.00184677998749,0.0,0.0132449371895,0.0,0.0704138979052,0.0,0.0102067268119,0.0,0.0,0.0,0.0,100.0,-0.0,30.48,0.00230154196664,0.0,-0.00383606751517,0.0,-0.0,0.0,-0.0,100.0,1014515.2,0.0,0.0,0.0,0.0,0.0,0.0
1402753066707075404,3,-9.58076535921,-0.00591572024346,6.23720052501,-0.122189614607,5.69899440914,0.10862951003,0.0216554809239,0.0,-0.0409192691341,0.0,0.143258793373,0.0,-1.75879626541,0.0,-0.000514199787492,0.0,-0.00184677998749,0.0,0.0132449371895,0.0,0.0704138979052,0.0,0.0102067268119,0.0,0.0,0.0,0.0,100.0,-0.0,30.48,0.00230154196664,0.0,-0.00383606751517,0.0,-0.0,0.0,-0.0,100.0,1014515.2,0.0,0.0,0.0,0.0,0.0,0.0
1402753066727115913,3,-9.58505818201,-0.00591572024346,6.23656341091,-0.122189614607,5.69252535004,0.10862951003,0.0136868429566,0.0,-0.0516566146024,0.0,0.141556575673,0.0,-1.75887144654,0.0,-0.00568563874646,0.0,-0.00173559754538,0.0,0.00763983047698,0.0,0.0720509822305,0.0,0.00973833733746,0.0,0.0,0.0,0.0,100.0,-0.0,30.48,0.00230154196664,0.0,-0.00383606751517,0.0,-0.0,0.0,-0.0,100.0,1014515.2,0.0,0.0,0.0,0.0,0.0,0.0
1402753066748050053,3,-9.58505818201,-0.00591572024346,6.23656341091,-0.122189614607,5.69252535004,0.10862951003,0.0136868429566,0.0,-0.0516566146024,0.0,0.141556575673,0.0,-1.75887144654,0.0,-0.00568563874646,0.0,-0.00173559754538,0.0,0.00763983047698,0.0,0.0720509822305,0.0,0.00973833733746,0.0,0.0,0.0,0.0,100.0,-0.0,30.48,0.00230154196664,0.0,-0.00383606751517,0.0,-0.0,0.0,-0.0,100.0,1014515.2,0.0,0.0,0.0,0.0,0.0,0.0
1402753066767140953,3,-9.58453703861,-0.00591572024346,6.23435643963,-0.122189614607,5.69841246465,0.10862951003,0.011758572419,0.0,-0.0520553939448,0.0,0.141544501517,0.0,-1.75914816407,0.0,-0.00434126707139,0.0,-0.00195209570197,0.0,0.00683623537809,0.0,0.0723084837725,0.0,0.000774003322004,0.0,0.0,0.0,0.0,100.0,-0.0,30.48,0.00230154196664,0.0,-0.00383606751517,0.0,-0.0,0.0,-0.0,100.0,1014515.2,0.0,0.0,0.0,0.0,0.0,0.0
1402753066787290158,3,-9.58453703861,-0.00591572024346,6.23435643963,-0.122189614607,5.69841246465,0.10862951003,0.011758572419,0.0,-0.0520553939448,0.0,0.141544501517,0.0,-1.75914816407,0.0,-0.00434126707139,0.0,-0.00195209570197,0.0,0.00683623537809,0.0,0.0723084837725,0.0,0.000774003322004,0.0,0.0,0.0,0.0,100.0,-0.0,30.48,0.00230154196664,0.0,-0.00383606751517,0.0,-0.0,0.0,-0.0,100.0,1014515.2,0.0,0.0,0.0,0.0,0.0,0.0
1402753066808692394,3,-9.58597236633,-0.00591572024346,6.23545170464,-0.122189614607,5.69759747717,0.10862951003,0.00927877351278,0.0,-0.0530010207009,0.0,0.142278132058,0.0,-1.75930558233,0.0,-0.00650940581505,0.0,-0.00205137635923,0.0,0.017313304943,0.0,0.0727553258677,0.0,-0.000273848544846,0.0,0.0,0.0,0.0,100.0,-0.0,30.48,0.00230154196664,0.0,-0.00383606751517,0.0,-0.0,0.0,-0.0,100.0,1014515.2,0.0,0.0,0.0,0.0,0.0,0.0
1402753066827073034,3,-9.58597236633,-0.00591572024346,6.23545170464,-0.122189614607,5.69759747717,0.10862951003,0.00927877351278,0.0,-0.0530010207009,0.0,0.142278132058,0.0,-1.75930558233,0.0,-0.00650940581505,0.0,-0.00205137635923,0.0,0.017313304943,0.0,0.0727553258677,0.0,-0.000273848544846,0.0,0.0,0.0,0.0,100.0,-0.0,30.48,0.00230154196664,0.0,-0.00383606751517,0.0,-0.0,0.0,-0.0,100.0,1014515.2,0.0,0.0,0.0,0.0,0.0,0.0
1402753066847432211,3,-9.58416968691,-0.00591572024346,6.23847130844,-0.122189614607,5.68789515604,0.10862951003,0.0159260208618,0.0,-0.0541611908105,0.0,0.140548312523,0.0,-1.75960978728,0.0,-0.00927616772607,0.0,-0.00291661728046,0.0,0.0118729409711,0.0,0.073382346784,0.0,0.000746855745105,0.0,0.0,0.0,0.0,100.0,-0.0,30.48,0.00230154196664,0.0,-0.00383606751517,0.0,-0.0,0.0,-0.0,100.0,1014515.2,0.0,0.0,0.0,0.0,0.0,0.0
1402753066867351337,3,-9.58416968691,-0.00591572024346,6.23847130844,-0.122189614607,5.68789515604,0.10862951003,0.0159260208618,0.0,-0.0541611908105,0.0,0.140548312523,0.0,-1.75960978728,0.0,-0.00927616772607,0.0,-0.00291661728046,0.0,0.0118729409711,0.0,0.073382346784,0.0,0.000746855745105,0.0,0.0,0.0,0.0,100.0,-0.0,30.48,0.00230154196664,0.0,-0.00383606751517,0.0,-0.0,0.0,-0.0,100.0,1014515.2,0.0,0.0,0.0,0.0,0.0,0.0
1402753066886964517,3,-9.58884555068,-0.00591572024346,6.24192354557,-0.122189614607,5.67982206799,0.10862951003,0.00787304054099,0.0,-0.0530289860743,0.0,0.139528761739,0.0,-1.75970706515,0.0,-0.00427262915132,0.0,-0.00217540790863,0.0,0.0074729433364,0.0,0.0737043867295,0.0,-0.00295844379968,0.0,0.0,0.0,0.0,100.0,-0.0,30.48,0.00230154196664,0.0,-0.00383606751517,100.0,-0.0,0.0,-0.0,100.0,1014515.2,0.0,0.0,0.0,0.0,0.0,0.0
1402753066907641596,3,-9.58383662692,-0.00591572024346,6.24620757284,-0.122189614607,5.66785316839,0.10862951003,0.022060134742,0.0,-0.0546927081126,0.0,0.138152789091,0.0,-1.75995877515,0.0,-0.00589899675877,0.0,-0.00363067108904,0.0,0.00590351527047,0.0,0.0739012382873,0.0,0.00242590492533,0.0,0.0,0.0,0.0,100.0,-0.0,30.48,0.00230154196664,0.0,-0.00383606751517,100.0,-0.0,0.0,-0.0,100.0,1014515.2,0.0,0.0,0.0,0.0,0.0,0.0
1402753066926955513,3,-9.58383662692,-0.00591572024346,6.24620757284,-0.122189614607,5.66785316839,0.10862951003,0.022060134742,0.0,-0.0546927081126,0.0,0.138152789091,0.0,-1.75995877515,0.0,-0.00589899675877,0.0,-0.00363067108904,0.0,0.00590351527047,0.0,0.0739012382873,0.0,0.00242590492533,0.0,0.0,0.0,0.0,100.0,-0.0,30.48,0.00230154196664,0.0,-0.00383606751517,100.0,-0.0,0.0,-0.0,100.0,1014515.2,0.0,0.0,0.0,0.0,0.0,0.0
1402753066947629930,3,-9.58346425947,-0.00591572024346,6.24495497485,-0.122189614607,5.67084078717,0.10862951003,0.0216843170251,0.0,-0.0553146399307,0.0,0.139055011259,0.0,-1.76008112629,0.0,-0.00745817011957,0.0,-0.00361651753376,0.0,0.00864679135083,0.0,0.0740526298971,0.0,-0.00260497062139,0.0,0.0,0.0,0.0,100.0,-0.0,30.48,0.00230154196664,0.0,-0.00383606751517,100.0,-0.0,0.0,-0.0,100.0,1014515.2,0.0,0.0,0.0,0.0,0.0,0.0
1402753066967076761,3,-9.58346425947,-0.00591572024346,6.24495497485,-0.122189614607,5.67084078717,0.10862951003,0.0216843170251,0.0,-0.0553146399307,0.0,0.139055011259,0.0,-1.76008112629,0.0,-0.00745817011957,0.0,-0.00361651753376,0.0,0.00864679135083,0.0,0.0740526298971,0.0,-0.00260497062139,0.0,0.0,0.0,0.0,100.0,-0.0,30.48,0.00230154196664,0.0,-0.00383606751517,100.0,-0.0,0.0,-0.0,100.0,1014515.2,0.0,0.0,0.0,0.0,0.0,0.0
1402753066987766691,3,-9.58953032696,-0.00591572024346,6.24962763758,-0.122189614607,5.67219361215,0.10862951003,0.00740829113877,0.0,-0.0428298037785,0.0,0.140938270107,0.0,-1.76031632641,0.0,-0.0104766237647,0.0,-0.0016140466266,0.0,0.00660135790048,0.0,0.072948300052,0.0,-0.0121481673103,0.0,0.0,0.0,0.0,100.0,-0.0,30.48,0.00230154196664,0.0,-0.00537029107169,100.0,-0.0,0.0,-0.0,100.0,1014515.2,0.0,0.0,0.0,0.0,0.0,0.0
1402753067007151944,3,-9.58953032696,-0.00591572024346,6.24962763758,-0.122189614607,5.67219361215,0.10862951003,0.00740829113877,0.0,-0.0428298037785,0.0,0.140938270107,0.0,-1.76031632641,0.0,-0.0104766237647,0.0,-0.0016140466266,0.0,0.00660135790048,0.0,0.072948300052,0.0,-0.0121481673103,0.0,0.0,0.0,0.0,100.0,-0.0,30.48,0.00230154196664,0.0,-0.00230160554007,100.0,-0.0,0.0,-0.0,100.0,1014515.2,0.0,0.0,0.0,0.0,0.0,0.0
1402753067027313392,3,-9.58928542915,-0.00591572024346,6.24789990191,-0.122189614607,5.67793603181,0.10862951003,0.00766668079435,0.0,-0.0418969387211,0.0,0.141299971566,0.0,-1.76064768218,0.0,-0.0149223868553,0.0,-0.00118588843557,0.0,-0.00135236547252,0.0,0.0730776913868,0.0,-0.0125453920586,0.0,0.0,0.0,0.0,100.0,-0.0,30.48,0.00230154196664,0.0,-0.00230160554007,100.0,-0.0,0.0,-0.0,100.0,1014515.2,0.0,0.0,0.0,0.0,0.0,0.0
1402753067047934943,3,-9.58928542915,-0.00591572024346,6.24789990191,-0.122189614607,5.67793603181,0.10862951003,0.00766668079435,0.0,-0.0418969387211,0.0,0.141299971566,0.0,-1.76064768218,0.0,-0.0149223868553,0.0,-0.00118588843557,0.0,-0.00135236547252,0.0,0.0730776913868,0.0,-0.0125453920586,0.0,0.0,0.0,0.0,100.0,-0.0,30.48,0.00230154196664,0.0,-0.00383606751517,100.0,-0.0,0.0,-0.0,100.0,1014515.2,0.0,0.0,0.0,0.0,0.0,0.0
1402753067067052278,3,-9.59431211044,-0.00591572024346,6.25377502091,-0.122189614607,5.66911714429,0.10862951003,0.00036805302453,0.0,-0.0363741234153,0.0,0.141797607554,0.0,-1.76084620137,0.0,-0.00470604924792,0.0,-2.2968701998e-05,0.0,-0.00603122397543,0.0,0.0725162653754,0.0,-0.00361385606375,0.0,0.0,0.0,0.0,100.0,-0.0,30.48,0.00230154196664,0.0,-0.00383606751517,100.0,-0.0,0.0,-0.0,100.0,1014515.2,0.0,0.0,0.0,0.0,0.0,0.0
1402753067087200373,3,-9.59431211044,-0.00591572024346,6.25377502091,-0.122189614607,5.66911714429,0.10862951003,0.00036805302453,0.0,-0.0363741234153,0.0,0.141797607554,0.0,-1.76084620137,0.0,-0.00470604924792,0.0,-2.2968701998e-05,0.0,-0.00603122397543,0.0,0.0725162653754,0.0,-0.00361385606375,0.0,0.0,0.0,0.0,100.0,-0.0,30.48,0.00230154196664,0.0,-0.00383606751517,100.0,-0.0,0.0,-0.0,100.0,1014515.2,0.0,0.0,0.0,0.0,0.0,0.0
1402753067107839662,3,-9.5895741206,-0.00591572024346,6.2548634455,-0.122189614607,5.65679282469,0.10862951003,0.000128014609515,0.0,-0.0788073471789,0.0,0.149839243163,0.0,-1.76072292258,0.0,0.00890206856661,0.0,-0.00173745897025,0.0,-0.0240692865843,0.0,0.073366848291,0.0,-0.0817936093667,0.0,0.0,0.0,0.0,100.0,-0.0,30.48,0.00230154196664,0.0,-0.00383606751517,100.0,-0.0,0.0,-0.0,100.0,1014515.2,0.0,0.0,0.0,0.0,0.0,0.0
1402753067127083253,3,-9.5895741206,-0.00591572024346,6.2548634455,-0.122189614607,5.65679282469,0.10862951003,0.000128014609515,0.0,-0.0788073471789,0.0,0.149839243163,0.0,-1.76072292258,0.0,0.00890206856661,0.0,-0.00173745897025,0.0,-0.0240692865843,0.0,0.073366848291,0.0,-0.0817936093667,0.0,0.0,0.0,0.0,100.0,-0.0,30.48,0.00230154196664,0.0,-0.00383606751517,100.0,-0.0,0.0,-0.0,100.0,1014515.2,0.0,0.0,0.0,0.0,0.0,0.0
