rosbagTimestamp,control_method,x_current,x_desired,y_current,y_desired,z_current,z_desired,x_velocity_current,x_velocity_desired,y_velocity_current,y_velocity_desired,z_velocity_current,z_velocity_desired,yaw_current,yaw_desired,yaw_velocity_current,yaw_velocity_desired,roll_current,roll_desired,roll_velocity_current,roll_velocity_desired,pitch_current,pitch_desired,pitch_velocity_current,pitch_velocity_desired,required_force_x,required_force_y,required_moment_z,resultant_force_x,resultant_force_y,resultant_moment_z,current_port_servo_angle,current_port_thruster_force,current_starboard_servo_angle,current_starboard_thruster_force,estimated_port_servo_angle,estimated_port_thruster_force,estimated_starboard_servo_angle,estimated_starboard_thruster_force,cost_value,step,user_defined_1,user_defined_2,user_defined_3,user_defined_4,user_defined_5
1402753775010616679,3,-9.09238359449,-0.00591572024346,-2.66162854469,-0.122189614607,11.1873888177,0.10862951003,0.0018560416635,0.0,-0.0197035083503,0.0,0.0594720239645,0.0,1.43595542214,0.0,-0.00375422620929,0.0,-0.000338638033587,0.0,-0.00171732414243,0.0,0.0725169634568,0.0,0.0101882885491,0.0,0.0,0.0,0.0,-150.0,0.0,0.0,-0.00383606751517,0.0,-0.00383606751517,0.0,-0.0,-75.0,-0.0,-75.0,1181250.0,0.0,0.0,0.0,0.0,0.0,0.0
1402753775029646351,3,-9.09238359449,-0.00591572024346,-2.66162854469,-0.122189614607,11.1873888177,0.10862951003,0.0018560416635,0.0,-0.0197035083503,0.0,0.0594720239645,0.0,1.43595542214,0.0,-0.00375422620929,0.0,-0.000338638033587,0.0,-0.00171732414243,0.0,0.0725169634568,0.0,0.0101882885491,0.0,0.0,0.0,0.0,-150.0,0.0,0.0,-0.00383606751517,0.0,-0.00383606751517,0.0,-0.0,-75.0,-0.0,-75.0,1181250.0,0.0,0.0,0.0,0.0,0.0,0.0
1402753775050273828,3,-9.08655529,-0.00591572024346,-2.6521301642,-0.122189614607,11.1817988918,0.10862951003,0.00430587408962,0.0,-0.0151522991287,0.0,0.0650460683609,0.0,1.43585351094,0.0,-0.00123248767769,0.0,2.81787305013e-05,0.0,0.0038043340223,0.0,0.0732795442812,0.0,0.0081705942647,0.0,0.0,0.0,0.0,-150.0,0.0,0.0,-0.00383606751517,0.0,-0.00383606751517,0.0,-0.0,-75.0,-0.0,-75.0,1181250.0,0.0,0.0,0.0,0.0,0.0,0.0
1402753775069885980,3,-9.08655529,-0.00591572024346,-2.6521301642,-0.122189614607,11.1817988918,0.10862951003,0.00430587408962,0.0,-0.0151522991287,0.0,0.0650460683609,0.0,1.43585351094,0.0,-0.00123248767769,0.0,2.81787305013e-05,0.0,0.0038043340223,0.0,0.0732795442812,0.0,0.0081705942647,0.0,0.0,0.0,0.0,-150.0,0.0,0.0,-0.00383606751517,0.0,-0.00383606751517,0.0,-0.0,-75.0,-0.0,-75.0,1181250.0,0.0,0.0,0.0,0.0,0.0,0.0
1402753775089697735,3,-9.08498541033,-0.00591572024346,-2.63881057806,-0.122189614607,11.1586752483,0.10862951003,0.0024464374415,0.0,-0.0113530392668,0.0,0.0665641241279,0.0,1.43583470569,0.0,-0.00420614901265,0.0,0.000182383156079,0.0,0.00162396771371,0.0,0.0735244554953,0.0,0.0142805398473,0.0,0.0,0.0,0.0,-150.0,0.0,0.0,-0.00383606751517,0.0,-0.00383606751517,0.0,-0.0,-75.0,-0.0,-75.0,1181250.0,0.0,0.0,0.0,0.0,0.0,0.0
1402753775109764164,3,-9.08498541033,-0.00591572024346,-2.63881057806,-0.122189614607,11.1586752483,0.10862951003,0.0024464374415,0.0,-0.0113530392668,0.0,0.0665641241279,0.0,1.43583470569,0.0,-0.00420614901265,0.0,0.000182383156079,0.0,0.00162396771371,0.0,0.0735244554953,0.0,0.0142805398473,0.0,0.0,0.0,0.0,-150.0,0.0,0.0,-0.00383606751517,0.0,-0.00383606751517,0.0,-0.0,-75.0,-0.0,-75.0,1181250.0,0.0,0.0,0.0,0.0,0.0,0.0
1402753775129671157,3,-9.08149681331,-0.00591572024346,-2.62878073649,-0.122189614607,11.1338803456,0.10862951003,0.0055681811185,0.0,-0.0190084150412,0.0,0.0656708482149,0.0,1.4358823631,0.0,-0.00306615048241,0.0,0.000930256504918,0.0,0.00450878410896,0.0,0.0726376094175,0.0,0.0166578514992,0.0,0.0,0.0,0.0,-150.0,0.0,0.0,-0.00383606751517,0.0,-0.00383606751517,0.0,-0.0,-75.0,-0.0,-75.0,1181250.0,0.0,0.0,0.0,0.0,0.0,0.0
1402753775149985731,3,-9.08149681331,-0.00591572024346,-2.62878073649,-0.122189614607,11.1338803456,0.10862951003,0.0055681811185,0.0,-0.0190084150412,0.0,0.0656708482149,0.0,1.4358823631,0.0,-0.00306615048241,0.0,0.000930256504918,0.0,0.00450878410896,0.0,0.0726376094175,0.0,0.0166578514992,0.0,0.0,0.0,0.0,-150.0,0.0,0.0,-0.00383606751517,0.0,-0.00383606751517,0.0,-0.0,-75.0,-0.0,-75.0,1181250.0,0.0,0.0,0.0,0.0,0.0,0.0
1402753775169983265,3,-9.08129023551,-0.00591572024346,-2.62942750581,-0.122189614607,11.136397893,0.10862951003,0.00530459947832,0.0,-0.0189570277888,0.0,0.0667737518688,0.0,1.43584141335,0.0,-0.000634299432932,0.0,0.00117524083655,0.0,0.00771494775103,0.0,0.0725593758169,0.0,0.0131600524832,0.0,0.0,0.0,0.0,-150.0,0.0,0.0,-0.00383606751517,0.0,-0.00383606751517,0.0,-0.0,-75.0,-0.0,-75.0,1181250.0,0.0,0.0,0.0,0.0,0.0,0.0
1402753775189755224,3,-9.08129023551,-0.00591572024346,-2.62942750581,-0.122189614607,11.136397893,0.10862951003,0.00530459947832,0.0,-0.0189570277888,0.0,0.0667737518688,0.0,1.43584141335,0.0,-0.000634299432932,0.0,0.00117524083655,0.0,0.00771494775103,0.0,0.0725593758169,0.0,0.0131600524832,0.0,0.0,0.0,0.0,-150.0,0.0,0.0,-0.00383606751517,0.0,-0.00383606751517,0.0,-0.0,-75.0,-0.0,-75.0,1181250.0,0.0,0.0,0.0,0.0,0.0,0.0
1402753775209816978,3,-9.07800263996,-0.00591572024346,-2.61502167435,-0.122189614607,11.1237326642,0.10862951003,0.00414699275147,0.0,-0.00496500995914,0.0,0.0681737675007,0.0,1.43584972035,0.0,0.00376708676434,0.0,0.000999400569572,0.0,0.00842074772064,0.0,0.0739126179153,0.0,0.00109929209555,0.0,0.0,0.0,0.0,-150.0,0.0,0.0,-0.00383606751517,0.0,-0.00383606751517,0.0,-0.0,-75.0,-0.0,-75.0,1181250.0,0.0,0.0,0.0,0.0,0.0,0.0
1402753775231606526,3,-9.07800263996,-0.00591572024346,-2.61502167435,-0.122189614607,11.1237326642,0.10862951003,0.00414699275147,0.0,-0.00496500995914,0.0,0.0681737675007,0.0,1.43584972035,0.0,0.00376708676434,0.0,0.000999400569572,0.0,0.00842074772064,0.0,0.0739126179153,0.0,0.00109929209555,0.0,0.0,0.0,0.0,-150.0,0.0,0.0,-0.00383606751517,0.0,-0.00383606751517,0.0,-0.0,-75.0,-0.0,-75.0,1181250.0,0.0,0.0,0.0,0.0,0.0,0.0
1402753775249978929,3,-9.07993811089,-0.00591572024346,-2.60442276467,-0.122189614607,11.0889777846,0.10862951003,0.000655190632852,0.0,-0.0131251252586,0.0,0.0639534648961,0.0,1.43598669338,0.0,3.95682589467e-05,0.0,0.00118154689503,0.0,0.00592194708096,0.0,0.0723746059365,0.0,0.00406602760147,0.0,0.0,0.0,0.0,-150.0,0.0,0.0,-0.00383606751517,0.0,-0.00230160554007,0.0,-0.0,-75.0,-0.0,-75.0,1181250.0,0.0,0.0,0.0,0.0,0.0,0.0
1402753775269826904,3,-9.07993811089,-0.00591572024346,-2.60442276467,-0.122189614607,11.0889777846,0.10862951003,0.000655190632852,0.0,-0.0131251252586,0.0,0.0639534648961,0.0,1.43598669338,0.0,3.95682589467e-05,0.0,0.00118154689503,0.0,0.00592194708096,0.0,0.0723746059365,0.0,0.00406602760147,0.0,0.0,0.0,0.0,-150.0,0.0,0.0,-0.00383606751517,0.0,-0.00383606751517,0.0,-0.0,-75.0,-0.0,-75.0,1181250.0,0.0,0.0,0.0,0.0,0.0,0.0
1402753775289595044,3,-9.07576246228,-0.00591572024346,-2.59793577656,-0.122189614607,11.0962503515,0.10862951003,-0.00040481777189,0.0,-0.00295628154796,0.0,0.0690106235813,0.0,1.43601017535,0.0,0.000296261946703,0.0,0.000967833884332,0.0,0.00639678275771,0.0,0.0733236419848,0.0,0.00346216678286,0.0,0.0,0.0,0.0,-150.0,0.0,0.0,-0.00383606751517,0.0,-0.00383606751517,0.0,-0.0,-75.0,-0.0,-75.0,1181250.0,0.0,0.0,0.0,0.0,0.0,0.0
1402753775309902672,3,-9.07576246228,-0.00591572024346,-2.59793577656,-0.122189614607,11.0962503515,0.10862951003,-0.00040481777189,0.0,-0.00295628154796,0.0,0.0690106235813,0.0,1.43601017535,0.0,0.000296261946703,0.0,0.000967833884332,0.0,0.00639678275771,0.0,0.0733236419848,0.0,0.00346216678286,0.0,0.0,0.0,0.0,-150.0,0.0,0.0,-0.00383606751517,0.0,-0.00383606751517,0.0,-0.0,-75.0,-0.0,-75.0,1181250.0,0.0,0.0,0.0,0.0,0.0,0.0
1402753775329546585,3,-9.07375437614,-0.00591572024346,-2.59290125472,-0.122189614607,11.0714856061,0.10862951003,0.00416421913533,0.0,-0.0190362259512,0.0,0.0651240126577,0.0,1.43598159231,0.0,-0.00496371620611,0.0,0.00199854298296,0.0,0.00807027460985,0.0,0.0710699087062,0.0,-0.00384825073502,0.0,0.0,0.0,0.0,-150.0,0.0,0.0,-0.00383606751517,0.0,-0.00383606751517,0.0,-0.0,-75.0,-0.0,-75.0,1181250.0,0.0,0.0,0.0,0.0,0.0,0.0
1402753775349585911,3,-9.07375437614,-0.00591572024346,-2.59290125472,-0.122189614607,11.0714856061,0.10862951003,0.00416421913533,0.0,-0.0190362259512,0.0,0.0651240126577,0.0,1.43598159231,0.0,-0.00496371620611,0.0,0.00199854298296,0.0,0.00807027460985,0.0,0.0710699087062,0.0,-0.00384825073502,0.0,0.0,0.0,0.0,-150.0,0.0,0.0,-0.00383606751517,0.0,-0.00383606751517,0.0,-0.0,-75.0,-0.0,-75.0,1181250.0,0.0,0.0,0.0,0.0,0.0,0.0
1402753775369550999,3,-9.07363849504,-0.00591572024346,-2.59367816751,-0.122189614607,11.0740626717,0.10862951003,0.00484482730041,0.0,-0.0194429680738,0.0,0.0651818890238,0.0,1.43586646172,0.0,-0.00464547937162,0.0,0.00181101675183,0.0,0.00964205078598,0.0,0.0707755876159,0.0,-0.00705531196883,0.0,0.0,0.0,0.0,-150.0,0.0,0.0,-0.00383606751517,0.0,-0.00383606751517,0.0,-0.0,-75.0,-0.0,-75.0,1181250.0,0.0,0.0,0.0,0.0,0.0,0.0
1402753775389556363,3,-9.07363849504,-0.00591572024346,-2.59367816751,-0.122189614607,11.0740626717,0.10862951003,0.00484482730041,0.0,-0.0194429680738,0.0,0.0651818890238,0.0,1.43586646172,0.0,-0.00464547937162,0.0,0.00181101675183,0.0,0.00964205078598,0.0,0.0707755876159,0.0,-0.00705531196883,0.0,0.0,0.0,0.0,-150.0,0.0,0.0,-0.00383606751517,-75.0,-0.00383606751517,-75.0,-0.0,-75.0,-0.0,-75.0,1181250.0,0.0,0.0,0.0,0.0,0.0,0.0
1402753775410152107,3,-9.07217103658,-0.00591572024346,-2.58447566532,-0.122189614607,11.0634674201,0.10862951003,0.0047959547268,0.0,-0.0127851028585,0.0,0.0656352465476,0.0,1.43570844836,0.0,-0.00139879718942,0.0,0.00130321245552,0.0,0.00683766507151,0.0,0.0711519281509,0.0,-0.00230975701315,0.0,0.0,0.0,0.0,-150.0,0.0,0.0,-0.00383606751517,-75.0,-0.00383606751517,-75.0,-0.0,-75.0,-0.0,-75.0,1181250.0,0.0,0.0,0.0,0.0,0.0,0.0
1402753775430166257,3,-9.07217103658,-0.00591572024346,-2.58447566532,-0.122189614607,11.0634674201,0.10862951003,0.0047959547268,0.0,-0.0127851028585,0.0,0.0656352465476,0.0,1.43570844836,0.0,-0.00139879718942,0.0,0.00130321245552,0.0,0.00683766507151,0.0,0.0711519281509,0.0,-0.00230975701315,0.0,0.0,0.0,0.0,-150.0,0.0,0.0,-0.00383606751517,-75.0,-0.00383606751517,-75.0,-0.0,-75.0,-0.0,-75.0,1181250.0,0.0,0.0,0.0,0.0,0.0,0.0
1402753775449632761,3,-9.07101445327,-0.00591572024346,-2.57520357309,-0.122189614607,11.0518699298,0.10862951003,0.000407227572285,0.0,-0.00728096986754,0.0,0.0659447905022,0.0,1.43547628322,0.0,-0.00887316730615,0.0,0.000451521840284,0.0,0.0023284861618,0.0,0.0714348292962,0.0,-0.0133012830125,0.0,0.0,0.0,0.0,-150.0,0.0,0.0,-0.00383606751517,-75.0,-0.00383606751517,-75.0,-0.0,-75.0,-0.0,-75.0,1181250.0,0.0,0.0,0.0,0.0,0.0,0.0
1402753775469846915,3,-9.07101445327,-0.00591572024346,-2.57520357309,-0.122189614607,11.0518699298,0.10862951003,0.000407227572285,0.0,-0.00728096986754,0.0,0.0659447905022,0.0,1.43547628322,0.0,-0.00887316730615,0.0,0.000451521840284,0.0,0.0023284861618,0.0,0.0714348292962,0.0,-0.0133012830125,0.0,0.0,0.0,0.0,-150.0,0.0,0.0,-0.00383606751517,-75.0,-0.00383606751517,-75.0,-0.0,-75.0,-0.0,-75.0,1181250.0,0.0,0.0,0.0,0.0,0.0,0.0
1402753775489661138,3,-9.0693463604,-0.00591572024346,-2.56853548236,-0.122189614607,11.04054876,0.10862951003,-0.00208642977836,0.0,-0.0118476089466,0.0,0.0669767856072,0.0,1.43542306139,0.0,-0.00182114732321,0.0,-0.000167815056094,0.0,0.00522195488154,0.0,0.0705951124256,0.0,-0.0117314934995,0.0,0.0,0.0,0.0,-150.0,0.0,0.0,-0.00383606751517,-75.0,-0.00383606751517,-75.0,-0.0,-75.0,-0.0,-75.0,1181250.0,0.0,0.0,0.0,0.0,0.0,0.0
1402753775509876795,3,-9.0693463604,-0.00591572024346,-2.56853548236,-0.122189614607,11.04054876,0.10862951003,-0.00208642977836,0.0,-0.0118476089466,0.0,0.0669767856072,0.0,1.43542306139,0.0,-0.00182114732321,0.0,-0.000167815056094,0.0,0.00522195488154,0.0,0.0705951124256,0.0,-0.0117314934995,0.0,0.0,0.0,0.0,-150.0,0.0,0.0,-0.00383606751517,-75.0,-0.00537029107169,-75.0,-0.0,-75.0,-0.0,-75.0,1181250.0,0.0,0.0,0.0,0.0,0.0,0.0
1402753775530080021,3,-9.06933766911,-0.00591572024346,-2.5690645481,-0.122189614607,11.0433979584,0.10862951003,-0.00353463078674,0.0,-0.013515591784,0.0,0.0688023241977,0.0,1.43517237969,0.0,-0.00526035150269,0.0,-0.00042726797659,0.0,0.00479557613995,0.0,0.0704080438287,0.0,-0.0115840810578,0.0,0.0,0.0,0.0,-150.0,0.0,0.0,-0.00383606751517,-75.0,-0.00537029107169,-75.0,-0.0,-75.0,-0.0,-75.0,1181250.0,0.0,0.0,0.0,0.0,0.0,0.0
1402753775549594322,3,-9.06933766911,-0.00591572024346,-2.5690645481,-0.122189614607,11.0433979584,0.10862951003,-0.00353463078674,0.0,-0.013515591784,0.0,0.0688023241977,0.0,1.43517237969,0.0,-0.00526035150269,0.0,-0.00042726797659,0.0,0.00479557613995,0.0,0.0704080438287,0.0,-0.0115840810578,0.0,0.0,0.0,0.0,-150.0,0.0,0.0,-0.00383606751517,-75.0,-0.00537029107169,-75.0,-0.0,-75.0,-0.0,-75.0,1181250.0,0.0,0.0,0.0,0.0,0.0,0.0
1402753775569639921,3,-9.06549407528,-0.00591572024346,-2.56617822718,-0.122189614607,11.0406452665,0.10862951003,-0.00482890487742,0.0,-0.0403239530717,0.0,0.069592676874,0.0,1.43502313296,0.0,-0.00163578427381,0.0,-0.000655275375934,0.0,-0.00865026839527,0.0,0.0695852182508,0.0,-0.00635930597392,0.0,0.0,0.0,0.0,-150.0,0.0,0.0,-0.00383606751517,-75.0,-0.00537029107169,-75.0,-0.0,-75.0,-0.0,-75.0,1181250.0,0.0,0.0,0.0,0.0,0.0,0.0
1402753775589421391,3,-9.06549407528,-0.00591572024346,-2.56617822718,-0.122189614607,11.0406452665,0.10862951003,-0.00482890487742,0.0,-0.0403239530717,0.0,0.069592676874,0.0,1.43502313296,0.0,-0.00163578427381,0.0,-0.000655275375934,0.0,-0.00865026839527,0.0,0.0695852182508,0.0,-0.00635930597392,0.0,0.0,0.0,0.0,-150.0,0.0,0.0,-0.00383606751517,-75.0,-0.00537029107169,-75.0,-0.0,-75.0,-0.0,-75.0,1181250.0,0.0,0.0,0.0,0.0,0.0,0.0
1402753775609856228,3,-9.06585901443,-0.00591572024346,-2.56869989801,-0.122189614607,11.0434898304,0.10862951003,-0.00903914496174,0.0,-0.0774011242422,0.0,0.0655090695989,0.0,1.43509360191,0.0,0.00455214668265,0.0,-0.00115515819775,0.0,-0.041034171082,0.0,0.0707756557519,0.0,0.00878328472639,0.0,0.0,0.0,0.0,-150.0,0.0,0.0,-0.00383606751517,-75.0,-0.00537029107169,-75.0,-0.0,-75.0,-0.0,-75.0,1181250.0,0.0,0.0,0.0,0.0,0.0,0.0
1402753775630294148,3,-9.06585901443,-0.00591572024346,-2.56869989801,-0.122189614607,11.0434898304,0.10862951003,-0.00903914496174,0.0,-0.0774011242422,0.0,0.0655090695989,0.0,1.43509360191,0.0,0.00455214668265,0.0,-0.00115515819775,0.0,-0.041034171082,0.0,0.0707756557519,0.0,0.00878328472639,0.0,0.0,0.0,0.0,-150.0,0.0,0.0,-0.00383606751517,-75.0,-0.00383606751517,-75.0,-0.0,-75.0,-0.0,-75.0,1181250.0,0.0,0.0,0.0,0.0,0.0,0.0
1402753775649648150,3,-9.06126715807,-0.00591572024346,-2.54622959124,-0.122189614607,11.0060035571,0.10862951003,-0.0127012569369,0.0,-0.10385520738,0.0,0.0642236719079,0.0,1.43554979262,0.0,0.0118395980953,0.0,-0.00195122558027,0.0,-0.0551776024057,0.0,0.0750997566568,0.0,0.0114863881008,0.0,0.0,0.0,0.0,-150.0,0.0,0.0,-0.00383606751517,-75.0,-0.00537029107169,-75.0,-0.0,-75.0,-0.0,-75.0,1181250.0,0.0,0.0,0.0,0.0,0.0,0.0
1402753775669540211,3,-9.06126715807,-0.00591572024346,-2.54622959124,-0.122189614607,11.0060035571,0.10862951003,-0.0127012569369,0.0,-0.10385520738,0.0,0.0642236719079,0.0,1.43554979262,0.0,0.0118395980953,0.0,-0.00195122558027,0.0,-0.0551776024057,0.0,0.0750997566568,0.0,0.0114863881008,0.0,0.0,0.0,0.0,-150.0,0.0,0.0,-0.00383606751517,-75.0,-0.00383606751517,-75.0,-0.0,-75.0,-0.0,-75.0,1181250.0,0.0,0.0,0.0,0.0,0.0,0.0
1402753775689655295,3,-9.06175402196,-0.00591572024346,-2.53580076002,-0.122189614607,10.9794345476,0.10862951003,-0.0207116035523,0.0,-0.126045706359,0.0,0.0627186817599,0.0,1.43577601016,0.0,0.0178330587111,0.0,-0.00275501596235,0.0,-0.0594564955509,0.0,0.0774064629117,0.0,-0.0247880887267,0.0,0.0,0.0,0.0,-150.0,0.0,0.0,-0.00383606751517,-75.0,-0.00383606751517,-75.0,-0.0,-75.0,-0.0,-75.0,1181250.0,0.0,0.0,0.0,0.0,0.0,0.0
1402753775709598115,3,-9.06220532612,-0.00591572024346,-2.53858389687,-0.122189614607,10.9807937132,0.10862951003,-0.020189360681,0.0,-0.143281956798,0.0,0.0621913749822,0.0,1.436140773,0.0,0.0204802443362,0.0,-0.00302573293566,0.0,-0.0623508101672,0.0,0.0787004828642,0.0,-3.64069408166e-05,0.0,0.0,0.0,0.0,-150.0,0.0,0.0,-0.00383606751517,-75.0,-0.00537029107169,-75.0,-0.0,-75.0,-0.0,-75.0,1181250.0,0.0,0.0,0.0,0.0,0.0,0.0
1402753775729566477,3,-9.06220532612,-0.00591572024346,-2.53858389687,-0.122189614607,10.9807937132,0.10862951003,-0.020189360681,0.0,-0.143281956798,0.0,0.0621913749822,0.0,1.436140773,0.0,0.0204802443362,0.0,-0.00302573293566,0.0,-0.0623508101672,0.0,0.0787004828642,0.0,-3.64069408166e-05,0.0,0.0,0.0,0.0,-150.0,0.0,0.0,-0.00383606751517,-75.0,-0.00230160554007,-75.0,-0.0,-75.0,-0.0,-75.0,1181250.0,0.0,0.0,0.0,0.0,0.0,0.0
1402753775750454385,3,-9.05826324068,-0.00591572024346,-2.53512887421,-0.122189614607,10.9687719582,0.10862951003,-0.018946496888,0.0,-0.163851586551,0.0,0.0618444749365,0.0,1.43727379961,0.0,0.0236311837688,0.0,-0.00294178391259,0.0,-0.060683133409,0.0,0.0796212053961,0.0,-0.0341558087544,0.0,0.0,0.0,0.0,-150.0,0.0,0.0,-0.00383606751517,-75.0,-0.00383606751517,-75.0,-0.0,-75.0,-0.0,-75.0,1181250.0,0.0,0.0,0.0,0.0,0.0,0.0
1402753775769663176,3,-9.05826324068,-0.00591572024346,-2.53512887421,-0.122189614607,10.9687719582,0.10862951003,-0.018946496888,0.0,-0.163851586551,0.0,0.0618444749365,0.0,1.43727379961,0.0,0.0236311837688,0.0,-0.00294178391259,0.0,-0.060683133409,0.0,0.0796212053961,0.0,-0.0341558087544,0.0,0.0,0.0,0.0,-150.0,0.0,0.0,-0.00383606751517,-75.0,-0.00230160554007,-75.0,-0.0,-75.0,-0.0,-75.0,1181250.0,0.0,0.0,0.0,0.0,0.0,0.0
1402753775789598220,3,-9.05642132461,-0.00591572024346,-2.53026732536,-0.122189614607,10.9574484103,0.10862951003,-0.0153221067292,0.0,-0.185068184465,0.0,0.0656661905444,0.0,1.43819839769,0.0,0.0274336781415,0.0,-0.00301663408832,0.0,-0.0509297282061,0.0,0.0833872667764,0.0,0.0129689758333,0.0,0.0,0.0,0.0,-150.0,0.0,0.0,-0.00383606751517,-75.0,-0.00383606751517,-75.0,-0.0,-75.0,-0.0,-75.0,1181250.0,0.0,0.0,0.0,0.0,0.0,0.0
1402753775809692279,3,-9.05642132461,-0.00591572024346,-2.53026732536,-0.122189614607,10.9574484103,0.10862951003,-0.0153221067292,0.0,-0.185068184465,0.0,0.0656661905444,0.0,1.43819839769,0.0,0.0274336781415,0.0,-0.00301663408832,0.0,-0.0509297282061,0.0,0.0833872667764,0.0,0.0129689758333,0.0,0.0,0.0,0.0,-150.0,0.0,0.0,-0.00383606751517,-75.0,-0.00383606751517,-75.0,-0.0,-75.0,-0.0,-75.0,1181250.0,0.0,0.0,0.0,0.0,0.0,0.0
1402753775830334936,3,-9.05713545991,-0.00591572024346,-2.53878890387,-0.122189614607,10.9602689017,0.10862951003,-0.0180690077856,0.0,-0.218951156534,0.0,0.0723990251572,0.0,1.4391917572,0.0,0.0215398819455,0.0,-0.00300583582601,0.0,-0.037444580693,0.0,0.085165712468,0.0,0.0221913370267,0.0,0.0,0.0,0.0,-150.0,0.0,0.0,-0.00383606751517,-75.0,-0.00383606751517,-75.0,-0.0,-75.0,-0.0,-75.0,1181250.0,0.0,0.0,0.0,0.0,0.0,0.0
1402753775849458059,3,-9.05713545991,-0.00591572024346,-2.53878890387,-0.122189614607,10.9602689017,0.10862951003,-0.0180690077856,0.0,-0.218951156534,0.0,0.0723990251572,0.0,1.4391917572,0.0,0.0215398819455,0.0,-0.00300583582601,0.0,-0.037444580693,0.0,0.085165712468,0.0,0.0221913370267,0.0,0.0,0.0,0.0,-150.0,0.0,0.0,-0.00383606751517,-75.0,-0.00383606751517,-75.0,-0.0,-75.0,-0.0,-75.0,1181250.0,0.0,0.0,0.0,0.0,0.0,0.0
1402753775869642511,3,-9.05256511963,-0.00591572024346,-2.54405086637,-0.122189614607,10.959307058,0.10862951003,-0.0157281605854,0.0,-0.252808521413,0.0,0.0782916359961,0.0,1.44099461617,0.0,0.0274675218669,0.0,-0.00261517006256,0.0,-0.012994791132,0.0,0.0861876337396,0.0,0.0177904650134,0.0,0.0,0.0,0.0,-150.0,0.0,0.0,-0.00383606751517,-75.0,0.000767318410122,-75.0,-0.0,-75.0,-0.0,-75.0,1181250.0,0.0,0.0,0.0,0.0,0.0,0.0
1402753775889827185,3,-9.05256511963,-0.00591572024346,-2.54405086637,-0.122189614607,10.959307058,0.10862951003,-0.0157281605854,0.0,-0.252808521413,0.0,0.0782916359961,0.0,1.44099461617,0.0,0.0274675218669,0.0,-0.00261517006256,0.0,-0.012994791132,0.0,0.0861876337396,0.0,0.0177904650134,0.0,0.0,0.0,0.0,-150.0,0.0,0.0,-0.00383606751517,-75.0,-0.000767381983555,-75.0,-0.0,-75.0,-0.0,-75.0,1181250.0,0.0,0.0,0.0,0.0,0.0,0.0
1402753775909696630,3,-9.0566332859,-0.00591572024346,-2.54826237233,-0.122189614607,10.9416698656,0.10862951003,-0.0281436455823,0.0,-0.28934823062,0.0,0.0836687673758,0.0,1.44091339168,0.0,0.0313250434376,0.0,-0.00362389232069,0.0,0.00854838207061,0.0,0.0865528426316,0.0,0.023599041543,0.0,0.0,0.0,0.0,-150.0,0.0,0.0,-0.00383606751517,-75.0,0.00383600394174,-75.0,-0.0,-75.0,-0.0,-75.0,1181250.0,0.0,0.0,0.0,0.0,0.0,0.0
1402753775929512475,3,-9.0566332859,-0.00591572024346,-2.54826237233,-0.122189614607,10.9416698656,0.10862951003,-0.0281436455823,0.0,-0.28934823062,0.0,0.0836687673758,0.0,1.44091339168,0.0,0.0313250434376,0.0,-0.00362389232069,0.0,0.00854838207061,0.0,0.0865528426316,0.0,0.023599041543,0.0,0.0,0.0,0.0,-150.0,0.0,0.0,-0.00383606751517,-75.0,0.000767318410122,-75.0,-0.0,-75.0,-0.0,-75.0,1181250.0,0.0,0.0,0.0,0.0,0.0,0.0
1402753775949581807,3,-9.04972743745,-0.00591572024346,-2.56272360914,-0.122189614607,10.9390014304,0.10862951003,-0.0163289075649,0.0,-0.337674075312,0.0,0.092037258967,0.0,1.44513367286,0.0,0.031084171508,0.0,-0.00136788539236,0.0,0.0256664493244,0.0,0.0847449282455,0.0,0.0236135032853,0.0,0.0,0.0,0.0,-150.0,0.0,0.0,-0.00383606751517,-75.0,0.00383600394174,-75.0,-0.0,-75.0,-0.0,-75.0,1181250.0,0.0,0.0,0.0,0.0,0.0,0.0
1402753775969849884,3,-9.04972743745,-0.00591572024346,-2.56272360914,-0.122189614607,10.9390014304,0.10862951003,-0.0163289075649,0.0,-0.337674075312,0.0,0.092037258967,0.0,1.44513367286,0.0,0.031084171508,0.0,-0.00136788539236,0.0,0.0256664493244,0.0,0.0847449282455,0.0,0.0236135032853,0.0,0.0,0.0,0.0,-150.0,0.0,0.0,-0.00383606751517,-75.0,0.00537022749826,-75.0,-0.0,-75.0,-0.0,-75.0,1181250.0,0.0,0.0,0.0,0.0,0.0,0.0
1402753775989673895,3,-9.04890511478,-0.00591572024346,-2.57027112979,-0.122189614607,10.9372558961,0.10862951003,-0.0271069931741,0.0,-0.36305396643,0.0,0.0928849795383,0.0,1.44476653142,0.0,0.0318916584752,0.0,-0.00209697215518,0.0,0.0341520313697,0.0,0.0827113411044,0.0,-0.00774510869501,0.0,0.0,0.0,0.0,-150.0,0.0,0.0,-0.00383606751517,-75.0,0.00383600394174,-75.0,-0.0,-75.0,-0.0,-75.0,1181250.0,0.0,0.0,0.0,0.0,0.0,0.0
1402753776010261222,3,-9.04890511478,-0.00591572024346,-2.57027112979,-0.122189614607,10.9372558961,0.10862951003,-0.0271069931741,0.0,-0.36305396643,0.0,0.0928849795383,0.0,1.44476653142,0.0,0.0318916584752,0.0,-0.00209697215518,0.0,0.0341520313697,0.0,0.0827113411044,0.0,-0.00774510869501,0.0,0.0,0.0,0.0,-150.0,0.0,0.0,-0.00383606751517,-75.0,0.00383600394174,-75.0,-0.0,-75.0,-0.0,-75.0,1181250.0,0.0,0.0,0.0,0.0,0.0,0.0
1402753776029693080,3,-9.05014864706,-0.00591572024346,-2.58616665843,-0.122189614607,10.9413120343,0.10862951003,-0.0319952288254,0.0,-0.392372247681,0.0,0.101172672445,0.0,1.44610532203,0.0,0.0314095563506,0.0,-0.00205744953511,0.0,0.0416775131222,0.0,0.0810212655053,0.0,-0.0259330943218,0.0,0.0,0.0,0.0,-150.0,0.0,0.0,-0.00383606751517,-75.0,0.00383600394174,-75.0,-0.0,-75.0,-0.0,-75.0,1181250.0,0.0,0.0,0.0,0.0,0.0,0.0
1402753776049553007,3,-9.05014864706,-0.00591572024346,-2.58616665843,-0.122189614607,10.9413120343,0.10862951003,-0.0319952288254,0.0,-0.392372247681,0.0,0.101172672445,0.0,1.44610532203,0.0,0.0314095563506,0.0,-0.00205744953511,0.0,0.0416775131222,0.0,0.0810212655053,0.0,-0.0259330943218,0.0,0.0,0.0,0.0,-150.0,0.0,0.0,-0.00383606751517,-75.0,0.00383600394174,-75.0,-0.0,-75.0,-0.0,-75.0,1181250.0,0.0,0.0,0.0,0.0,0.0,0.0
1402753776069868909,3,-9.04786115556,-0.00591572024346,-2.5968060011,-0.122189614607,10.9190905313,0.10862951003,-0.0240239948166,0.0,-0.430596870422,0.0,0.0954582847568,0.0,1.44911363579,0.0,0.0320802834008,0.0,-0.000468485231413,0.0,0.0519916572828,0.0,0.0779240932509,0.0,-0.00890676407595,0.0,0.0,0.0,0.0,-150.0,0.0,0.0,-0.00383606751517,-75.0,0.00230154196664,-75.0,-0.0,-75.0,-0.0,-75.0,1181250.0,0.0,0.0,0.0,0.0,0.0,0.0
1402753776089592855,3,-9.04786115556,-0.00591572024346,-2.5968060011,-0.122189614607,10.9190905313,0.10862951003,-0.0240239948166,0.0,-0.430596870422,0.0,0.0954582847568,0.0,1.44911363579,0.0,0.0320802834008,0.0,-0.000468485231413,0.0,0.0519916572828,0.0,0.0779240932509,0.0,-0.00890676407595,0.0,0.0,0.0,0.0,-150.0,0.0,0.0,-0.00383606751517,-75.0,0.00383600394174,-75.0,-0.0,-75.0,-0.0,-75.0,1181250.0,0.0,0.0,0.0,0.0,0.0,0.0
1402753776109878803,3,-9.04493041604,-0.00591572024346,-2.61085874529,-0.122189614607,10.9162494293,0.10862951003,-0.0243182445047,0.0,-0.458810987233,0.0,0.0978097819959,0.0,1.45065676029,0.0,0.0340702346417,0.0,-2.85505741085e-05,0.0,0.050566197005,0.0,0.075643934154,0.0,-0.00611954372803,0.0,0.0,0.0,0.0,-150.0,0.0,0.0,-0.00383606751517,-75.0,0.00230154196664,-75.0,-0.0,-75.0,-0.0,-75.0,1181250.0,0.0,0.0,0.0,0.0,0.0,0.0
1402753776130200216,3,-9.04493041604,-0.00591572024346,-2.61085874529,-0.122189614607,10.9162494293,0.10862951003,-0.0243182445047,0.0,-0.458810987233,0.0,0.0978097819959,0.0,1.45065676029,0.0,0.0340702346417,0.0,-2.85505741085e-05,0.0,0.050566197005,0.0,0.075643934154,0.0,-0.00611954372803,0.0,0.0,0.0,0.0,-150.0,0.0,0.0,-0.00383606751517,-75.0,0.00383600394174,-75.0,-0.0,-75.0,-0.0,-75.0,1181250.0,0.0,0.0,0.0,0.0,0.0,0.0
1402753776149562645,3,-9.04357697835,-0.00591572024346,-2.61540118135,-0.122189614607,10.8970920231,0.10862951003,-0.0246066991147,0.0,-0.470237401023,0.0,0.100019544479,0.0,1.45214046105,0.0,0.0285963822036,0.0,0.000108767891708,0.0,0.0442486911154,0.0,0.075028316343,0.0,0.00710174680876,0.0,0.0,0.0,0.0,-150.0,0.0,0.0,-0.00383606751517,-75.0,0.00230154196664,-75.0,-0.0,-75.0,-0.0,-75.0,1181250.0,0.0,0.0,0.0,0.0,0.0,0.0
1402753776169759283,3,-9.04357697835,-0.00591572024346,-2.61540118135,-0.122189614607,10.8970920231,0.10862951003,-0.0246066991147,0.0,-0.470237401023,0.0,0.100019544479,0.0,1.45214046105,0.0,0.0285963822036,0.0,0.000108767891708,0.0,0.0442486911154,0.0,0.075028316343,0.0,0.00710174680876,0.0,0.0,0.0,0.0,-150.0,0.0,0.0,-0.00383606751517,-75.0,0.00383600394174,-75.0,-0.0,-75.0,-0.0,-75.0,1181250.0,0.0,0.0,0.0,0.0,0.0,0.0
1402753776191664215,3,-9.04366531299,-0.00591572024346,-2.62700767054,-0.122189614607,10.8769838599,0.10862951003,-0.0253616295022,0.0,-0.493589596884,0.0,0.0874084027696,0.0,1.45373447759,0.0,0.0306619847575,0.0,0.000510623008631,0.0,0.0366335964474,0.0,0.0735836238896,0.0,0.00104018436877,0.0,0.0,0.0,0.0,-150.0,0.0,0.0,-0.00383606751517,-75.0,0.00383600394174,-75.0,-0.0,-75.0,-0.0,-75.0,1181250.0,0.0,0.0,0.0,0.0,0.0,0.0
1402753776209634144,3,-9.04366531299,-0.00591572024346,-2.62700767054,-0.122189614607,10.8769838599,0.10862951003,-0.0253616295022,0.0,-0.493589596884,0.0,0.0874084027696,0.0,1.45373447759,0.0,0.0306619847575,0.0,0.000510623008631,0.0,0.0366335964474,0.0,0.0735836238896,0.0,0.00104018436877,0.0,0.0,0.0,0.0,-150.0,0.0,0.0,-0.00383606751517,-75.0,0.00230154196664,-75.0,-0.0,-75.0,-0.0,-75.0,1181250.0,0.0,0.0,0.0,0.0,0.0,0.0
1402753776230759364,3,-9.03796139544,-0.00591572024346,-2.65791682978,-0.122189614607,10.8862510651,0.10862951003,-0.0239949915386,0.0,-0.539479571616,0.0,0.0868473804795,0.0,1.45663542742,0.0,0.0341152876926,0.0,0.00116822226976,0.0,0.0227028339744,0.0,0.070102282524,0.0,-0.0245364118796,0.0,0.0,0.0,0.0,-150.0,0.0,0.0,-0.00383606751517,-75.0,0.00383600394174,-75.0,-0.0,-75.0,-0.0,-75.0,1181250.0,0.0,0.0,0.0,0.0,0.0,0.0
1402753776249413923,3,-9.03796139544,-0.00591572024346,-2.65791682978,-0.122189614607,10.8862510651,0.10862951003,-0.0239949915386,0.0,-0.539479571616,0.0,0.0868473804795,0.0,1.45663542742,0.0,0.0341152876926,0.0,0.00116822226976,0.0,0.0227028339744,0.0,0.070102282524,0.0,-0.0245364118796,0.0,0.0,0.0,0.0,-150.0,0.0,0.0,-0.00383606751517,-75.0,0.00230154196664,-75.0,-0.0,-75.0,-0.0,-75.0,1181250.0,0.0,0.0,0.0,0.0,0.0,0.0
1402753776269514574,3,-9.03845732798,-0.00591572024346,-2.66942132922,-0.122189614607,10.8882375745,0.10862951003,-0.0225135424045,0.0,-0.550558723504,0.0,0.0854699218656,0.0,1.45729153334,0.0,0.0335114183631,0.0,0.00120044506167,0.0,0.0179841876446,0.0,0.0697716923714,0.0,0.00705504726107,0.0,0.0,0.0,0.0,-150.0,0.0,0.0,-0.00383606751517,-75.0,0.00383600394174,-75.0,-0.0,-75.0,-0.0,-75.0,1181250.0,0.0,0.0,0.0,0.0,0.0,0.0
1402753776289563145,3,-9.03845732798,-0.00591572024346,-2.66942132922,-0.122189614607,10.8882375745,0.10862951003,-0.0225135424045,0.0,-0.550558723504,0.0,0.0854699218656,0.0,1.45729153334,0.0,0.0335114183631,0.0,0.00120044506167,0.0,0.0179841876446,0.0,0.0697716923714,0.0,0.00705504726107,0.0,0.0,0.0,0.0,-150.0,0.0,0.0,-0.00383606751517,-75.0,0.00383600394174,-75.0,-0.0,-75.0,-0.0,-75.0,1181250.0,0.0,0.0,0.0,0.0,0.0,0.0
1402753776310096762,3,-9.04192048893,-0.00591572024346,-2.68772267191,-0.122189614607,10.8554836377,0.10862951003,-0.0308511231139,0.0,-0.588428352757,0.0,0.0799002360632,0.0,1.45864588766,0.0,0.0297210722676,0.0,0.000854364568741,0.0,-0.00225365202698,0.0,0.0672325030148,0.0,-0.0144913315783,0.0,0.0,0.0,0.0,-150.0,0.0,0.0,-0.00383606751517,-75.0,0.00383600394174,-75.0,-0.0,-75.0,-0.0,-75.0,1181250.0,0.0,0.0,0.0,0.0,0.0,0.0
1402753776329805654,3,-9.04192048893,-0.00591572024346,-2.68772267191,-0.122189614607,10.8554836377,0.10862951003,-0.0308511231139,0.0,-0.588428352757,0.0,0.0799002360632,0.0,1.45864588766,0.0,0.0297210722676,0.0,0.000854364568741,0.0,-0.00225365202698,0.0,0.0672325030148,0.0,-0.0144913315783,0.0,0.0,0.0,0.0,-150.0,0.0,0.0,-0.00383606751517,-75.0,0.00383600394174,-75.0,-0.0,-75.0,-0.0,-75.0,1181250.0,0.0,0.0,0.0,0.0,0.0,0.0
1402753776349595739,3,-9.04057451373,-0.00591572024346,-2.69243125762,-0.122189614607,10.8368682302,0.10862951003,-0.028445331118,0.0,-0.583118932717,0.0,0.0716054519258,0.0,1.45996201053,0.0,0.0306596116475,0.0,0.000394406741361,0.0,-0.0163643834814,0.0,0.0703725172628,0.0,-0.00652583236124,0.0,0.0,0.0,0.0,-150.0,0.0,0.0,-0.00383606751517,-75.0,0.00383600394174,-75.0,-0.0,-75.0,-0.0,-75.0,1181250.0,0.0,0.0,0.0,0.0,0.0,0.0
1402753776370066247,3,-9.04057451373,-0.00591572024346,-2.69243125762,-0.122189614607,10.8368682302,0.10862951003,-0.028445331118,0.0,-0.583118932717,0.0,0.0716054519258,0.0,1.45996201053,0.0,0.0306596116475,0.0,0.000394406741361,0.0,-0.0163643834814,0.0,0.0703725172628,0.0,-0.00652583236124,0.0,0.0,0.0,0.0,-150.0,0.0,0.0,-0.00383606751517,-75.0,0.00383600394174,-75.0,-0.0,-75.0,-0.0,-75.0,1181250.0,0.0,0.0,0.0,0.0,0.0,0.0
1402753776389588069,3,-9.03824763746,-0.00591572024346,-2.71842949751,-0.122189614607,10.8543952076,0.10862951003,-0.0326255347254,0.0,-0.606561157767,0.0,0.0694236846116,0.0,1.46055917436,0.0,0.0376021346677,0.0,-0.000198523056806,0.0,-0.0103100325599,0.0,0.0708243932417,0.0,-0.00992695631483,0.0,0.0,0.0,0.0,-150.0,0.0,0.0,-0.00383606751517,-75.0,0.00383600394174,-75.0,-0.0,-75.0,-0.0,-75.0,1181250.0,0.0,0.0,0.0,0.0,0.0,0.0
1402753776409601096,3,-9.03824763746,-0.00591572024346,-2.71842949751,-0.122189614607,10.8543952076,0.10862951003,-0.0326255347254,0.0,-0.606561157767,0.0,0.0694236846116,0.0,1.46055917436,0.0,0.0376021346677,0.0,-0.000198523056806,0.0,-0.0103100325599,0.0,0.0708243932417,0.0,-0.00992695631483,0.0,0.0,0.0,0.0,-150.0,0.0,0.0,-0.00383606751517,-75.0,0.00383600394174,-75.0,-0.0,-75.0,-0.0,-75.0,1181250.0,0.0,0.0,0.0,0.0,0.0,0.0
1402753776429595603,3,-9.03400506487,-0.00591572024346,-2.74052239587,-0.122189614607,10.8475052863,0.10862951003,-0.0215447733374,0.0,-0.630346158774,0.0,0.0629133300061,0.0,1.4632698917,0.0,0.030720983388,0.0,0.00113465541956,0.0,-0.0176973070584,0.0,0.0714335200096,0.0,-0.0100722078198,0.0,0.0,0.0,0.0,-150.0,0.0,0.0,-0.00383606751517,-75.0,0.00230154196664,-75.0,-0.0,-75.0,-0.0,-75.0,1181250.0,0.0,0.0,0.0,0.0,0.0,0.0
1402753776449547381,3,-9.03400506487,-0.00591572024346,-2.74052239587,-0.122189614607,10.8475052863,0.10862951003,-0.0215447733374,0.0,-0.630346158774,0.0,0.0629133300061,0.0,1.4632698917,0.0,0.030720983388,0.0,0.00113465541956,0.0,-0.0176973070584,0.0,0.0714335200096,0.0,-0.0100722078198,0.0,0.0,0.0,0.0,-150.0,0.0,0.0,-0.00383606751517,-75.0,0.00383600394174,-75.0,-0.0,-75.0,-0.0,-75.0,1181250.0,0.0,0.0,0.0,0.0,0.0,0.0
1402753776469968574,3,-9.03891404941,-0.00591572024346,-2.76771288079,-0.122189614607,10.821251357,0.10862951003,-0.0258131500454,0.0,-0.660148290691,0.0,0.0630604998288,0.0,1.46451476316,0.0,0.0314057189342,0.0,0.000947128889347,0.0,-0.0300083394847,0.0,0.0717347704985,0.0,0.00352861558552,0.0,0.0,0.0,0.0,-150.0,0.0,0.0,-0.00383606751517,-75.0,0.00383600394174,-75.0,-0.0,-75.0,-0.0,-75.0,1181250.0,0.0,0.0,0.0,0.0,0.0,0.0
1402753776490263958,3,-9.03891404941,-0.00591572024346,-2.76771288079,-0.122189614607,10.821251357,0.10862951003,-0.0258131500454,0.0,-0.660148290691,0.0,0.0630604998288,0.0,1.46451476316,0.0,0.0314057189342,0.0,0.000947128889347,0.0,-0.0300083394847,0.0,0.0717347704985,0.0,0.00352861558552,0.0,0.0,0.0,0.0,-150.0,0.0,0.0,-0.00383606751517,-75.0,0.00383600394174,-75.0,-0.0,-75.0,-0.0,-75.0,1181250.0,0.0,0.0,0.0,0.0,0.0,0.0
1402753776509642908,3,-9.03970398282,-0.00591572024346,-2.78845645221,-0.122189614607,10.8232842827,0.10862951003,-0.0237460432971,0.0,-0.676100337462,0.0,0.0655594537837,0.0,1.46547291985,0.0,0.0309763176155,0.0,0.00126588639632,0.0,-0.0265563850369,0.0,0.072542095797,0.0,0.00457635045119,0.0,0.0,0.0,0.0,-150.0,0.0,0.0,-0.00383606751517,-75.0,0.00383600394174,-75.0,-0.0,-75.0,-0.0,-75.0,1181250.0,0.0,0.0,0.0,0.0,0.0,0.0
1402753776529653286,3,-9.04013410019,-0.00591572024346,-2.80268177163,-0.122189614607,10.8244775224,0.10862951003,-0.0216156273846,0.0,-0.685130510104,0.0,0.0669768862225,0.0,1.46606170773,0.0,0.0307623925519,0.0,0.00156413721368,0.0,-0.0232019940885,0.0,0.0731272022695,0.0,0.0300444711843,0.0,0.0,0.0,0.0,-150.0,0.0,0.0,-0.00383606751517,-75.0,0.00383600394174,-75.0,-0.0,-75.0,-0.0,-75.0,1181250.0,0.0,0.0,0.0,0.0,0.0,0.0
1402753776549731170,3,-9.04013410019,-0.00591572024346,-2.80268177163,-0.122189614607,10.8244775224,0.10862951003,-0.0216156273846,0.0,-0.685130510104,0.0,0.0669768862225,0.0,1.46606170773,0.0,0.0307623925519,0.0,0.00156413721368,0.0,-0.0232019940885,0.0,0.0731272022695,0.0,0.0300444711843,0.0,0.0,0.0,0.0,-150.0,0.0,0.0,-0.00383606751517,-75.0,0.00383600394174,-75.0,-0.0,-75.0,-0.0,-75.0,1181250.0,0.0,0.0,0.0,0.0,0.0,0.0
1402753776570026129,3,-9.04072619147,-0.00591572024346,-2.81714622393,-0.122189614607,10.8260480566,0.10862951003,-0.0232907772369,0.0,-0.694229865598,0.0,0.0680504963527,0.0,1.46666421811,0.0,0.0300241618421,0.0,0.00169851110086,0.0,-0.0236670374481,0.0,0.0736764566796,0.0,-0.000803817871049,0.0,0.0,0.0,0.0,-150.0,0.0,0.0,-0.00383606751517,-75.0,0.00383600394174,-75.0,-0.0,-75.0,-0.0,-75.0,1181250.0,0.0,0.0,0.0,0.0,0.0,0.0
1402753776589815425,3,-9.04072619147,-0.00591572024346,-2.81714622393,-0.122189614607,10.8260480566,0.10862951003,-0.0232907772369,0.0,-0.694229865598,0.0,0.0680504963527,0.0,1.46666421811,0.0,0.0300241618421,0.0,0.00169851110086,0.0,-0.0236670374481,0.0,0.0736764566796,0.0,-0.000803817871049,0.0,0.0,0.0,0.0,-150.0,0.0,0.0,-0.00383606751517,-75.0,0.00383600394174,-75.0,-0.0,-75.0,-0.0,-75.0,1181250.0,0.0,0.0,0.0,0.0,0.0,0.0
1402753776609691846,3,-9.03736150401,-0.00591572024346,-2.84012760346,-0.122189614607,10.8302851313,0.10862951003,-0.0150194961791,0.0,-0.699796552699,0.0,0.0722331408161,0.0,1.46827075976,0.0,0.0224652716468,0.0,0.00250124336547,0.0,-0.0180697957786,0.0,0.0759912046396,0.0,0.0167804572043,0.0,0.0,0.0,0.0,-150.0,0.0,0.0,-0.00383606751517,-75.0,0.00383600394174,-75.0,-0.0,-75.0,-0.0,-75.0,1181250.0,0.0,0.0,0.0,0.0,0.0,0.0
1402753776630244454,3,-9.03736150401,-0.00591572024346,-2.84012760346,-0.122189614607,10.8302851313,0.10862951003,-0.0150194961791,0.0,-0.699796552699,0.0,0.0722331408161,0.0,1.46827075976,0.0,0.0224652716468,0.0,0.00250124336547,0.0,-0.0180697957786,0.0,0.0759912046396,0.0,0.0167804572043,0.0,0.0,0.0,0.0,-150.0,0.0,0.0,-0.00383606751517,-75.0,0.00383600394174,-75.0,-0.0,-75.0,-0.0,-75.0,1181250.0,0.0,0.0,0.0,0.0,0.0,0.0
1402753776649722448,3,-9.04320075287,-0.00591572024346,-2.86235798092,-0.122189614607,10.8306370388,0.10862951003,-0.0278473100995,0.0,-0.702933828544,0.0,0.0770079865464,0.0,1.46799074235,0.0,0.0286090033026,0.0,0.00108080270116,0.0,-0.0115409236151,0.0,0.0781258768902,0.0,0.014641072875,0.0,0.0,0.0,0.0,-150.0,0.0,0.0,-0.00383606751517,-75.0,0.00230154196664,-75.0,-0.0,-75.0,-0.0,-75.0,1181250.0,0.0,0.0,0.0,0.0,0.0,0.0
1402753776669855082,3,-9.04320075287,-0.00591572024346,-2.86235798092,-0.122189614607,10.8306370388,0.10862951003,-0.0278473100995,0.0,-0.702933828544,0.0,0.0770079865464,0.0,1.46799074235,0.0,0.0286090033026,0.0,0.00108080270116,0.0,-0.0115409236151,0.0,0.0781258768902,0.0,0.014641072875,0.0,0.0,0.0,0.0,-150.0,0.0,0.0,-0.00383606751517,-75.0,0.00383600394174,-75.0,-0.0,-75.0,-0.0,-75.0,1181250.0,0.0,0.0,0.0,0.0,0.0,0.0
1402753776690238379,3,-9.03211076849,-0.00591572024346,-2.90292879556,-0.122189614607,10.837625275,0.10862951003,-0.0109501762455,0.0,-0.73929547128,0.0,0.0783206344844,0.0,1.47048933484,0.0,0.0234272533639,0.0,0.00328035301643,0.0,0.00295661117175,0.0,0.0769097307246,0.0,-0.0046555174089,0.0,0.0,0.0,0.0,-150.0,0.0,0.0,-0.00383606751517,-75.0,0.00383600394174,-75.0,-0.0,-75.0,-0.0,-75.0,1181250.0,0.0,0.0,0.0,0.0,0.0,0.0
1402753776709708025,3,-9.03211076849,-0.00591572024346,-2.90292879556,-0.122189614607,10.837625275,0.10862951003,-0.0109501762455,0.0,-0.73929547128,0.0,0.0783206344844,0.0,1.47048933484,0.0,0.0234272533639,0.0,0.00328035301643,0.0,0.00295661117175,0.0,0.0769097307246,0.0,-0.0046555174089,0.0,0.0,0.0,0.0,-150.0,0.0,0.0,-0.00383606751517,-75.0,0.00230154196664,-75.0,-0.0,-75.0,-0.0,-75.0,1181250.0,0.0,0.0,0.0,0.0,0.0,0.0
1402753776729650524,3,-9.0403450845,-0.00591572024346,-2.93120267879,-0.122189614607,10.8086002776,0.10862951003,-0.0219934729493,0.0,-0.755727847446,0.0,0.0734874364437,0.0,1.47100629993,0.0,0.0297562318613,0.0,0.00226654812709,0.0,0.00763793141733,0.0,0.0767354985583,0.0,-0.00107560058535,0.0,0.0,0.0,0.0,-150.0,0.0,0.0,-0.00383606751517,-75.0,0.00383600394174,-75.0,-0.0,-75.0,-0.0,-75.0,1181250.0,0.0,0.0,0.0,0.0,0.0,0.0
1402753776749430582,3,-9.0403450845,-0.00591572024346,-2.93120267879,-0.122189614607,10.8086002776,0.10862951003,-0.0219934729493,0.0,-0.755727847446,0.0,0.0734874364437,0.0,1.47100629993,0.0,0.0297562318613,0.0,0.00226654812709,0.0,0.00763793141733,0.0,0.0767354985583,0.0,-0.00107560058535,0.0,0.0,0.0,0.0,-150.0,0.0,0.0,-0.00383606751517,-75.0,0.00383600394174,-75.0,-0.0,-75.0,-0.0,-75.0,1181250.0,0.0,0.0,0.0,0.0,0.0,0.0
1402753776769594321,3,-9.04078399049,-0.00591572024346,-2.94641248901,-0.122189614607,10.8102290387,0.10862951003,-0.020572762136,0.0,-0.76231361827,0.0,0.0785856602718,0.0,1.47145477624,0.0,0.0227159869076,0.0,0.00251817203818,0.0,0.00881794391992,0.0,0.0766480105796,0.0,0.00973043908301,0.0,0.0,0.0,0.0,-150.0,0.0,0.0,-0.00383606751517,-75.0,0.00383600394174,-75.0,-0.0,-75.0,-0.0,-75.0,1181250.0,0.0,0.0,0.0,0.0,0.0,0.0
1402753776789542160,3,-9.04078399049,-0.00591572024346,-2.94641248901,-0.122189614607,10.8102290387,0.10862951003,-0.020572762136,0.0,-0.76231361827,0.0,0.0785856602718,0.0,1.47145477624,0.0,0.0227159869076,0.0,0.00251817203818,0.0,0.00881794391992,0.0,0.0766480105796,0.0,0.00973043908301,0.0,0.0,0.0,0.0,-150.0,0.0,0.0,-0.00383606751517,-75.0,0.00383600394174,-75.0,-0.0,-75.0,-0.0,-75.0,1181250.0,0.0,0.0,0.0,0.0,0.0,0.0
1402753776810185926,3,-9.03438511028,-0.00591572024346,-2.97331666652,-0.122189614607,10.805062512,0.10862951003,-0.00600282591237,0.0,-0.774685999931,0.0,0.0817338201243,0.0,1.47313395198,0.0,0.0244583348621,0.0,0.00439003818679,0.0,0.0203363868946,0.0,0.0765916968761,0.0,0.0125330865427,0.0,0.0,0.0,0.0,-150.0,0.0,0.0,-0.00383606751517,-75.0,0.00230154196664,-75.0,-0.0,-75.0,-0.0,-75.0,1181250.0,0.0,0.0,0.0,0.0,0.0,0.0
1402753776829806037,3,-9.03438511028,-0.00591572024346,-2.97331666652,-0.122189614607,10.805062512,0.10862951003,-0.00600282591237,0.0,-0.774685999931,0.0,0.0817338201243,0.0,1.47313395198,0.0,0.0244583348621,0.0,0.00439003818679,0.0,0.0203363868946,0.0,0.0765916968761,0.0,0.0125330865427,0.0,0.0,0.0,0.0,-150.0,0.0,0.0,-0.00383606751517,-75.0,0.00230154196664,-75.0,-0.0,-75.0,-0.0,-75.0,1181250.0,0.0,0.0,0.0,0.0,0.0,0.0
1402753776849555242,3,-9.04020718217,-0.00591572024346,-2.99482594501,-0.122189614607,10.781967909,0.10862951003,-0.0148722438205,0.0,-0.779666009004,0.0,0.0706346033236,0.0,1.47383997815,0.0,0.0215919524675,0.0,0.00359606716322,0.0,0.0245530104748,0.0,0.0765502563156,0.0,0.00612671183887,0.0,0.0,0.0,0.0,-150.0,0.0,0.0,-0.00383606751517,-75.0,0.00230154196664,-75.0,-0.0,-75.0,-0.0,-75.0,1181250.0,0.0,0.0,0.0,0.0,0.0,0.0
1402753776869563925,3,-9.04020718217,-0.00591572024346,-2.99482594501,-0.122189614607,10.781967909,0.10862951003,-0.0148722438205,0.0,-0.779666009004,0.0,0.0706346033236,0.0,1.47383997815,0.0,0.0215919524675,0.0,0.00359606716322,0.0,0.0245530104748,0.0,0.0765502563156,0.0,0.00612671183887,0.0,0.0,0.0,0.0,-150.0,0.0,0.0,-0.00537029107169,-75.0,0.00383600394174,-75.0,-0.0,-75.0,-0.0,-75.0,1181250.0,0.0,0.0,0.0,0.0,0.0,0.0
1402753776889917555,3,-9.04266782177,-0.00591572024346,-3.0382336246,-0.122189614607,10.8006961886,0.10862951003,-0.026399286742,0.0,-0.807943025185,0.0,0.0810880687613,0.0,1.4742554149,0.0,0.0210131066798,0.0,0.00253390766439,0.0,0.0252706971308,0.0,0.0737322097884,0.0,0.0115240884311,0.0,0.0,0.0,0.0,-150.0,0.0,0.0,-0.00537029107169,-75.0,0.00383600394174,-75.0,-0.0,-75.0,-0.0,-75.0,1181250.0,0.0,0.0,0.0,0.0,0.0,0.0
1402753776910792768,3,-9.04266782177,-0.00591572024346,-3.0382336246,-0.122189614607,10.8006961886,0.10862951003,-0.026399286742,0.0,-0.807943025185,0.0,0.0810880687613,0.0,1.4742554149,0.0,0.0210131066798,0.0,0.00253390766439,0.0,0.0252706971308,0.0,0.0737322097884,0.0,0.0115240884311,0.0,0.0,0.0,0.0,-150.0,0.0,0.0,-0.00537029107169,-75.0,0.00230154196664,-75.0,-0.0,-75.0,-0.0,-75.0,1181250.0,0.0,0.0,0.0,0.0,0.0,0.0
1402753776929792851,3,-9.0325248804,-0.00591572024346,-3.07363313829,-0.122189614607,10.8210105285,0.10862951003,-0.0080122540199,0.0,-0.814278846457,0.0,0.0925511607426,0.0,1.47539854898,0.0,0.0190465340168,0.0,0.00497991816974,0.0,0.0326651982289,0.0,0.0738514021621,0.0,0.00157862967876,0.0,0.0,0.0,0.0,-150.0,0.0,0.0,-0.00537029107169,-75.0,0.00383600394174,-75.0,-0.0,-75.0,-0.0,-75.0,1181250.0,0.0,0.0,0.0,0.0,0.0,0.0
1402753776949668225,3,-9.0325248804,-0.00591572024346,-3.07363313829,-0.122189614607,10.8210105285,0.10862951003,-0.0080122540199,0.0,-0.814278846457,0.0,0.0925511607426,0.0,1.47539854898,0.0,0.0190465340168,0.0,0.00497991816974,0.0,0.0326651982289,0.0,0.0738514021621,0.0,0.00157862967876,0.0,0.0,0.0,0.0,-150.0,0.0,0.0,-0.00537029107169,-75.0,0.00230154196664,-75.0,-0.0,-75.0,-0.0,-75.0,1181250.0,0.0,0.0,0.0,0.0,0.0,0.0
1402753776969708236,3,-9.03278426741,-0.00591572024346,-3.10711622056,-0.122189614607,10.8248581901,0.10862951003,-0.00632362419361,0.0,-0.820785656875,0.0,0.0939993424781,0.0,1.47626731636,0.0,0.0207042583707,0.0,0.00493346444339,0.0,0.00992975619111,0.0,0.0730387232496,0.0,-0.000692356246879,0.0,0.0,0.0,0.0,-150.0,0.0,0.0,-0.00537029107169,-75.0,0.00383600394174,-75.0,-0.0,-75.0,-0.0,-75.0,1181250.0,0.0,0.0,0.0,0.0,0.0,0.0
1402753776990109052,3,-9.03278426741,-0.00591572024346,-3.10711622056,-0.122189614607,10.8248581901,0.10862951003,-0.00632362419361,0.0,-0.820785656875,0.0,0.0939993424781,0.0,1.47626731636,0.0,0.0207042583707,0.0,0.00493346444339,0.0,0.00992975619111,0.0,0.0730387232496,0.0,-0.000692356246879,0.0,0.0,0.0,0.0,-150.0,0.0,0.0,-0.00537029107169,-75.0,0.00230154196664,-75.0,-0.0,-75.0,-0.0,-75.0,1181250.0,0.0,0.0,0.0,0.0,0.0,0.0
1402753777009668660,3,-9.03736911793,-0.00591572024346,-3.14404343691,-0.122189614607,10.8016310955,0.10862951003,-0.00952502988129,0.0,-0.835400166732,0.0,0.0835823184453,0.0,1.47739012771,0.0,0.0265168981195,0.0,0.00437794713164,0.0,0.0225962468091,0.0,0.0717362062096,0.0,-0.00180915086136,0.0,0.0,0.0,0.0,-150.0,0.0,0.0,-0.00537029107169,-75.0,0.00383600394174,-75.0,-0.0,-75.0,-0.0,-75.0,1181250.0,0.0,0.0,0.0,0.0,0.0,0.0
1402753777030376792,3,-9.03736911793,-0.00591572024346,-3.14404343691,-0.122189614607,10.8016310955,0.10862951003,-0.00952502988129,0.0,-0.835400166732,0.0,0.0835823184453,0.0,1.47739012771,0.0,0.0265168981195,0.0,0.00437794713164,0.0,0.0225962468091,0.0,0.0717362062096,0.0,-0.00180915086136,0.0,0.0,0.0,0.0,-150.0,0.0,0.0,-0.00537029107169,-75.0,0.00230154196664,-75.0,-0.0,-75.0,-0.0,-75.0,1181250.0,0.0,0.0,0.0,0.0,0.0,0.0
1402753777049888498,3,-9.03763678742,-0.00591572024346,-3.16987514149,-0.122189614607,10.8040646096,0.10862951003,-0.010429681673,0.0,-0.839947827077,0.0,0.0821318870409,0.0,1.47802777067,0.0,0.0269605134159,0.0,0.0038407855569,0.0,0.0144868412527,0.0,0.0712062870416,0.0,-0.0208172802834,0.0,0.0,0.0,0.0,-150.0,0.0,0.0,-0.00537029107169,-75.0,0.00383600394174,-75.0,-0.0,-75.0,-0.0,-75.0,1181250.0,0.0,0.0,0.0,0.0,0.0,0.0
1402753777069593781,3,-9.03781835028,-0.00591572024346,-3.18672625852,-0.122189614607,10.8059922311,0.10862951003,-0.00886890109502,0.0,-0.843587135026,0.0,0.0904789764805,0.0,1.47843674452,0.0,0.0192491155408,0.0,0.00371094038444,0.0,0.00731868244637,0.0,0.0710067788541,0.0,-0.00936010929923,0.0,0.0,0.0,0.0,-150.0,0.0,0.0,-0.00537029107169,-75.0,0.00230154196664,-75.0,-0.0,-75.0,-0.0,-75.0,1181250.0,0.0,0.0,0.0,0.0,0.0,0.0
1402753777089848504,3,-9.03781835028,-0.00591572024346,-3.18672625852,-0.122189614607,10.8059922311,0.10862951003,-0.00886890109502,0.0,-0.843587135026,0.0,0.0904789764805,0.0,1.47843674452,0.0,0.0192491155408,0.0,0.00371094038444,0.0,0.00731868244637,0.0,0.0710067788541,0.0,-0.00936010929923,0.0,0.0,0.0,0.0,-150.0,0.0,0.0,-0.00537029107169,-75.0,0.00230154196664,-75.0,-0.0,-75.0,-0.0,-75.0,1181250.0,0.0,0.0,0.0,0.0,0.0,0.0
1402753777110200145,3,-9.04453337418,-0.00591572024346,-3.20084962474,-0.122189614607,10.7903556686,0.10862951003,-0.0210907826373,0.0,-0.843607705905,0.0,0.0787473259677,0.0,1.47914054367,0.0,0.0218989894736,0.0,0.00200289579472,0.0,-0.00253871480731,0.0,0.0708297927083,0.0,-0.0125999168635,0.0,0.0,0.0,0.0,-150.0,0.0,0.0,-0.00537029107169,-75.0,0.00383600394174,-75.0,-0.0,-75.0,-0.0,-75.0,1181250.0,0.0,0.0,0.0,0.0,0.0,0.0
1402753777129724238,3,-9.04453337418,-0.00591572024346,-3.20084962474,-0.122189614607,10.7903556686,0.10862951003,-0.0210907826373,0.0,-0.843607705905,0.0,0.0787473259677,0.0,1.47914054367,0.0,0.0218989894736,0.0,0.00200289579472,0.0,-0.00253871480731,0.0,0.0708297927083,0.0,-0.0125999168635,0.0,0.0,0.0,0.0,-150.0,0.0,0.0,-0.00537029107169,-75.0,0.00230154196664,-75.0,-0.0,-75.0,-0.0,-75.0,1181250.0,0.0,0.0,0.0,0.0,0.0,0.0
1402753777149562157,3,-9.04402670093,-0.00591572024346,-3.23857892811,-0.122189614607,10.8035080351,0.10862951003,-0.0198180291989,0.0,-0.849536871831,0.0,0.0806697111859,0.0,1.48005368706,0.0,0.0233761524882,0.0,0.00144909230052,0.0,0.0169462018694,0.0,0.070617562878,0.0,-0.0263924888022,0.0,0.0,0.0,0.0,-150.0,0.0,0.0,-0.00537029107169,-75.0,0.00383600394174,-75.0,-0.0,-75.0,-0.0,-75.0,1181250.0,0.0,0.0,0.0,0.0,0.0,0.0
1402753777169650669,3,-9.04402670093,-0.00591572024346,-3.23857892811,-0.122189614607,10.8035080351,0.10862951003,-0.0198180291989,0.0,-0.849536871831,0.0,0.0806697111859,0.0,1.48005368706,0.0,0.0233761524882,0.0,0.00144909230052,0.0,0.0169462018694,0.0,0.070617562878,0.0,-0.0263924888022,0.0,0.0,0.0,0.0,-150.0,0.0,0.0,-0.00537029107169,-75.0,0.00230154196664,-75.0,-0.0,-75.0,-0.0,-75.0,1181250.0,0.0,0.0,0.0,0.0,0.0,0.0
1402753777190199515,3,-9.04391000995,-0.00591572024346,-3.2804638469,-0.122189614607,10.8201067173,0.10862951003,-0.020257317192,0.0,-0.860548957426,0.0,0.0861794504558,0.0,1.48065784439,0.0,0.0182723632674,0.0,0.000626515707175,0.0,0.011406873793,0.0,0.0697564912416,0.0,-0.0225883552033,0.0,0.0,0.0,0.0,-150.0,0.0,0.0,-0.00537029107169,-75.0,0.00383600394174,-75.0,-0.0,-75.0,-0.0,-75.0,1181250.0,0.0,0.0,0.0,0.0,0.0,0.0
1402753777209797066,3,-9.04391000995,-0.00591572024346,-3.2804638469,-0.122189614607,10.8201067173,0.10862951003,-0.020257317192,0.0,-0.860548957426,0.0,0.0861794504558,0.0,1.48065784439,0.0,0.0182723632674,0.0,0.000626515707175,0.0,0.011406873793,0.0,0.0697564912416,0.0,-0.0225883552033,0.0,0.0,0.0,0.0,-150.0,0.0,0.0,-0.00537029107169,-75.0,0.00230154196664,-75.0,-0.0,-75.0,-0.0,-75.0,1181250.0,0.0,0.0,0.0,0.0,0.0,0.0
1402753777232666485,3,-9.04474989036,-0.00591572024346,-3.31673599922,-0.122189614607,10.8239121855,0.10862951003,-0.0193785344313,0.0,-0.867462459209,0.0,0.0919774537298,0.0,1.48149798186,0.0,0.0232303485128,0.0,-0.000316322951516,0.0,0.0108409938895,0.0,0.0693845222718,0.0,-0.0413057369536,0.0,0.0,0.0,0.0,-150.0,0.0,0.0,-0.00537029107169,-75.0,0.00230154196664,-75.0,-0.0,-75.0,-0.0,-75.0,1181250.0,0.0,0.0,0.0,0.0,0.0,0.0
1402753777250075584,3,-9.04474989036,-0.00591572024346,-3.31673599922,-0.122189614607,10.8239121855,0.10862951003,-0.0193785344313,0.0,-0.867462459209,0.0,0.0919774537298,0.0,1.48149798186,0.0,0.0232303485128,0.0,-0.000316322951516,0.0,0.0108409938895,0.0,0.0693845222718,0.0,-0.0413057369536,0.0,0.0,0.0,0.0,-150.0,0.0,0.0,-0.00537029107169,-75.0,0.00383600394174,-75.0,-0.0,-75.0,-0.0,-75.0,1181250.0,0.0,0.0,0.0,0.0,0.0,0.0
1402753777269646133,3,-9.04397508622,-0.00591572024346,-3.35009967629,-0.122189614607,10.8387579544,0.10862951003,-0.016627880195,0.0,-0.859172188743,0.0,0.085482258106,0.0,1.48265164214,0.0,0.0232179859235,0.0,-0.0014664273514,0.0,0.0156835093546,0.0,0.070774575213,0.0,-0.0356870374221,0.0,0.0,0.0,0.0,-150.0,0.0,0.0,-0.00537029107169,-75.0,0.00383600394174,-75.0,-0.0,-75.0,-0.0,-75.0,1181250.0,0.0,0.0,0.0,0.0,0.0,0.0
1402753777289636047,3,-9.04397508622,-0.00591572024346,-3.35009967629,-0.122189614607,10.8387579544,0.10862951003,-0.016627880195,0.0,-0.859172188743,0.0,0.085482258106,0.0,1.48265164214,0.0,0.0232179859235,0.0,-0.0014664273514,0.0,0.0156835093546,0.0,0.070774575213,0.0,-0.0356870374221,0.0,0.0,0.0,0.0,-150.0,0.0,0.0,-0.00537029107169,-75.0,0.00230154196664,-75.0,-0.0,-75.0,-0.0,-75.0,1181250.0,0.0,0.0,0.0,0.0,0.0,0.0
1402753777309541993,3,-9.04494614762,-0.00591572024346,-3.39498047681,-0.122189614607,10.8484141219,0.10862951003,-0.0141783389463,0.0,-0.877104610205,0.0,0.0917522162096,0.0,1.48335687117,0.0,0.02967009203,0.0,-0.00216508502487,0.0,0.0085553176344,0.0,0.0690474023272,0.0,-0.0284133750073,0.0,0.0,0.0,0.0,-150.0,0.0,0.0,-0.00537029107169,-75.0,0.00383600394174,-75.0,-0.0,-75.0,-0.0,-75.0,1181250.0,0.0,0.0,0.0,0.0,0.0,0.0
1402753777330759404,3,-9.04494614762,-0.00591572024346,-3.39498047681,-0.122189614607,10.8484141219,0.10862951003,-0.0141783389463,0.0,-0.877104610205,0.0,0.0917522162096,0.0,1.48335687117,0.0,0.02967009203,0.0,-0.00216508502487,0.0,0.0085553176344,0.0,0.0690474023272,0.0,-0.0284133750073,0.0,0.0,0.0,0.0,-150.0,0.0,0.0,-0.00537029107169,-75.0,0.00383600394174,-75.0,-0.0,-75.0,-0.0,-75.0,1181250.0,0.0,0.0,0.0,0.0,0.0,0.0
1402753777350574947,3,-9.04582390351,-0.00591572024346,-3.4505776362,-0.122189614607,10.8569353048,0.10862951003,-0.011760612006,0.0,-0.900741635176,0.0,0.0837776960365,0.0,1.48403446698,0.0,0.024621761729,0.0,-0.00249524105131,0.0,0.00291363120289,0.0,0.0666051054142,0.0,-0.0132100248564,0.0,0.0,0.0,0.0,-150.0,0.0,0.0,-0.00537029107169,-75.0,0.00230154196664,-75.0,-0.0,-75.0,-0.0,-75.0,1181250.0,0.0,0.0,0.0,0.0,0.0,0.0
1402753777369839984,3,-9.04582390351,-0.00591572024346,-3.4505776362,-0.122189614607,10.8569353048,0.10862951003,-0.011760612006,0.0,-0.900741635176,0.0,0.0837776960365,0.0,1.48403446698,0.0,0.024621761729,0.0,-0.00249524105131,0.0,0.00291363120289,0.0,0.0666051054142,0.0,-0.0132100248564,0.0,0.0,0.0,0.0,-150.0,0.0,0.0,-0.00537029107169,-75.0,0.00230154196664,-75.0,-0.0,-75.0,-0.0,-75.0,1181250.0,0.0,0.0,0.0,0.0,0.0,0.0
1402753777389762492,3,-9.04544902227,-0.00591572024346,-3.49060835627,-0.122189614607,10.8636846682,0.10862951003,-0.00696503009437,0.0,-0.889260512621,0.0,0.0864734863288,0.0,1.48542014968,0.0,0.0170265792184,0.0,-0.00261375379756,0.0,0.0144285382533,0.0,0.0686061197073,0.0,0.00700096037543,0.0,0.0,0.0,0.0,-150.0,0.0,0.0,-0.00537029107169,-75.0,0.00383600394174,-75.0,-0.0,-75.0,-0.0,-75.0,1181250.0,0.0,0.0,0.0,0.0,0.0,0.0
1402753777409753206,3,-9.04544902227,-0.00591572024346,-3.49060835627,-0.122189614607,10.8636846682,0.10862951003,-0.00696503009437,0.0,-0.889260512621,0.0,0.0864734863288,0.0,1.48542014968,0.0,0.0170265792184,0.0,-0.00261375379756,0.0,0.0144285382533,0.0,0.0686061197073,0.0,0.00700096037543,0.0,0.0,0.0,0.0,-150.0,0.0,0.0,-0.00537029107169,-75.0,0.00230154196664,-75.0,-0.0,-75.0,-0.0,-75.0,1181250.0,0.0,0.0,0.0,0.0,0.0,0.0
1402753777429369598,3,-9.04122758979,-0.00591572024346,-3.51820081738,-0.122189614607,10.8740508883,0.10862951003,0.00252641958982,0.0,-0.90466995065,0.0,0.0896937573065,0.0,1.48502635056,0.0,0.0207286785033,0.0,-0.00128639907753,0.0,0.0143338070169,0.0,0.0670535454102,0.0,-0.00210641187298,0.0,0.0,0.0,0.0,-150.0,0.0,0.0,-0.00537029107169,-75.0,0.00383600394174,-75.0,-0.0,-75.0,-0.0,-75.0,1181250.0,0.0,0.0,0.0,0.0,0.0,0.0
1402753777449549553,3,-9.04122758979,-0.00591572024346,-3.51820081738,-0.122189614607,10.8740508883,0.10862951003,0.00252641958982,0.0,-0.90466995065,0.0,0.0896937573065,0.0,1.48502635056,0.0,0.0207286785033,0.0,-0.00128639907753,0.0,0.0143338070169,0.0,0.0670535454102,0.0,-0.00210641187298,0.0,0.0,0.0,0.0,-150.0,0.0,0.0,-0.00537029107169,-75.0,0.00230154196664,-75.0,-0.0,-75.0,-0.0,-75.0,1181250.0,0.0,0.0,0.0,0.0,0.0,0.0
1402753777469597757,3,-9.04118026803,-0.00591572024346,-3.55454366073,-0.122189614607,10.8774390912,0.10862951003,0.00318829363053,0.0,-0.911474328818,0.0,0.0857840919537,0.0,1.48580015523,0.0,0.0215084752559,0.0,-0.00115517509127,0.0,0.0109895594793,0.0,0.0664596862606,0.0,-0.00365905956888,0.0,0.0,0.0,0.0,-150.0,0.0,0.0,-0.00537029107169,-75.0,0.00383600394174,-75.0,-0.0,-75.0,-0.0,-75.0,1181250.0,0.0,0.0,0.0,0.0,0.0,0.0
1402753777489698776,3,-9.04118026803,-0.00591572024346,-3.55454366073,-0.122189614607,10.8774390912,0.10862951003,0.00318829363053,0.0,-0.911474328818,0.0,0.0857840919537,0.0,1.48580015523,0.0,0.0215084752559,0.0,-0.00115517509127,0.0,0.0109895594793,0.0,0.0664596862606,0.0,-0.00365905956888,0.0,0.0,0.0,0.0,-150.0,0.0,0.0,-0.00537029107169,-75.0,0.00383600394174,-75.0,-0.0,-75.0,-0.0,-75.0,1181250.0,0.0,0.0,0.0,0.0,0.0,0.0
1402753777509634846,3,-9.04307901884,-0.00591572024346,-3.59349574134,-0.122189614607,10.8905276367,0.10862951003,-0.00218617330652,0.0,-0.910665534428,0.0,0.0855469398778,0.0,1.48736595533,0.0,0.0228900113816,0.0,-0.00173605940227,0.0,0.0121094299182,0.0,0.0670645626273,0.0,0.000591735593609,0.0,0.0,0.0,0.0,-150.0,0.0,0.0,-0.00537029107169,-75.0,0.00383600394174,-75.0,-0.0,-75.0,-0.0,-75.0,1181250.0,0.0,0.0,0.0,0.0,0.0,0.0
1402753777530190691,3,-9.04307901884,-0.00591572024346,-3.59349574134,-0.122189614607,10.8905276367,0.10862951003,-0.00218617330652,0.0,-0.910665534428,0.0,0.0855469398778,0.0,1.48736595533,0.0,0.0228900113816,0.0,-0.00173605940227,0.0,0.0121094299182,0.0,0.0670645626273,0.0,0.000591735593609,0.0,0.0,0.0,0.0,-150.0,0.0,0.0,-0.00537029107169,-75.0,0.00383600394174,-75.0,-0.0,-75.0,-0.0,-75.0,1181250.0,0.0,0.0,0.0,0.0,0.0,0.0
1402753777549876094,3,-9.04315633838,-0.00591572024346,-3.6299931376,-0.122189614607,10.8938235164,0.10862951003,0.000454830882501,0.0,-0.916005710588,0.0,0.0825077118125,0.0,1.48829807741,0.0,0.0207940392347,0.0,-0.0013244643479,0.0,0.00969726014523,0.0,0.0665978754722,0.0,0.0155348915812,0.0,0.0,0.0,0.0,-150.0,0.0,0.0,-0.00537029107169,-75.0,0.00230154196664,-75.0,-0.0,-75.0,-0.0,-75.0,1181250.0,0.0,0.0,0.0,0.0,0.0,0.0
1402753777569597710,3,-9.04315633838,-0.00591572024346,-3.6299931376,-0.122189614607,10.8938235164,0.10862951003,0.000454830882501,0.0,-0.916005710588,0.0,0.0825077118125,0.0,1.48829807741,0.0,0.0207940392347,0.0,-0.0013244643479,0.0,0.00969726014523,0.0,0.0665978754722,0.0,0.0155348915812,0.0,0.0,0.0,0.0,-150.0,0.0,0.0,-0.00537029107169,-75.0,0.00383600394174,-75.0,-0.0,-75.0,-0.0,-75.0,1181250.0,0.0,0.0,0.0,0.0,0.0,0.0
1402753777589816386,3,-9.04856045167,-0.00591572024346,-3.6754170415,-0.122189614607,10.9008269045,0.10862951003,-0.0121408775684,0.0,-0.932049808454,0.0,0.084696692376,0.0,1.49016657238,0.0,0.0276985491871,0.0,-0.0023132723749,0.0,0.00562351041765,0.0,0.0650114198134,0.0,0.00707883551761,0.0,0.0,0.0,0.0,-150.0,0.0,0.0,-0.00537029107169,-75.0,0.00383600394174,-75.0,-0.0,-75.0,-0.0,-75.0,1181250.0,0.0,0.0,0.0,0.0,0.0,0.0
1402753777609696412,3,-9.04856045167,-0.00591572024346,-3.6754170415,-0.122189614607,10.9008269045,0.10862951003,-0.0121408775684,0.0,-0.932049808454,0.0,0.084696692376,0.0,1.49016657238,0.0,0.0276985491871,0.0,-0.0023132723749,0.0,0.00562351041765,0.0,0.0650114198134,0.0,0.00707883551761,0.0,0.0,0.0,0.0,-150.0,0.0,0.0,-0.00537029107169,-75.0,0.00383600394174,-75.0,-0.0,-75.0,-0.0,-75.0,1181250.0,0.0,0.0,0.0,0.0,0.0,0.0
1402753777629589634,3,-9.04470557702,-0.00591572024346,-3.70777476652,-0.122189614607,10.9094873165,0.10862951003,-0.00301592325978,0.0,-0.916059703096,0.0,0.084593119581,0.0,1.49097296171,0.0,0.0274195588319,0.0,-0.00117307262735,0.0,0.0134042108701,0.0,0.0673309388293,0.0,0.0153917700691,0.0,0.0,0.0,0.0,-150.0,0.0,0.0,-0.00537029107169,-75.0,0.00230154196664,-75.0,-0.0,-75.0,-0.0,-75.0,1181250.0,0.0,0.0,0.0,0.0,0.0,0.0
1402753777649598578,3,-9.04470557702,-0.00591572024346,-3.70777476652,-0.122189614607,10.9094873165,0.10862951003,-0.00301592325978,0.0,-0.916059703096,0.0,0.084593119581,0.0,1.49097296171,0.0,0.0274195588319,0.0,-0.00117307262735,0.0,0.0134042108701,0.0,0.0673309388293,0.0,0.0153917700691,0.0,0.0,0.0,0.0,-150.0,0.0,0.0,-0.00537029107169,-75.0,0.00383600394174,-75.0,-0.0,-75.0,-0.0,-75.0,1181250.0,0.0,0.0,0.0,0.0,0.0,0.0
1402753777670175284,3,-9.04541681931,-0.00591572024346,-3.74334319525,-0.122189614607,10.8982590549,0.10862951003,0.00382451746567,0.0,-0.919784094122,0.0,0.0814565768662,0.0,1.49177994845,0.0,0.029288439441,0.0,-0.000130839873049,0.0,0.00509582814173,0.0,0.0671006430405,0.0,0.0193993923221,0.0,0.0,0.0,0.0,-150.0,0.0,0.0,-0.00537029107169,-75.0,0.00230154196664,-75.0,-0.0,-75.0,-0.0,-75.0,1181250.0,0.0,0.0,0.0,0.0,0.0,0.0
1402753777689600510,3,-9.04541681931,-0.00591572024346,-3.74334319525,-0.122189614607,10.8982590549,0.10862951003,0.00382451746567,0.0,-0.919784094122,0.0,0.0814565768662,0.0,1.49177994845,0.0,0.029288439441,0.0,-0.000130839873049,0.0,0.00509582814173,0.0,0.0671006430405,0.0,0.0193993923221,0.0,0.0,0.0,0.0,-150.0,0.0,0.0,-0.00537029107169,-75.0,0.00383600394174,-75.0,-0.0,-75.0,-0.0,-75.0,1181250.0,0.0,0.0,0.0,0.0,0.0,0.0
1402753777709935034,3,-9.03321008004,-0.00591572024346,-3.80111552928,-0.122189614607,10.9486376281,0.10862951003,0.0194635315694,0.0,-0.941194665486,0.0,0.093396138962,0.0,1.49175767251,0.0,0.0355837518232,0.0,0.00217654886824,0.0,0.00984999933617,0.0,0.0653673596985,0.0,0.0126110014013,0.0,0.0,0.0,0.0,-150.0,0.0,0.0,-0.00537029107169,-75.0,0.00230154196664,-75.0,-0.0,-75.0,-0.0,-75.0,1181250.0,0.0,0.0,0.0,0.0,0.0,0.0
1402753777730452134,3,-9.03321008004,-0.00591572024346,-3.80111552928,-0.122189614607,10.9486376281,0.10862951003,0.0194635315694,0.0,-0.941194665486,0.0,0.093396138962,0.0,1.49175767251,0.0,0.0355837518232,0.0,0.00217654886824,0.0,0.00984999933617,0.0,0.0653673596985,0.0,0.0126110014013,0.0,0.0,0.0,0.0,-150.0,0.0,0.0,-0.00537029107169,-75.0,0.00230154196664,-75.0,-0.0,-75.0,-0.0,-75.0,1181250.0,0.0,0.0,0.0,0.0,0.0,0.0
1402753777749654970,3,-9.03865878641,-0.00591572024346,-3.84141033803,-0.122189614607,10.9622970423,0.10862951003,0.00372554135431,0.0,-0.932659677248,0.0,0.0947060207081,0.0,1.49433589984,0.0,0.0299525651462,0.0,0.000289123626998,0.0,0.0122538389587,0.0,0.0662715186517,0.0,0.0106636952222,0.0,0.0,0.0,0.0,-150.0,0.0,0.0,-0.00537029107169,-75.0,0.00383600394174,-75.0,-0.0,-75.0,-0.0,-75.0,1181250.0,0.0,0.0,0.0,0.0,0.0,0.0
