rosbagTimestamp,control_method,x_current,x_desired,y_current,y_desired,z_current,z_desired,x_velocity_current,x_velocity_desired,y_velocity_current,y_velocity_desired,z_velocity_current,z_velocity_desired,yaw_current,yaw_desired,yaw_velocity_current,yaw_velocity_desired,roll_current,roll_desired,roll_velocity_current,roll_velocity_desired,pitch_current,pitch_desired,pitch_velocity_current,pitch_velocity_desired,required_force_x,required_force_y,required_moment_z,resultant_force_x,resultant_force_y,resultant_moment_z,current_port_servo_angle,current_port_thruster_force,current_starboard_servo_angle,current_starboard_thruster_force,estimated_port_servo_angle,estimated_port_thruster_force,estimated_starboard_servo_angle,estimated_starboard_thruster_force,cost_value,step,user_defined_1,user_defined_2,user_defined_3,user_defined_4,user_defined_5
1402753822851231616,3,-10.0716219389,-0.00591572024346,-8.01218134139,-0.122189614607,23.6681375002,0.10862951003,0.0311783305657,0.0,-0.0321047191088,0.0,0.1257332494,0.0,1.45000842067,0.0,0.00366577560856,0.0,-0.000274944963164,0.0,-0.00658153005445,0.0,0.0709954009334,0.0,-0.00334726151704,0.0,0.0,0.0,0.0,-200.0,0.0,0.0,0.00383600394174,0.0,0.00230154196664,0.0,-0.0,-100.0,-0.0,-100.0,2100000.0,0.0,0.0,0.0,0.0,0.0,0.0
1402753822869695837,3,-10.0716219389,-0.00591572024346,-8.01218134139,-0.122189614607,23.6681375002,0.10862951003,0.0311783305657,0.0,-0.0321047191088,0.0,0.1257332494,0.0,1.45000842067,0.0,0.00366577560856,0.0,-0.000274944963164,0.0,-0.00658153005445,0.0,0.0709954009334,0.0,-0.00334726151704,0.0,0.0,0.0,0.0,-200.0,0.0,0.0,0.00383600394174,0.0,0.00230154196664,0.0,-0.0,-100.0,-0.0,-100.0,2100000.0,0.0,0.0,0.0,0.0,0.0,0.0
1402753822889982792,3,-10.078212555,-0.00591572024346,-8.02576742054,-0.122189614607,23.6844587581,0.10862951003,0.0229531584799,0.0,-0.0425353391296,0.0,0.120871872378,0.0,1.45018420259,0.0,0.0095944756511,0.0,-0.00121352118891,0.0,-0.00558489964695,0.0,0.0698516748207,0.0,-0.00606676083721,0.0,0.0,0.0,0.0,-200.0,0.0,0.0,0.00383600394174,0.0,0.00230154196664,0.0,-0.0,-100.0,-0.0,-100.0,2100000.0,0.0,0.0,0.0,0.0,0.0,0.0
1402753822910541445,3,-10.078212555,-0.00591572024346,-8.02576742054,-0.122189614607,23.6844587581,0.10862951003,0.0229531584799,0.0,-0.0425353391296,0.0,0.120871872378,0.0,1.45018420259,0.0,0.0095944756511,0.0,-0.00121352118891,0.0,-0.00558489964695,0.0,0.0698516748207,0.0,-0.00606676083721,0.0,0.0,0.0,0.0,-200.0,0.0,0.0,0.00383600394174,0.0,0.00230154196664,0.0,-0.0,-100.0,-0.0,-100.0,2100000.0,0.0,0.0,0.0,0.0,0.0,0.0
1402753822929932386,3,-10.0831894105,-0.00591572024346,-8.03176439958,-0.122189614607,23.6997320662,0.10862951003,0.0170402450201,0.0,-0.0338950925367,0.0,0.116186814108,0.0,1.45039488866,0.0,0.00341871666352,0.0,-0.00186019208264,0.0,-0.00389612812948,0.0,0.070909777803,0.0,0.00601026457571,0.0,0.0,0.0,0.0,-200.0,0.0,0.0,0.00383600394174,0.0,0.00230154196664,0.0,-0.0,-100.0,-0.0,-100.0,2100000.0,0.0,0.0,0.0,0.0,0.0,0.0
1402753822949877014,3,-10.0831894105,-0.00591572024346,-8.03176439958,-0.122189614607,23.6997320662,0.10862951003,0.0170402450201,0.0,-0.0338950925367,0.0,0.116186814108,0.0,1.45039488866,0.0,0.00341871666352,0.0,-0.00186019208264,0.0,-0.00389612812948,0.0,0.070909777803,0.0,0.00601026457571,0.0,0.0,0.0,0.0,-200.0,0.0,0.0,0.00383600394174,0.0,0.00230154196664,0.0,-0.0,-100.0,-0.0,-100.0,2100000.0,0.0,0.0,0.0,0.0,0.0,0.0
1402753822969911347,3,-10.0826207912,-0.00591572024346,-8.03276255292,-0.122189614607,23.7031453397,0.10862951003,0.0184276585308,0.0,-0.0330460443919,0.0,0.116283886278,0.0,1.45065471346,0.0,0.0127723094994,0.0,-0.00166293721864,0.0,-0.00984612612195,0.0,0.0711393470896,0.0,0.0167682891991,0.0,0.0,0.0,0.0,-200.0,0.0,0.0,0.00383600394174,0.0,0.00230154196664,0.0,-0.0,-100.0,-0.0,-100.0,2100000.0,0.0,0.0,0.0,0.0,0.0,0.0
1402753822990080457,3,-10.0834194314,-0.00591572024346,-8.03727184079,-0.122189614607,23.7164600944,0.10862951003,0.0235859060335,0.0,-0.0247869556315,0.0,0.113420391658,0.0,1.45080439378,0.0,0.00662105088909,0.0,-0.000803241828808,0.0,-0.00531294358593,0.0,0.0722326271453,0.0,0.0108795143819,0.0,0.0,0.0,0.0,-200.0,0.0,0.0,0.00383600394174,0.0,0.00230154196664,0.0,-0.0,-100.0,-0.0,-100.0,2100000.0,0.0,0.0,0.0,0.0,0.0,0.0
1402753823009996881,3,-10.0834194314,-0.00591572024346,-8.03727184079,-0.122189614607,23.7164600944,0.10862951003,0.0235859060335,0.0,-0.0247869556315,0.0,0.113420391658,0.0,1.45080439378,0.0,0.00662105088909,0.0,-0.000803241828808,0.0,-0.00531294358593,0.0,0.0722326271453,0.0,0.0108795143819,0.0,0.0,0.0,0.0,-200.0,0.0,0.0,0.00383600394174,0.0,0.00230154196664,0.0,-0.0,-100.0,-0.0,-100.0,2100000.0,0.0,0.0,0.0,0.0,0.0,0.0
1402753823029950117,3,-10.0829574589,-0.00591572024346,-8.037925537,-0.122189614607,23.7189947743,0.10862951003,0.0240025837161,0.0,-0.0241105692961,0.0,0.113839935176,0.0,1.45107608003,0.0,0.0140734690649,0.0,-0.000551601840189,0.0,-0.00840860484099,0.0,0.0724196365248,0.0,0.00923070279249,0.0,0.0,0.0,0.0,-200.0,0.0,0.0,0.00383600394174,0.0,0.00230154196664,0.0,-0.0,-100.0,-0.0,-100.0,2100000.0,0.0,0.0,0.0,0.0,0.0,0.0
1402753823049992147,3,-10.0829574589,-0.00591572024346,-8.037925537,-0.122189614607,23.7189947743,0.10862951003,0.0240025837161,0.0,-0.0241105692961,0.0,0.113839935176,0.0,1.45107608003,0.0,0.0140734690649,0.0,-0.000551601840189,0.0,-0.00840860484099,0.0,0.0724196365248,0.0,0.00923070279249,0.0,0.0,0.0,0.0,-200.0,0.0,0.0,0.00383600394174,0.0,0.00230154196664,0.0,-0.0,-100.0,-0.0,-100.0,2100000.0,0.0,0.0,0.0,0.0,0.0,0.0
1402753823069936759,3,-10.0893127835,-0.00591572024346,-8.05358459257,-0.122189614607,23.7466816438,0.10862951003,0.0137222109419,0.0,-0.0336761386435,0.0,0.11632040475,0.0,1.45149558327,0.0,0.0125159311296,0.0,-0.000933093881015,0.0,-0.00400318309603,0.0,0.0716517953335,0.0,0.0228493124436,0.0,0.0,0.0,0.0,-200.0,0.0,0.0,0.00383600394174,0.0,0.00230154196664,0.0,-0.0,-100.0,-0.0,-100.0,2100000.0,0.0,0.0,0.0,0.0,0.0,0.0
1402753823090093271,3,-10.0893127835,-0.00591572024346,-8.05358459257,-0.122189614607,23.7466816438,0.10862951003,0.0137222109419,0.0,-0.0336761386435,0.0,0.11632040475,0.0,1.45149558327,0.0,0.0125159311296,0.0,-0.000933093881015,0.0,-0.00400318309603,0.0,0.0716517953335,0.0,0.0228493124436,0.0,0.0,0.0,0.0,-200.0,0.0,0.0,0.00383600394174,0.0,0.00230154196664,0.0,-0.0,-100.0,-0.0,-100.0,2100000.0,0.0,0.0,0.0,0.0,0.0,0.0
1402753823110882683,3,-10.0880620224,-0.00591572024346,-8.06418688159,-0.122189614607,23.7697916211,0.10862951003,0.0200623904144,0.0,-0.0356052123593,0.0,0.118682090061,0.0,1.45207135679,0.0,0.0156585571049,0.0,0.000682379513447,0.0,-0.00156458536007,0.0,0.0718474005736,0.0,0.0096262711611,0.0,0.0,0.0,0.0,-200.0,0.0,0.0,0.00383600394174,0.0,0.00230154196664,0.0,-0.0,-100.0,-0.0,-100.0,2100000.0,0.0,0.0,0.0,0.0,0.0,0.0
1402753823130409768,3,-10.0880620224,-0.00591572024346,-8.06418688159,-0.122189614607,23.7697916211,0.10862951003,0.0200623904144,0.0,-0.0356052123593,0.0,0.118682090061,0.0,1.45207135679,0.0,0.0156585571049,0.0,0.000682379513447,0.0,-0.00156458536007,0.0,0.0718474005736,0.0,0.0096262711611,0.0,0.0,0.0,0.0,-200.0,0.0,0.0,0.00383600394174,0.0,0.00230154196664,0.0,-0.0,-100.0,-0.0,-100.0,2100000.0,0.0,0.0,0.0,0.0,0.0,0.0
1402753823150054620,3,-10.0899032115,-0.00591572024346,-8.06669544483,-0.122189614607,23.7808172496,0.10862951003,0.0229487191081,0.0,-0.0244711785164,0.0,0.118554052078,0.0,1.45240045426,0.0,0.0134694507217,0.0,0.00156975459698,0.0,0.00171482506316,0.0,0.0732234109788,0.0,0.0193565139106,0.0,0.0,0.0,0.0,-200.0,0.0,0.0,0.00383600394174,0.0,0.00230154196664,0.0,-0.0,-100.0,-0.0,-100.0,2100000.0,0.0,0.0,0.0,0.0,0.0,0.0
1402753823169839538,3,-10.0899032115,-0.00591572024346,-8.06669544483,-0.122189614607,23.7808172496,0.10862951003,0.0229487191081,0.0,-0.0244711785164,0.0,0.118554052078,0.0,1.45240045426,0.0,0.0134694507217,0.0,0.00156975459698,0.0,0.00171482506316,0.0,0.0732234109788,0.0,0.0193565139106,0.0,0.0,0.0,0.0,-200.0,0.0,0.0,0.00383600394174,0.0,0.00230154196664,0.0,-0.0,-100.0,-0.0,-100.0,2100000.0,0.0,0.0,0.0,0.0,0.0,0.0
1402753823189923103,3,-10.0890089581,-0.00591572024346,-8.06767342228,-0.122189614607,23.785753443,0.10862951003,0.0244386777249,0.0,-0.0244780776212,0.0,0.12115610485,0.0,1.45279851545,0.0,0.00896458081428,0.0,0.00244191870841,0.0,0.00450621953624,0.0,0.0732909709571,0.0,0.0260536602905,0.0,0.0,0.0,0.0,-200.0,0.0,0.0,0.00383600394174,0.0,0.00230154196664,0.0,-0.0,-100.0,-0.0,-100.0,2100000.0,0.0,0.0,0.0,0.0,0.0,0.0
1402753823209829294,3,-10.0890089581,-0.00591572024346,-8.06767342228,-0.122189614607,23.785753443,0.10862951003,0.0244386777249,0.0,-0.0244780776212,0.0,0.12115610485,0.0,1.45279851545,0.0,0.00896458081428,0.0,0.00244191870841,0.0,0.00450621953624,0.0,0.0732909709571,0.0,0.0260536602905,0.0,0.0,0.0,0.0,-200.0,0.0,0.0,0.00383600394174,0.0,0.00230154196664,0.0,-0.0,-100.0,-0.0,-100.0,2100000.0,0.0,0.0,0.0,0.0,0.0,0.0
1402753823230971284,3,-10.0900083968,-0.00591572024346,-8.07725416199,-0.122189614607,23.7996414438,0.10862951003,0.0287923867189,0.0,-0.0275083459135,0.0,0.121946055954,0.0,1.45308499999,0.0,0.00317629413706,0.0,0.00377955321265,0.0,0.00297828879939,0.0,0.072831450655,0.0,0.0161031038496,0.0,0.0,0.0,0.0,-200.0,0.0,0.0,0.00383600394174,0.0,0.00230154196664,0.0,-0.0,-100.0,-0.0,-100.0,2100000.0,0.0,0.0,0.0,0.0,0.0,0.0
1402753823250544072,3,-10.0900083968,-0.00591572024346,-8.07725416199,-0.122189614607,23.7996414438,0.10862951003,0.0287923867189,0.0,-0.0275083459135,0.0,0.121946055954,0.0,1.45308499999,0.0,0.00317629413706,0.0,0.00377955321265,0.0,0.00297828879939,0.0,0.072831450655,0.0,0.0161031038496,0.0,0.0,0.0,0.0,-200.0,0.0,0.0,0.00383600394174,0.0,0.00230154196664,0.0,-0.0,-100.0,-0.0,-100.0,2100000.0,0.0,0.0,0.0,0.0,0.0,0.0
1402753823269881177,3,-10.0932424137,-0.00591572024346,-8.09372260566,-0.122189614607,23.8287555592,0.10862951003,0.0257353635276,0.0,-0.0382999804469,0.0,0.12581799721,0.0,1.45330870595,0.0,0.00605102015701,0.0,0.00389214789441,0.0,0.00786065902858,0.0,0.0714866598434,0.0,0.0140557796679,0.0,0.0,0.0,0.0,-200.0,0.0,0.0,0.00383600394174,0.0,0.00230154196664,0.0,-0.0,-100.0,-0.0,-100.0,2100000.0,0.0,0.0,0.0,0.0,0.0,0.0
1402753823289903828,3,-10.0932424137,-0.00591572024346,-8.09372260566,-0.122189614607,23.8287555592,0.10862951003,0.0257353635276,0.0,-0.0382999804469,0.0,0.12581799721,0.0,1.45330870595,0.0,0.00605102015701,0.0,0.00389214789441,0.0,0.00786065902858,0.0,0.0714866598434,0.0,0.0140557796679,0.0,0.0,0.0,0.0,-200.0,0.0,0.0,0.00383600394174,0.0,0.00230154196664,0.0,-0.0,-100.0,-0.0,-100.0,2100000.0,0.0,0.0,0.0,0.0,0.0,0.0
1402753823310692486,3,-10.098164098,-0.00591572024346,-8.10211351283,-0.122189614607,23.8443778115,0.10862951003,0.0207839045239,0.0,-0.0372278950711,0.0,0.126490295046,0.0,1.45340785025,0.0,0.00254942547912,0.0,0.00367955371263,0.0,0.00814551144589,0.0,0.0712973117673,0.0,0.0071910985696,0.0,0.0,0.0,0.0,-200.0,0.0,0.0,0.00383600394174,0.0,0.00230154196664,0.0,-0.0,-100.0,-0.0,-100.0,2100000.0,0.0,0.0,0.0,0.0,0.0,0.0
1402753823332136739,3,-10.098164098,-0.00591572024346,-8.10211351283,-0.122189614607,23.8443778115,0.10862951003,0.0207839045239,0.0,-0.0372278950711,0.0,0.126490295046,0.0,1.45340785025,0.0,0.00254942547912,0.0,0.00367955371263,0.0,0.00814551144589,0.0,0.0712973117673,0.0,0.0071910985696,0.0,0.0,0.0,0.0,-200.0,0.0,0.0,0.00383600394174,0.0,0.00230154196664,0.0,-0.0,-100.0,-0.0,-100.0,2100000.0,0.0,0.0,0.0,0.0,0.0,0.0
1402753823349772077,3,-10.0971757476,-0.00591572024346,-8.11250969338,-0.122189614607,23.8695530766,0.10862951003,0.0282066355095,0.0,-0.0354852354419,0.0,0.128477242564,0.0,1.45351531719,0.0,0.00718025586682,0.0,0.0044553083182,0.0,0.00778755963941,0.0,0.0713184426949,0.0,-0.00826470140186,0.0,0.0,0.0,0.0,-200.0,0.0,0.0,0.00383600394174,0.0,0.00230154196664,0.0,-0.0,-100.0,-0.0,-100.0,2100000.0,0.0,0.0,0.0,0.0,0.0,0.0
1402753823369799205,3,-10.0971757476,-0.00591572024346,-8.11250969338,-0.122189614607,23.8695530766,0.10862951003,0.0282066355095,0.0,-0.0354852354419,0.0,0.128477242564,0.0,1.45351531719,0.0,0.00718025586682,0.0,0.0044553083182,0.0,0.00778755963941,0.0,0.0713184426949,0.0,-0.00826470140186,0.0,0.0,0.0,0.0,-200.0,0.0,0.0,0.00383600394174,0.0,0.00230154196664,0.0,-0.0,-100.0,-0.0,-100.0,2100000.0,0.0,0.0,0.0,0.0,0.0,0.0
1402753823390351386,3,-10.1036839365,-0.00591572024346,-8.12142383372,-0.122189614607,23.8873558268,0.10862951003,0.0179976210804,0.0,-0.0346002268479,0.0,0.127905193875,0.0,1.45344239881,0.0,-0.000845089961331,0.0,0.00302463234833,0.0,0.0120377458481,0.0,0.0709768265243,0.0,-0.0143609180868,0.0,0.0,0.0,0.0,-200.0,0.0,0.0,0.00383600394174,0.0,0.00230154196664,0.0,-0.0,-100.0,-0.0,-100.0,2100000.0,0.0,0.0,0.0,0.0,0.0,0.0
1402753823409973311,3,-10.1036839365,-0.00591572024346,-8.12142383372,-0.122189614607,23.8873558268,0.10862951003,0.0179976210804,0.0,-0.0346002268479,0.0,0.127905193875,0.0,1.45344239881,0.0,-0.000845089961331,0.0,0.00302463234833,0.0,0.0120377458481,0.0,0.0709768265243,0.0,-0.0143609180868,0.0,0.0,0.0,0.0,-200.0,0.0,0.0,0.00383600394174,0.0,0.00230154196664,0.0,-0.0,-100.0,-0.0,-100.0,2100000.0,0.0,0.0,0.0,0.0,0.0,0.0
1402753823429767454,3,-10.1028995133,-0.00591572024346,-8.12281023014,-0.122189614607,23.8924926499,0.10862951003,0.0185346984322,0.0,-0.0346663402312,0.0,0.129486489931,0.0,1.45346279312,0.0,2.23127365474e-05,0.0,0.00265813550678,0.0,0.00959878301304,0.0,0.0705416142859,0.0,-0.0105544810156,0.0,0.0,0.0,0.0,-200.0,0.0,0.0,0.00383600394174,0.0,0.00230154196664,0.0,-0.0,-100.0,-0.0,-100.0,2100000.0,0.0,0.0,0.0,0.0,0.0,0.0
1402753823450341000,3,-10.1028995133,-0.00591572024346,-8.12281023014,-0.122189614607,23.8924926499,0.10862951003,0.0185346984322,0.0,-0.0346663402312,0.0,0.129486489931,0.0,1.45346279312,0.0,2.23127365474e-05,0.0,0.00265813550678,0.0,0.00959878301304,0.0,0.0705416142859,0.0,-0.0105544810156,0.0,0.0,0.0,0.0,-200.0,0.0,0.0,0.00383600394174,0.0,0.00230154196664,0.0,-0.0,-100.0,-0.0,-100.0,2100000.0,0.0,0.0,0.0,0.0,0.0,0.0
1402753823469892779,3,-10.109221182,-0.00591572024346,-8.13307916689,-0.122189614607,23.9042810477,0.10862951003,0.0142851035078,0.0,-0.039285204885,0.0,0.126779293721,0.0,1.45339066212,0.0,-0.000125469764345,0.0,0.00184577201153,0.0,0.00506847889233,0.0,0.0695869180753,0.0,-0.00936194154194,0.0,0.0,0.0,0.0,-200.0,0.0,0.0,0.00383600394174,0.0,0.00230154196664,0.0,-0.0,-100.0,-0.0,-100.0,2100000.0,0.0,0.0,0.0,0.0,0.0,0.0
1402753823490035586,3,-10.109221182,-0.00591572024346,-8.13307916689,-0.122189614607,23.9042810477,0.10862951003,0.0142851035078,0.0,-0.039285204885,0.0,0.126779293721,0.0,1.45339066212,0.0,-0.000125469764345,0.0,0.00184577201153,0.0,0.00506847889233,0.0,0.0695869180753,0.0,-0.00936194154194,0.0,0.0,0.0,0.0,-200.0,0.0,0.0,0.00383600394174,0.0,0.00230154196664,0.0,-0.0,-100.0,-0.0,-100.0,2100000.0,0.0,0.0,0.0,0.0,0.0,0.0
1402753823509959732,3,-10.1092311074,-0.00591572024346,-8.14698306918,-0.122189614607,23.9349798988,0.10862951003,0.0183102712821,0.0,-0.041635477466,0.0,0.128328913367,0.0,1.45339041015,0.0,0.00237902474251,0.0,0.00179544317884,0.0,0.00225121132758,0.0,0.0692195845807,0.0,-0.0229007762851,0.0,0.0,0.0,0.0,-200.0,0.0,0.0,0.00383600394174,0.0,0.00230154196664,0.0,-0.0,-100.0,-0.0,-100.0,2100000.0,0.0,0.0,0.0,0.0,0.0,0.0
1402753823529839093,3,-10.1092311074,-0.00591572024346,-8.14698306918,-0.122189614607,23.9349798988,0.10862951003,0.0183102712821,0.0,-0.041635477466,0.0,0.128328913367,0.0,1.45339041015,0.0,0.00237902474251,0.0,0.00179544317884,0.0,0.00225121132758,0.0,0.0692195845807,0.0,-0.0229007762851,0.0,0.0,0.0,0.0,-200.0,0.0,0.0,0.00383600394174,0.0,0.00230154196664,0.0,-0.0,-100.0,-0.0,-100.0,2100000.0,0.0,0.0,0.0,0.0,0.0,0.0
1402753823550800685,3,-10.1083130804,-0.00591572024346,-8.1491106168,-0.122189614607,23.9416326693,0.10862951003,0.0181086139974,0.0,-0.041619579041,0.0,0.128167256069,0.0,1.45339002237,0.0,-0.00015143313884,0.0,0.00089513748923,0.0,-0.00101571444857,0.0,0.0690784657495,0.0,-0.0194589591452,0.0,0.0,0.0,0.0,-200.0,0.0,0.0,0.00383600394174,0.0,0.00230154196664,0.0,-0.0,-100.0,-0.0,-100.0,2100000.0,0.0,0.0,0.0,0.0,0.0,0.0
1402753823569815625,3,-10.1083130804,-0.00591572024346,-8.1491106168,-0.122189614607,23.9416326693,0.10862951003,0.0181086139974,0.0,-0.041619579041,0.0,0.128167256069,0.0,1.45339002237,0.0,-0.00015143313884,0.0,0.00089513748923,0.0,-0.00101571444857,0.0,0.0690784657495,0.0,-0.0194589591452,0.0,0.0,0.0,0.0,-200.0,0.0,0.0,0.00383600394174,-100.0,0.00230154196664,-100.0,-0.0,-100.0,-0.0,-100.0,2100000.0,0.0,0.0,0.0,0.0,0.0,0.0
1402753823589889339,3,-10.1148846851,-0.00591572024346,-8.16284235199,-0.122189614607,23.9695700019,0.10862951003,0.00967516197349,0.0,-0.0432844040779,0.0,0.127750100026,0.0,1.45344749476,0.0,0.0080925490606,0.0,-0.000787895964401,0.0,-0.0051570544543,0.0,0.0689161209903,0.0,-0.0149421077075,0.0,0.0,0.0,0.0,-200.0,0.0,0.0,0.00383600394174,-100.0,0.00230154196664,-100.0,-0.0,-100.0,-0.0,-100.0,2100000.0,0.0,0.0,0.0,0.0,0.0,0.0
1402753823609863286,3,-10.1148846851,-0.00591572024346,-8.16284235199,-0.122189614607,23.9695700019,0.10862951003,0.00967516197349,0.0,-0.0432844040779,0.0,0.127750100026,0.0,1.45344749476,0.0,0.0080925490606,0.0,-0.000787895964401,0.0,-0.0051570544543,0.0,0.0689161209903,0.0,-0.0149421077075,0.0,0.0,0.0,0.0,-200.0,0.0,0.0,0.00383600394174,-100.0,0.000767318410122,-100.0,-0.0,-100.0,-0.0,-100.0,2100000.0,0.0,0.0,0.0,0.0,0.0,0.0
1402753823629892258,3,-10.1151678475,-0.00591572024346,-8.16470607632,-0.122189614607,23.9794430318,0.10862951003,0.0197843300763,0.0,-0.0306561764362,0.0,0.123558227577,0.0,1.45345427684,0.0,0.00861165076574,0.0,-4.21622839996e-05,0.0,-0.00120800413939,0.0,0.0704534173316,0.0,-0.0097850462536,0.0,0.0,0.0,0.0,-200.0,0.0,0.0,0.00383600394174,-100.0,0.00230154196664,-100.0,-0.0,-100.0,-0.0,-100.0,2100000.0,0.0,0.0,0.0,0.0,0.0,0.0
1402753823649771679,3,-10.1151678475,-0.00591572024346,-8.16470607632,-0.122189614607,23.9794430318,0.10862951003,0.0197843300763,0.0,-0.0306561764362,0.0,0.123558227577,0.0,1.45345427684,0.0,0.00861165076574,0.0,-4.21622839996e-05,0.0,-0.00120800413939,0.0,0.0704534173316,0.0,-0.0097850462536,0.0,0.0,0.0,0.0,-200.0,0.0,0.0,0.00383600394174,-100.0,0.00230154196664,-100.0,-0.0,-100.0,-0.0,-100.0,2100000.0,0.0,0.0,0.0,0.0,0.0,0.0
1402753823670377749,3,-10.1214250975,-0.00591572024346,-8.17658670531,-0.122189614607,23.9962039024,0.10862951003,0.0150106730194,0.0,-0.0357183559985,0.0,0.122066261724,0.0,1.45346607078,0.0,0.00461001913661,0.0,-0.000892879031106,0.0,-0.00924176391339,0.0,0.0699393227178,0.0,-0.00243557879253,0.0,0.0,0.0,0.0,-200.0,0.0,0.0,0.00383600394174,-100.0,0.00230154196664,-100.0,-0.0,-100.0,-0.0,-100.0,2100000.0,0.0,0.0,0.0,0.0,0.0,0.0
1402753823689788479,3,-10.1214250975,-0.00591572024346,-8.17658670531,-0.122189614607,23.9962039024,0.10862951003,0.0150106730194,0.0,-0.0357183559985,0.0,0.122066261724,0.0,1.45346607078,0.0,0.00461001913661,0.0,-0.000892879031106,0.0,-0.00924176391339,0.0,0.0699393227178,0.0,-0.00243557879253,0.0,0.0,0.0,0.0,-200.0,0.0,0.0,0.00383600394174,-100.0,0.00230154196664,-100.0,-0.0,-100.0,-0.0,-100.0,2100000.0,0.0,0.0,0.0,0.0,0.0,0.0
1402753823710094194,3,-10.1217813261,-0.00591572024346,-8.18575428238,-0.122189614607,24.018063927,0.10862951003,0.0225545519099,0.0,-0.0321356907916,0.0,0.121419157791,0.0,1.45350659278,0.0,0.00644190545423,0.0,-0.000362400377666,0.0,-0.0136440768857,0.0,0.0706772292519,0.0,-0.00111414277941,0.0,0.0,0.0,0.0,-200.0,0.0,0.0,0.00383600394174,-100.0,0.00230154196664,-100.0,-0.0,-100.0,-0.0,-100.0,2100000.0,0.0,0.0,0.0,0.0,0.0,0.0
1402753823729755080,3,-10.1217813261,-0.00591572024346,-8.18575428238,-0.122189614607,24.018063927,0.10862951003,0.0225545519099,0.0,-0.0321356907916,0.0,0.121419157791,0.0,1.45350659278,0.0,0.00644190545423,0.0,-0.000362400377666,0.0,-0.0136440768857,0.0,0.0706772292519,0.0,-0.00111414277941,0.0,0.0,0.0,0.0,-200.0,0.0,0.0,0.00383600394174,-100.0,0.000767318410122,-100.0,-0.0,-100.0,-0.0,-100.0,2100000.0,0.0,0.0,0.0,0.0,0.0,0.0
1402753823749869409,3,-10.1241841873,-0.00591572024346,-8.19919851494,-0.122189614607,24.0382556043,0.10862951003,0.0250442343814,0.0,-0.0599486961257,0.0,0.11640638711,0.0,1.45349659278,0.0,0.00394683182008,0.0,0.000218111846547,0.0,-0.0173999865879,0.0,0.0703144788241,0.0,0.00661920349559,0.0,0.0,0.0,0.0,-200.0,0.0,0.0,0.00383600394174,-100.0,0.000767318410122,-100.0,-0.0,-100.0,-0.0,-100.0,2100000.0,0.0,0.0,0.0,0.0,0.0,0.0
1402753823769741547,3,-10.1241841873,-0.00591572024346,-8.19919851494,-0.122189614607,24.0382556043,0.10862951003,0.0250442343814,0.0,-0.0599486961257,0.0,0.11640638711,0.0,1.45349659278,0.0,0.00394683182008,0.0,0.000218111846547,0.0,-0.0173999865879,0.0,0.0703144788241,0.0,0.00661920349559,0.0,0.0,0.0,0.0,-200.0,0.0,0.0,0.00383600394174,-100.0,0.00230154196664,-100.0,-0.0,-100.0,-0.0,-100.0,2100000.0,0.0,0.0,0.0,0.0,0.0,0.0
1402753823789669684,3,-10.1301345443,-0.00591572024346,-8.20520999059,-0.122189614607,24.0581367036,0.10862951003,0.0127324255461,0.0,-0.0921658597661,0.0,0.107715220516,0.0,1.45289722532,0.0,0.00988144623025,0.0,-0.00106477746417,0.0,-0.0488233276837,0.0,0.0732714138431,0.0,0.0024391764687,0.0,0.0,0.0,0.0,-200.0,0.0,0.0,0.00383600394174,-100.0,0.00230154196664,-100.0,-0.0,-100.0,-0.0,-100.0,2100000.0,0.0,0.0,0.0,0.0,0.0,0.0
1402753823810356550,3,-10.1301345443,-0.00591572024346,-8.20520999059,-0.122189614607,24.0581367036,0.10862951003,0.0127324255461,0.0,-0.0921658597661,0.0,0.107715220516,0.0,1.45289722532,0.0,0.00988144623025,0.0,-0.00106477746417,0.0,-0.0488233276837,0.0,0.0732714138431,0.0,0.0024391764687,0.0,0.0,0.0,0.0,-200.0,0.0,0.0,0.00383600394174,-100.0,0.00230154196664,-100.0,-0.0,-100.0,-0.0,-100.0,2100000.0,0.0,0.0,0.0,0.0,0.0,0.0
1402753823829945108,3,-10.1297810971,-0.00591572024346,-8.21000660097,-0.122189614607,24.0624748897,0.10862951003,0.00644330190655,0.0,-0.141344169563,0.0,0.105773519876,0.0,1.45319083497,0.0,0.00702456454183,0.0,-0.00126051143442,0.0,-0.0801439761095,0.0,0.0761789960007,0.0,0.0140763292506,0.0,0.0,0.0,0.0,-200.0,0.0,0.0,0.00383600394174,-100.0,0.00230154196664,-100.0,-0.0,-100.0,-0.0,-100.0,2100000.0,0.0,0.0,0.0,0.0,0.0,0.0
1402753823850287206,3,-10.1297810971,-0.00591572024346,-8.21000660097,-0.122189614607,24.0624748897,0.10862951003,0.00644330190655,0.0,-0.141344169563,0.0,0.105773519876,0.0,1.45319083497,0.0,0.00702456454183,0.0,-0.00126051143442,0.0,-0.0801439761095,0.0,0.0761789960007,0.0,0.0140763292506,0.0,0.0,0.0,0.0,-200.0,0.0,0.0,0.00383600394174,-100.0,0.00230154196664,-100.0,-0.0,-100.0,-0.0,-100.0,2100000.0,0.0,0.0,0.0,0.0,0.0,0.0
1402753823869703839,3,-10.1395173332,-0.00591572024346,-8.23594303948,-0.122189614607,24.0864780374,0.10862951003,-2.85004465413e-05,0.0,-0.218952146094,0.0,0.0999548654016,0.0,1.45396318406,0.0,0.0202620408183,0.0,-0.00152788922381,0.0,-0.0912126954019,0.0,0.0797460030997,0.0,0.00145493286093,0.0,0.0,0.0,0.0,-200.0,0.0,0.0,0.00383600394174,-100.0,0.00230154196664,-100.0,-0.0,-100.0,-0.0,-100.0,2100000.0,0.0,0.0,0.0,0.0,0.0,0.0
1402753823889974782,3,-10.1395173332,-0.00591572024346,-8.23594303948,-0.122189614607,24.0864780374,0.10862951003,-2.85004465413e-05,0.0,-0.218952146094,0.0,0.0999548654016,0.0,1.45396318406,0.0,0.0202620408183,0.0,-0.00152788922381,0.0,-0.0912126954019,0.0,0.0797460030997,0.0,0.00145493286093,0.0,0.0,0.0,0.0,-200.0,0.0,0.0,0.00383600394174,-100.0,0.00230154196664,-100.0,-0.0,-100.0,-0.0,-100.0,2100000.0,0.0,0.0,0.0,0.0,0.0,0.0
1402753823910451213,3,-10.140482275,-0.00591572024346,-8.25744981833,-0.122189614607,24.1248076409,0.10862951003,-0.00692928952567,0.0,-0.273428395274,0.0,0.114157679541,0.0,1.45420818961,0.0,0.00906726026169,0.0,-0.00196162875016,0.0,-0.101747190124,0.0,0.0858485535623,0.0,0.00918259680507,0.0,0.0,0.0,0.0,-200.0,0.0,0.0,0.00383600394174,-100.0,0.00230154196664,-100.0,-0.0,-100.0,-0.0,-100.0,2100000.0,0.0,0.0,0.0,0.0,0.0,0.0
1402753823929757146,3,-10.140482275,-0.00591572024346,-8.25744981833,-0.122189614607,24.1248076409,0.10862951003,-0.00692928952567,0.0,-0.273428395274,0.0,0.114157679541,0.0,1.45420818961,0.0,0.00906726026169,0.0,-0.00196162875016,0.0,-0.101747190124,0.0,0.0858485535623,0.0,0.00918259680507,0.0,0.0,0.0,0.0,-200.0,0.0,0.0,0.00383600394174,-100.0,0.00230154196664,-100.0,-0.0,-100.0,-0.0,-100.0,2100000.0,0.0,0.0,0.0,0.0,0.0,0.0
1402753823949775436,3,-10.1405855952,-0.00591572024346,-8.26350583105,-0.122189614607,24.1272547166,0.10862951003,-0.00829800129252,0.0,-0.299917695967,0.0,0.11734841473,0.0,1.45435708611,0.0,0.00959784221763,0.0,-0.00175930816689,0.0,-0.0854825192448,0.0,0.0877536269627,0.0,0.0170406087789,0.0,0.0,0.0,0.0,-200.0,0.0,0.0,0.00383600394174,-100.0,0.00230154196664,-100.0,-0.0,-100.0,-0.0,-100.0,2100000.0,0.0,0.0,0.0,0.0,0.0,0.0
1402753823970042553,3,-10.1405855952,-0.00591572024346,-8.26350583105,-0.122189614607,24.1272547166,0.10862951003,-0.00829800129252,0.0,-0.299917695967,0.0,0.11734841473,0.0,1.45435708611,0.0,0.00959784221763,0.0,-0.00175930816689,0.0,-0.0854825192448,0.0,0.0877536269627,0.0,0.0170406087789,0.0,0.0,0.0,0.0,-200.0,0.0,0.0,0.00383600394174,-100.0,0.00230154196664,-100.0,-0.0,-100.0,-0.0,-100.0,2100000.0,0.0,0.0,0.0,0.0,0.0,0.0
1402753823989782850,3,-10.1463629025,-0.00591572024346,-8.28794764727,-0.122189614607,24.1481703538,0.10862951003,-0.0173024803115,0.0,-0.355532870828,0.0,0.127555752922,0.0,1.45427775968,0.0,0.0105453815604,0.0,-0.00196578664896,0.0,-0.0712835798713,0.0,0.0898717930362,0.0,0.0196243896406,0.0,0.0,0.0,0.0,-200.0,0.0,0.0,0.00383600394174,-100.0,0.00230154196664,-100.0,-0.0,-100.0,-0.0,-100.0,2100000.0,0.0,0.0,0.0,0.0,0.0,0.0
1402753824010361378,3,-10.1463629025,-0.00591572024346,-8.28794764727,-0.122189614607,24.1481703538,0.10862951003,-0.0173024803115,0.0,-0.355532870828,0.0,0.127555752922,0.0,1.45427775968,0.0,0.0105453815604,0.0,-0.00196578664896,0.0,-0.0712835798713,0.0,0.0898717930362,0.0,0.0196243896406,0.0,0.0,0.0,0.0,-200.0,0.0,0.0,0.00383600394174,-100.0,0.00230154196664,-100.0,-0.0,-100.0,-0.0,-100.0,2100000.0,0.0,0.0,0.0,0.0,0.0,0.0
1402753824029811184,3,-10.1546787744,-0.00591572024346,-8.3085972405,-0.122189614607,24.1494385193,0.10862951003,-0.0313539396749,0.0,-0.414168157432,0.0,0.131020041737,0.0,1.45408151593,0.0,0.00410869847848,0.0,-0.00168530394416,0.0,-0.0406232667375,0.0,0.0908951770968,0.0,0.0106634833691,0.0,0.0,0.0,0.0,-200.0,0.0,0.0,0.00383600394174,-100.0,0.00230154196664,-100.0,-0.0,-100.0,-0.0,-100.0,2100000.0,0.0,0.0,0.0,0.0,0.0,0.0
1402753824049834478,3,-10.1546787744,-0.00591572024346,-8.3085972405,-0.122189614607,24.1494385193,0.10862951003,-0.0313539396749,0.0,-0.414168157432,0.0,0.131020041737,0.0,1.45408151593,0.0,0.00410869847848,0.0,-0.00168530394416,0.0,-0.0406232667375,0.0,0.0908951770968,0.0,0.0106634833691,0.0,0.0,0.0,0.0,-200.0,0.0,0.0,0.00383600394174,-100.0,0.00230154196664,-100.0,-0.0,-100.0,-0.0,-100.0,2100000.0,0.0,0.0,0.0,0.0,0.0,0.0
1402753824069839087,3,-10.1546413925,-0.00591572024346,-8.32244607369,-0.122189614607,24.1624912798,0.10862951003,-0.0189815344437,0.0,-0.441412386495,0.0,0.141276912573,0.0,1.45731856065,0.0,0.0151381240355,0.0,0.000114191047908,0.0,-0.0265525288019,0.0,0.094141388088,0.0,0.0220471944169,0.0,0.0,0.0,0.0,-200.0,0.0,0.0,0.00383600394174,-100.0,0.00230154196664,-100.0,-0.0,-100.0,-0.0,-100.0,2100000.0,0.0,0.0,0.0,0.0,0.0,0.0
1402753824089777610,3,-10.1546413925,-0.00591572024346,-8.32244607369,-0.122189614607,24.1624912798,0.10862951003,-0.0189815344437,0.0,-0.441412386495,0.0,0.141276912573,0.0,1.45731856065,0.0,0.0151381240355,0.0,0.000114191047908,0.0,-0.0265525288019,0.0,0.094141388088,0.0,0.0220471944169,0.0,0.0,0.0,0.0,-200.0,0.0,0.0,0.00230154196664,-100.0,0.00383600394174,-100.0,-0.0,-100.0,-0.0,-100.0,2100000.0,0.0,0.0,0.0,0.0,0.0,0.0
1402753824110031121,3,-10.1557672473,-0.00591572024346,-8.34656608728,-0.122189614607,24.1697563616,0.10862951003,-0.0262983918364,0.0,-0.500516779905,0.0,0.146899886819,0.0,1.45822283912,0.0,0.0185767978329,0.0,0.00107217231754,0.0,0.0179608142666,0.0,0.0937243615141,0.0,0.00971520878973,0.0,0.0,0.0,0.0,-200.0,0.0,0.0,0.00230154196664,-100.0,0.00230154196664,-100.0,-0.0,-100.0,-0.0,-100.0,2100000.0,0.0,0.0,0.0,0.0,0.0,0.0
1402753824129772017,3,-10.1557672473,-0.00591572024346,-8.34656608728,-0.122189614607,24.1697563616,0.10862951003,-0.0262983918364,0.0,-0.500516779905,0.0,0.146899886819,0.0,1.45822283912,0.0,0.0185767978329,0.0,0.00107217231754,0.0,0.0179608142666,0.0,0.0937243615141,0.0,0.00971520878973,0.0,0.0,0.0,0.0,-200.0,0.0,0.0,0.00230154196664,-100.0,0.00230154196664,-100.0,-0.0,-100.0,-0.0,-100.0,2100000.0,0.0,0.0,0.0,0.0,0.0,0.0
1402753824149814509,3,-10.1565727342,-0.00591572024346,-8.36485224607,-0.122189614607,24.187151805,0.10862951003,-0.0192157807505,0.0,-0.526623213484,0.0,0.158669313566,0.0,1.46067976886,0.0,0.011715108958,0.0,0.00237759084773,0.0,0.0371127938928,0.0,0.0935223513574,0.0,0.0222782848474,0.0,0.0,0.0,0.0,-200.0,0.0,0.0,0.00230154196664,-100.0,0.00230154196664,-100.0,-0.0,-100.0,-0.0,-100.0,2100000.0,0.0,0.0,0.0,0.0,0.0,0.0
1402753824169749089,3,-10.1644114232,-0.00591572024346,-8.38545342423,-0.122189614607,24.1984756888,0.10862951003,-0.0310502199139,0.0,-0.561867077532,0.0,0.154771907554,0.0,1.45904023832,0.0,0.0160078404479,0.0,0.00178880228319,0.0,0.0612264559381,0.0,0.0910189238915,0.0,0.0129543335387,0.0,0.0,0.0,0.0,-200.0,0.0,0.0,0.00230154196664,-100.0,0.00230154196664,-100.0,-0.0,-100.0,-0.0,-100.0,2100000.0,0.0,0.0,0.0,0.0,0.0,0.0
1402753824190475814,3,-10.1644114232,-0.00591572024346,-8.38545342423,-0.122189614607,24.1984756888,0.10862951003,-0.0310502199139,0.0,-0.561867077532,0.0,0.154771907554,0.0,1.45904023832,0.0,0.0160078404479,0.0,0.00178880228319,0.0,0.0612264559381,0.0,0.0910189238915,0.0,0.0129543335387,0.0,0.0,0.0,0.0,-200.0,0.0,0.0,0.00230154196664,-100.0,0.00230154196664,-100.0,-0.0,-100.0,-0.0,-100.0,2100000.0,0.0,0.0,0.0,0.0,0.0,0.0
1402753824210170945,3,-10.165132179,-0.00591572024346,-8.39743740285,-0.122189614607,24.2017387381,0.10862951003,-0.0342840986743,0.0,-0.582500267581,0.0,0.157974017532,0.0,1.45941430045,0.0,0.0165747488208,0.0,0.00212803824465,0.0,0.0655651404592,0.0,0.089855469682,0.0,0.00604997496387,0.0,0.0,0.0,0.0,-200.0,0.0,0.0,0.00383600394174,-100.0,0.00383600394174,-100.0,-0.0,-100.0,-0.0,-100.0,2100000.0,0.0,0.0,0.0,0.0,0.0,0.0
1402753824229785811,3,-10.165132179,-0.00591572024346,-8.39743740285,-0.122189614607,24.2017387381,0.10862951003,-0.0342840986743,0.0,-0.582500267581,0.0,0.157974017532,0.0,1.45941430045,0.0,0.0165747488208,0.0,0.00212803824465,0.0,0.0655651404592,0.0,0.089855469682,0.0,0.00604997496387,0.0,0.0,0.0,0.0,-200.0,0.0,0.0,0.00230154196664,-100.0,0.00230154196664,-100.0,-0.0,-100.0,-0.0,-100.0,2100000.0,0.0,0.0,0.0,0.0,0.0,0.0
1402753824250394210,3,-10.1658717332,-0.00591572024346,-8.44046564207,-0.122189614607,24.2256168949,0.10862951003,-0.0228966562164,0.0,-0.650165520575,0.0,0.160099857941,0.0,1.46521421422,0.0,0.0184046215986,0.0,0.00456215961374,0.0,0.0717833770233,0.0,0.0842520796108,0.0,0.00103065973837,0.0,0.0,0.0,0.0,-200.0,0.0,0.0,0.00230154196664,-100.0,0.00383600394174,-100.0,-0.0,-100.0,-0.0,-100.0,2100000.0,0.0,0.0,0.0,0.0,0.0,0.0
1402753824270141583,3,-10.1658717332,-0.00591572024346,-8.44046564207,-0.122189614607,24.2256168949,0.10862951003,-0.0228966562164,0.0,-0.650165520575,0.0,0.160099857941,0.0,1.46521421422,0.0,0.0184046215986,0.0,0.00456215961374,0.0,0.0717833770233,0.0,0.0842520796108,0.0,0.00103065973837,0.0,0.0,0.0,0.0,-200.0,0.0,0.0,0.00230154196664,-100.0,0.00230154196664,-100.0,-0.0,-100.0,-0.0,-100.0,2100000.0,0.0,0.0,0.0,0.0,0.0,0.0
1402753824289839209,3,-10.1698491777,-0.00591572024346,-8.46381292514,-0.122189614607,24.2403931158,0.10862951003,-0.0213772096966,0.0,-0.666511928008,0.0,0.160411842471,0.0,1.46642683946,0.0,0.0176806270243,0.0,0.00504297650646,0.0,0.0768366303422,0.0,0.0837084628221,0.0,-0.00472099237116,0.0,0.0,0.0,0.0,-200.0,0.0,0.0,0.00230154196664,-100.0,0.00383600394174,-100.0,-0.0,-100.0,-0.0,-100.0,2100000.0,0.0,0.0,0.0,0.0,0.0,0.0
1402753824309784155,3,-10.1698491777,-0.00591572024346,-8.46381292514,-0.122189614607,24.2403931158,0.10862951003,-0.0213772096966,0.0,-0.666511928008,0.0,0.160411842471,0.0,1.46642683946,0.0,0.0176806270243,0.0,0.00504297650646,0.0,0.0768366303422,0.0,0.0837084628221,0.0,-0.00472099237116,0.0,0.0,0.0,0.0,-200.0,0.0,0.0,0.00230154196664,-100.0,0.00230154196664,-100.0,-0.0,-100.0,-0.0,-100.0,2100000.0,0.0,0.0,0.0,0.0,0.0,0.0
1402753824329810425,3,-10.1707865971,-0.00591572024346,-8.49191227618,-0.122189614607,24.2469322345,0.10862951003,-0.0243568604795,0.0,-0.701493221436,0.0,0.158494623822,0.0,1.46720040044,0.0,0.017774826395,0.0,0.00516488515466,0.0,0.0612433697269,0.0,0.0809599879266,0.0,-0.0115489034799,0.0,0.0,0.0,0.0,-200.0,0.0,0.0,0.00230154196664,-100.0,0.00383600394174,-100.0,-0.0,-100.0,-0.0,-100.0,2100000.0,0.0,0.0,0.0,0.0,0.0,0.0
1402753824349960204,3,-10.1707865971,-0.00591572024346,-8.49191227618,-0.122189614607,24.2469322345,0.10862951003,-0.0243568604795,0.0,-0.701493221436,0.0,0.158494623822,0.0,1.46720040044,0.0,0.017774826395,0.0,0.00516488515466,0.0,0.0612433697269,0.0,0.0809599879266,0.0,-0.0115489034799,0.0,0.0,0.0,0.0,-200.0,0.0,0.0,0.00230154196664,-100.0,0.00230154196664,-100.0,-0.0,-100.0,-0.0,-100.0,2100000.0,0.0,0.0,0.0,0.0,0.0,0.0
1402753824369558283,3,-10.1690803399,-0.00591572024346,-8.52550856745,-0.122189614607,24.2728854141,0.10862951003,-0.00242735724928,0.0,-0.727879014732,0.0,0.15740727243,0.0,1.47233619696,0.0,0.0173276807713,0.0,0.00721901727176,0.0,0.0519180655749,0.0,0.0794120554372,0.0,-0.0054705673173,0.0,0.0,0.0,0.0,-200.0,0.0,0.0,-0.000767381983555,-100.0,0.00383600394174,-100.0,-0.0,-100.0,-0.0,-100.0,2100000.0,0.0,0.0,0.0,0.0,0.0,0.0
1402753824389732518,3,-10.1690803399,-0.00591572024346,-8.52550856745,-0.122189614607,24.2728854141,0.10862951003,-0.00242735724928,0.0,-0.727879014732,0.0,0.15740727243,0.0,1.47233619696,0.0,0.0173276807713,0.0,0.00721901727176,0.0,0.0519180655749,0.0,0.0794120554372,0.0,-0.0054705673173,0.0,0.0,0.0,0.0,-200.0,0.0,0.0,-0.000767381983555,-100.0,0.00383600394174,-100.0,-0.0,-100.0,-0.0,-100.0,2100000.0,0.0,0.0,0.0,0.0,0.0,0.0
1402753824410060299,3,-10.17859014,-0.00591572024346,-8.56680889178,-0.122189614607,24.2888931178,0.10862951003,-0.0159876475597,0.0,-0.771417137925,0.0,0.153432450263,0.0,1.47105717111,0.0,0.0163228488504,0.0,0.0060908955701,0.0,0.0433148942467,0.0,0.0759267101136,0.0,-0.0134974285529,0.0,0.0,0.0,0.0,-200.0,0.0,0.0,-0.00537029107169,-100.0,0.00230154196664,-100.0,-0.0,-100.0,-0.0,-100.0,2100000.0,0.0,0.0,0.0,0.0,0.0,0.0
1402753824429732899,3,-10.17859014,-0.00591572024346,-8.56680889178,-0.122189614607,24.2888931178,0.10862951003,-0.0159876475597,0.0,-0.771417137925,0.0,0.153432450263,0.0,1.47105717111,0.0,0.0163228488504,0.0,0.0060908955701,0.0,0.0433148942467,0.0,0.0759267101136,0.0,-0.0134974285529,0.0,0.0,0.0,0.0,-200.0,0.0,0.0,-0.00537029107169,-100.0,0.00383600394174,-100.0,-0.0,-100.0,-0.0,-100.0,2100000.0,0.0,0.0,0.0,0.0,0.0,0.0
1402753824450599555,3,-10.181344628,-0.00591572024346,-8.62133258063,-0.122189614607,24.3126587121,0.10862951003,-0.00479160536124,0.0,-0.825931668595,0.0,0.142083982034,0.0,1.47492332057,0.0,0.0185216449877,0.0,0.00716808088235,0.0,0.0261509172391,0.0,0.0725115300018,0.0,-0.00466941134165,0.0,0.0,0.0,0.0,-200.0,0.0,0.0,-0.00690451462821,-100.0,0.00383600394174,-100.0,-0.0,-100.0,-0.0,-100.0,2100000.0,0.0,0.0,0.0,0.0,0.0,0.0
1402753824469748202,3,-10.181344628,-0.00591572024346,-8.62133258063,-0.122189614607,24.3126587121,0.10862951003,-0.00479160536124,0.0,-0.825931668595,0.0,0.142083982034,0.0,1.47492332057,0.0,0.0185216449877,0.0,0.00716808088235,0.0,0.0261509172391,0.0,0.0725115300018,0.0,-0.00466941134165,0.0,0.0,0.0,0.0,-200.0,0.0,0.0,-0.00690451462821,-100.0,0.00383600394174,-100.0,-0.0,-100.0,-0.0,-100.0,2100000.0,0.0,0.0,0.0,0.0,0.0,0.0
1402753824489842609,3,-10.182503314,-0.00591572024346,-8.67029951412,-0.122189614607,24.3380823778,0.10862951003,0.0107068927934,0.0,-0.855296218862,0.0,0.14721436904,0.0,1.47833545516,0.0,0.0126401395028,0.0,0.00807336264866,0.0,-0.00123133586113,0.0,0.0730370065312,0.0,-0.0113590820813,0.0,0.0,0.0,0.0,-200.0,0.0,0.0,-0.00690451462821,-100.0,0.00230154196664,-100.0,-0.0,-100.0,-0.0,-100.0,2100000.0,0.0,0.0,0.0,0.0,0.0,0.0
1402753824510053975,3,-10.182503314,-0.00591572024346,-8.67029951412,-0.122189614607,24.3380823778,0.10862951003,0.0107068927934,0.0,-0.855296218862,0.0,0.14721436904,0.0,1.47833545516,0.0,0.0126401395028,0.0,0.00807336264866,0.0,-0.00123133586113,0.0,0.0730370065312,0.0,-0.0113590820813,0.0,0.0,0.0,0.0,-200.0,0.0,0.0,-0.00690451462821,-100.0,0.00383600394174,-100.0,-0.0,-100.0,-0.0,-100.0,2100000.0,0.0,0.0,0.0,0.0,0.0,0.0
1402753824529739779,3,-10.1823002317,-0.00591572024346,-8.68850162037,-0.122189614607,24.341163929,0.10862951003,0.0114263082555,0.0,-0.872627630203,0.0,0.144699410144,0.0,1.47865536234,0.0,0.0205405841402,0.0,0.00764845933174,0.0,0.00783424936715,0.0,0.0730392847067,0.0,-0.0182891499788,0.0,0.0,0.0,0.0,-200.0,0.0,0.0,-0.00690451462821,-100.0,0.00230154196664,-100.0,-0.0,-100.0,-0.0,-100.0,2100000.0,0.0,0.0,0.0,0.0,0.0,0.0
1402753824549879592,3,-10.1823002317,-0.00591572024346,-8.68850162037,-0.122189614607,24.341163929,0.10862951003,0.0114263082555,0.0,-0.872627630203,0.0,0.144699410144,0.0,1.47865536234,0.0,0.0205405841402,0.0,0.00764845933174,0.0,0.00783424936715,0.0,0.0730392847067,0.0,-0.0182891499788,0.0,0.0,0.0,0.0,-200.0,0.0,0.0,-0.00537029107169,-100.0,0.00383600394174,-100.0,-0.0,-100.0,-0.0,-100.0,2100000.0,0.0,0.0,0.0,0.0,0.0,0.0
1402753824570275995,3,-10.1817276234,-0.00591572024346,-8.72485410206,-0.122189614607,24.3470979895,0.10862951003,0.0173759478224,0.0,-0.89988701255,0.0,0.141692319322,0.0,1.47934363402,0.0,0.0200651207336,0.0,0.00711900968686,0.0,-0.0226434513421,0.0,0.0737143264402,0.0,-0.00116322984365,0.0,0.0,0.0,0.0,-200.0,0.0,0.0,-0.00690451462821,-100.0,0.00230154196664,-100.0,-0.0,-100.0,-0.0,-100.0,2100000.0,0.0,0.0,0.0,0.0,0.0,0.0
1402753824589806699,3,-10.1817276234,-0.00591572024346,-8.72485410206,-0.122189614607,24.3470979895,0.10862951003,0.0173759478224,0.0,-0.89988701255,0.0,0.141692319322,0.0,1.47934363402,0.0,0.0200651207336,0.0,0.00711900968686,0.0,-0.0226434513421,0.0,0.0737143264402,0.0,-0.00116322984365,0.0,0.0,0.0,0.0,-200.0,0.0,0.0,-0.00690451462821,-100.0,0.00230154196664,-100.0,-0.0,-100.0,-0.0,-100.0,2100000.0,0.0,0.0,0.0,0.0,0.0,0.0
1402753824609810770,3,-10.1874945563,-0.00591572024346,-8.77738317549,-0.122189614607,24.3916178841,0.10862951003,0.0111666081136,0.0,-0.926282950591,0.0,0.145461087133,0.0,1.47864301788,0.0,0.020974317421,0.0,0.00573802600193,0.0,-0.0344386551209,0.0,0.0748112822623,0.0,-0.00130221652026,0.0,0.0,0.0,0.0,-200.0,0.0,0.0,-0.00537029107169,-100.0,0.00383600394174,-100.0,-0.0,-100.0,-0.0,-100.0,2100000.0,0.0,0.0,0.0,0.0,0.0,0.0
1402753824629760673,3,-10.1874945563,-0.00591572024346,-8.77738317549,-0.122189614607,24.3916178841,0.10862951003,0.0111666081136,0.0,-0.926282950591,0.0,0.145461087133,0.0,1.47864301788,0.0,0.020974317421,0.0,0.00573802600193,0.0,-0.0344386551209,0.0,0.0748112822623,0.0,-0.00130221652026,0.0,0.0,0.0,0.0,-200.0,0.0,0.0,-0.00537029107169,-100.0,0.00383600394174,-100.0,-0.0,-100.0,-0.0,-100.0,2100000.0,0.0,0.0,0.0,0.0,0.0,0.0
1402753824650247106,3,-10.1985511955,-0.00591572024346,-8.81766000552,-0.122189614607,24.4027895192,0.10862951003,0.00224523581496,0.0,-0.939566745467,0.0,0.138980072259,0.0,1.47814601768,0.0,0.0268823421394,0.0,0.00398422964854,0.0,-0.0366839908709,0.0,0.0772954578413,0.0,-0.0121365582479,0.0,0.0,0.0,0.0,-200.0,0.0,0.0,-0.00537029107169,-100.0,0.00383600394174,-100.0,-0.0,-100.0,-0.0,-100.0,2100000.0,0.0,0.0,0.0,0.0,0.0,0.0
1402753824669994452,3,-10.1985511955,-0.00591572024346,-8.81766000552,-0.122189614607,24.4027895192,0.10862951003,0.00224523581496,0.0,-0.939566745467,0.0,0.138980072259,0.0,1.47814601768,0.0,0.0268823421394,0.0,0.00398422964854,0.0,-0.0366839908709,0.0,0.0772954578413,0.0,-0.0121365582479,0.0,0.0,0.0,0.0,-200.0,0.0,0.0,-0.00690451462821,-100.0,0.00230154196664,-100.0,-0.0,-100.0,-0.0,-100.0,2100000.0,0.0,0.0,0.0,0.0,0.0,0.0
1402753824689849828,3,-10.2021973191,-0.00591572024346,-8.89019605929,-0.122189614607,24.4571343846,0.10862951003,0.0219783128558,0.0,-0.974677421923,0.0,0.135614345993,0.0,1.48166188429,0.0,0.0270609809147,0.0,0.0054986962304,0.0,-0.0303097629533,0.0,0.0785558791002,0.0,-0.00889075684019,0.0,0.0,0.0,0.0,-200.0,0.0,0.0,-0.00537029107169,-100.0,0.00383600394174,-100.0,-0.0,-100.0,-0.0,-100.0,2100000.0,0.0,0.0,0.0,0.0,0.0,0.0
1402753824709886616,3,-10.2021973191,-0.00591572024346,-8.89019605929,-0.122189614607,24.4571343846,0.10862951003,0.0219783128558,0.0,-0.974677421923,0.0,0.135614345993,0.0,1.48166188429,0.0,0.0270609809147,0.0,0.0054986962304,0.0,-0.0303097629533,0.0,0.0785558791002,0.0,-0.00889075684019,0.0,0.0,0.0,0.0,-200.0,0.0,0.0,-0.00537029107169,-100.0,0.00230154196664,-100.0,-0.0,-100.0,-0.0,-100.0,2100000.0,0.0,0.0,0.0,0.0,0.0,0.0
1402753824729634945,3,-10.2134689798,-0.00591572024346,-8.93302570062,-0.122189614607,24.4811073107,0.10862951003,0.00569974032501,0.0,-0.996704954162,0.0,0.132060124585,0.0,1.48043802137,0.0,0.0256681918995,0.0,0.00348578959592,0.0,-0.0352574443345,0.0,0.0789062328489,0.0,-0.0137370219822,0.0,0.0,0.0,0.0,-200.0,0.0,0.0,-0.00537029107169,-100.0,0.00383600394174,-100.0,-0.0,-100.0,-0.0,-100.0,2100000.0,0.0,0.0,0.0,0.0,0.0,0.0
1402753824750374525,3,-10.2133091248,-0.00591572024346,-8.95415881056,-0.122189614607,24.4839226196,0.10862951003,0.00995107181008,0.0,-1.0092280112,0.0,0.131036866031,0.0,1.48110817477,0.0,0.0322541217555,0.0,0.00340540784963,0.0,-0.0281856946733,0.0,0.0795010024734,0.0,0.00160859806455,0.0,0.0,0.0,0.0,-200.0,0.0,0.0,-0.00537029107169,-100.0,0.00230154196664,-100.0,-0.0,-100.0,-0.0,-100.0,2100000.0,0.0,0.0,0.0,0.0,0.0,0.0
1402753824769968083,3,-10.2133091248,-0.00591572024346,-8.95415881056,-0.122189614607,24.4839226196,0.10862951003,0.00995107181008,0.0,-1.0092280112,0.0,0.131036866031,0.0,1.48110817477,0.0,0.0322541217555,0.0,0.00340540784963,0.0,-0.0281856946733,0.0,0.0795010024734,0.0,0.00160859806455,0.0,0.0,0.0,0.0,-200.0,0.0,0.0,-0.00690451462821,-100.0,0.00230154196664,-100.0,-0.0,-100.0,-0.0,-100.0,2100000.0,0.0,0.0,0.0,0.0,0.0,0.0
1402753824789678925,3,-10.2219327791,-0.00591572024346,-8.98343641151,-0.122189614607,24.4982598794,0.10862951003,0.00464651257809,0.0,-1.0216060179,0.0,0.125460510804,0.0,1.48106780732,0.0,0.0350785017617,0.0,0.00268160326864,0.0,-0.026529137505,0.0,0.0798302105274,0.0,0.000474214848438,0.0,0.0,0.0,0.0,-200.0,0.0,0.0,-0.00537029107169,-100.0,0.00230154196664,-100.0,-0.0,-100.0,-0.0,-100.0,2100000.0,0.0,0.0,0.0,0.0,0.0,0.0
1402753824809923271,3,-10.2219327791,-0.00591572024346,-8.98343641151,-0.122189614607,24.4982598794,0.10862951003,0.00464651257809,0.0,-1.0216060179,0.0,0.125460510804,0.0,1.48106780732,0.0,0.0350785017617,0.0,0.00268160326864,0.0,-0.026529137505,0.0,0.0798302105274,0.0,0.000474214848438,0.0,0.0,0.0,0.0,-200.0,0.0,0.0,-0.00690451462821,-100.0,0.00230154196664,-100.0,-0.0,-100.0,-0.0,-100.0,2100000.0,0.0,0.0,0.0,0.0,0.0,0.0
1402753824829973017,3,-10.2216726622,-0.00591572024346,-9.02680575009,-0.122189614607,24.5036181138,0.10862951003,0.00867386278113,0.0,-1.04172264296,0.0,0.125588558569,0.0,1.48258817293,0.0,0.0403713334986,0.0,0.00287098213414,0.0,-0.0214786165492,0.0,0.081008581914,0.0,0.00713448213279,0.0,0.0,0.0,0.0,-200.0,0.0,0.0,-0.00690451462821,-100.0,0.00230154196664,-100.0,-0.0,-100.0,-0.0,-100.0,2100000.0,0.0,0.0,0.0,0.0,0.0,0.0
1402753824849929958,3,-10.2216726622,-0.00591572024346,-9.02680575009,-0.122189614607,24.5036181138,0.10862951003,0.00867386278113,0.0,-1.04172264296,0.0,0.125588558569,0.0,1.48258817293,0.0,0.0403713334986,0.0,0.00287098213414,0.0,-0.0214786165492,0.0,0.081008581914,0.0,0.00713448213279,0.0,0.0,0.0,0.0,-200.0,0.0,0.0,-0.00690451462821,-100.0,0.00230154196664,-100.0,-0.0,-100.0,-0.0,-100.0,2100000.0,0.0,0.0,0.0,0.0,0.0,0.0
1402753824869666534,3,-10.2229919282,-0.00591572024346,-9.07205319174,-0.122189614607,24.5307007507,0.10862951003,0.022227061096,0.0,-1.04304133671,0.0,0.126738696324,0.0,1.48538757623,0.0,0.0343899879326,0.0,0.00384366461181,0.0,-0.0203504580446,0.0,0.0838780496844,0.0,0.0163785606267,0.0,0.0,0.0,0.0,-200.0,0.0,0.0,-0.00690451462821,-100.0,0.00383600394174,-100.0,-0.0,-100.0,-0.0,-100.0,2100000.0,0.0,0.0,0.0,0.0,0.0,0.0
1402753824889813410,3,-10.2229919282,-0.00591572024346,-9.07205319174,-0.122189614607,24.5307007507,0.10862951003,0.022227061096,0.0,-1.04304133671,0.0,0.126738696324,0.0,1.48538757623,0.0,0.0343899879326,0.0,0.00384366461181,0.0,-0.0203504580446,0.0,0.0838780496844,0.0,0.0163785606267,0.0,0.0,0.0,0.0,-200.0,0.0,0.0,-0.00690451462821,-100.0,0.00230154196664,-100.0,-0.0,-100.0,-0.0,-100.0,2100000.0,0.0,0.0,0.0,0.0,0.0,0.0
1402753824910542664,3,-10.2337711615,-0.00591572024346,-9.14245214558,-0.122189614607,24.5580764092,0.10862951003,0.01176824274,0.0,-1.07650670901,0.0,0.121391870198,0.0,1.48609756056,0.0,0.0365688723144,0.0,0.00298805392268,0.0,-0.0108577430551,0.0,0.083279720131,0.0,-0.00452612723244,0.0,0.0,0.0,0.0,-200.0,0.0,0.0,-0.00690451462821,-100.0,0.00230154196664,-100.0,-0.0,-100.0,-0.0,-100.0,2100000.0,0.0,0.0,0.0,0.0,0.0,0.0
1402753824929976347,3,-10.2337711615,-0.00591572024346,-9.14245214558,-0.122189614607,24.5580764092,0.10862951003,0.01176824274,0.0,-1.07650670901,0.0,0.121391870198,0.0,1.48609756056,0.0,0.0365688723144,0.0,0.00298805392268,0.0,-0.0108577430551,0.0,0.083279720131,0.0,-0.00452612723244,0.0,0.0,0.0,0.0,-200.0,0.0,0.0,-0.00690451462821,-100.0,0.00230154196664,-100.0,-0.0,-100.0,-0.0,-100.0,2100000.0,0.0,0.0,0.0,0.0,0.0,0.0
1402753824949893888,3,-10.2392136771,-0.00591572024346,-9.20594550795,-0.122189614607,24.5895846974,0.10862951003,0.0189799063928,0.0,-1.09038501251,0.0,0.121702501203,0.0,1.48852317293,0.0,0.0460605999947,0.0,0.00354544374072,0.0,0.0029370224924,0.0,0.0845783576075,0.0,0.0207459481522,0.0,0.0,0.0,0.0,-200.0,0.0,0.0,-0.00690451462821,-100.0,0.00230154196664,-100.0,-0.0,-100.0,-0.0,-100.0,2100000.0,0.0,0.0,0.0,0.0,0.0,0.0
1402753824970306399,3,-10.2392136771,-0.00591572024346,-9.20594550795,-0.122189614607,24.5895846974,0.10862951003,0.0189799063928,0.0,-1.09038501251,0.0,0.121702501203,0.0,1.48852317293,0.0,0.0460605999947,0.0,0.00354544374072,0.0,0.0029370224924,0.0,0.0845783576075,0.0,0.0207459481522,0.0,0.0,0.0,0.0,-200.0,0.0,0.0,-0.00690451462821,-100.0,0.00383600394174,-100.0,-0.0,-100.0,-0.0,-100.0,2100000.0,0.0,0.0,0.0,0.0,0.0,0.0
1402753824989965579,3,-10.2402372646,-0.00591572024346,-9.24765017341,-0.122189614607,24.6289154831,0.10862951003,0.0267036735653,0.0,-1.11026464746,0.0,0.121302623304,0.0,1.48922902478,0.0,0.039739294905,0.0,0.00483471006703,0.0,0.00934701018936,0.0,0.0833773317527,0.0,-0.00260482352421,0.0,0.0,0.0,0.0,-200.0,0.0,0.0,-0.00690451462821,-100.0,0.00383600394174,-100.0,-0.0,-100.0,-0.0,-100.0,2100000.0,0.0,0.0,0.0,0.0,0.0,0.0
1402753825010216935,3,-10.2402372646,-0.00591572024346,-9.24765017341,-0.122189614607,24.6289154831,0.10862951003,0.0267036735653,0.0,-1.11026464746,0.0,0.121302623304,0.0,1.48922902478,0.0,0.039739294905,0.0,0.00483471006703,0.0,0.00934701018936,0.0,0.0833773317527,0.0,-0.00260482352421,0.0,0.0,0.0,0.0,-200.0,0.0,0.0,-0.00690451462821,-100.0,0.00383600394174,-100.0,-0.0,-100.0,-0.0,-100.0,2100000.0,0.0,0.0,0.0,0.0,0.0,0.0
1402753825029836774,3,-10.2390503953,-0.00591572024346,-9.29350786172,-0.122189614607,24.6339097826,0.10862951003,0.0311139150122,0.0,-1.12753426213,0.0,0.124634294103,0.0,1.49103869548,0.0,0.0418968119395,0.0,0.00542021620827,0.0,0.018947711142,0.0,0.0829168166992,0.0,0.00470062411697,0.0,0.0,0.0,0.0,-200.0,0.0,0.0,-0.00690451462821,-100.0,0.00383600394174,-100.0,-0.0,-100.0,-0.0,-100.0,2100000.0,0.0,0.0,0.0,0.0,0.0,0.0
1402753825050380861,3,-10.2390503953,-0.00591572024346,-9.29350786172,-0.122189614607,24.6339097826,0.10862951003,0.0311139150122,0.0,-1.12753426213,0.0,0.124634294103,0.0,1.49103869548,0.0,0.0418968119395,0.0,0.00542021620827,0.0,0.018947711142,0.0,0.0829168166992,0.0,0.00470062411697,0.0,0.0,0.0,0.0,-200.0,0.0,0.0,-0.00690451462821,-100.0,0.00383600394174,-100.0,-0.0,-100.0,-0.0,-100.0,2100000.0,0.0,0.0,0.0,0.0,0.0,0.0
1402753825070207481,3,-10.2432769799,-0.00591572024346,-9.35129626782,-0.122189614607,24.6678853257,0.10862951003,0.0363695645432,0.0,-1.13923788888,0.0,0.1334473975,0.0,1.49311712992,0.0,0.0456358659889,0.0,0.00596179008181,0.0,0.0257378514984,0.0,0.0824693651539,0.0,0.0188412178059,0.0,0.0,0.0,0.0,-200.0,0.0,0.0,-0.00690451462821,-100.0,0.00383600394174,-100.0,-0.0,-100.0,-0.0,-100.0,2100000.0,0.0,0.0,0.0,0.0,0.0,0.0
1402753825090975176,3,-10.2432769799,-0.00591572024346,-9.35129626782,-0.122189614607,24.6678853257,0.10862951003,0.0363695645432,0.0,-1.13923788888,0.0,0.1334473975,0.0,1.49311712992,0.0,0.0456358659889,0.0,0.00596179008181,0.0,0.0257378514984,0.0,0.0824693651539,0.0,0.0188412178059,0.0,0.0,0.0,0.0,-200.0,0.0,0.0,-0.00690451462821,-100.0,0.00383600394174,-100.0,-0.0,-100.0,-0.0,-100.0,2100000.0,0.0,0.0,0.0,0.0,0.0,0.0
1402753825110923776,3,-10.247607829,-0.00591572024346,-9.40823351554,-0.122189614607,24.6925372218,0.10862951003,0.0402339570208,0.0,-1.15397943651,0.0,0.136058368167,0.0,1.49509141046,0.0,0.0528991211129,0.0,0.0064280231325,0.0,0.0276071036749,0.0,0.0811013428853,0.0,0.0124955833379,0.0,0.0,0.0,0.0,-200.0,0.0,0.0,-0.00690451462821,-100.0,0.00383600394174,-100.0,-0.0,-100.0,-0.0,-100.0,2100000.0,0.0,0.0,0.0,0.0,0.0,0.0
1402753825129859726,3,-10.247607829,-0.00591572024346,-9.40823351554,-0.122189614607,24.6925372218,0.10862951003,0.0402339570208,0.0,-1.15397943651,0.0,0.136058368167,0.0,1.49509141046,0.0,0.0528991211129,0.0,0.0064280231325,0.0,0.0276071036749,0.0,0.0811013428853,0.0,0.0124955833379,0.0,0.0,0.0,0.0,-200.0,0.0,0.0,-0.00690451462821,-100.0,0.00230154196664,-100.0,-0.0,-100.0,-0.0,-100.0,2100000.0,0.0,0.0,0.0,0.0,0.0,0.0
1402753825149824823,3,-10.2471135961,-0.00591572024346,-9.46419641326,-0.122189614607,24.7255888404,0.10862951003,0.0511093084004,0.0,-1.15483001189,0.0,0.155469031296,0.0,1.49756839925,0.0,0.0543294000186,0.0,0.00765282844662,0.0,0.0345690707981,0.0,0.0805304158546,0.0,0.00424757868334,0.0,0.0,0.0,0.0,-200.0,0.0,0.0,-0.00690451462821,-100.0,0.00383600394174,-100.0,-0.0,-100.0,-0.0,-100.0,2100000.0,0.0,0.0,0.0,0.0,0.0,0.0
1402753825170336218,3,-10.2471135961,-0.00591572024346,-9.46419641326,-0.122189614607,24.7255888404,0.10862951003,0.0511093084004,0.0,-1.15483001189,0.0,0.155469031296,0.0,1.49756839925,0.0,0.0543294000186,0.0,0.00765282844662,0.0,0.0345690707981,0.0,0.0805304158546,0.0,0.00424757868334,0.0,0.0,0.0,0.0,-200.0,0.0,0.0,-0.00690451462821,-100.0,0.00383600394174,-100.0,-0.0,-100.0,-0.0,-100.0,2100000.0,0.0,0.0,0.0,0.0,0.0,0.0
1402753825189763019,3,-10.2504969074,-0.00591572024346,-9.53862560261,-0.122189614607,24.758242719,0.10862951003,0.0514132034922,0.0,-1.17647795583,0.0,0.154963102687,0.0,1.50005714478,0.0,0.0542478259228,0.0,0.00728444472642,0.0,0.0505839672069,0.0,0.0774068473605,0.0,-0.0128614382802,0.0,0.0,0.0,0.0,-200.0,0.0,0.0,-0.00690451462821,-100.0,0.00383600394174,-100.0,-0.0,-100.0,-0.0,-100.0,2100000.0,0.0,0.0,0.0,0.0,0.0,0.0
1402753825209777922,3,-10.2504969074,-0.00591572024346,-9.53862560261,-0.122189614607,24.758242719,0.10862951003,0.0514132034922,0.0,-1.17647795583,0.0,0.154963102687,0.0,1.50005714478,0.0,0.0542478259228,0.0,0.00728444472642,0.0,0.0505839672069,0.0,0.0774068473605,0.0,-0.0128614382802,0.0,0.0,0.0,0.0,-200.0,0.0,0.0,-0.00690451462821,-100.0,0.00383600394174,-100.0,-0.0,-100.0,-0.0,-100.0,2100000.0,0.0,0.0,0.0,0.0,0.0,0.0
1402753825230917408,3,-10.2521234684,-0.00591572024346,-9.60658777286,-0.122189614607,24.7906004843,0.10862951003,0.0588156439152,0.0,-1.18010592809,0.0,0.162664438364,0.0,1.50294433864,0.0,0.0527249126512,0.0,0.00699471111063,0.0,0.0518561809042,0.0,0.0755833674442,0.0,-0.0104593485422,0.0,0.0,0.0,0.0,-200.0,0.0,0.0,-0.00690451462821,-100.0,0.00383600394174,-100.0,-0.0,-100.0,-0.0,-100.0,2100000.0,0.0,0.0,0.0,0.0,0.0,0.0
1402753825250235798,3,-10.2521234684,-0.00591572024346,-9.60658777286,-0.122189614607,24.7906004843,0.10862951003,0.0588156439152,0.0,-1.18010592809,0.0,0.162664438364,0.0,1.50294433864,0.0,0.0527249126512,0.0,0.00699471111063,0.0,0.0518561809042,0.0,0.0755833674442,0.0,-0.0104593485422,0.0,0.0,0.0,0.0,-200.0,0.0,0.0,-0.00843897660331,-100.0,0.00383600394174,-100.0,-0.0,-100.0,-0.0,-100.0,2100000.0,0.0,0.0,0.0,0.0,0.0,0.0
1402753825269689205,3,-10.2509104813,-0.00591572024346,-9.63140624782,-0.122189614607,24.7940010811,0.10862951003,0.0595996132184,0.0,-1.18364224223,0.0,0.160019364064,0.0,1.50402708526,0.0,0.0525942167555,0.0,0.00656792883548,0.0,0.0543704772737,0.0,0.0745031811499,0.0,-0.0238461379882,0.0,0.0,0.0,0.0,-200.0,0.0,0.0,-0.00690451462821,-100.0,0.00230154196664,-100.0,-0.0,-100.0,-0.0,-100.0,2100000.0,0.0,0.0,0.0,0.0,0.0,0.0
1402753825290759417,3,-10.2509104813,-0.00591572024346,-9.63140624782,-0.122189614607,24.7940010811,0.10862951003,0.0595996132184,0.0,-1.18364224223,0.0,0.160019364064,0.0,1.50402708526,0.0,0.0525942167555,0.0,0.00656792883548,0.0,0.0543704772737,0.0,0.0745031811499,0.0,-0.0238461379882,0.0,0.0,0.0,0.0,-200.0,0.0,0.0,-0.00690451462821,-100.0,0.00383600394174,-100.0,-0.0,-100.0,-0.0,-100.0,2100000.0,0.0,0.0,0.0,0.0,0.0,0.0
1402753825310369097,3,-10.2588298426,-0.00591572024346,-9.69103884589,-0.122189614607,24.8205636429,0.10862951003,0.0507969567494,0.0,-1.19106115879,0.0,0.162521769742,0.0,1.50679001959,0.0,0.0562321448739,0.0,0.00423680884322,0.0,0.043635265037,0.0,0.0718344490045,0.0,-0.0196608043879,0.0,0.0,0.0,0.0,-200.0,0.0,0.0,-0.00690451462821,-100.0,0.00230154196664,-100.0,-0.0,-100.0,-0.0,-100.0,2100000.0,0.0,0.0,0.0,0.0,0.0,0.0
1402753825330511840,3,-10.2588298426,-0.00591572024346,-9.69103884589,-0.122189614607,24.8205636429,0.10862951003,0.0507969567494,0.0,-1.19106115879,0.0,0.162521769742,0.0,1.50679001959,0.0,0.0562321448739,0.0,0.00423680884322,0.0,0.043635265037,0.0,0.0718344490045,0.0,-0.0196608043879,0.0,0.0,0.0,0.0,-200.0,0.0,0.0,-0.00690451462821,-100.0,0.00383600394174,-100.0,-0.0,-100.0,-0.0,-100.0,2100000.0,0.0,0.0,0.0,0.0,0.0,0.0
1402753825350108268,3,-10.2579067336,-0.00591572024346,-9.75174416032,-0.122189614607,24.8441762642,0.10862951003,0.0646320828042,0.0,-1.20349702422,0.0,0.162257870833,0.0,1.50803747197,0.0,0.055994167089,0.0,0.0047418679787,0.0,0.0508257180483,0.0,0.0688733798541,0.0,-0.0134692107239,0.0,0.0,0.0,0.0,-200.0,0.0,0.0,-0.00690451462821,-100.0,0.00383600394174,-100.0,-0.0,-100.0,-0.0,-100.0,2100000.0,0.0,0.0,0.0,0.0,0.0,0.0
1402753825369706132,3,-10.2579067336,-0.00591572024346,-9.75174416032,-0.122189614607,24.8441762642,0.10862951003,0.0646320828042,0.0,-1.20349702422,0.0,0.162257870833,0.0,1.50803747197,0.0,0.055994167089,0.0,0.0047418679787,0.0,0.0508257180483,0.0,0.0688733798541,0.0,-0.0134692107239,0.0,0.0,0.0,0.0,-200.0,0.0,0.0,-0.00690451462821,-100.0,0.00383600394174,-100.0,-0.0,-100.0,-0.0,-100.0,2100000.0,0.0,0.0,0.0,0.0,0.0,0.0
1402753825389781934,3,-10.2612074322,-0.00591572024346,-9.79969146297,-0.122189614607,24.8725320468,0.10862951003,0.0646592508803,0.0,-1.18139505687,0.0,0.162165436376,0.0,1.5121427624,0.0,0.060805281125,0.0,0.00304178379241,0.0,0.0393294576756,0.0,0.0697763249911,0.0,-0.0145249432275,0.0,0.0,0.0,0.0,-200.0,0.0,0.0,-0.00690451462821,-100.0,0.00383600394174,-100.0,-0.0,-100.0,-0.0,-100.0,2100000.0,0.0,0.0,0.0,0.0,0.0,0.0
1402753825409922487,3,-10.2612074322,-0.00591572024346,-9.79969146297,-0.122189614607,24.8725320468,0.10862951003,0.0646592508803,0.0,-1.18139505687,0.0,0.162165436376,0.0,1.5121427624,0.0,0.060805281125,0.0,0.00304178379241,0.0,0.0393294576756,0.0,0.0697763249911,0.0,-0.0145249432275,0.0,0.0,0.0,0.0,-200.0,0.0,0.0,-0.00690451462821,-100.0,0.00230154196664,-100.0,-0.0,-100.0,-0.0,-100.0,2100000.0,0.0,0.0,0.0,0.0,0.0,0.0
1402753825429795182,3,-10.2647993925,-0.00591572024346,-9.86219383818,-0.122189614607,24.8951019251,0.10862951003,0.0646729219758,0.0,-1.19827539918,0.0,0.159618397199,0.0,1.5143288353,0.0,0.0655799747969,0.0,0.00154147544692,0.0,0.0363009449821,0.0,0.0664491426053,0.0,-0.0260106849047,0.0,0.0,0.0,0.0,-200.0,0.0,0.0,-0.00843897660331,-100.0,0.00383600394174,-100.0,-0.0,-100.0,-0.0,-100.0,2100000.0,0.0,0.0,0.0,0.0,0.0,0.0
1402753825449598388,3,-10.2647993925,-0.00591572024346,-9.86219383818,-0.122189614607,24.8951019251,0.10862951003,0.0646729219758,0.0,-1.19827539918,0.0,0.159618397199,0.0,1.5143288353,0.0,0.0655799747969,0.0,0.00154147544692,0.0,0.0363009449821,0.0,0.0664491426053,0.0,-0.0260106849047,0.0,0.0,0.0,0.0,-200.0,0.0,0.0,-0.00690451462821,-100.0,0.00230154196664,-100.0,-0.0,-100.0,-0.0,-100.0,2100000.0,0.0,0.0,0.0,0.0,0.0,0.0
1402753825469799853,3,-10.2643632007,-0.00591572024346,-9.93870169678,-0.122189614607,24.9198141025,0.10862951003,0.0720762361925,0.0,-1.21755253949,0.0,0.155095022061,0.0,1.51631578749,0.0,0.0625190037515,0.0,0.00112378716651,0.0,0.0185289855355,0.0,0.0631489622649,0.0,-0.00542180445685,0.0,0.0,0.0,0.0,-200.0,0.0,0.0,-0.00690451462821,-100.0,0.00383600394174,-100.0,-0.0,-100.0,-0.0,-100.0,2100000.0,0.0,0.0,0.0,0.0,0.0,0.0
1402753825489985560,3,-10.2643632007,-0.00591572024346,-9.93870169678,-0.122189614607,24.9198141025,0.10862951003,0.0720762361925,0.0,-1.21755253949,0.0,0.155095022061,0.0,1.51631578749,0.0,0.0625190037515,0.0,0.00112378716651,0.0,0.0185289855355,0.0,0.0631489622649,0.0,-0.00542180445685,0.0,0.0,0.0,0.0,-200.0,0.0,0.0,-0.00690451462821,-100.0,0.00383600394174,-100.0,-0.0,-100.0,-0.0,-100.0,2100000.0,0.0,0.0,0.0,0.0,0.0,0.0
1402753825509795318,3,-10.2620857337,-0.00591572024346,-9.9765712623,-0.122189614607,24.9247875138,0.10862951003,0.0773570868111,0.0,-1.21918290097,0.0,0.153609582725,0.0,1.51822867419,0.0,0.0645208564158,0.0,0.000760245149848,0.0,0.00989718367296,0.0,0.0626352392575,0.0,-0.00317566106763,0.0,0.0,0.0,0.0,-200.0,0.0,0.0,-0.00843897660331,-100.0,0.00383600394174,-100.0,-0.0,-100.0,-0.0,-100.0,2100000.0,0.0,0.0,0.0,0.0,0.0,0.0
1402753825529784578,3,-10.2604777456,-0.00591572024346,-10.0008904672,-0.122189614607,24.9278372314,0.10862951003,0.0780038352654,0.0,-1.21914290046,0.0,0.155619079279,0.0,1.51956934353,0.0,0.0676889455763,0.0,0.000379361547489,0.0,0.00349385485546,0.0,0.0624422576669,0.0,-0.0198233190325,0.0,0.0,0.0,0.0,-200.0,0.0,0.0,-0.00843897660331,-100.0,0.00383600394174,-100.0,-0.0,-100.0,-0.0,-100.0,2100000.0,0.0,0.0,0.0,0.0,0.0,0.0
1402753825549792374,3,-10.2604777456,-0.00591572024346,-10.0008904672,-0.122189614607,24.9278372314,0.10862951003,0.0780038352654,0.0,-1.21914290046,0.0,0.155619079279,0.0,1.51956934353,0.0,0.0676889455763,0.0,0.000379361547489,0.0,0.00349385485546,0.0,0.0624422576669,0.0,-0.0198233190325,0.0,0.0,0.0,0.0,-200.0,0.0,0.0,-0.00690451462821,-100.0,0.00230154196664,-100.0,-0.0,-100.0,-0.0,-100.0,2100000.0,0.0,0.0,0.0,0.0,0.0,0.0
1402753825569780487,3,-10.2588089797,-0.00591572024346,-10.0265258164,-0.122189614607,24.9310953169,0.10862951003,0.0832679669818,0.0,-1.2207261775,0.0,0.155874551681,0.0,1.52106380941,0.0,0.0727460293607,0.0,0.000321809320221,0.0,0.0024421772502,0.0,0.0622203014364,0.0,-0.00151415512597,0.0,0.0,0.0,0.0,-200.0,0.0,0.0,-0.00690451462821,-100.0,0.00383600394174,-100.0,-0.0,-100.0,-0.0,-100.0,2100000.0,0.0,0.0,0.0,0.0,0.0,0.0
1402753825590063374,3,-10.2588089797,-0.00591572024346,-10.0265258164,-0.122189614607,24.9310953169,0.10862951003,0.0832679669818,0.0,-1.2207261775,0.0,0.155874551681,0.0,1.52106380941,0.0,0.0727460293607,0.0,0.000321809320221,0.0,0.0024421772502,0.0,0.0622203014364,0.0,-0.00151415512597,0.0,0.0,0.0,0.0,-200.0,0.0,0.0,-0.00843897660331,-100.0,0.00230154196664,-100.0,-0.0,-100.0,-0.0,-100.0,2100000.0,0.0,0.0,0.0,0.0,0.0,0.0
