rosbagTimestamp,control_method,x_current,x_desired,y_current,y_desired,z_current,z_desired,x_velocity_current,x_velocity_desired,y_velocity_current,y_velocity_desired,z_velocity_current,z_velocity_desired,yaw_current,yaw_desired,yaw_velocity_current,yaw_velocity_desired,roll_current,roll_desired,roll_velocity_current,roll_velocity_desired,pitch_current,pitch_desired,pitch_velocity_current,pitch_velocity_desired,friction_force_forward,friction_force_lateral,friction_force_rotational,required_force_x,required_force_y,required_moment_z,resultant_force_x,resultant_force_y,resultant_moment_z,current_port_servo_angle,current_port_thruster_force,current_starboard_servo_angle,current_starboard_thruster_force,estimated_port_servo_angle,estimated_port_thruster_force,estimated_starboard_servo_angle,estimated_starboard_thruster_force,cost_value,step,user_defined_1,user_defined_2,user_defined_3,user_defined_4,user_defined_5
1403020979842104652,3,-12.5840667067,-9.56012115774,22.3690754515,12.5835788608,12.0520909522,0.0,0.00210153397196,0.0,-0.00816776745339,0.0,0.0190129837064,0.0,-2.19650102858,0.0,0.00734135458604,0.0,-0.00805614412806,0.0,-0.00953481943451,0.0,0.0574091206633,-0.0,-0.00613515079469,0.0,0.0172227265338,0.0126627711113,0.0105254937153,6.66778516031,11.6412490179,-1.03086430711,-0.0172227265338,-0.0126627711113,-0.0105254937153,0.00383600394174,50.0,0.00230154196664,-50.0,-0.0,50.0,-0.0,-50.0,340772.040864,0.0,0.0,0.0,0.0,0.0,0.0
1403020979861922944,3,-12.5840667067,-9.56012115774,22.3690754515,12.5835788608,12.0520909522,0.0,0.00210153397196,0.0,-0.00816776745339,0.0,0.0190129837064,0.0,-2.19650102858,0.0,0.00734135458604,0.0,-0.00805614412806,0.0,-0.00953481943451,0.0,0.0574091206633,-0.0,-0.00613515079469,0.0,0.0172227265338,0.0126627711113,0.0105254937153,6.66778516031,11.6412490179,-1.03086430711,-0.0172227265338,-0.0126627711113,-0.0105254937153,0.00383600394174,50.0,0.00230154196664,-50.0,-0.0,50.0,-0.0,-50.0,340772.040864,0.0,0.0,0.0,0.0,0.0,0.0
1403020979882011790,3,-12.5842211757,-9.56012115774,22.3687327537,12.5835788608,12.0529090928,0.0,-0.00358856595936,0.0,-0.00625965553523,0.0,0.0189229746542,0.0,-2.19628151804,0.0,-0.00757086711607,0.0,-0.00694002574518,0.0,-0.0263945467444,0.0,0.0571840165344,-0.0,-0.0313874292977,0.0,0.0244114559982,0.00124363965221,-0.00698265450135,6.66778516031,11.6412490179,-1.03086430711,-0.0244114559982,-0.00124363965221,0.00698265450135,0.00383600394174,50.0,0.00230154196664,-50.0,-0.0,50.0,-0.0,-50.0,340705.128574,0.0,0.0,0.0,0.0,0.0,0.0
1403020979901944048,3,-12.5842211757,-9.56012115774,22.3687327537,12.5835788608,12.0529090928,0.0,-0.00358856595936,0.0,-0.00625965553523,0.0,0.0189229746542,0.0,-2.19628151804,0.0,-0.00757086711607,0.0,-0.00694002574518,0.0,-0.0263945467444,0.0,0.0571840165344,-0.0,-0.0313874292977,0.0,0.0244114559982,0.00124363965221,-0.00698265450135,6.66778516031,11.6412490179,-1.03086430711,-0.0244114559982,-0.00124363965221,0.00698265450135,0.00383600394174,50.0,0.00230154196664,-50.0,-0.0,50.0,-0.0,-50.0,340705.128574,0.0,0.0,0.0,0.0,0.0,0.0
1403020979922064617,3,-12.5752510882,-9.56012115774,22.3728371744,12.5835788608,12.0412115418,0.0,-0.00227805235637,0.0,-0.010709142668,0.0,0.0188897242466,0.0,-2.19692886556,0.0,-0.0188013983229,0.0,-0.00754403070385,0.0,0.0109872343768,0.0,0.0567816651408,-0.0,0.0390250697628,0.0,0.0357983976378,0.00856625967712,-0.0280218581487,6.66778516031,11.6412490179,-1.03086430711,-0.0357983976378,-0.00856625967712,0.0280218581487,0.00383600394174,50.0,0.00230154196664,-50.0,-0.0,50.0,-0.0,-50.0,340888.734215,0.0,0.0,0.0,0.0,0.0,0.0
1403020979941949948,3,-12.5752280139,-9.56012115774,22.3728490866,12.5835788608,12.0412080143,0.0,-0.00703229850442,0.0,-0.00947527882606,0.0,0.0185748946848,0.0,-2.1970755484,0.0,-0.0159586717672,0.0,-0.00769323919259,0.0,0.00286793882741,0.0,0.0567082424021,-0.0,0.0164367541172,0.0,0.0430146649457,-0.000583384192685,-0.0224310098497,6.66778516031,11.6412490179,-1.03086430711,-0.0430146649457,0.000583384192685,0.0224310098497,0.00383600394174,50.0,0.00230154196664,-50.0,-0.0,50.0,-0.0,-50.0,340824.680857,0.0,0.0,0.0,0.0,0.0,0.0
1403020979961996844,3,-12.5715102074,-9.56012115774,22.3756268239,12.5835788608,12.0371054966,0.0,-0.00869820786282,0.0,-0.00699107534716,0.0,0.0206601935074,0.0,-2.19736404064,0.0,-0.0277612188621,0.0,-0.00738580733624,0.0,-0.0109273255707,0.0,0.0564075606869,-0.0,0.00484514868361,0.0,0.0384293985732,-0.00620669171644,-0.0368494908853,6.66778516031,11.6412490179,-1.03086430711,-0.0384293985732,0.00620669171644,0.0368494908853,0.00383600394174,50.0,-0.000767381983555,-50.0,-0.0,50.0,-0.0,-50.0,340743.768198,0.0,0.0,0.0,0.0,0.0,0.0
1403020979981901621,3,-12.5715102074,-9.56012115774,22.3756268239,12.5835788608,12.0371054966,0.0,-0.00869820786282,0.0,-0.00699107534716,0.0,0.0206601935074,0.0,-2.19736404064,0.0,-0.0277612188621,0.0,-0.00738580733624,0.0,-0.0109273255707,0.0,0.0564075606869,-0.0,0.00484514868361,0.0,0.0384293985732,-0.00620669171644,-0.0368494908853,6.66778516031,11.6412490179,-1.03086430711,-0.0384293985732,0.00620669171644,0.0368494908853,0.00383600394174,50.0,-0.00230160554007,-50.0,-0.0,50.0,-0.0,-50.0,340743.768198,0.0,0.0,0.0,0.0,0.0,0.0
1403020980001964482,3,-12.5783760327,-9.56012115774,22.3679774269,12.5835788608,12.0543222371,0.0,-0.0262425805185,0.0,-0.0155446092067,0.0,0.0277435657295,0.0,-2.20026010267,0.0,-0.0519252339299,0.0,-0.0071329754193,0.0,-0.00140493735623,0.0,0.0563865982982,-0.0,0.014281704338,0.0,0.105571289009,-0.0245405170041,-0.0699531615395,6.66778516031,11.6412490179,-1.03086430711,-0.105571289009,0.0245405170041,0.0699531615395,0.00383600394174,50.0,-0.00383606751517,-50.0,-0.0,50.0,-0.0,-50.0,341019.036542,0.0,0.0,0.0,0.0,0.0,0.0
1403020980021915726,3,-12.5783760327,-9.56012115774,22.3679774269,12.5835788608,12.0543222371,0.0,-0.0262425805185,0.0,-0.0155446092067,0.0,0.0277435657295,0.0,-2.20026010267,0.0,-0.0519252339299,0.0,-0.0071329754193,0.0,-0.00140493735623,0.0,0.0563865982982,-0.0,0.014281704338,0.0,0.105571289009,-0.0245405170041,-0.0699531615395,6.66778516031,11.6412490179,-1.03086430711,-0.105571289009,0.0245405170041,0.0699531615395,0.00383600394174,50.0,-0.00383606751517,-50.0,-0.0,50.0,-0.0,-50.0,341019.036542,0.0,0.0,0.0,0.0,0.0,0.0
1403020980041927825,3,-12.5744008616,-9.56012115774,22.3641822598,12.5835788608,12.0550617512,0.0,-0.0241517357698,0.0,-0.0261987649326,0.0,0.0261553799867,0.0,-2.2029850139,0.0,-0.0694499712852,0.0,-0.00873937001943,0.0,-0.0159014764315,0.0,0.0563389995712,-0.0,0.0140877334447,0.0,0.135247905003,-0.00849680700812,-0.0927579136109,6.66778516031,11.6412490179,-1.03086430711,-0.135247905003,0.00849680700812,0.0927579136109,0.00383600394174,50.0,-0.00843897660331,-50.0,-0.0,50.0,-0.0,-50.0,341432.354891,0.0,0.0,0.0,0.0,0.0,0.0
1403020980061950642,3,-12.5744008616,-9.56012115774,22.3641822598,12.5835788608,12.0550617512,0.0,-0.0241517357698,0.0,-0.0261987649326,0.0,0.0261553799867,0.0,-2.2029850139,0.0,-0.0694499712852,0.0,-0.00873937001943,0.0,-0.0159014764315,0.0,0.0563389995712,-0.0,0.0140877334447,0.0,0.135247905003,-0.00849680700812,-0.0927579136109,6.66778516031,11.6412490179,-1.03086430711,-0.135247905003,0.00849680700812,0.0927579136109,0.00383600394174,50.0,-0.00690451462821,-50.0,-0.0,50.0,-0.0,-50.0,341432.354891,0.0,0.0,0.0,0.0,0.0,0.0
1403020980081990555,3,-12.5697227645,-9.56012115774,22.3689307501,12.5835788608,12.055758473,0.0,-0.0246860895241,0.0,-0.0142131078741,0.0,0.024089156838,0.0,-2.20579747808,0.0,-0.0873661489802,0.0,-0.00831705487958,0.0,-0.0225843198084,0.0,0.053745733335,-0.0,0.00631978718867,0.0,0.0989958542107,-0.023308928345,-0.115856802169,6.66778516031,11.6412490179,-1.03086430711,-0.0989958542107,0.023308928345,0.115856802169,0.00383600394174,50.0,-0.00537029107169,-50.0,-0.0,50.0,-0.0,-50.0,341040.413263,0.0,0.0,0.0,0.0,0.0,0.0
1403020980102111475,3,-12.5697227645,-9.56012115774,22.3689307501,12.5835788608,12.055758473,0.0,-0.0246860895241,0.0,-0.0142131078741,0.0,0.024089156838,0.0,-2.20579747808,0.0,-0.0873661489802,0.0,-0.00831705487958,0.0,-0.0225843198084,0.0,0.053745733335,-0.0,0.00631978718867,0.0,0.0989958542107,-0.023308928345,-0.115856802169,6.66778516031,11.6412490179,-1.03086430711,-0.0989958542107,0.023308928345,0.115856802169,0.00383600394174,50.0,-0.00383606751517,-50.0,-0.0,50.0,-0.0,-50.0,341040.413263,0.0,0.0,0.0,0.0,0.0,0.0
1403020980121974826,3,-12.5618773965,-9.56012115774,22.3698232568,12.5835788608,12.0537196929,0.0,-0.0180098127641,0.0,-0.0183814676961,0.0,0.0234259930387,0.0,-2.20959797509,0.0,-0.100948601243,0.0,-0.00995322075548,0.0,-0.0110417654423,0.0,0.0524278456167,-0.0,0.0209144822858,0.0,0.0969186509381,-0.00748956842001,-0.135277550105,6.66778516031,11.6412490179,-1.03086430711,-0.0969186509381,0.00748956842001,0.135277550105,0.00383600394174,50.0,-0.00537029107169,-50.0,-0.0,50.0,-0.0,-50.0,341232.731707,0.0,0.0,0.0,0.0,0.0,0.0
1403020980142490872,3,-12.561943835,-9.56012115774,22.3696061458,12.5835788608,12.0540047607,0.0,-0.0185485090557,0.0,-0.0189645397509,0.0,0.0225072376098,0.0,-2.21062501156,0.0,-0.103813060108,0.0,-0.0101408346882,0.0,-0.00632220284538,0.0,0.0522089446656,-0.0,0.0280661065834,0.0,0.10028300166,-0.00759660608147,-0.139691369183,6.66778516031,11.6412490179,-1.03086430711,-0.10028300166,0.00759660608147,0.139691369183,0.00383600394174,50.0,-0.00537029107169,-50.0,-0.0,50.0,-0.0,-50.0,341259.407838,0.0,0.0,0.0,0.0,0.0,0.0
1403020980162114371,3,-12.561943835,-9.56012115774,22.3696061458,12.5835788608,12.0540047607,0.0,-0.0185485090557,0.0,-0.0189645397509,0.0,0.0225072376098,0.0,-2.21062501156,0.0,-0.103813060108,0.0,-0.0101408346882,0.0,-0.00632220284538,0.0,0.0522089446656,-0.0,0.0280661065834,0.0,0.10028300166,-0.00759660608147,-0.139691369183,6.66778516031,11.6412490179,-1.03086430711,-0.10028300166,0.00759660608147,0.139691369183,0.00383600394174,50.0,-0.00537029107169,-50.0,-0.0,50.0,-0.0,-50.0,341259.407838,0.0,0.0,0.0,0.0,0.0,0.0
1403020980181942852,3,-12.5623567644,-9.56012115774,22.3692727911,12.5835788608,12.0544451799,0.0,-0.0212837402657,0.0,-0.0190012695791,0.0,0.0213750198719,0.0,-2.21178382561,0.0,-0.106645354997,0.0,-0.0102619547733,0.0,-0.0112082524821,0.0,0.0519642347345,-0.0,0.0220978151831,0.0,0.107171912677,-0.0118603446307,-0.142928168677,6.66778516031,11.6412490179,-1.03086430711,-0.107171912677,0.0118603446307,0.142928168677,0.00383600394174,50.0,-0.00690451462821,-50.0,-0.0,50.0,-0.0,-50.0,341260.256515,0.0,0.0,0.0,0.0,0.0,0.0
1403020980201949526,3,-12.5623567644,-9.56012115774,22.3692727911,12.5835788608,12.0544451799,0.0,-0.0212837402657,0.0,-0.0190012695791,0.0,0.0213750198719,0.0,-2.21178382561,0.0,-0.106645354997,0.0,-0.0102619547733,0.0,-0.0112082524821,0.0,0.0519642347345,-0.0,0.0220978151831,0.0,0.107171912677,-0.0118603446307,-0.142928168677,6.66778516031,11.6412490179,-1.03086430711,-0.107171912677,0.0118603446307,0.142928168677,0.00383600394174,50.0,-0.00690451462821,-50.0,-0.0,50.0,-0.0,-50.0,341260.256515,0.0,0.0,0.0,0.0,0.0,0.0
1403020980221985610,3,-12.5682797739,-9.56012115774,22.3595170774,12.5835788608,12.0665687185,0.0,-0.0372812887579,0.0,-0.0356715565656,0.0,0.0200532276145,0.0,-2.21970816741,0.0,-0.130551762667,0.0,-0.0114924383265,0.0,-0.00211220898107,0.0,0.0526894921483,-0.0,0.0148788714554,0.0,0.198299813163,-0.016813942555,-0.174560667737,6.66778516031,11.6412490179,-1.03086430711,-0.198299813163,0.016813942555,0.174560667737,0.00383600394174,50.0,-0.00690451462821,-50.0,-0.0,50.0,-0.0,-50.0,341861.831527,0.0,0.0,0.0,0.0,0.0,0.0
1403020980241957556,3,-12.5682797739,-9.56012115774,22.3595170774,12.5835788608,12.0665687185,0.0,-0.0372812887579,0.0,-0.0356715565656,0.0,0.0200532276145,0.0,-2.21970816741,0.0,-0.130551762667,0.0,-0.0114924383265,0.0,-0.00211220898107,0.0,0.0526894921483,-0.0,0.0148788714554,0.0,0.198299813163,-0.016813942555,-0.174560667737,6.66778516031,11.6412490179,-1.03086430711,-0.198299813163,0.016813942555,0.174560667737,0.00383600394174,50.0,-0.00843897660331,-50.0,-0.0,50.0,-0.0,-50.0,341861.831527,0.0,0.0,0.0,0.0,0.0,0.0
1403020980261965291,3,-12.5765241113,-9.56012115774,22.3551877555,12.5835788608,12.0803177771,0.0,-0.0493391406554,0.0,-0.030980506222,0.0,0.0187671180352,0.0,-2.22537991001,0.0,-0.143869845289,0.0,-0.0107402774682,0.0,-0.00578047694126,0.0,0.0520017205239,-0.0,0.00207974024886,0.0,0.213042238836,-0.0410191876143,-0.191333201301,6.66778516031,11.6412490179,-1.03086430711,-0.213042238836,0.0410191876143,0.191333201301,0.00383600394174,50.0,-0.00690451462821,-50.0,-0.0,50.0,-0.0,-50.0,341702.442281,0.0,0.0,0.0,0.0,0.0,0.0
1403020980281957647,3,-12.5765241113,-9.56012115774,22.3551877555,12.5835788608,12.0803177771,0.0,-0.0493391406554,0.0,-0.030980506222,0.0,0.0187671180352,0.0,-2.22537991001,0.0,-0.143869845289,0.0,-0.0107402774682,0.0,-0.00578047694126,0.0,0.0520017205239,-0.0,0.00207974024886,0.0,0.213042238836,-0.0410191876143,-0.191333201301,6.66778516031,11.6412490179,-1.03086430711,-0.213042238836,0.0410191876143,0.191333201301,0.00383600394174,50.0,-0.00690451462821,-50.0,-0.0,50.0,-0.0,-50.0,341702.442281,0.0,0.0,0.0,0.0,0.0,0.0
1403020980302227770,3,-12.5843820215,-9.56012115774,22.3457305026,12.5835788608,12.10002557,0.0,-0.0569538642349,0.0,-0.0379493707589,0.0,0.0195525886154,0.0,-2.23158684006,0.0,-0.150505955192,0.0,-0.0113705143526,0.0,0.00572956324164,0.0,0.0523357392117,-0.0,0.0103495825378,0.0,0.253260163568,-0.0438672521054,-0.201043613505,6.66778516031,11.6412490179,-1.03086430711,-0.253260163568,0.0438672521054,0.201043613505,0.00383600394174,50.0,-0.00843897660331,-50.0,-0.0,50.0,-0.0,-50.0,341958.864661,0.0,0.0,0.0,0.0,0.0,0.0
1403020980322083869,3,-12.5843820215,-9.56012115774,22.3457305026,12.5835788608,12.10002557,0.0,-0.0569538642349,0.0,-0.0379493707589,0.0,0.0195525886154,0.0,-2.23158684006,0.0,-0.150505955192,0.0,-0.0113705143526,0.0,0.00572956324164,0.0,0.0523357392117,-0.0,0.0103495825378,0.0,0.253260163568,-0.0438672521054,-0.201043613505,6.66778516031,11.6412490179,-1.03086430711,-0.253260163568,0.0438672521054,0.201043613505,0.00383600394174,50.0,-0.00690451462821,-50.0,-0.0,50.0,-0.0,-50.0,341958.864661,0.0,0.0,0.0,0.0,0.0,0.0
1403020980341972362,3,-12.5876021053,-9.56012115774,22.3437394198,12.5835788608,12.1010071926,0.0,-0.0659805106743,0.0,-0.0414931273571,0.0,0.0210278970745,0.0,-2.23976373086,0.0,-0.163044919773,0.0,-0.0115468282127,0.0,0.020898492332,0.0,0.0527334076743,-0.0,0.0043729042774,0.0,0.286350990095,-0.0526232455724,-0.217816120203,6.66778516031,11.6412490179,-1.03086430711,-0.286350990095,0.0526232455724,0.217816120203,0.00383600394174,50.0,-0.00690451462821,-50.0,-0.0,50.0,-0.0,-50.0,342107.729849,0.0,0.0,0.0,0.0,0.0,0.0
1403020980361935492,3,-12.5876021053,-9.56012115774,22.3437394198,12.5835788608,12.1010071926,0.0,-0.0659805106743,0.0,-0.0414931273571,0.0,0.0210278970745,0.0,-2.23976373086,0.0,-0.163044919773,0.0,-0.0115468282127,0.0,0.020898492332,0.0,0.0527334076743,-0.0,0.0043729042774,0.0,0.286350990095,-0.0526232455724,-0.217816120203,6.66778516031,11.6412490179,-1.03086430711,-0.286350990095,0.0526232455724,0.217816120203,0.00383600394174,50.0,-0.00690451462821,-50.0,-0.0,50.0,-0.0,-50.0,342107.729849,0.0,0.0,0.0,0.0,0.0,0.0
1403020980381952143,3,-12.5870138543,-9.56012115774,22.3497933591,12.5835788608,12.0887885954,0.0,-0.0720327962973,0.0,-0.0333987189716,0.0,0.0140156573728,0.0,-2.24183951668,0.0,-0.169818340958,0.0,-0.0105786875081,0.0,0.00535239485003,0.0,0.0525314126547,-0.0,-0.000137116509446,0.0,0.277963979768,-0.0716644215335,-0.226055309042,6.66778516031,11.6412490179,-1.03086430711,-0.277963979768,0.0716644215335,0.226055309042,0.00383600394174,50.0,-0.00843897660331,-50.0,-0.0,50.0,-0.0,-50.0,341839.282885,0.0,0.0,0.0,0.0,0.0,0.0
1403020980402241018,3,-12.5870138543,-9.56012115774,22.3497933591,12.5835788608,12.0887885954,0.0,-0.0720327962973,0.0,-0.0333987189716,0.0,0.0140156573728,0.0,-2.24183951668,0.0,-0.169818340958,0.0,-0.0105786875081,0.0,0.00535239485003,0.0,0.0525314126547,-0.0,-0.000137116509446,0.0,0.277963979768,-0.0716644215335,-0.226055309042,6.66778516031,11.6412490179,-1.03086430711,-0.277963979768,0.0716644215335,0.226055309042,0.00537022749826,50.0,-0.00690451462821,-50.0,-0.0,50.0,-0.0,-50.0,341839.282885,0.0,0.0,0.0,0.0,0.0,0.0
1403020980421988747,3,-12.6019482875,-9.56012115774,22.3353740185,12.5835788608,12.1195761823,0.0,-0.0828008725933,0.0,-0.0408966528087,0.0,0.0184391412868,0.0,-2.25283910949,0.0,-0.184703429543,0.0,-0.0110146739308,0.0,0.0214993833965,0.0,0.0538066244573,-0.0,-0.00287856980692,0.0,0.327574842742,-0.0774939293291,-0.246211752597,6.66778516031,11.6412490179,-1.03086430711,-0.327574842742,0.0774939293291,0.246211752597,0.00383600394174,50.0,-0.00690451462821,-50.0,-0.0,50.0,-0.0,-50.0,342143.208291,0.0,0.0,0.0,0.0,0.0,0.0
1403020980441954361,3,-12.6019482875,-9.56012115774,22.3353740185,12.5835788608,12.1195761823,0.0,-0.0828008725933,0.0,-0.0408966528087,0.0,0.0184391412868,0.0,-2.25283910949,0.0,-0.184703429543,0.0,-0.0110146739308,0.0,0.0214993833965,0.0,0.0538066244573,-0.0,-0.00287856980692,0.0,0.327574842742,-0.0774939293291,-0.246211752597,6.66778516031,11.6412490179,-1.03086430711,-0.327574842742,0.0774939293291,0.246211752597,0.00383600394174,50.0,-0.00690451462821,-50.0,-0.0,50.0,-0.0,-50.0,342143.208291,0.0,0.0,0.0,0.0,0.0,0.0
1403020980462060651,3,-12.6139304231,-9.56012115774,22.3257855597,12.5835788608,12.13280943,0.0,-0.0931797145626,0.0,-0.0493549439557,0.0,0.0186886246792,0.0,-2.26110706066,0.0,-0.200214140599,0.0,-0.0114660013201,0.0,0.00707278031354,0.0,0.055539205655,-0.0,-0.0155943707579,0.0,0.379473363012,-0.0813824877692,-0.265485503905,6.66778516031,11.6412490179,-1.03086430711,-0.379473363012,0.0813824877692,0.265485503905,0.00383600394174,50.0,-0.00843897660331,-50.0,-0.0,50.0,-0.0,-50.0,342487.444861,0.0,0.0,0.0,0.0,0.0,0.0
1403020980481924439,3,-12.6139304231,-9.56012115774,22.3257855597,12.5835788608,12.13280943,0.0,-0.0931797145626,0.0,-0.0493549439557,0.0,0.0186886246792,0.0,-2.26110706066,0.0,-0.200214140599,0.0,-0.0114660013201,0.0,0.00707278031354,0.0,0.055539205655,-0.0,-0.0155943707579,0.0,0.379473363012,-0.0813824877692,-0.265485503905,6.66778516031,11.6412490179,-1.03086430711,-0.379473363012,0.0813824877692,0.265485503905,0.00383600394174,50.0,-0.00690451462821,-50.0,-0.0,50.0,-0.0,-50.0,342487.444861,0.0,0.0,0.0,0.0,0.0,0.0
1403020980502199354,3,-12.6269822929,-9.56012115774,22.3174981998,12.5835788608,12.1573954678,0.0,-0.0956545127411,0.0,-0.04276900929,0.0,0.0191719735617,0.0,-2.26946436277,0.0,-0.210522368278,0.0,-0.0110808344884,0.0,0.010282202189,0.0,0.055181902558,-0.0,-0.00697347276329,0.0,0.367349681232,-0.0920011666447,-0.27990396692,6.66778516031,11.6412490179,-1.03086430711,-0.367349681232,0.0920011666447,0.27990396692,0.00383600394174,50.0,-0.00690451462821,-50.0,-0.0,50.0,-0.0,-50.0,342298.180818,0.0,0.0,0.0,0.0,0.0,0.0
1403020980522083062,3,-12.6269822929,-9.56012115774,22.3174981998,12.5835788608,12.1573954678,0.0,-0.0956545127411,0.0,-0.04276900929,0.0,0.0191719735617,0.0,-2.26946436277,0.0,-0.210522368278,0.0,-0.0110808344884,0.0,0.010282202189,0.0,0.055181902558,-0.0,-0.00697347276329,0.0,0.367349681232,-0.0920011666447,-0.27990396692,6.66778516031,11.6412490179,-1.03086430711,-0.367349681232,0.0920011666447,0.27990396692,0.00383600394174,50.0,-0.00843897660331,-50.0,-0.0,50.0,-0.0,-50.0,342298.180818,0.0,0.0,0.0,0.0,0.0,0.0
1403020980541941686,3,-12.6311481082,-9.56012115774,22.3156861317,12.5835788608,12.1582903658,0.0,-0.101880490796,0.0,-0.0420917703434,0.0,0.0202024128322,0.0,-2.27806125102,0.0,-0.214299637583,0.0,-0.0111891041557,0.0,0.00799018360838,0.0,0.055739485546,-0.0,-0.00821484823366,0.0,0.382233642869,-0.100755917893,-0.284759154615,6.66778516031,11.6412490179,-1.03086430711,-0.382233642869,0.100755917893,0.284759154615,0.00383600394174,50.0,-0.00690451462821,-50.0,-0.0,50.0,-0.0,-50.0,342308.305605,0.0,0.0,0.0,0.0,0.0,0.0
1403020980561928797,3,-12.6312666315,-9.56012115774,22.3089276792,12.5835788608,12.172855955,0.0,-0.0841196357898,0.0,-0.0452865011738,0.0,0.0179241146982,0.0,-2.27947237153,0.0,-0.215138688231,0.0,-0.0131847655557,0.0,0.0134544846808,0.0,0.0550428005612,-0.0,0.00122266384151,0.0,0.34770668868,-0.0693790183208,-0.286671615936,6.66778516031,11.6412490179,-1.03086430711,-0.34770668868,0.0693790183208,0.286671615936,0.00383600394174,50.0,-0.00690451462821,-50.0,-0.0,50.0,-0.0,-50.0,342430.601039,0.0,0.0,0.0,0.0,0.0,0.0
1403020980581971543,3,-12.6312666315,-9.56012115774,22.3089276792,12.5835788608,12.172855955,0.0,-0.0841196357898,0.0,-0.0452865011738,0.0,0.0179241146982,0.0,-2.27947237153,0.0,-0.215138688231,0.0,-0.0131847655557,0.0,0.0134544846808,0.0,0.0550428005612,-0.0,0.00122266384151,0.0,0.34770668868,-0.0693790183208,-0.286671615936,6.66778516031,11.6412490179,-1.03086430711,-0.34770668868,0.0693790183208,0.286671615936,0.00383600394174,50.0,-0.00690451462821,-50.0,-0.0,50.0,-0.0,-50.0,342430.601039,0.0,0.0,0.0,0.0,0.0,0.0
1403020980601936997,3,-12.6322795137,-9.56012115774,22.3083968246,12.5835788608,12.1731522635,0.0,-0.0861531717812,0.0,-0.0450493998992,0.0,0.0178688720946,0.0,-2.28163788896,0.0,-0.218525789924,0.0,-0.0131925675405,0.0,0.00890171474539,0.0,0.0551526872222,-0.0,-0.00657560775001,0.0,0.35244380756,-0.0723849791142,-0.290496925256,6.66778516031,11.6412490179,-1.03086430711,-0.35244380756,0.0723849791142,0.290496925256,0.00383600394174,50.0,-0.00690451462821,-50.0,-0.0,50.0,-0.0,-50.0,342434.112708,0.0,0.0,0.0,0.0,0.0,0.0
1403020980622009863,3,-12.6322795137,-9.56012115774,22.3083968246,12.5835788608,12.1731522635,0.0,-0.0861531717812,0.0,-0.0450493998992,0.0,0.0178688720946,0.0,-2.28163788896,0.0,-0.218525789924,0.0,-0.0131925675405,0.0,0.00890171474539,0.0,0.0551526872222,-0.0,-0.00657560775001,0.0,0.35244380756,-0.0723849791142,-0.290496925256,6.66778516031,11.6412490179,-1.03086430711,-0.35244380756,0.0723849791142,0.290496925256,0.00383600394174,50.0,-0.00690451462821,-50.0,-0.0,50.0,-0.0,-50.0,342434.112708,0.0,0.0,0.0,0.0,0.0,0.0
1403020980641949822,3,-12.6484633225,-9.56012115774,22.2967838881,12.5835788608,12.1864203783,0.0,-0.0973825069666,0.0,-0.0556958257372,0.0,0.0159466743292,0.0,-2.29604787451,0.0,-0.236264407432,0.0,-0.0137884048754,0.0,0.00515551794435,0.0,0.0567458577744,-0.0,0.00573609870278,0.0,0.414240661482,-0.0724587019205,-0.314772993603,6.66778516031,11.6412490179,-1.03086430711,-0.414240661482,0.0724587019205,0.314772993603,0.00383600394174,50.0,-0.00690451462821,-50.0,-0.0,50.0,-0.0,-50.0,342901.36943,0.0,0.0,0.0,0.0,0.0,0.0
1403020980662501878,3,-12.6484633225,-9.56012115774,22.2967838881,12.5835788608,12.1864203783,0.0,-0.0973825069666,0.0,-0.0556958257372,0.0,0.0159466743292,0.0,-2.29604787451,0.0,-0.236264407432,0.0,-0.0137884048754,0.0,0.00515551794435,0.0,0.0567458577744,-0.0,0.00573609870278,0.0,0.414240661482,-0.0724587019205,-0.314772993603,6.66778516031,11.6412490179,-1.03086430711,-0.414240661482,0.0724587019205,0.314772993603,0.00383600394174,50.0,-0.00843897660331,-50.0,-0.0,50.0,-0.0,-50.0,342901.36943,0.0,0.0,0.0,0.0,0.0,0.0
1403020980681975656,3,-12.6651301564,-9.56012115774,22.2815848158,12.5835788608,12.2360581932,0.0,-0.092339956878,0.0,-0.0439234954333,0.0,0.0280169457472,0.0,-2.30528334657,0.0,-0.242154926891,0.0,-0.0131807159157,0.0,0.0015259943049,0.0,0.0548100341757,-0.0,0.000187164473812,0.0,0.366329845492,-0.079056216665,-0.322129273572,6.66778516031,11.6412490179,-1.03086430711,-0.366329845492,0.079056216665,0.322129273572,0.00383600394174,50.0,-0.00690451462821,-50.0,-0.0,50.0,-0.0,-50.0,342496.833958,0.0,0.0,0.0,0.0,0.0,0.0
1403020980701945690,3,-12.6651301564,-9.56012115774,22.2815848158,12.5835788608,12.2360581932,0.0,-0.092339956878,0.0,-0.0439234954333,0.0,0.0280169457472,0.0,-2.30528334657,0.0,-0.242154926891,0.0,-0.0131807159157,0.0,0.0015259943049,0.0,0.0548100341757,-0.0,0.000187164473812,0.0,0.366329845492,-0.079056216665,-0.322129273572,6.66778516031,11.6412490179,-1.03086430711,-0.366329845492,0.079056216665,0.322129273572,0.00383600394174,50.0,-0.00690451462821,-50.0,-0.0,50.0,-0.0,-50.0,342496.833958,0.0,0.0,0.0,0.0,0.0,0.0
1403020980722116837,3,-12.6764226767,-9.56012115774,22.2756496227,12.5835788608,12.245044283,0.0,-0.100429592826,0.0,-0.0424577746034,0.0,0.0232442762687,0.0,-2.31562494606,0.0,-0.24759087215,0.0,-0.0127948936153,0.0,-0.0116537093818,0.0,0.0549192247159,-0.0,-0.00619028451797,0.0,0.385909300872,-0.0908388369272,-0.328455775813,6.66778516031,11.6412490179,-1.03086430711,-0.385909300872,0.0908388369272,0.328455775813,0.00383600394174,50.0,-0.00843897660331,-50.0,-0.0,50.0,-0.0,-50.0,342507.165994,0.0,0.0,0.0,0.0,0.0,0.0
1403020980741919742,3,-12.6764226767,-9.56012115774,22.2756496227,12.5835788608,12.245044283,0.0,-0.100429592826,0.0,-0.0424577746034,0.0,0.0232442762687,0.0,-2.31562494606,0.0,-0.24759087215,0.0,-0.0127948936153,0.0,-0.0116537093818,0.0,0.0549192247159,-0.0,-0.00619028451797,0.0,0.385909300872,-0.0908388369272,-0.328455775813,6.66778516031,11.6412490179,-1.03086430711,-0.385909300872,0.0908388369272,0.328455775813,0.00383600394174,50.0,-0.00690451462821,-50.0,-0.0,50.0,-0.0,-50.0,342507.165994,0.0,0.0,0.0,0.0,0.0,0.0
1403020980762037191,3,-12.6907166546,-9.56012115774,22.2645760129,12.5835788608,12.2604239924,0.0,-0.107935072352,0.0,-0.0493237266571,0.0,0.0157538993082,0.0,-2.32595401655,0.0,-0.252615027705,0.0,-0.0132245133894,0.0,-0.00614207707417,0.0,0.0556933627315,-0.0,0.0080156994375,0.0,0.428301050182,-0.0901454189712,-0.336253546391,6.66778516031,11.6412490179,-1.03086430711,-0.428301050182,0.0901454189712,0.336253546391,0.00383600394174,50.0,-0.00843897660331,-50.0,-0.0,50.0,-0.0,-50.0,342825.722543,0.0,0.0,0.0,0.0,0.0,0.0
1403020980781924428,3,-12.6907166546,-9.56012115774,22.2645760129,12.5835788608,12.2604239924,0.0,-0.107935072352,0.0,-0.0493237266571,0.0,0.0157538993082,0.0,-2.32595401655,0.0,-0.252615027705,0.0,-0.0132245133894,0.0,-0.00614207707417,0.0,0.0556933627315,-0.0,0.0080156994375,0.0,0.428301050182,-0.0901454189712,-0.336253546391,6.66778516031,11.6412490179,-1.03086430711,-0.428301050182,0.0901454189712,0.336253546391,0.00383600394174,50.0,-0.00690451462821,-50.0,-0.0,50.0,-0.0,-50.0,342825.722543,0.0,0.0,0.0,0.0,0.0,0.0
1403020980801958273,3,-12.706505994,-9.56012115774,22.247619773,12.5835788608,12.3003959874,0.0,-0.102867793857,0.0,-0.0505456229172,0.0,0.0229786567012,0.0,-2.33891957416,0.0,-0.261690649163,0.0,-0.0136645631389,0.0,0.00335022553196,0.0,0.0543875863806,-0.0,0.00448307739757,0.0,0.418930582985,-0.0785114151136,-0.348465007318,6.66778516031,11.6412490179,-1.03086430711,-0.418930582985,0.0785114151136,0.348465007318,0.00383600394174,50.0,-0.00843897660331,-50.0,-0.0,50.0,-0.0,-50.0,342910.495127,0.0,0.0,0.0,0.0,0.0,0.0
1403020980821906586,3,-12.706505994,-9.56012115774,22.247619773,12.5835788608,12.3003959874,0.0,-0.102867793857,0.0,-0.0505456229172,0.0,0.0229786567012,0.0,-2.33891957416,0.0,-0.261690649163,0.0,-0.0136645631389,0.0,0.00335022553196,0.0,0.0543875863806,-0.0,0.00448307739757,0.0,0.418930582985,-0.0785114151136,-0.348465007318,6.66778516031,11.6412490179,-1.03086430711,-0.418930582985,0.0785114151136,0.348465007318,0.00383600394174,50.0,-0.00843897660331,-50.0,-0.0,50.0,-0.0,-50.0,342910.495127,0.0,0.0,0.0,0.0,0.0,0.0
1403020980841926138,3,-12.7074491765,-9.56012115774,22.2471832301,12.5835788608,12.3005348236,0.0,-0.104280424706,0.0,-0.0484996863484,0.0,0.0214497015806,0.0,-2.34152052445,0.0,-0.26331936789,0.0,-0.0135047758287,0.0,-0.0165040255502,0.0,0.0543119120463,-0.0,-0.00620400681534,0.0,0.417784760032,-0.0827763025683,-0.349200640045,6.66778516031,11.6412490179,-1.03086430711,-0.417784760032,0.0827763025683,0.349200640045,0.00383600394174,50.0,-0.00690451462821,-50.0,-0.0,50.0,-0.0,-50.0,342854.085933,0.0,0.0,0.0,0.0,0.0,0.0
1403020980861922231,3,-12.7074491765,-9.56012115774,22.2471832301,12.5835788608,12.3005348236,0.0,-0.104280424706,0.0,-0.0484996863484,0.0,0.0214497015806,0.0,-2.34152052445,0.0,-0.26331936789,0.0,-0.0135047758287,0.0,-0.0165040255502,0.0,0.0543119120463,-0.0,-0.00620400681534,0.0,0.417784760032,-0.0827763025683,-0.349200640045,6.66778516031,11.6412490179,-1.03086430711,-0.417784760032,0.0827763025683,0.349200640045,0.00383600394174,50.0,-0.00843897660331,-50.0,-0.0,50.0,-0.0,-50.0,342854.085933,0.0,0.0,0.0,0.0,0.0,0.0
1403020980881955545,3,-12.7139712381,-9.56012115774,22.244196085,12.5835788608,12.3015816375,0.0,-0.112012795307,0.0,-0.0486107192892,0.0,0.0197734159777,0.0,-2.35821242078,0.0,-0.271968246716,0.0,-0.0130878224558,0.0,-0.00339243563196,0.0,0.0537974923907,-0.0,-0.000700221941459,0.0,0.442130253892,-0.0898746710046,-0.361559320799,6.66778516031,11.6412490179,-1.03086430711,-0.442130253892,0.0898746710046,0.361559320799,0.00383600394174,50.0,-0.00690451462821,-50.0,-0.0,50.0,-0.0,-50.0,342961.995029,0.0,0.0,0.0,0.0,0.0,0.0
1403020980901903733,3,-12.7139712381,-9.56012115774,22.244196085,12.5835788608,12.3015816375,0.0,-0.112012795307,0.0,-0.0486107192892,0.0,0.0197734159777,0.0,-2.35821242078,0.0,-0.271968246716,0.0,-0.0130878224558,0.0,-0.00339243563196,0.0,0.0537974923907,-0.0,-0.000700221941459,0.0,0.442130253892,-0.0898746710046,-0.361559320799,6.66778516031,11.6412490179,-1.03086430711,-0.442130253892,0.0898746710046,0.361559320799,0.00383600394174,50.0,-0.00843897660331,-50.0,-0.0,50.0,-0.0,-50.0,342961.995029,0.0,0.0,0.0,0.0,0.0,0.0
1403020980922176892,3,-12.728464506,-9.56012115774,22.2385862715,12.5835788608,12.3055453958,0.0,-0.12826374014,0.0,-0.0483734263951,0.0,0.0139188399081,0.0,-2.37025745695,0.0,-0.285553002964,0.0,-0.0120689047819,0.0,-0.0200756633519,0.0,0.0546393086671,-0.0,-0.0125806676708,0.0,0.489303761752,-0.109951105493,-0.378184783935,6.66778516031,11.6412490179,-1.03086430711,-0.489303761752,0.109951105493,0.378184783935,0.00383600394174,50.0,-0.00843897660331,-50.0,-0.0,50.0,-0.0,-50.0,343090.086362,0.0,0.0,0.0,0.0,0.0,0.0
1403020980941926593,3,-12.728464506,-9.56012115774,22.2385862715,12.5835788608,12.3055453958,0.0,-0.12826374014,0.0,-0.0483734263951,0.0,0.0139188399081,0.0,-2.37025745695,0.0,-0.285553002964,0.0,-0.0120689047819,0.0,-0.0200756633519,0.0,0.0546393086671,-0.0,-0.0125806676708,0.0,0.489303761752,-0.109951105493,-0.378184783935,6.66778516031,11.6412490179,-1.03086430711,-0.489303761752,0.109951105493,0.378184783935,0.00383600394174,50.0,-0.00843897660331,-50.0,-0.0,50.0,-0.0,-50.0,343090.086362,0.0,0.0,0.0,0.0,0.0,0.0
1403020980961947774,3,-12.7511003289,-9.56012115774,22.2195180592,12.5835788608,12.3403449863,0.0,-0.141891105937,0.0,-0.0568368956577,0.0,0.013755847807,0.0,-2.38190279218,0.0,-0.294281087858,0.0,-0.0121921434918,0.0,-0.00979220426721,0.0,0.0557737945708,-0.0,-0.0112269201161,0.0,0.551479278168,-0.113540248334,-0.390249217912,6.66778516031,11.6412490179,-1.03086430711,-0.551479278168,0.113540248334,0.390249217912,0.00383600394174,50.0,-0.00843897660331,-50.0,-0.0,50.0,-0.0,-50.0,343512.70608,0.0,0.0,0.0,0.0,0.0,0.0
1403020980981994139,3,-12.7511003289,-9.56012115774,22.2195180592,12.5835788608,12.3403449863,0.0,-0.141891105937,0.0,-0.0568368956577,0.0,0.013755847807,0.0,-2.38190279218,0.0,-0.294281087858,0.0,-0.0121921434918,0.0,-0.00979220426721,0.0,0.0557737945708,-0.0,-0.0112269201161,0.0,0.551479278168,-0.113540248334,-0.390249217912,6.66778516031,11.6412490179,-1.03086430711,-0.551479278168,0.113540248334,0.390249217912,0.00383600394174,50.0,-0.00690451462821,-50.0,-0.0,50.0,-0.0,-50.0,343512.70608,0.0,0.0,0.0,0.0,0.0,0.0
1403020981002002948,3,-12.7567284619,-9.56012115774,22.2227764772,12.5835788608,12.3396762557,0.0,-0.14332328377,0.0,-0.0380473205476,0.0,0.00870747199254,0.0,-2.39463980553,0.0,-0.297937424223,0.0,-0.0103153594516,0.0,-0.00568377079059,0.0,0.0542660539381,-0.0,-0.00318960270952,0.0,0.510766384881,-0.13923259688,-0.395840153522,6.66778516031,11.6412490179,-1.03086430711,-0.510766384881,0.13923259688,0.395840153522,0.00383600394174,50.0,-0.00843897660331,-50.0,-0.0,50.0,-0.0,-50.0,342931.734827,0.0,0.0,0.0,0.0,0.0,0.0
1403020981021899448,3,-12.7582527612,-9.56012115774,22.222338747,12.5835788608,12.3398597762,0.0,-0.144483058799,0.0,-0.0391026376792,0.0,0.0110068235755,0.0,-2.39764147367,0.0,-0.302585136551,0.0,-0.0103812453533,0.0,0.00664922520302,0.0,0.0542917475447,-0.0,0.00258475694975,0.0,0.517058093848,-0.138515013041,-0.402902267327,6.66778516031,11.6412490179,-1.03086430711,-0.517058093848,0.138515013041,0.402902267327,0.00383600394174,50.0,-0.00690451462821,-50.0,-0.0,50.0,-0.0,-50.0,342995.274382,0.0,0.0,0.0,0.0,0.0,0.0
1403020981041949614,3,-12.7598368264,-9.56012115774,22.2220630497,12.5835788608,12.3397501349,0.0,-0.146304245191,0.0,-0.0371432771468,0.0,0.00880784529908,0.0,-2.40068604789,0.0,-0.306010883351,0.0,-0.0103307013547,0.0,-0.000146495944405,0.0,0.0543438512858,-0.0,-0.00723344282091,0.0,0.518390341352,-0.143008718339,-0.406580449212,6.66778516031,11.6412490179,-1.03086430711,-0.518390341352,0.143008718339,0.406580449212,0.00383600394174,50.0,-0.00690451462821,-50.0,-0.0,50.0,-0.0,-50.0,342958.447877,0.0,0.0,0.0,0.0,0.0,0.0
1403020981061933708,3,-12.7598368264,-9.56012115774,22.2220630497,12.5835788608,12.3397501349,0.0,-0.146304245191,0.0,-0.0371432771468,0.0,0.00880784529908,0.0,-2.40068604789,0.0,-0.306010883351,0.0,-0.0103307013547,0.0,-0.000146495944405,0.0,0.0543438512858,-0.0,-0.00723344282091,0.0,0.518390341352,-0.143008718339,-0.406580449212,6.66778516031,11.6412490179,-1.03086430711,-0.518390341352,0.143008718339,0.406580449212,0.00383600394174,50.0,-0.00843897660331,-50.0,-0.0,50.0,-0.0,-50.0,342958.447877,0.0,0.0,0.0,0.0,0.0,0.0
1403020981082006718,3,-12.7783712688,-9.56012115774,22.2066766626,12.5835788608,12.3687297055,0.0,-0.152700615418,0.0,-0.041084861501,0.0,0.0155619614212,0.0,-2.41974119365,0.0,-0.309018490416,0.0,-0.0104979342021,0.0,0.0198884420335,0.0,0.0548553444008,-0.0,-0.000529386677968,0.0,0.550194608062,-0.140608102824,-0.411877037967,6.66778516031,11.6412490179,-1.03086430711,-0.550194608062,0.140608102824,0.411877037967,0.00383600394174,50.0,-0.00690451462821,-50.0,-0.0,50.0,-0.0,-50.0,343222.737991,0.0,0.0,0.0,0.0,0.0,0.0
1403020981101983666,3,-12.7783712688,-9.56012115774,22.2066766626,12.5835788608,12.3687297055,0.0,-0.152700615418,0.0,-0.041084861501,0.0,0.0155619614212,0.0,-2.41974119365,0.0,-0.309018490416,0.0,-0.0104979342021,0.0,0.0198884420335,0.0,0.0548553444008,-0.0,-0.000529386677968,0.0,0.550194608062,-0.140608102824,-0.411877037967,6.66778516031,11.6412490179,-1.03086430711,-0.550194608062,0.140608102824,0.411877037967,0.00383600394174,50.0,-0.00843897660331,-50.0,-0.0,50.0,-0.0,-50.0,343222.737991,0.0,0.0,0.0,0.0,0.0,0.0
1403020981122112099,3,-12.7757814522,-9.56012115774,22.2075859041,12.5835788608,12.3582767622,0.0,-0.148069272452,0.0,-0.0426148906149,0.0,0.012876028858,0.0,-2.42889163085,0.0,-0.313328992192,0.0,-0.0115504601823,0.0,-0.00102310747877,0.0,0.0548181941969,-0.0,-0.0140699429639,0.0,0.54366038031,-0.129619713238,-0.415849351664,6.66778516031,11.6412490179,-1.03086430711,-0.54366038031,0.129619713238,0.415849351664,0.00383600394174,50.0,-0.00690451462821,-50.0,-0.0,50.0,-0.0,-50.0,343307.768222,0.0,0.0,0.0,0.0,0.0,0.0
1403020981141969397,3,-12.7772665527,-9.56012115774,22.2072123124,12.5835788608,12.3582887228,0.0,-0.148947709971,0.0,-0.0424919027861,0.0,0.0105834132484,0.0,-2.43202197253,0.0,-0.315630418765,0.0,-0.0114504868599,0.0,-0.00218392399293,0.0,0.0548999353102,-0.0,-0.0127026629431,0.0,0.547125443104,-0.13001931847,-0.418939023715,6.66778516031,11.6412490179,-1.03086430711,-0.547125443104,0.13001931847,0.418939023715,0.00383600394174,50.0,-0.00843897660331,-50.0,-0.0,50.0,-0.0,-50.0,343332.636953,0.0,0.0,0.0,0.0,0.0,0.0
1403020981161948956,3,-12.788306799,-9.56012115774,22.1985598604,12.5835788608,12.3739471601,0.0,-0.154113063402,0.0,-0.044788418688,0.0,0.0139886503126,0.0,-2.44521105565,0.0,-0.323998666132,0.0,-0.0118739552766,0.0,0.000303213973159,0.0,0.0555561380139,-0.0,-0.00841884980169,0.0,0.570178891114,-0.129506278419,-0.430414909094,6.66778516031,11.6412490179,-1.03086430711,-0.570178891114,0.129506278419,0.430414909094,0.00383600394174,50.0,-0.00843897660331,-50.0,-0.0,50.0,-0.0,-50.0,343521.840729,0.0,0.0,0.0,0.0,0.0,0.0
1403020981181944666,3,-12.788306799,-9.56012115774,22.1985598604,12.5835788608,12.3739471601,0.0,-0.154113063402,0.0,-0.044788418688,0.0,0.0139886503126,0.0,-2.44521105565,0.0,-0.323998666132,0.0,-0.0118739552766,0.0,0.000303213973159,0.0,0.0555561380139,-0.0,-0.00841884980169,0.0,0.570178891114,-0.129506278419,-0.430414909094,6.66778516031,11.6412490179,-1.03086430711,-0.570178891114,0.129506278419,0.430414909094,0.00383600394174,50.0,-0.00690451462821,-50.0,-0.0,50.0,-0.0,-50.0,343521.840729,0.0,0.0,0.0,0.0,0.0,0.0
1403020981201981136,3,-12.7948499035,-9.56012115774,22.2001180736,12.5835788608,12.3739472923,0.0,-0.160317067266,0.0,-0.0353185940076,0.0,0.017247160574,0.0,-2.45898609212,0.0,-0.323361346102,0.0,-0.0103054902983,0.0,0.00356539081162,0.0,0.0554432069121,-0.0,-0.00462541736342,0.0,0.568421549048,-0.147966709888,-0.429973617508,6.66778516031,11.6412490179,-1.03086430711,-0.568421549048,0.147966709888,0.429973617508,0.00383600394174,50.0,-0.00843897660331,-50.0,-0.0,50.0,-0.0,-50.0,343296.136597,0.0,0.0,0.0,0.0,0.0,0.0
1403020981221916634,3,-12.7948499035,-9.56012115774,22.2001180736,12.5835788608,12.3739472923,0.0,-0.160317067266,0.0,-0.0353185940076,0.0,0.017247160574,0.0,-2.45898609212,0.0,-0.323361346102,0.0,-0.0103054902983,0.0,0.00356539081162,0.0,0.0554432069121,-0.0,-0.00462541736342,0.0,0.568421549048,-0.147966709888,-0.429973617508,6.66778516031,11.6412490179,-1.03086430711,-0.568421549048,0.147966709888,0.429973617508,0.00383600394174,50.0,-0.00690451462821,-50.0,-0.0,50.0,-0.0,-50.0,343296.136597,0.0,0.0,0.0,0.0,0.0,0.0
1403020981241956179,3,-12.8000402224,-9.56012115774,22.19888636,12.5835788608,12.3746942121,0.0,-0.163604081981,0.0,-0.034708408077,0.0,0.0208938851536,0.0,-2.46936592302,0.0,-0.330262748726,0.0,-0.0101950202664,0.0,-0.00789048513343,0.0,0.0556266364007,-0.0,-0.00862347758805,0.0,0.578805475152,-0.150035205612,-0.438359869299,6.66778516031,11.6412490179,-1.03086430711,-0.578805475152,0.150035205612,0.438359869299,0.00383600394174,50.0,-0.00843897660331,-50.0,-0.0,50.0,-0.0,-50.0,343359.845199,0.0,0.0,0.0,0.0,0.0,0.0
1403020981262247330,3,-12.799070756,-9.56012115774,22.1966390896,12.5835788608,12.3714360254,0.0,-0.159257762096,0.0,-0.0451189462581,0.0,0.0247445376394,0.0,-2.47533371941,0.0,-0.337397698531,0.0,-0.0113840101862,0.0,-0.00633195675675,0.0,0.0560320717746,-0.0,-0.0158452733449,0.0,0.591035310638,-0.12666826541,-0.447481628733,6.66778516031,11.6412490179,-1.03086430711,-0.591035310638,0.12666826541,0.447481628733,0.00383600394174,50.0,-0.00843897660331,-50.0,-0.0,50.0,-0.0,-50.0,343730.77562,0.0,0.0,0.0,0.0,0.0,0.0
1403020981281912841,3,-12.799070756,-9.56012115774,22.1966390896,12.5835788608,12.3714360254,0.0,-0.159257762096,0.0,-0.0451189462581,0.0,0.0247445376394,0.0,-2.47533371941,0.0,-0.337397698531,0.0,-0.0113840101862,0.0,-0.00633195675675,0.0,0.0560320717746,-0.0,-0.0158452733449,0.0,0.591035310638,-0.12666826541,-0.447481628733,6.66778516031,11.6412490179,-1.03086430711,-0.591035310638,0.12666826541,0.447481628733,0.00383600394174,50.0,-0.00843897660331,-50.0,-0.0,50.0,-0.0,-50.0,343730.77562,0.0,0.0,0.0,0.0,0.0,0.0
1403020981302034704,3,-12.8040511807,-9.56012115774,22.1952756987,12.5835788608,12.3721038696,0.0,-0.160665165792,0.0,-0.0440929001589,0.0,0.027691363073,0.0,-2.48602159201,0.0,-0.335389875117,0.0,-0.0113203545806,0.0,0.00650017341398,0.0,0.0560871904906,-0.0,-0.00108106012347,0.0,0.594766004498,-0.126795590217,-0.446304596416,6.66778516031,11.6412490179,-1.03086430711,-0.594766004498,0.126795590217,0.446304596416,0.00383600394174,50.0,-0.00690451462821,-50.0,-0.0,50.0,-0.0,-50.0,343754.657565,0.0,0.0,0.0,0.0,0.0,0.0
1403020981322061473,3,-12.8040511807,-9.56012115774,22.1952756987,12.5835788608,12.3721038696,0.0,-0.160665165792,0.0,-0.0440929001589,0.0,0.027691363073,0.0,-2.48602159201,0.0,-0.335389875117,0.0,-0.0113203545806,0.0,0.00650017341398,0.0,0.0560871904906,-0.0,-0.00108106012347,0.0,0.594766004498,-0.126795590217,-0.446304596416,6.66778516031,11.6412490179,-1.03086430711,-0.594766004498,0.126795590217,0.446304596416,0.00383600394174,50.0,-0.00690451462821,-50.0,-0.0,50.0,-0.0,-50.0,343754.657565,0.0,0.0,0.0,0.0,0.0,0.0
1403020981341957250,3,-12.8135284009,-9.56012115774,22.1888174435,12.5835788608,12.3815178257,0.0,-0.166513592997,0.0,-0.0478243552232,0.0,0.0348639265805,0.0,-2.49971184339,0.0,-0.346259901064,0.0,-0.0111095146337,0.0,-0.0135776849463,0.0,0.0565083605566,-0.0,-0.00687982736209,0.0,0.622482183073,-0.123741620024,-0.459398883288,6.66778516031,11.6412490179,-1.03086430711,-0.622482183073,0.123741620024,0.459398883288,0.00383600394174,50.0,-0.00843897660331,-50.0,-0.0,50.0,-0.0,-50.0,344010.929487,0.0,0.0,0.0,0.0,0.0,0.0
1403020981361934429,3,-12.8135284009,-9.56012115774,22.1888174435,12.5835788608,12.3815178257,0.0,-0.166513592997,0.0,-0.0478243552232,0.0,0.0348639265805,0.0,-2.49971184339,0.0,-0.346259901064,0.0,-0.0111095146337,0.0,-0.0135776849463,0.0,0.0565083605566,-0.0,-0.00687982736209,0.0,0.622482183073,-0.123741620024,-0.459398883288,6.66778516031,11.6412490179,-1.03086430711,-0.622482183073,0.123741620024,0.459398883288,0.00383600394174,50.0,-0.00843897660331,-50.0,-0.0,50.0,-0.0,-50.0,344010.929487,0.0,0.0,0.0,0.0,0.0,0.0
1403020981381956601,3,-12.81058599,-9.56012115774,22.1983045261,12.5835788608,12.3642042878,0.0,-0.162404663713,0.0,-0.0322323070705,0.0,0.0347321379295,0.0,-2.51413109754,0.0,-0.347124039125,0.0,-0.0101595905537,0.0,-0.0116946296114,0.0,0.0550671645041,-0.0,0.00432615284031,0.0,0.578892144503,-0.139373137242,-0.461311638736,6.66778516031,11.6412490179,-1.03086430711,-0.578892144503,0.139373137242,0.461311638736,0.00383600394174,50.0,-0.00843897660331,-50.0,-0.0,50.0,-0.0,-50.0,343517.034894,0.0,0.0,0.0,0.0,0.0,0.0
1403020981402235982,3,-12.81058599,-9.56012115774,22.1983045261,12.5835788608,12.3642042878,0.0,-0.162404663713,0.0,-0.0322323070705,0.0,0.0347321379295,0.0,-2.51413109754,0.0,-0.347124039125,0.0,-0.0101595905537,0.0,-0.0116946296114,0.0,0.0550671645041,-0.0,0.00432615284031,0.0,0.578892144503,-0.139373137242,-0.461311638736,6.66778516031,11.6412490179,-1.03086430711,-0.578892144503,0.139373137242,0.461311638736,0.00383600394174,50.0,-0.00843897660331,-50.0,-0.0,50.0,-0.0,-50.0,343517.034894,0.0,0.0,0.0,0.0,0.0,0.0
1403020981421943248,3,-12.8135738687,-9.56012115774,22.2032179363,12.5835788608,12.348133387,0.0,-0.171314757681,0.0,-0.0284266467068,0.0,0.0360944444147,0.0,-2.52868831211,0.0,-0.346611206173,0.0,-0.00940228436715,0.0,-0.00855593292698,0.0,0.0552580505674,-0.0,0.00903528028888,0.0,0.601607354949,-0.151424770215,-0.461017373869,6.66778516031,11.6412490179,-1.03086430711,-0.601607354949,0.151424770215,0.461017373869,0.00383600394174,50.0,-0.00843897660331,-50.0,-0.0,50.0,-0.0,-50.0,343542.919867,0.0,0.0,0.0,0.0,0.0,0.0
1403020981441899402,3,-12.8135738687,-9.56012115774,22.2032179363,12.5835788608,12.348133387,0.0,-0.171314757681,0.0,-0.0284266467068,0.0,0.0360944444147,0.0,-2.52868831211,0.0,-0.346611206173,0.0,-0.00940228436715,0.0,-0.00855593292698,0.0,0.0552580505674,-0.0,0.00903528028888,0.0,0.601607354949,-0.151424770215,-0.461017373869,6.66778516031,11.6412490179,-1.03086430711,-0.601607354949,0.151424770215,0.461017373869,0.00383600394174,50.0,-0.00843897660331,-50.0,-0.0,50.0,-0.0,-50.0,343542.919867,0.0,0.0,0.0,0.0,0.0,0.0
1403020981461993645,3,-12.8280373693,-9.56012115774,22.1985813917,12.5835788608,12.3442917665,0.0,-0.190334062777,0.0,-0.039148205145,0.0,0.0380906235484,0.0,-2.54612453448,0.0,-0.359596808394,0.0,-0.00980265051011,0.0,-0.00968842629737,0.0,0.0569200743779,-0.0,0.00475681758246,0.0,0.68753106011,-0.149633512693,-0.477936907342,6.66778516031,11.6412490179,-1.03086430711,-0.68753106011,0.149633512693,0.477936907342,0.00383600394174,50.0,-0.00690451462821,-50.0,-0.0,50.0,-0.0,-50.0,344217.192363,0.0,0.0,0.0,0.0,0.0,0.0
1403020981481930404,3,-12.8280373693,-9.56012115774,22.1985813917,12.5835788608,12.3442917665,0.0,-0.190334062777,0.0,-0.039148205145,0.0,0.0380906235484,0.0,-2.54612453448,0.0,-0.359596808394,0.0,-0.00980265051011,0.0,-0.00968842629737,0.0,0.0569200743779,-0.0,0.00475681758246,0.0,0.68753106011,-0.149633512693,-0.477936907342,6.66778516031,11.6412490179,-1.03086430711,-0.68753106011,0.149633512693,0.477936907342,0.00383600394174,50.0,-0.00843897660331,-50.0,-0.0,50.0,-0.0,-50.0,344217.192363,0.0,0.0,0.0,0.0,0.0,0.0
1403020981501947064,3,-12.8299364719,-9.56012115774,22.1982272769,12.5835788608,12.3445855816,0.0,-0.191206851204,0.0,-0.0364455337046,0.0,0.0340897829956,0.0,-2.54966284674,0.0,-0.355316202867,0.0,-0.00974679503126,0.0,-0.0146076885526,0.0,0.0567403075322,-0.0,0.0117794056907,0.0,0.686461670174,-0.153737204529,-0.472346059809,6.66778516031,11.6412490179,-1.03086430711,-0.686461670174,0.153737204529,0.472346059809,0.00383600394174,50.0,-0.00690451462821,-50.0,-0.0,50.0,-0.0,-50.0,344153.757757,0.0,0.0,0.0,0.0,0.0,0.0
1403020981522115331,3,-12.8299364719,-9.56012115774,22.1982272769,12.5835788608,12.3445855816,0.0,-0.191206851204,0.0,-0.0364455337046,0.0,0.0340897829956,0.0,-2.54966284674,0.0,-0.355316202867,0.0,-0.00974679503126,0.0,-0.0146076885526,0.0,0.0567403075322,-0.0,0.0117794056907,0.0,0.686461670174,-0.153737204529,-0.472346059809,6.66778516031,11.6412490179,-1.03086430711,-0.686461670174,0.153737204529,0.472346059809,0.00383600394174,50.0,-0.00843897660331,-50.0,-0.0,50.0,-0.0,-50.0,344153.757757,0.0,0.0,0.0,0.0,0.0,0.0
1403020981541972581,3,-12.850147071,-9.56012115774,22.1902305068,12.5835788608,12.3672619665,0.0,-0.203091943283,0.0,-0.0292693827055,0.0,0.0392078817317,0.0,-2.57219921816,0.0,-0.369790350824,0.0,-0.00927160711398,0.0,-0.0106262560919,0.0,0.055812517927,-0.0,0.00801573097543,0.0,0.714756517361,-0.170591241607,-0.4916197802,6.66778516031,11.6412490179,-1.03086430711,-0.714756517361,0.170591241607,0.4916197802,0.00383600394174,50.0,-0.00843897660331,-50.0,-0.0,50.0,-0.0,-50.0,344197.93462,0.0,0.0,0.0,0.0,0.0,0.0
1403020981561913866,3,-12.850147071,-9.56012115774,22.1902305068,12.5835788608,12.3672619665,0.0,-0.203091943283,0.0,-0.0292693827055,0.0,0.0392078817317,0.0,-2.57219921816,0.0,-0.369790350824,0.0,-0.00927160711398,0.0,-0.0106262560919,0.0,0.055812517927,-0.0,0.00801573097543,0.0,0.714756517361,-0.170591241607,-0.4916197802,6.66778516031,11.6412490179,-1.03086430711,-0.714756517361,0.170591241607,0.4916197802,0.00383600394174,50.0,-0.00843897660331,-50.0,-0.0,50.0,-0.0,-50.0,344197.93462,0.0,0.0,0.0,0.0,0.0,0.0
1403020981581948408,3,-12.8541188959,-9.56012115774,22.1949873984,12.5835788608,12.3477106313,0.0,-0.207700554691,0.0,-0.0284215409682,0.0,0.0358136223754,0.0,-2.58707963693,0.0,-0.365378635294,0.0,-0.0101025283151,0.0,0.00212840995441,0.0,0.0557976460569,-0.0,0.0139766084717,0.0,0.733030702479,-0.171324946179,-0.486764522233,6.66778516031,11.6412490179,-1.03086430711,-0.733030702479,0.171324946179,0.486764522233,0.00383600394174,50.0,-0.00843897660331,-50.0,-0.0,50.0,-0.0,-50.0,344317.215455,0.0,0.0,0.0,0.0,0.0,0.0
1403020981601898324,3,-12.8541188959,-9.56012115774,22.1949873984,12.5835788608,12.3477106313,0.0,-0.207700554691,0.0,-0.0284215409682,0.0,0.0358136223754,0.0,-2.58707963693,0.0,-0.365378635294,0.0,-0.0101025283151,0.0,0.00212840995441,0.0,0.0557976460569,-0.0,0.0139766084717,0.0,0.733030702479,-0.171324946179,-0.486764522233,6.66778516031,11.6412490179,-1.03086430711,-0.733030702479,0.171324946179,0.486764522233,0.00383600394174,50.0,-0.00843897660331,-50.0,-0.0,50.0,-0.0,-50.0,344317.215455,0.0,0.0,0.0,0.0,0.0,0.0
1403020981621939962,3,-12.8592303285,-9.56012115774,22.1930989061,12.5835788608,12.3617382372,0.0,-0.200283531281,0.0,-0.0179845432681,0.0,0.0453986384791,0.0,-2.60279684338,0.0,-0.373588888986,0.0,-0.00993385348662,0.0,0.00515320301477,0.0,0.0536863740212,-0.0,0.00946532497613,0.0,0.692642215697,-0.175743970712,-0.497652049259,6.66778516031,11.6412490179,-1.03086430711,-0.692642215697,0.175743970712,0.497652049259,0.00383600394174,50.0,-0.00690451462821,-50.0,-0.0,50.0,-0.0,-50.0,343985.029698,0.0,0.0,0.0,0.0,0.0,0.0
1403020981642012997,3,-12.8592303285,-9.56012115774,22.1930989061,12.5835788608,12.3617382372,0.0,-0.200283531281,0.0,-0.0179845432681,0.0,0.0453986384791,0.0,-2.60279684338,0.0,-0.373588888986,0.0,-0.00993385348662,0.0,0.00515320301477,0.0,0.0536863740212,-0.0,0.00946532497613,0.0,0.692642215697,-0.175743970712,-0.497652049259,6.66778516031,11.6412490179,-1.03086430711,-0.692642215697,0.175743970712,0.497652049259,0.00383600394174,50.0,-0.00843897660331,-50.0,-0.0,50.0,-0.0,-50.0,343985.029698,0.0,0.0,0.0,0.0,0.0,0.0
1403020981661911765,3,-12.8698143408,-9.56012115774,22.1976314539,12.5835788608,12.3303435438,0.0,-0.230033708848,0.0,-0.0277167427225,0.0,0.0376575026119,0.0,-2.61721819494,0.0,-0.373690275955,0.0,-0.0105800505902,0.0,-0.00764861428647,0.0,0.0567015701384,-0.0,-0.000887503215981,0.0,0.812026875359,-0.183398158547,-0.496474799283,6.66778516031,11.6412490179,-1.03086430711,-0.812026875359,0.183398158547,0.496474799283,0.00383600394174,50.0,-0.00690451462821,-50.0,-0.0,50.0,-0.0,-50.0,344781.349575,0.0,0.0,0.0,0.0,0.0,0.0
1403020981681910125,3,-12.8698143408,-9.56012115774,22.1976314539,12.5835788608,12.3303435438,0.0,-0.230033708848,0.0,-0.0277167427225,0.0,0.0376575026119,0.0,-2.61721819494,0.0,-0.373690275955,0.0,-0.0105800505902,0.0,-0.00764861428647,0.0,0.0567015701384,-0.0,-0.000887503215981,0.0,0.812026875359,-0.183398158547,-0.496474799283,6.66778516031,11.6412490179,-1.03086430711,-0.812026875359,0.183398158547,0.496474799283,0.00383600394174,50.0,-0.00843897660331,-50.0,-0.0,50.0,-0.0,-50.0,344781.349575,0.0,0.0,0.0,0.0,0.0,0.0
1403020981701963875,3,-12.8626974523,-9.56012115774,22.2073929822,12.5835788608,12.3090355698,0.0,-0.214467335058,0.0,-0.0234381720322,0.0,0.0434421748962,0.0,-2.63338626,0.0,-0.381145555488,0.0,-0.0115762090396,0.0,0.0149992452905,0.0,0.054864526057,-0.0,0.00367530823162,0.0,0.758496068587,-0.169017688062,-0.507950794296,6.66778516031,11.6412490179,-1.03086430711,-0.758496068587,0.169017688062,0.507950794296,0.00383600394174,50.0,-0.00690451462821,-50.0,-0.0,50.0,-0.0,-50.0,344564.848246,0.0,0.0,0.0,0.0,0.0,0.0
1403020981722124545,3,-12.8626974523,-9.56012115774,22.2073929822,12.5835788608,12.3090355698,0.0,-0.214467335058,0.0,-0.0234381720322,0.0,0.0434421748962,0.0,-2.63338626,0.0,-0.381145555488,0.0,-0.0115762090396,0.0,0.0149992452905,0.0,0.054864526057,-0.0,0.00367530823162,0.0,0.758496068587,-0.169017688062,-0.507950794296,6.66778516031,11.6412490179,-1.03086430711,-0.758496068587,0.169017688062,0.507950794296,0.00383600394174,50.0,-0.00690451462821,-50.0,-0.0,50.0,-0.0,-50.0,344564.848246,0.0,0.0,0.0,0.0,0.0,0.0
1403020981741933923,3,-12.8713822436,-9.56012115774,22.2066759379,12.5835788608,12.3104252902,0.0,-0.219434028033,0.0,-0.01773053855,0.0,0.0427341071954,0.0,-2.64916321041,0.0,-0.379557097669,0.0,-0.0116575557797,0.0,-0.00659261509337,0.0,0.055038090166,-0.0,-0.0154525752048,0.0,0.769650927794,-0.177476560079,-0.503684081714,6.66778516031,11.6412490179,-1.03086430711,-0.769650927794,0.177476560079,0.503684081714,0.00383600394174,50.0,-0.00843897660331,-50.0,-0.0,50.0,-0.0,-50.0,344544.186643,0.0,0.0,0.0,0.0,0.0,0.0
1403020981761923124,3,-12.8681702854,-9.56012115774,22.2121771652,12.5835788608,12.2953739219,0.0,-0.218793178824,0.0,-0.0187582358494,0.0,0.0362202459152,0.0,-2.65303901189,0.0,-0.39357210285,0.0,-0.0117032468963,0.0,0.00514306579777,0.0,0.055227650156,-0.0,-0.000933979866651,0.0,0.771899097972,-0.173348966621,-0.523693397201,6.66778516031,11.6412490179,-1.03086430711,-0.771899097972,0.173348966621,0.523693397201,0.00383600394174,50.0,-0.00843897660331,-50.0,-0.0,50.0,-0.0,-50.0,344639.141552,0.0,0.0,0.0,0.0,0.0,0.0
1403020981781888211,3,-12.8681702854,-9.56012115774,22.2121771652,12.5835788608,12.2953739219,0.0,-0.218793178824,0.0,-0.0187582358494,0.0,0.0362202459152,0.0,-2.65303901189,0.0,-0.39357210285,0.0,-0.0117032468963,0.0,0.00514306579777,0.0,0.055227650156,-0.0,-0.000933979866651,0.0,0.771899097972,-0.173348966621,-0.523693397201,6.66778516031,11.6412490179,-1.03086430711,-0.771899097972,0.173348966621,0.523693397201,0.00383600394174,50.0,-0.00843897660331,-50.0,-0.0,50.0,-0.0,-50.0,344639.141552,0.0,0.0,0.0,0.0,0.0,0.0
1403020981801957932,3,-12.8750591089,-9.56012115774,22.2114866252,12.5835788608,12.296668956,0.0,-0.218895653542,0.0,-0.0166983128947,0.0,0.0335555446462,0.0,-2.66510403037,0.0,-0.394352088161,0.0,-0.0120492072315,0.0,-0.00214473014108,0.0,0.0554085566337,-0.0,-0.00136114394751,0.0,0.773047709273,-0.172186285621,-0.524281895139,6.66778516031,11.6412490179,-1.03086430711,-0.773047709273,0.172186285621,0.524281895139,0.00383600394174,50.0,-0.00843897660331,-50.0,-0.0,50.0,-0.0,-50.0,344661.93673,0.0,0.0,0.0,0.0,0.0,0.0
1403020981822108707,3,-12.8750591089,-9.56012115774,22.2114866252,12.5835788608,12.296668956,0.0,-0.218895653542,0.0,-0.0166983128947,0.0,0.0335555446462,0.0,-2.66510403037,0.0,-0.394352088161,0.0,-0.0120492072315,0.0,-0.00214473014108,0.0,0.0554085566337,-0.0,-0.00136114394751,0.0,0.773047709273,-0.172186285621,-0.524281895139,6.66778516031,11.6412490179,-1.03086430711,-0.773047709273,0.172186285621,0.524281895139,0.00383600394174,50.0,-0.00843897660331,-50.0,-0.0,50.0,-0.0,-50.0,344661.93673,0.0,0.0,0.0,0.0,0.0,0.0
1403020981841953247,3,-12.878551956,-9.56012115774,22.2159733205,12.5835788608,12.2886164095,0.0,-0.221399756273,0.0,-0.0103739369522,0.0,0.0357662990317,0.0,-2.68173608333,0.0,-0.394458803672,0.0,-0.0116348220271,0.0,0.00110564599977,0.0,0.0554047873107,-0.0,-0.0054308813141,0.0,0.775677735253,-0.17901110266,-0.524429031015,6.66778516031,11.6412490179,-1.03086430711,-0.775677735253,0.17901110266,0.524429031015,0.00383600394174,50.0,-0.00690451462821,-50.0,-0.0,50.0,-0.0,-50.0,344603.487635,0.0,0.0,0.0,0.0,0.0,0.0
1403020981861910729,3,-12.878551956,-9.56012115774,22.2159733205,12.5835788608,12.2886164095,0.0,-0.221399756273,0.0,-0.0103739369522,0.0,0.0357662990317,0.0,-2.68173608333,0.0,-0.394458803672,0.0,-0.0116348220271,0.0,0.00110564599977,0.0,0.0554047873107,-0.0,-0.0054308813141,0.0,0.775677735253,-0.17901110266,-0.524429031015,6.66778516031,11.6412490179,-1.03086430711,-0.775677735253,0.17901110266,0.524429031015,0.00383600394174,50.0,-0.00843897660331,-50.0,-0.0,50.0,-0.0,-50.0,344603.487635,0.0,0.0,0.0,0.0,0.0,0.0
1403020981881944712,3,-12.8878456684,-9.56012115774,22.2153592106,12.5835788608,12.2903647377,0.0,-0.224353332363,0.0,-0.00801292706918,0.0,0.035257059615,0.0,-2.69800848027,0.0,-0.403697276692,0.0,-0.0115740396127,0.0,-0.0120983830303,0.0,0.0558575618777,-0.0,-0.0151465090836,0.0,0.787091681254,-0.179170074892,-0.535463575495,6.66778516031,11.6412490179,-1.03086430711,-0.787091681254,0.179170074892,0.535463575495,0.00383600394174,50.0,-0.00843897660331,-50.0,-0.0,50.0,-0.0,-50.0,344703.912727,0.0,0.0,0.0,0.0,0.0,0.0
1403020981901914173,3,-12.8878456684,-9.56012115774,22.2153592106,12.5835788608,12.2903647377,0.0,-0.224353332363,0.0,-0.00801292706918,0.0,0.035257059615,0.0,-2.69800848027,0.0,-0.403697276692,0.0,-0.0115740396127,0.0,-0.0120983830303,0.0,0.0558575618777,-0.0,-0.0151465090836,0.0,0.787091681254,-0.179170074892,-0.535463575495,6.66778516031,11.6412490179,-1.03086430711,-0.787091681254,0.179170074892,0.535463575495,0.00383600394174,50.0,-0.00690451462821,-50.0,-0.0,50.0,-0.0,-50.0,344703.912727,0.0,0.0,0.0,0.0,0.0,0.0
1403020981922169145,3,-12.8848442034,-9.56012115774,22.2198895367,12.5835788608,12.2729017023,0.0,-0.214425009935,0.0,-0.0122404922669,0.0,0.0342186821924,0.0,-2.71408146081,0.0,-0.400903716377,0.0,-0.0130111682335,0.0,0.00667500283552,0.0,0.0557671318175,-0.0,-0.00992437320392,0.0,0.765545711174,-0.156692879195,-0.533109481501,6.66778516031,11.6412490179,-1.03086430711,-0.765545711174,0.156692879195,0.533109481501,0.00383600394174,50.0,-0.00843897660331,-50.0,-0.0,50.0,-0.0,-50.0,344797.72578,0.0,0.0,0.0,0.0,0.0,0.0
1403020981941933472,3,-12.8848442034,-9.56012115774,22.2198895367,12.5835788608,12.2729017023,0.0,-0.214425009935,0.0,-0.0122404922669,0.0,0.0342186821924,0.0,-2.71408146081,0.0,-0.400903716377,0.0,-0.0130111682335,0.0,0.00667500283552,0.0,0.0557671318175,-0.0,-0.00992437320392,0.0,0.765545711174,-0.156692879195,-0.533109481501,6.66778516031,11.6412490179,-1.03086430711,-0.765545711174,0.156692879195,0.533109481501,0.00383600394174,50.0,-0.00690451462821,-50.0,-0.0,50.0,-0.0,-50.0,344797.72578,0.0,0.0,0.0,0.0,0.0,0.0
1403020981961932027,3,-12.8943598236,-9.56012115774,22.2214639318,12.5835788608,12.2718518931,0.0,-0.223853178583,0.0,-0.00714599050771,0.0,0.0355889435492,0.0,-2.73067961871,0.0,-0.412260972788,0.0,-0.0121001378896,0.0,-0.00510524624258,0.0,0.056623925431,-0.0,-0.0188474907121,0.0,0.794265401773,-0.166865177084,-0.547086573758,6.66778516031,11.6412490179,-1.03086430711,-0.794265401773,0.166865177084,0.547086573758,0.00383600394174,50.0,-0.00843897660331,-50.0,-0.0,50.0,-0.0,-50.0,344916.80605,0.0,0.0,0.0,0.0,0.0,0.0
1403020981981921868,3,-12.8943598236,-9.56012115774,22.2214639318,12.5835788608,12.2718518931,0.0,-0.223853178583,0.0,-0.00714599050771,0.0,0.0355889435492,0.0,-2.73067961871,0.0,-0.412260972788,0.0,-0.0121001378896,0.0,-0.00510524624258,0.0,0.056623925431,-0.0,-0.0188474907121,0.0,0.794265401773,-0.166865177084,-0.547086573758,6.66778516031,11.6412490179,-1.03086430711,-0.794265401773,0.166865177084,0.547086573758,0.00383600394174,50.0,-0.00690451462821,-50.0,-0.0,50.0,-0.0,-50.0,344916.80605,0.0,0.0,0.0,0.0,0.0,0.0
1403020982001964311,3,-12.8905331816,-9.56012115774,22.2349217621,12.5835788608,12.2519423232,0.0,-0.209764598115,0.0,0.0142189590859,0.0,0.0286527856278,0.0,-2.75249657033,0.0,-0.405226815387,0.0,-0.0110994218409,0.0,-0.0193044044596,0.0,0.0550747188476,-0.0,-0.0160865153397,0.0,0.724004179726,-0.186315810718,-0.537082070615,6.66778516031,11.6412490179,-1.03086430711,-0.724004179726,0.186315810718,0.537082070615,0.00383600394174,50.0,-0.00843897660331,-50.0,-0.0,50.0,-0.0,-50.0,344156.250136,0.0,0.0,0.0,0.0,0.0,0.0
1403020982021945210,3,-12.8905331816,-9.56012115774,22.2349217621,12.5835788608,12.2519423232,0.0,-0.209764598115,0.0,0.0142189590859,0.0,0.0286527856278,0.0,-2.75249657033,0.0,-0.405226815387,0.0,-0.0110994218409,0.0,-0.0193044044596,0.0,0.0550747188476,-0.0,-0.0160865153397,0.0,0.724004179726,-0.186315810718,-0.537082070615,6.66778516031,11.6412490179,-1.03086430711,-0.724004179726,0.186315810718,0.537082070615,0.00383600394174,50.0,-0.00843897660331,-50.0,-0.0,50.0,-0.0,-50.0,344156.250136,0.0,0.0,0.0,0.0,0.0,0.0
1403020982041956571,3,-12.8922744399,-9.56012115774,22.2322134556,12.5835788608,12.2550614256,0.0,-0.209233155544,0.0,0.0057048278248,0.0,0.037174341291,0.0,-2.75637495488,0.0,-0.413330495965,0.0,-0.0116988296469,0.0,-0.0191346526923,0.0,0.0553611007183,-0.0,-0.020084881277,0.0,0.733619772543,-0.168922001222,-0.54767519157,6.66778516031,11.6412490179,-1.03086430711,-0.733619772543,0.168922001222,0.54767519157,0.00383600394174,50.0,-0.00690451462821,-50.0,-0.0,50.0,-0.0,-50.0,344443.434553,0.0,0.0,0.0,0.0,0.0,0.0
1403020982061919557,3,-12.8922744399,-9.56012115774,22.2322134556,12.5835788608,12.2550614256,0.0,-0.209233155544,0.0,0.0057048278248,0.0,0.037174341291,0.0,-2.75637495488,0.0,-0.413330495965,0.0,-0.0116988296469,0.0,-0.0191346526923,0.0,0.0553611007183,-0.0,-0.020084881277,0.0,0.733619772543,-0.168922001222,-0.54767519157,6.66778516031,11.6412490179,-1.03086430711,-0.733619772543,0.168922001222,0.54767519157,0.00383600394174,50.0,-0.00843897660331,-50.0,-0.0,50.0,-0.0,-50.0,344443.434553,0.0,0.0,0.0,0.0,0.0,0.0
