rosbagTimestamp,control_method,x_current,x_desired,y_current,y_desired,x_velocity_current,x_velocity_desired,y_velocity_current,y_velocity_desired,yaw_current,yaw_desired,required_force_x,required_force_y,required_moment_z,resultant_force_x,resultant_force_y,resultant_moment_z,current_port_servo_angle,current_port_thruster_force,current_starboard_servo_angle,current_starboard_thruster_force,estimated_port_servo_angle,estimated_port_thruster_force,estimated_starboard_servo_angle,estimated_starboard_thruster_force,cost_value,step,user_defined_1,user_defined_2,user_defined_3,user_defined_4,user_defined_5
1402601774227780339,3,11.2831634154,-0.114322152727,-6.3661813693,0.043815185726,-0.484733005759,0.0,0.111914482377,0.0,1.2959565244,0.0,0.0,0.0,0.0,0.2674221852,-96.7921312162,88.7516752733,1.07174715201,-65.0,-0.902968319255,50.0,1.08210413624,-65.0,-0.907571211037,50.0,8656416.84032,0.0,0.0,0.0,0.0,0.0,0.0
1402601774248052339,3,11.2831634154,-0.114322152727,-6.3661813693,0.043815185726,-0.484733005759,0.0,0.111914482377,0.0,1.2959565244,0.0,0.0,0.0,0.0,0.2674221852,-96.7921312162,88.7516752733,1.07174715201,-65.0,-0.902968319255,50.0,1.08210413624,-65.0,-0.907571211037,50.0,8656416.84032,0.0,0.0,0.0,0.0,0.0,0.0
1402601774267421209,3,11.269322677,-0.114322152727,-6.36322653747,0.043815185726,-0.472107518664,0.0,0.103292347956,0.0,1.29749505753,0.0,0.0,0.0,0.0,0.2674221852,-96.7921312162,88.7516752733,1.07021269004,-65.0,-0.902968319255,50.0,1.08210413624,-65.0,-0.907571211037,50.0,8656416.84032,0.0,0.0,0.0,0.0,0.0,0.0
1402601774288052400,3,11.269322677,-0.114322152727,-6.36322653747,0.043815185726,-0.472107518664,0.0,0.103292347956,0.0,1.29749505753,0.0,0.0,0.0,0.0,0.2674221852,-96.7921312162,88.7516752733,1.07021269004,-65.0,-0.904502542811,50.0,1.08210413624,-65.0,-0.907571211037,50.0,8656416.84032,0.0,0.0,0.0,0.0,0.0,0.0
1402601774307530458,3,11.2454949422,-0.114322152727,-6.35770850043,0.043815185726,-0.483161400479,0.0,0.106182152204,0.0,1.2988126138,0.0,0.0,0.0,0.0,0.2674221852,-96.7921312162,88.7516752733,1.07021269004,-65.0,-0.902968319255,50.0,1.08210413624,-65.0,-0.907571211037,50.0,8656416.84032,0.0,0.0,0.0,0.0,0.0,0.0
1402601774327939306,3,11.2454949422,-0.114322152727,-6.35770850043,0.043815185726,-0.483161400479,0.0,0.106182152204,0.0,1.2988126138,0.0,0.0,0.0,0.0,0.2674221852,-96.7921312162,88.7516752733,1.07174715201,-65.0,-0.902968319255,50.0,1.08210413624,-65.0,-0.907571211037,50.0,8656416.84032,0.0,0.0,0.0,0.0,0.0,0.0
1402601774347588159,3,11.2325017535,-0.114322152727,-6.3543311782,0.043815185726,-0.469600033687,0.0,0.0987852217398,0.0,1.30022779027,0.0,0.0,0.0,0.0,0.2674221852,-96.7921312162,88.7516752733,1.07174715201,-65.0,-0.904502542811,50.0,1.08210413624,-65.0,-0.907571211037,50.0,8656416.84032,0.0,0.0,0.0,0.0,0.0,0.0
1402601774368016026,3,11.2325017535,-0.114322152727,-6.3543311782,0.043815185726,-0.469600033687,0.0,0.0987852217398,0.0,1.30022779027,0.0,0.0,0.0,0.0,0.2674221852,-96.7921312162,88.7516752733,1.07174715201,-65.0,-0.902968319255,50.0,1.08210413624,-65.0,-0.907571211037,50.0,8656416.84032,0.0,0.0,0.0,0.0,0.0,0.0
1402601774387537138,3,11.2132165048,-0.114322152727,-6.35040997639,0.043815185726,-0.46887789742,0.0,0.0986532720066,0.0,1.30168622544,0.0,0.0,0.0,0.0,0.2674221852,-96.7921312162,88.7516752733,1.07174715201,-65.0,-0.904502542811,50.0,1.08210413624,-65.0,-0.907571211037,50.0,8656416.84032,0.0,0.0,0.0,0.0,0.0,0.0
1402601774408096402,3,11.2132165048,-0.114322152727,-6.35040997639,0.043815185726,-0.46887789742,0.0,0.0986532720066,0.0,1.30168622544,0.0,0.0,0.0,0.0,0.2674221852,-96.7921312162,88.7516752733,1.07021269004,-65.0,-0.902968319255,50.0,1.08210413624,-65.0,-0.907571211037,50.0,8656416.84032,0.0,0.0,0.0,0.0,0.0,0.0
1402601774427590148,3,11.1882229504,-0.114322152727,-6.35134436405,0.043815185726,-0.473594828261,0.0,0.0904767136713,0.0,1.3035961405,0.0,0.0,0.0,0.0,0.2674221852,-96.7921312162,88.7516752733,1.07174715201,-65.0,-0.904502542811,50.0,1.08210413624,-65.0,-0.907571211037,50.0,8656416.84032,0.0,0.0,0.0,0.0,0.0,0.0
1402601774448013438,3,11.1882229504,-0.114322152727,-6.35134436405,0.043815185726,-0.473594828261,0.0,0.0904767136713,0.0,1.3035961405,0.0,0.0,0.0,0.0,0.2674221852,-96.7921312162,88.7516752733,1.07174715201,-65.0,-0.902968319255,50.0,1.08210413624,-65.0,-0.907571211037,50.0,8656416.84032,0.0,0.0,0.0,0.0,0.0,0.0
1402601774467509446,3,11.1656065834,-0.114322152727,-6.34521611346,0.043815185726,-0.472547544861,0.0,0.0910807178331,0.0,1.30554559682,0.0,0.0,0.0,0.0,0.2674221852,-96.7921312162,88.7516752733,1.07174715201,-65.0,-0.902968319255,50.0,1.08210413624,-65.0,-0.907571211037,50.0,8656416.84032,0.0,0.0,0.0,0.0,0.0,0.0
1402601774488078628,3,11.1656065834,-0.114322152727,-6.34521611346,0.043815185726,-0.472547544861,0.0,0.0910807178331,0.0,1.30554559682,0.0,0.0,0.0,0.0,0.2674221852,-96.7921312162,88.7516752733,1.07021269004,-65.0,-0.904502542811,50.0,1.08210413624,-65.0,-0.907571211037,50.0,8656416.84032,0.0,0.0,0.0,0.0,0.0,0.0
1402601774507500231,3,11.1584720053,-0.114322152727,-6.33859710502,0.043815185726,-0.475075430057,0.0,0.10386941772,0.0,1.30639986131,0.0,0.0,0.0,0.0,0.2674221852,-96.7921312162,88.7516752733,1.07174715201,-65.0,-0.902968319255,50.0,1.08210413624,-65.0,-0.907571211037,50.0,8656416.84032,0.0,0.0,0.0,0.0,0.0,0.0
1402601774528065577,3,11.1584720053,-0.114322152727,-6.33859710502,0.043815185726,-0.475075430057,0.0,0.10386941772,0.0,1.30639986131,0.0,0.0,0.0,0.0,0.2674221852,-96.7921312162,88.7516752733,1.07174715201,-65.0,-0.902968319255,50.0,1.08210413624,-65.0,-0.907571211037,50.0,8656416.84032,0.0,0.0,0.0,0.0,0.0,0.0
1402601774547383208,3,11.1393763041,-0.114322152727,-6.3344727703,0.043815185726,-0.47578352844,0.0,0.103843953326,0.0,1.30812844764,0.0,0.0,0.0,0.0,0.2674221852,-96.7921312162,88.7516752733,1.07174715201,-65.0,-0.902968319255,50.0,1.08210413624,-65.0,-0.907571211037,50.0,8656416.84032,0.0,0.0,0.0,0.0,0.0,0.0
1402601774567893448,3,11.1393763041,-0.114322152727,-6.3344727703,0.043815185726,-0.47578352844,0.0,0.103843953326,0.0,1.30812844764,0.0,0.0,0.0,0.0,0.2674221852,-96.7921312162,88.7516752733,1.07021269004,-65.0,-0.902968319255,50.0,1.08210413624,-65.0,-0.907571211037,50.0,8656416.84032,0.0,0.0,0.0,0.0,0.0,0.0
1402601774587459316,3,11.1199672383,-0.114322152727,-6.33011398352,0.043815185726,-0.475712609275,0.0,0.104719937217,0.0,1.30990079621,0.0,0.0,0.0,0.0,0.2674221852,-96.7921312162,88.7516752733,1.07174715201,-65.0,-0.904502542811,50.0,1.08210413624,-65.0,-0.907571211037,50.0,8656416.84032,0.0,0.0,0.0,0.0,0.0,0.0
1402601774608027113,3,11.1199672383,-0.114322152727,-6.33011398352,0.043815185726,-0.475712609275,0.0,0.104719937217,0.0,1.30990079621,0.0,0.0,0.0,0.0,0.2674221852,-96.7921312162,88.7516752733,1.07021269004,-65.0,-0.902968319255,50.0,1.08210413624,-65.0,-0.907571211037,50.0,8656416.84032,0.0,0.0,0.0,0.0,0.0,0.0
1402601774627389124,3,11.0974854839,-0.114322152727,-6.33108356368,0.043815185726,-0.485235728602,0.0,0.0961545157281,0.0,1.31180667865,0.0,0.0,0.0,0.0,0.2674221852,-96.7921312162,88.7516752733,1.07174715201,-65.0,-0.902968319255,50.0,1.08210413624,-65.0,-0.907571211037,50.0,8656416.84032,0.0,0.0,0.0,0.0,0.0,0.0
1402601774648021195,3,11.0974854839,-0.114322152727,-6.33108356368,0.043815185726,-0.485235728602,0.0,0.0961545157281,0.0,1.31180667865,0.0,0.0,0.0,0.0,0.2674221852,-96.7921312162,88.7516752733,1.07021269004,-65.0,-0.904502542811,50.0,1.08210413624,-65.0,-0.907571211037,50.0,8656416.84032,0.0,0.0,0.0,0.0,0.0,0.0
1402601774667575870,3,11.0758454802,-0.114322152727,-6.32697048427,0.043815185726,-0.490406650114,0.0,0.0958975024536,0.0,1.3137909663,0.0,0.0,0.0,0.0,0.2674221852,-96.7921312162,88.7516752733,1.07021269004,-65.0,-0.902968319255,50.0,1.08210413624,-65.0,-0.907571211037,50.0,8656416.84032,0.0,0.0,0.0,0.0,0.0,0.0
1402601774687992645,3,11.0758454802,-0.114322152727,-6.32697048427,0.043815185726,-0.490406650114,0.0,0.0958975024536,0.0,1.3137909663,0.0,0.0,0.0,0.0,0.2674221852,-96.7921312162,88.7516752733,1.07174715201,-65.0,-0.904502542811,50.0,1.08210413624,-65.0,-0.907571211037,50.0,8656416.84032,0.0,0.0,0.0,0.0,0.0,0.0
1402601774707544336,3,11.0654174893,-0.114322152727,-6.31823304619,0.043815185726,-0.472789539505,0.0,0.106245274448,0.0,1.31571966158,0.0,0.0,0.0,0.0,0.2674221852,-96.7921312162,88.7516752733,1.07174715201,-65.0,-0.902968319255,50.0,1.08210413624,-65.0,-0.907571211037,50.0,8656416.84032,0.0,0.0,0.0,0.0,0.0,0.0
1402601774727950557,3,11.0654174893,-0.114322152727,-6.31823304619,0.043815185726,-0.472789539505,0.0,0.106245274448,0.0,1.31571966158,0.0,0.0,0.0,0.0,0.2674221852,-96.7921312162,88.7516752733,1.07021269004,-65.0,-0.904502542811,50.0,1.08210413624,-65.0,-0.907571211037,50.0,8656416.84032,0.0,0.0,0.0,0.0,0.0,0.0
1402601774747564942,3,11.0418621988,-0.114322152727,-6.3143435089,0.043815185726,-0.481277220623,0.0,0.104455434603,0.0,1.31778425127,0.0,0.0,0.0,0.0,0.2674221852,-96.7921312162,88.7516752733,1.07021269004,-65.0,-0.902968319255,50.0,1.08210413624,-65.0,-0.907571211037,50.0,8656416.84032,0.0,0.0,0.0,0.0,0.0,0.0
1402601774768201290,3,11.0418621988,-0.114322152727,-6.3143435089,0.043815185726,-0.481277220623,0.0,0.104455434603,0.0,1.31778425127,0.0,0.0,0.0,0.0,0.2674221852,-96.7921312162,88.7516752733,1.07174715201,-65.0,-0.904502542811,50.0,1.08210413624,-65.0,-0.907571211037,50.0,8656416.84032,0.0,0.0,0.0,0.0,0.0,0.0
1402601774787504089,3,11.0190183545,-0.114322152727,-6.31648018946,0.043815185726,-0.490260065989,0.0,0.0865408383388,0.0,1.31957609849,0.0,0.0,0.0,0.0,0.2674221852,-96.7921312162,88.7516752733,1.07174715201,-65.0,-0.904502542811,50.0,1.08210413624,-65.0,-0.907571211037,50.0,8656416.84032,0.0,0.0,0.0,0.0,0.0,0.0
1402601774807941782,3,11.0190183545,-0.114322152727,-6.31648018946,0.043815185726,-0.490260065989,0.0,0.0865408383388,0.0,1.31957609849,0.0,0.0,0.0,0.0,0.2674221852,-96.7921312162,88.7516752733,1.07021269004,-65.0,-0.902968319255,50.0,1.08210413624,-65.0,-0.907571211037,50.0,8656416.84032,0.0,0.0,0.0,0.0,0.0,0.0
1402601774827528393,3,10.997429374,-0.114322152727,-6.31565019185,0.043815185726,-0.498147429017,0.0,0.0789257774887,0.0,1.32138524603,0.0,0.0,0.0,0.0,0.2674221852,-96.7921312162,88.7516752733,1.07021269004,-65.0,-0.904502542811,50.0,1.08210413624,-65.0,-0.907571211037,50.0,8656416.84032,0.0,0.0,0.0,0.0,0.0,0.0
1402601774848119636,3,10.997429374,-0.114322152727,-6.31565019185,0.043815185726,-0.498147429017,0.0,0.0789257774887,0.0,1.32138524603,0.0,0.0,0.0,0.0,0.2674221852,-96.7921312162,88.7516752733,1.07174715201,-65.0,-0.902968319255,50.0,1.08210413624,-65.0,-0.907571211037,50.0,8656416.84032,0.0,0.0,0.0,0.0,0.0,0.0
1402601774867536277,3,10.9757182971,-0.114322152727,-6.30881181785,0.043815185726,-0.498160591443,0.0,0.0870400125653,0.0,1.32304572572,0.0,0.0,0.0,0.0,0.2674221852,-96.7921312162,88.7516752733,1.07174715201,-65.0,-0.904502542811,50.0,1.08210413624,-65.0,-0.907571211037,50.0,8656416.84032,0.0,0.0,0.0,0.0,0.0,0.0
1402601774888037626,3,10.9757182971,-0.114322152727,-6.30881181785,0.043815185726,-0.498160591443,0.0,0.0870400125653,0.0,1.32304572572,0.0,0.0,0.0,0.0,0.2674221852,-96.7921312162,88.7516752733,1.07174715201,-65.0,-0.904502542811,50.0,1.08210413624,-65.0,-0.907571211037,50.0,8656416.84032,0.0,0.0,0.0,0.0,0.0,0.0
1402601774907716572,3,10.9586515139,-0.114322152727,-6.3079058087,0.043815185726,-0.492668286877,0.0,0.0721965516292,0.0,1.3247609168,0.0,0.0,0.0,0.0,0.2674221852,-96.7921312162,88.7516752733,1.07021269004,-65.0,-0.902968319255,50.0,1.08210413624,-65.0,-0.907571211037,50.0,8656416.84032,0.0,0.0,0.0,0.0,0.0,0.0
1402601774927988579,3,10.9586515139,-0.114322152727,-6.3079058087,0.043815185726,-0.492668286877,0.0,0.0721965516292,0.0,1.3247609168,0.0,0.0,0.0,0.0,0.2674221852,-96.7921312162,88.7516752733,1.07174715201,-65.0,-0.904502542811,50.0,1.08210413624,-65.0,-0.907571211037,50.0,8656416.84032,0.0,0.0,0.0,0.0,0.0,0.0
1402601774947536395,3,10.9368511759,-0.114322152727,-6.29866034083,0.043815185726,-0.486192367742,0.0,0.0810146291515,0.0,1.32692832795,0.0,0.0,0.0,0.0,0.2674221852,-96.7921312162,88.7516752733,1.07174715201,-65.0,-0.902968319255,50.0,1.08210413624,-65.0,-0.907571211037,50.0,8656416.84032,0.0,0.0,0.0,0.0,0.0,0.0
1402601774968090630,3,10.9368511759,-0.114322152727,-6.29866034083,0.043815185726,-0.486192367742,0.0,0.0810146291515,0.0,1.32692832795,0.0,0.0,0.0,0.0,0.2674221852,-96.7921312162,88.7516752733,1.07174715201,-65.0,-0.902968319255,50.0,1.08210413624,-65.0,-0.907571211037,50.0,8656416.84032,0.0,0.0,0.0,0.0,0.0,0.0
1402601774987487949,3,10.9276083334,-0.114322152727,-6.29471400438,0.043815185726,-0.479484892253,0.0,0.0799843095415,0.0,1.32824619191,0.0,0.0,0.0,0.0,0.2674221852,-96.7921312162,88.7516752733,1.07174715201,-65.0,-0.902968319255,50.0,1.08210413624,-65.0,-0.907571211037,50.0,8656416.84032,0.0,0.0,0.0,0.0,0.0,0.0
1402601775007997608,3,10.917957252,-0.114322152727,-6.29296188116,0.043815185726,-0.480537934889,0.0,0.0798942988697,0.0,1.32893227496,0.0,0.0,0.0,0.0,0.2674221852,-96.7921312162,88.7516752733,1.07021269004,-65.0,-0.904502542811,50.0,1.08210413624,-65.0,-0.907571211037,50.0,8656416.84032,0.0,0.0,0.0,0.0,0.0,0.0
1402601775027699415,3,10.917957252,-0.114322152727,-6.29296188116,0.043815185726,-0.480537934889,0.0,0.0798942988697,0.0,1.32893227496,0.0,0.0,0.0,0.0,0.2674221852,-96.7921312162,88.7516752733,1.07021269004,-65.0,-0.904502542811,50.0,1.08210413624,-65.0,-0.907571211037,50.0,8656416.84032,0.0,0.0,0.0,0.0,0.0,0.0
1402601775048046318,3,10.9079830826,-0.114322152727,-6.29130912567,0.043815185726,-0.479670095783,0.0,0.078620377687,0.0,1.32971875344,0.0,0.0,0.0,0.0,0.2674221852,-96.7921312162,88.7516752733,1.07174715201,-65.0,-0.902968319255,50.0,1.08210413624,-65.0,-0.907571211037,50.0,8656416.84032,0.0,0.0,0.0,0.0,0.0,0.0
1402601775067469633,3,10.9079830826,-0.114322152727,-6.29130912567,0.043815185726,-0.479670095783,0.0,0.078620377687,0.0,1.32971875344,0.0,0.0,0.0,0.0,0.2674221852,-96.7921312162,88.7516752733,1.07021269004,-65.0,-0.904502542811,50.0,1.08210413624,-65.0,-0.907571211037,50.0,8656416.84032,0.0,0.0,0.0,0.0,0.0,0.0
1402601775088117472,3,10.8948709284,-0.114322152727,-6.28366620556,0.043815185726,-0.475881564954,0.0,0.0791529301452,0.0,1.33125011337,0.0,0.0,0.0,0.0,0.2674221852,-96.7921312162,88.7516752733,1.07174715201,-65.0,-0.904502542811,50.0,1.08210413624,-65.0,-0.907571211037,50.0,8656416.84032,0.0,0.0,0.0,0.0,0.0,0.0
1402601775107510717,3,10.8948709284,-0.114322152727,-6.28366620556,0.043815185726,-0.475881564954,0.0,0.0791529301452,0.0,1.33125011337,0.0,0.0,0.0,0.0,0.2674221852,-96.7921312162,88.7516752733,1.07021269004,-65.0,-0.902968319255,50.0,1.08210413624,-65.0,-0.907571211037,50.0,8656416.84032,0.0,0.0,0.0,0.0,0.0,0.0
1402601775127924546,3,10.8748171882,-0.114322152727,-6.28105891293,0.043815185726,-0.483921960196,0.0,0.0746576099221,0.0,1.33280279952,0.0,0.0,0.0,0.0,0.2674221852,-96.7921312162,88.7516752733,1.07174715201,-65.0,-0.904502542811,50.0,1.08210413624,-65.0,-0.907571211037,50.0,8656416.84032,0.0,0.0,0.0,0.0,0.0,0.0
1402601775147549094,3,10.8748171882,-0.114322152727,-6.28105891293,0.043815185726,-0.483921960196,0.0,0.0746576099221,0.0,1.33280279952,0.0,0.0,0.0,0.0,0.2674221852,-96.7921312162,88.7516752733,1.07021269004,-65.0,-0.902968319255,50.0,1.08210413624,-65.0,-0.907571211037,50.0,8656416.84032,0.0,0.0,0.0,0.0,0.0,0.0
1402601775168113956,3,10.8570949367,-0.114322152727,-6.27549480977,0.043815185726,-0.490402988793,0.0,0.0759017965576,0.0,1.33457245239,0.0,0.0,0.0,0.0,0.2674221852,-96.7921312162,88.7516752733,1.07021269004,-65.0,-0.902968319255,50.0,1.08210413624,-65.0,-0.907571211037,50.0,8656416.84032,0.0,0.0,0.0,0.0,0.0,0.0
1402601775187554122,3,10.8570949367,-0.114322152727,-6.27549480977,0.043815185726,-0.490402988793,0.0,0.0759017965576,0.0,1.33457245239,0.0,0.0,0.0,0.0,0.2674221852,-96.7921312162,88.7516752733,1.07021269004,-65.0,-0.902968319255,50.0,1.08210413624,-65.0,-0.907571211037,50.0,8656416.84032,0.0,0.0,0.0,0.0,0.0,0.0
1402601775208085504,3,10.8389500799,-0.114322152727,-6.27113387019,0.043815185726,-0.498441310706,0.0,0.0749562230234,0.0,1.33635571604,0.0,0.0,0.0,0.0,0.2674221852,-96.7921312162,88.7516752733,1.07021269004,-65.0,-0.902968319255,50.0,1.08210413624,-65.0,-0.907571211037,50.0,8656416.84032,0.0,0.0,0.0,0.0,0.0,0.0
1402601775227537156,3,10.8389500799,-0.114322152727,-6.27113387019,0.043815185726,-0.498441310706,0.0,0.0749562230234,0.0,1.33635571604,0.0,0.0,0.0,0.0,0.2674221852,-96.7921312162,88.7516752733,1.07174715201,-65.0,-0.904502542811,50.0,1.08210413624,-65.0,-0.907571211037,50.0,8656416.84032,0.0,0.0,0.0,0.0,0.0,0.0
1402601775248140883,3,10.8174615216,-0.114322152727,-6.27022832654,0.043815185726,-0.498451408309,0.0,0.0641812249785,0.0,1.33878557901,0.0,0.0,0.0,0.0,0.2674221852,-96.7921312162,88.7516752733,1.07174715201,-65.0,-0.902968319255,50.0,1.08210413624,-65.0,-0.907571211037,50.0,8656416.84032,0.0,0.0,0.0,0.0,0.0,0.0
1402601775267524543,3,10.8174615216,-0.114322152727,-6.27022832654,0.043815185726,-0.498451408309,0.0,0.0641812249785,0.0,1.33878557901,0.0,0.0,0.0,0.0,0.2674221852,-96.7921312162,88.7516752733,1.07021269004,-65.0,-0.902968319255,50.0,1.08210413624,-65.0,-0.907571211037,50.0,8656416.84032,0.0,0.0,0.0,0.0,0.0,0.0
1402601775287929386,3,10.7958602862,-0.114322152727,-6.26896554323,0.043815185726,-0.501304579488,0.0,0.0580106045978,0.0,1.34109966415,0.0,0.0,0.0,0.0,0.2674221852,-96.7921312162,88.7516752733,1.07021269004,-65.0,-0.904502542811,50.0,1.08210413624,-65.0,-0.907571211037,50.0,8656416.84032,0.0,0.0,0.0,0.0,0.0,0.0
1402601775307539958,3,10.7958602862,-0.114322152727,-6.26896554323,0.043815185726,-0.501304579488,0.0,0.0580106045978,0.0,1.34109966415,0.0,0.0,0.0,0.0,0.2674221852,-96.7921312162,88.7516752733,1.07021269004,-65.0,-0.902968319255,50.0,1.08210413624,-65.0,-0.907571211037,50.0,8656416.84032,0.0,0.0,0.0,0.0,0.0,0.0
1402601775328071516,3,10.7859034617,-0.114322152727,-6.26768394571,0.043815185726,-0.499472154997,0.0,0.0555589484906,0.0,1.34199198053,0.0,0.0,0.0,0.0,0.2674221852,-96.7921312162,88.7516752733,1.07021269004,-65.0,-0.904502542811,50.0,1.08210413624,-65.0,-0.907571211037,50.0,8656416.84032,0.0,0.0,0.0,0.0,0.0,0.0
1402601775347525272,3,10.7859034617,-0.114322152727,-6.26768394571,0.043815185726,-0.499472154997,0.0,0.0555589484906,0.0,1.34199198053,0.0,0.0,0.0,0.0,0.2674221852,-96.7921312162,88.7516752733,1.07174715201,-65.0,-0.902968319255,50.0,1.08210413624,-65.0,-0.907571211037,50.0,8656416.84032,0.0,0.0,0.0,0.0,0.0,0.0
1402601775368115844,3,10.7725316923,-0.114322152727,-6.26247098677,0.043815185726,-0.489751524004,0.0,0.0635990747539,0.0,1.34395940104,0.0,0.0,0.0,0.0,0.2674221852,-96.7921312162,88.7516752733,1.07174715201,-65.0,-0.904502542811,50.0,1.08210413624,-65.0,-0.907571211037,50.0,8656416.84032,0.0,0.0,0.0,0.0,0.0,0.0
1402601775387460730,3,10.7725316923,-0.114322152727,-6.26247098677,0.043815185726,-0.489751524004,0.0,0.0635990747539,0.0,1.34395940104,0.0,0.0,0.0,0.0,0.2674221852,-96.7921312162,88.7516752733,1.07174715201,-65.0,-0.902968319255,50.0,1.08210413624,-65.0,-0.907571211037,50.0,8656416.84032,0.0,0.0,0.0,0.0,0.0,0.0
1402601775408140010,3,10.759582472,-0.114322152727,-6.25990845977,0.043815185726,-0.480408059054,0.0,0.0608614819046,0.0,1.34630671775,0.0,0.0,0.0,0.0,0.2674221852,-96.7921312162,88.7516752733,1.07174715201,-65.0,-0.902968319255,50.0,1.08210413624,-65.0,-0.907571211037,50.0,8656416.84032,0.0,0.0,0.0,0.0,0.0,0.0
1402601775427512886,3,10.759582472,-0.114322152727,-6.25990845977,0.043815185726,-0.480408059054,0.0,0.0608614819046,0.0,1.34630671775,0.0,0.0,0.0,0.0,0.2674221852,-96.7921312162,88.7516752733,1.07174715201,-65.0,-0.902968319255,50.0,1.08210413624,-65.0,-0.907571211037,50.0,8656416.84032,0.0,0.0,0.0,0.0,0.0,0.0
1402601775448124187,3,10.7434278229,-0.114322152727,-6.25449431315,0.043815185726,-0.478843922914,0.0,0.0648486098151,0.0,1.34849939687,0.0,0.0,0.0,0.0,0.2674221852,-96.7921312162,88.7516752733,1.07174715201,-65.0,-0.902968319255,50.0,1.08210413624,-65.0,-0.907571211037,50.0,8656416.84032,0.0,0.0,0.0,0.0,0.0,0.0
1402601775467530228,3,10.7434278229,-0.114322152727,-6.25449431315,0.043815185726,-0.478843922914,0.0,0.0648486098151,0.0,1.34849939687,0.0,0.0,0.0,0.0,0.2674221852,-96.7921312162,88.7516752733,1.07174715201,-65.0,-0.904502542811,50.0,1.08210413624,-65.0,-0.907571211037,50.0,8656416.84032,0.0,0.0,0.0,0.0,0.0,0.0
1402601775488088520,3,10.7237626922,-0.114322152727,-6.25194176606,0.043815185726,-0.47602912191,0.0,0.063513150025,0.0,1.35082644189,0.0,0.0,0.0,0.0,0.2674221852,-96.7921312162,88.7516752733,1.07021269004,-65.0,-0.904502542811,50.0,1.08210413624,-65.0,-0.907571211037,50.0,8656416.84032,0.0,0.0,0.0,0.0,0.0,0.0
1402601775507344960,3,10.7237626922,-0.114322152727,-6.25194176606,0.043815185726,-0.47602912191,0.0,0.063513150025,0.0,1.35082644189,0.0,0.0,0.0,0.0,0.2674221852,-96.7921312162,88.7516752733,1.07174715201,-65.0,-0.904502542811,50.0,1.08210413624,-65.0,-0.907571211037,50.0,8656416.84032,0.0,0.0,0.0,0.0,0.0,0.0
1402601775528139645,3,10.7050221526,-0.114322152727,-6.24881556155,0.043815185726,-0.477061655712,0.0,0.0689966116692,0.0,1.35313035165,0.0,0.0,0.0,0.0,0.2674221852,-96.7921312162,88.7516752733,1.07174715201,-65.0,-0.904502542811,50.0,1.08210413624,-65.0,-0.907571211037,50.0,8656416.84032,0.0,0.0,0.0,0.0,0.0,0.0
1402601775547397223,3,10.7050221526,-0.114322152727,-6.24881556155,0.043815185726,-0.477061655712,0.0,0.0689966116692,0.0,1.35313035165,0.0,0.0,0.0,0.0,0.2674221852,-96.7921312162,88.7516752733,1.07174715201,-65.0,-0.904502542811,50.0,1.08210413624,-65.0,-0.907571211037,50.0,8656416.84032,0.0,0.0,0.0,0.0,0.0,0.0
1402601775568230125,3,10.6854926234,-0.114322152727,-6.24593166527,0.043815185726,-0.475626110144,0.0,0.0713167293608,0.0,1.35535306421,0.0,0.0,0.0,0.0,0.2674221852,-96.7921312162,88.7516752733,1.07174715201,-65.0,-0.902968319255,50.0,1.08210413624,-65.0,-0.907571211037,50.0,8656416.84032,0.0,0.0,0.0,0.0,0.0,0.0
1402601775587602553,3,10.6854926234,-0.114322152727,-6.24593166527,0.043815185726,-0.475626110144,0.0,0.0713167293608,0.0,1.35535306421,0.0,0.0,0.0,0.0,0.2674221852,-96.7921312162,88.7516752733,1.07174715201,-65.0,-0.902968319255,50.0,1.08210413624,-65.0,-0.907571211037,50.0,8656416.84032,0.0,0.0,0.0,0.0,0.0,0.0
1402601775608065161,3,10.6653667365,-0.114322152727,-6.24060442901,0.043815185726,-0.480605042421,0.0,0.0732411015621,0.0,1.35751913283,0.0,0.0,0.0,0.0,0.2674221852,-96.7921312162,88.7516752733,1.07021269004,-65.0,-0.904502542811,50.0,1.08210413624,-65.0,-0.907571211037,50.0,8656416.84032,0.0,0.0,0.0,0.0,0.0,0.0
1402601775627630090,3,10.6653667365,-0.114322152727,-6.24060442901,0.043815185726,-0.480605042421,0.0,0.0732411015621,0.0,1.35751913283,0.0,0.0,0.0,0.0,0.2674221852,-96.7921312162,88.7516752733,1.07174715201,-65.0,-0.904502542811,50.0,1.08210413624,-65.0,-0.907571211037,50.0,8656416.84032,0.0,0.0,0.0,0.0,0.0,0.0
1402601775648065365,3,10.640504265,-0.114322152727,-6.24075890741,0.043815185726,-0.485815005838,0.0,0.0622046248995,0.0,1.35994080254,0.0,0.0,0.0,0.0,0.2674221852,-96.7921312162,88.7516752733,1.07021269004,-65.0,-0.902968319255,50.0,1.08210413624,-65.0,-0.907571211037,50.0,8656416.84032,0.0,0.0,0.0,0.0,0.0,0.0
1402601775667493002,3,10.640504265,-0.114322152727,-6.24075890741,0.043815185726,-0.485815005838,0.0,0.0622046248995,0.0,1.35994080254,0.0,0.0,0.0,0.0,0.2674221852,-96.7921312162,88.7516752733,1.07021269004,-65.0,-0.904502542811,50.0,1.08210413624,-65.0,-0.907571211037,50.0,8656416.84032,0.0,0.0,0.0,0.0,0.0,0.0
1402601775688834998,3,10.612807903,-0.114322152727,-6.23280392106,0.043815185726,-0.476794913192,0.0,0.0617990193268,0.0,1.3634657009,0.0,0.0,0.0,0.0,0.2674221852,-96.7921312162,88.7516752733,1.07174715201,-65.0,-0.902968319255,50.0,1.08210413624,-65.0,-0.907571211037,50.0,8656416.84032,0.0,0.0,0.0,0.0,0.0,0.0
1402601775708053254,3,10.612807903,-0.114322152727,-6.23280392106,0.043815185726,-0.476794913192,0.0,0.0617990193268,0.0,1.3634657009,0.0,0.0,0.0,0.0,0.2674221852,-96.7921312162,88.7516752733,1.07021269004,-65.0,-0.902968319255,50.0,1.08210413624,-65.0,-0.907571211037,50.0,8656416.84032,0.0,0.0,0.0,0.0,0.0,0.0
1402601775728076382,3,10.6034633018,-0.114322152727,-6.23158240707,0.043815185726,-0.477593188315,0.0,0.0603955878253,0.0,1.36435717974,0.0,0.0,0.0,0.0,0.2674221852,-96.7921312162,88.7516752733,1.07174715201,-65.0,-0.904502542811,50.0,1.08210413624,-65.0,-0.907571211037,50.0,8656416.84032,0.0,0.0,0.0,0.0,0.0,0.0
1402601775747514232,3,10.6034633018,-0.114322152727,-6.23158240707,0.043815185726,-0.477593188315,0.0,0.0603955878253,0.0,1.36435717974,0.0,0.0,0.0,0.0,0.2674221852,-96.7921312162,88.7516752733,1.07174715201,-65.0,-0.902968319255,50.0,1.08210413624,-65.0,-0.907571211037,50.0,8656416.84032,0.0,0.0,0.0,0.0,0.0,0.0
1402601775768118148,3,10.5992684081,-0.114322152727,-6.22888854186,0.043815185726,-0.469623436175,0.0,0.0585651165022,0.0,1.36520641551,0.0,0.0,0.0,0.0,0.2674221852,-96.7921312162,88.7516752733,1.07174715201,-65.0,-0.904502542811,50.0,1.08210413624,-65.0,-0.907571211037,50.0,8656416.84032,0.0,0.0,0.0,0.0,0.0,0.0
1402601775787520875,3,10.5992684081,-0.114322152727,-6.22888854186,0.043815185726,-0.469623436175,0.0,0.0585651165022,0.0,1.36520641551,0.0,0.0,0.0,0.0,0.2674221852,-96.7921312162,88.7516752733,1.07174715201,-65.0,-0.902968319255,50.0,1.08210413624,-65.0,-0.907571211037,50.0,8656416.84032,0.0,0.0,0.0,0.0,0.0,0.0
1402601775808119538,3,10.5785856638,-0.114322152727,-6.2218852599,0.043815185726,-0.475883091785,0.0,0.0670451310693,0.0,1.36670602108,0.0,0.0,0.0,0.0,0.2674221852,-96.7921312162,88.7516752733,1.07021269004,-65.0,-0.904502542811,50.0,1.08210413624,-65.0,-0.907571211037,50.0,8656416.84032,0.0,0.0,0.0,0.0,0.0,0.0
1402601775827472834,3,10.5785856638,-0.114322152727,-6.2218852599,0.043815185726,-0.475883091785,0.0,0.0670451310693,0.0,1.36670602108,0.0,0.0,0.0,0.0,0.2674221852,-96.7921312162,88.7516752733,1.07021269004,-65.0,-0.904502542811,50.0,1.08210413624,-65.0,-0.907571211037,50.0,8656416.84032,0.0,0.0,0.0,0.0,0.0,0.0
1402601775848276079,3,10.5599139561,-0.114322152727,-6.2189423511,0.043815185726,-0.481198440831,0.0,0.0617792458219,0.0,1.36821020515,0.0,0.0,0.0,0.0,0.2674221852,-96.7921312162,88.7516752733,1.07021269004,-65.0,-0.902968319255,50.0,1.08210413624,-65.0,-0.907571211037,50.0,8656416.84032,0.0,0.0,0.0,0.0,0.0,0.0
1402601775867739244,3,10.5599139561,-0.114322152727,-6.2189423511,0.043815185726,-0.481198440831,0.0,0.0617792458219,0.0,1.36821020515,0.0,0.0,0.0,0.0,0.2674221852,-96.7921312162,88.7516752733,1.07174715201,-65.0,-0.904502542811,50.0,1.08210413624,-65.0,-0.907571211037,50.0,8656416.84032,0.0,0.0,0.0,0.0,0.0,0.0
1402601775888855112,3,10.5397530872,-0.114322152727,-6.21499679182,0.043815185726,-0.4776140454,0.0,0.0634112353578,0.0,1.36998219139,0.0,0.0,0.0,0.0,0.2674221852,-96.7921312162,88.7516752733,1.07174715201,-65.0,-0.902968319255,50.0,1.08210413624,-65.0,-0.907571211037,50.0,8656416.84032,0.0,0.0,0.0,0.0,0.0,0.0
1402601775907592174,3,10.5397530872,-0.114322152727,-6.21499679182,0.043815185726,-0.4776140454,0.0,0.0634112353578,0.0,1.36998219139,0.0,0.0,0.0,0.0,0.2674221852,-96.7921312162,88.7516752733,1.07174715201,-65.0,-0.902968319255,50.0,1.08210413624,-65.0,-0.907571211037,50.0,8656416.84032,0.0,0.0,0.0,0.0,0.0,0.0
1402601775928108043,3,10.5253439278,-0.114322152727,-6.21314465738,0.043815185726,-0.476543610889,0.0,0.064375096893,0.0,1.37093435239,0.0,0.0,0.0,0.0,0.2674221852,-96.7921312162,88.7516752733,1.07174715201,-65.0,-0.904502542811,50.0,1.08210413624,-65.0,-0.907571211037,50.0,8656416.84032,0.0,0.0,0.0,0.0,0.0,0.0
1402601775947549194,3,10.5209972549,-0.114322152727,-6.21056279997,0.043815185726,-0.471755290762,0.0,0.0632273808582,0.0,1.37160010818,0.0,0.0,0.0,0.0,0.2674221852,-96.7921312162,88.7516752733,1.07174715201,-65.0,-0.902968319255,50.0,1.08210413624,-65.0,-0.907571211037,50.0,8656416.84032,0.0,0.0,0.0,0.0,0.0,0.0
1402601775968064842,3,10.5209972549,-0.114322152727,-6.21056279997,0.043815185726,-0.471755290762,0.0,0.0632273808582,0.0,1.37160010818,0.0,0.0,0.0,0.0,0.2674221852,-96.7921312162,88.7516752733,1.07174715201,-65.0,-0.904502542811,50.0,1.08210413624,-65.0,-0.907571211037,50.0,8656416.84032,0.0,0.0,0.0,0.0,0.0,0.0
1402601775987519930,3,10.5114219106,-0.114322152727,-6.20949597544,0.043815185726,-0.471404739506,0.0,0.0657940190905,0.0,1.37231622006,0.0,0.0,0.0,0.0,0.2674221852,-96.7921312162,88.7516752733,1.07021269004,-65.0,-0.904502542811,50.0,1.08210413624,-65.0,-0.907571211037,50.0,8656416.84032,0.0,0.0,0.0,0.0,0.0,0.0
1402601776007994307,3,10.5114219106,-0.114322152727,-6.20949597544,0.043815185726,-0.471404739506,0.0,0.0657940190905,0.0,1.37231622006,0.0,0.0,0.0,0.0,0.2674221852,-96.7921312162,88.7516752733,1.07174715201,-65.0,-0.904502542811,50.0,1.08210413624,-65.0,-0.907571211037,50.0,8656416.84032,0.0,0.0,0.0,0.0,0.0,0.0
1402601776027564350,3,10.4954308931,-0.114322152727,-6.20348858976,0.043815185726,-0.470717780588,0.0,0.0692298123086,0.0,1.37371688557,0.0,0.0,0.0,0.0,0.2674221852,-96.7921312162,88.7516752733,1.07174715201,-65.0,-0.904502542811,50.0,1.08210413624,-65.0,-0.907571211037,50.0,8656416.84032,0.0,0.0,0.0,0.0,0.0,0.0
1402601776048101784,3,10.4954308931,-0.114322152727,-6.20348858976,0.043815185726,-0.470717780588,0.0,0.0692298123086,0.0,1.37371688557,0.0,0.0,0.0,0.0,0.2674221852,-96.7921312162,88.7516752733,1.07174715201,-65.0,-0.904502542811,50.0,1.08210413624,-65.0,-0.907571211037,50.0,8656416.84032,0.0,0.0,0.0,0.0,0.0,0.0
1402601776067586509,3,10.478388002,-0.114322152727,-6.20280353428,0.043815185726,-0.471575246404,0.0,0.06264597644,0.0,1.37529470935,0.0,0.0,0.0,0.0,0.2674221852,-96.7921312162,88.7516752733,1.07174715201,-65.0,-0.904502542811,50.0,1.08210413624,-65.0,-0.907571211037,50.0,8656416.84032,0.0,0.0,0.0,0.0,0.0,0.0
1402601776087994080,3,10.478388002,-0.114322152727,-6.20280353428,0.043815185726,-0.471575246404,0.0,0.06264597644,0.0,1.37529470935,0.0,0.0,0.0,0.0,0.2674221852,-96.7921312162,88.7516752733,1.07021269004,-65.0,-0.904502542811,50.0,1.08210413624,-65.0,-0.907571211037,50.0,8656416.84032,0.0,0.0,0.0,0.0,0.0,0.0
1402601776107507167,3,10.4558447976,-0.114322152727,-6.20090027281,0.043815185726,-0.477913385741,0.0,0.0640498018133,0.0,1.37669385237,0.0,0.0,0.0,0.0,0.2674221852,-96.7921312162,88.7516752733,1.07021269004,-65.0,-0.904502542811,50.0,1.08210413624,-65.0,-0.907571211037,50.0,8656416.84032,0.0,0.0,0.0,0.0,0.0,0.0
1402601776128132170,3,10.4558447976,-0.114322152727,-6.20090027281,0.043815185726,-0.477913385741,0.0,0.0640498018133,0.0,1.37669385237,0.0,0.0,0.0,0.0,0.2674221852,-96.7921312162,88.7516752733,1.07174715201,-65.0,-0.902968319255,50.0,1.08210413624,-65.0,-0.907571211037,50.0,8656416.84032,0.0,0.0,0.0,0.0,0.0,0.0
1402601776147597492,3,10.4382245396,-0.114322152727,-6.19604172526,0.043815185726,-0.473434926133,0.0,0.0686693087643,0.0,1.37819138152,0.0,0.0,0.0,0.0,0.2674221852,-96.7921312162,88.7516752733,1.07174715201,-65.0,-0.902968319255,50.0,1.08210413624,-65.0,-0.907571211037,50.0,8656416.84032,0.0,0.0,0.0,0.0,0.0,0.0
1402601776168146351,3,10.4382245396,-0.114322152727,-6.19604172526,0.043815185726,-0.473434926133,0.0,0.0686693087643,0.0,1.37819138152,0.0,0.0,0.0,0.0,0.2674221852,-96.7921312162,88.7516752733,1.07021269004,-65.0,-0.902968319255,50.0,1.08210413624,-65.0,-0.907571211037,50.0,8656416.84032,0.0,0.0,0.0,0.0,0.0,0.0
1402601776187578773,3,10.4187745078,-0.114322152727,-6.19329992805,0.043815185726,-0.473758359821,0.0,0.0700743936043,0.0,1.3797664151,0.0,0.0,0.0,0.0,0.2674221852,-96.7921312162,88.7516752733,1.07021269004,-65.0,-0.902968319255,50.0,1.08210413624,-65.0,-0.907571211037,50.0,8656416.84032,0.0,0.0,0.0,0.0,0.0,0.0
1402601776208128942,3,10.4187745078,-0.114322152727,-6.19329992805,0.043815185726,-0.473758359821,0.0,0.0700743936043,0.0,1.3797664151,0.0,0.0,0.0,0.0,0.2674221852,-96.7921312162,88.7516752733,1.07174715201,-65.0,-0.904502542811,50.0,1.08210413624,-65.0,-0.907571211037,50.0,8656416.84032,0.0,0.0,0.0,0.0,0.0,0.0
1402601776227792469,3,10.3960670119,-0.114322152727,-6.19034581052,0.043815185726,-0.481598667604,0.0,0.0655902235209,0.0,1.38142490011,0.0,0.0,0.0,0.0,0.2674221852,-96.7921312162,88.7516752733,1.07021269004,-65.0,-0.902968319255,50.0,1.08210413624,-65.0,-0.907571211037,50.0,8656416.84032,0.0,0.0,0.0,0.0,0.0,0.0
1402601776248026313,3,10.3960670119,-0.114322152727,-6.19034581052,0.043815185726,-0.481598667604,0.0,0.0655902235209,0.0,1.38142490011,0.0,0.0,0.0,0.0,0.2674221852,-96.7921312162,88.7516752733,1.07021269004,-65.0,-0.902968319255,50.0,1.08210413624,-65.0,-0.907571211037,50.0,8656416.84032,0.0,0.0,0.0,0.0,0.0,0.0
1402601776267493086,3,10.3726175911,-0.114322152727,-6.18830076103,0.043815185726,-0.485104564745,0.0,0.067775340998,0.0,1.38303879047,0.0,0.0,0.0,0.0,0.2674221852,-96.7921312162,88.7516752733,1.07021269004,-65.0,-0.904502542811,50.0,1.08210413624,-65.0,-0.907571211037,50.0,8656416.84032,0.0,0.0,0.0,0.0,0.0,0.0
1402601776287988971,3,10.3726175911,-0.114322152727,-6.18830076103,0.043815185726,-0.485104564745,0.0,0.067775340998,0.0,1.38303879047,0.0,0.0,0.0,0.0,0.2674221852,-96.7921312162,88.7516752733,1.07174715201,-65.0,-0.904502542811,50.0,1.08210413624,-65.0,-0.907571211037,50.0,8656416.84032,0.0,0.0,0.0,0.0,0.0,0.0
1402601776307533100,3,10.3510793284,-0.114322152727,-6.18100299114,0.043815185726,-0.494832195008,0.0,0.0763881763172,0.0,1.38471009811,0.0,0.0,0.0,0.0,0.2674221852,-96.7921312162,88.7516752733,1.07174715201,-65.0,-0.904502542811,50.0,1.08210413624,-65.0,-0.907571211037,50.0,8656416.84032,0.0,0.0,0.0,0.0,0.0,0.0
1402601776327970324,3,10.3510793284,-0.114322152727,-6.18100299114,0.043815185726,-0.494832195008,0.0,0.0763881763172,0.0,1.38471009811,0.0,0.0,0.0,0.0,0.2674221852,-96.7921312162,88.7516752733,1.07021269004,-65.0,-0.902968319255,50.0,1.08210413624,-65.0,-0.907571211037,50.0,8656416.84032,0.0,0.0,0.0,0.0,0.0,0.0
1402601776347489042,3,10.3298116905,-0.114322152727,-6.17959592208,0.043815185726,-0.497766101749,0.0,0.0649747699434,0.0,1.38651641869,0.0,0.0,0.0,0.0,0.2674221852,-96.7921312162,88.7516752733,1.07174715201,-65.0,-0.904502542811,50.0,1.08210413624,-65.0,-0.907571211037,50.0,8656416.84032,0.0,0.0,0.0,0.0,0.0,0.0
1402601776368045038,3,10.3298116905,-0.114322152727,-6.17959592208,0.043815185726,-0.497766101749,0.0,0.0649747699434,0.0,1.38651641869,0.0,0.0,0.0,0.0,0.2674221852,-96.7921312162,88.7516752733,1.07174715201,-65.0,-0.904502542811,50.0,1.08210413624,-65.0,-0.907571211037,50.0,8656416.84032,0.0,0.0,0.0,0.0,0.0,0.0
1402601776387579992,3,10.3098170065,-0.114322152727,-6.17717107209,0.043815185726,-0.50095777876,0.0,0.0631522189986,0.0,1.38824073697,0.0,0.0,0.0,0.0,0.2674221852,-96.7921312162,88.7516752733,1.07174715201,-65.0,-0.904502542811,50.0,1.08210413624,-65.0,-0.907571211037,50.0,8656416.84032,0.0,0.0,0.0,0.0,0.0,0.0
1402601776408071850,3,10.3098170065,-0.114322152727,-6.17717107209,0.043815185726,-0.50095777876,0.0,0.0631522189986,0.0,1.38824073697,0.0,0.0,0.0,0.0,0.2674221852,-96.7921312162,88.7516752733,1.07174715201,-65.0,-0.904502542811,50.0,1.08210413624,-65.0,-0.907571211037,50.0,8656416.84032,0.0,0.0,0.0,0.0,0.0,0.0
1402601776427518143,3,10.291099493,-0.114322152727,-6.1726354458,0.043815185726,-0.48978369019,0.0,0.0620977630321,0.0,1.39055989427,0.0,0.0,0.0,0.0,0.2674221852,-96.7921312162,88.7516752733,1.07021269004,-65.0,-0.904502542811,50.0,1.08210413624,-65.0,-0.907571211037,50.0,8656416.84032,0.0,0.0,0.0,0.0,0.0,0.0
1402601776447981730,3,10.291099493,-0.114322152727,-6.1726354458,0.043815185726,-0.48978369019,0.0,0.0620977630321,0.0,1.39055989427,0.0,0.0,0.0,0.0,0.2674221852,-96.7921312162,88.7516752733,1.07021269004,-65.0,-0.902968319255,50.0,1.08210413624,-65.0,-0.907571211037,50.0,8656416.84032,0.0,0.0,0.0,0.0,0.0,0.0
1402601776467642207,3,10.2629946347,-0.114322152727,-6.16669054601,0.043815185726,-0.493722418409,0.0,0.0603209136912,0.0,1.3932720885,0.0,0.0,0.0,0.0,0.2674221852,-96.7921312162,88.7516752733,1.07174715201,-65.0,-0.904502542811,50.0,1.08210413624,-65.0,-0.907571211037,50.0,8656416.84032,0.0,0.0,0.0,0.0,0.0,0.0
1402601776487975391,3,10.2629946347,-0.114322152727,-6.16669054601,0.043815185726,-0.493722418409,0.0,0.0603209136912,0.0,1.3932720885,0.0,0.0,0.0,0.0,0.2674221852,-96.7921312162,88.7516752733,1.07174715201,-65.0,-0.902968319255,50.0,1.08210413624,-65.0,-0.907571211037,50.0,8656416.84032,0.0,0.0,0.0,0.0,0.0,0.0
1402601776507526816,3,10.2531647852,-0.114322152727,-6.16538709867,0.043815185726,-0.496979621435,0.0,0.0615629280003,0.0,1.39407166027,0.0,0.0,0.0,0.0,0.2674221852,-96.7921312162,88.7516752733,1.07021269004,-65.0,-0.902968319255,50.0,1.08210413624,-65.0,-0.907571211037,50.0,8656416.84032,0.0,0.0,0.0,0.0,0.0,0.0
1402601776528175347,3,10.2531647852,-0.114322152727,-6.16538709867,0.043815185726,-0.496979621435,0.0,0.0615629280003,0.0,1.39407166027,0.0,0.0,0.0,0.0,0.2674221852,-96.7921312162,88.7516752733,1.07021269004,-65.0,-0.904502542811,50.0,1.08210413624,-65.0,-0.907571211037,50.0,8656416.84032,0.0,0.0,0.0,0.0,0.0,0.0
1402601776547603502,3,10.2271911716,-0.114322152727,-6.16243547779,0.043815185726,-0.492908150676,0.0,0.0559891465937,0.0,1.39666867286,0.0,0.0,0.0,0.0,0.2674221852,-96.7921312162,88.7516752733,1.07174715201,-65.0,-0.902968319255,50.0,1.08210413624,-65.0,-0.907571211037,50.0,8656416.84032,0.0,0.0,0.0,0.0,0.0,0.0
1402601776568112592,3,10.2271911716,-0.114322152727,-6.16243547779,0.043815185726,-0.492908150676,0.0,0.0559891465937,0.0,1.39666867286,0.0,0.0,0.0,0.0,0.2674221852,-96.7921312162,88.7516752733,1.07021269004,-65.0,-0.902968319255,50.0,1.08210413624,-65.0,-0.907571211037,50.0,8656416.84032,0.0,0.0,0.0,0.0,0.0,0.0
1402601776587569199,3,10.2152823505,-0.114322152727,-6.16314891815,0.043815185726,-0.490243160199,0.0,0.0516158112303,0.0,1.39827367385,0.0,0.0,0.0,0.0,0.2674221852,-96.7921312162,88.7516752733,1.07021269004,-65.0,-0.902968319255,50.0,1.08210413624,-65.0,-0.907571211037,50.0,8656416.84032,0.0,0.0,0.0,0.0,0.0,0.0
1402601776608125399,3,10.1950203891,-0.114322152727,-6.16101682719,0.043815185726,-0.487425058558,0.0,0.0518369862041,0.0,1.40028258388,0.0,0.0,0.0,0.0,0.2674221852,-96.7921312162,88.7516752733,1.07174715201,-65.0,-0.902968319255,50.0,1.08210413624,-65.0,-0.907571211037,50.0,8656416.84032,0.0,0.0,0.0,0.0,0.0,0.0
1402601776627532366,3,10.1950203891,-0.114322152727,-6.16101682719,0.043815185726,-0.487425058558,0.0,0.0518369862041,0.0,1.40028258388,0.0,0.0,0.0,0.0,0.2674221852,-96.7921312162,88.7516752733,1.07021269004,-65.0,-0.902968319255,50.0,1.08210413624,-65.0,-0.907571211037,50.0,8656416.84032,0.0,0.0,0.0,0.0,0.0,0.0
1402601776648110075,3,10.1702233906,-0.114322152727,-6.159310682,0.043815185726,-0.501617186576,0.0,0.0542933467444,0.0,1.402409399,0.0,0.0,0.0,0.0,0.2674221852,-96.7921312162,88.7516752733,1.07021269004,-65.0,-0.902968319255,50.0,1.08210413624,-65.0,-0.907571211037,50.0,8656416.84032,0.0,0.0,0.0,0.0,0.0,0.0
1402601776667497685,3,10.1702233906,-0.114322152727,-6.159310682,0.043815185726,-0.501617186576,0.0,0.0542933467444,0.0,1.402409399,0.0,0.0,0.0,0.0,0.2674221852,-96.7921312162,88.7516752733,1.07174715201,-65.0,-0.904502542811,50.0,1.08210413624,-65.0,-0.907571211037,50.0,8656416.84032,0.0,0.0,0.0,0.0,0.0,0.0
1402601776688121065,3,10.1546103031,-0.114322152727,-6.15982319102,0.043815185726,-0.48707804996,0.0,0.0432088107815,0.0,1.40489130425,0.0,0.0,0.0,0.0,0.2674221852,-96.7921312162,88.7516752733,1.07174715201,-65.0,-0.902968319255,50.0,1.08210413624,-65.0,-0.907571211037,50.0,8656416.84032,0.0,0.0,0.0,0.0,0.0,0.0
1402601776707379289,3,10.1546103031,-0.114322152727,-6.15982319102,0.043815185726,-0.48707804996,0.0,0.0432088107815,0.0,1.40489130425,0.0,0.0,0.0,0.0,0.2674221852,-96.7921312162,88.7516752733,1.07174715201,-65.0,-0.904502542811,50.0,1.08210413624,-65.0,-0.907571211037,50.0,8656416.84032,0.0,0.0,0.0,0.0,0.0,0.0
1402601776728118847,3,10.1474259717,-0.114322152727,-6.15633451787,0.043815185726,-0.481632867945,0.0,0.0480542811856,0.0,1.40613257964,0.0,0.0,0.0,0.0,0.2674221852,-96.7921312162,88.7516752733,1.07021269004,-65.0,-0.902968319255,50.0,1.08210413624,-65.0,-0.907571211037,50.0,8656416.84032,0.0,0.0,0.0,0.0,0.0,0.0
1402601776747631224,3,10.1474259717,-0.114322152727,-6.15633451787,0.043815185726,-0.481632867945,0.0,0.0480542811856,0.0,1.40613257964,0.0,0.0,0.0,0.0,0.2674221852,-96.7921312162,88.7516752733,1.07174715201,-65.0,-0.902968319255,50.0,1.08210413624,-65.0,-0.907571211037,50.0,8656416.84032,0.0,0.0,0.0,0.0,0.0,0.0
1402601776768515906,3,10.1375268426,-0.114322152727,-6.15520616453,0.043815185726,-0.481424156332,0.0,0.0457410110551,0.0,1.40724374073,0.0,0.0,0.0,0.0,0.2674221852,-96.7921312162,88.7516752733,1.07021269004,-65.0,-0.904502542811,50.0,1.08210413624,-65.0,-0.907571211037,50.0,8656416.84032,0.0,0.0,0.0,0.0,0.0,0.0
1402601776787499789,3,10.1375268426,-0.114322152727,-6.15520616453,0.043815185726,-0.481424156332,0.0,0.0457410110551,0.0,1.40724374073,0.0,0.0,0.0,0.0,0.2674221852,-96.7921312162,88.7516752733,1.07174715201,-65.0,-0.904502542811,50.0,1.08210413624,-65.0,-0.907571211037,50.0,8656416.84032,0.0,0.0,0.0,0.0,0.0,0.0
1402601776808044018,3,10.1205637574,-0.114322152727,-6.15159946715,0.043815185726,-0.474027589671,0.0,0.0475626745693,0.0,1.40964307481,0.0,0.0,0.0,0.0,0.2674221852,-96.7921312162,88.7516752733,1.07174715201,-65.0,-0.902968319255,50.0,1.08210413624,-65.0,-0.907571211037,50.0,8656416.84032,0.0,0.0,0.0,0.0,0.0,0.0
1402601776827470548,3,10.1205637574,-0.114322152727,-6.15159946715,0.043815185726,-0.474027589671,0.0,0.0475626745693,0.0,1.40964307481,0.0,0.0,0.0,0.0,0.2674221852,-96.7921312162,88.7516752733,1.07021269004,-65.0,-0.902968319255,50.0,1.08210413624,-65.0,-0.907571211037,50.0,8656416.84032,0.0,0.0,0.0,0.0,0.0,0.0
1402601776848199325,3,10.1045813907,-0.114322152727,-6.1477392771,0.043815185726,-0.463192921631,0.0,0.0540216398374,0.0,1.41266933074,0.0,0.0,0.0,0.0,0.2674221852,-96.7921312162,88.7516752733,1.07174715201,-65.0,-0.902968319255,50.0,1.08210413624,-65.0,-0.907571211037,50.0,8656416.84032,0.0,0.0,0.0,0.0,0.0,0.0
1402601776867503719,3,10.1045813907,-0.114322152727,-6.1477392771,0.043815185726,-0.463192921631,0.0,0.0540216398374,0.0,1.41266933074,0.0,0.0,0.0,0.0,0.2674221852,-96.7921312162,88.7516752733,1.07174715201,-65.0,-0.904502542811,50.0,1.08210413624,-65.0,-0.907571211037,50.0,8656416.84032,0.0,0.0,0.0,0.0,0.0,0.0
1402601776888125679,3,10.0652315496,-0.114322152727,-6.14735072169,0.043815185726,-0.476830176102,0.0,0.0473183498368,0.0,1.41641272195,0.0,0.0,0.0,0.0,0.2674221852,-96.7921312162,88.7516752733,1.07021269004,-65.0,-0.902968319255,50.0,1.08210413624,-65.0,-0.907571211037,50.0,8656416.84032,0.0,0.0,0.0,0.0,0.0,0.0
1402601776907553714,3,10.0652315496,-0.114322152727,-6.14735072169,0.043815185726,-0.476830176102,0.0,0.0473183498368,0.0,1.41641272195,0.0,0.0,0.0,0.0,0.2674221852,-96.7921312162,88.7516752733,1.07174715201,-65.0,-0.904502542811,50.0,1.08210413624,-65.0,-0.907571211037,50.0,8656416.84032,0.0,0.0,0.0,0.0,0.0,0.0
1402601776928054918,3,10.0519512583,-0.114322152727,-6.15084434013,0.043815185726,-0.489397888693,0.0,0.0412557376984,0.0,1.41732446135,0.0,0.0,0.0,0.0,0.2674221852,-96.7921312162,88.7516752733,1.07174715201,-65.0,-0.902968319255,50.0,1.08210413624,-65.0,-0.907571211037,50.0,8656416.84032,0.0,0.0,0.0,0.0,0.0,0.0
1402601776947562678,3,10.0519512583,-0.114322152727,-6.15084434013,0.043815185726,-0.489397888693,0.0,0.0412557376984,0.0,1.41732446135,0.0,0.0,0.0,0.0,0.2674221852,-96.7921312162,88.7516752733,1.07021269004,-65.0,-0.904502542811,50.0,1.08210413624,-65.0,-0.907571211037,50.0,8656416.84032,0.0,0.0,0.0,0.0,0.0,0.0
1402601776968095097,3,10.0421691994,-0.114322152727,-6.14997098392,0.043815185726,-0.489266361291,0.0,0.0393511679068,0.0,1.41826355758,0.0,0.0,0.0,0.0,0.2674221852,-96.7921312162,88.7516752733,1.07021269004,-65.0,-0.902968319255,50.0,1.08210413624,-65.0,-0.907571211037,50.0,8656416.84032,0.0,0.0,0.0,0.0,0.0,0.0
1402601776987521345,3,10.0421691994,-0.114322152727,-6.14997098392,0.043815185726,-0.489266361291,0.0,0.0393511679068,0.0,1.41826355758,0.0,0.0,0.0,0.0,0.2674221852,-96.7921312162,88.7516752733,1.07021269004,-65.0,-0.902968319255,50.0,1.08210413624,-65.0,-0.907571211037,50.0,8656416.84032,0.0,0.0,0.0,0.0,0.0,0.0
1402601777008053029,3,10.0322171137,-0.114322152727,-6.14752493879,0.043815185726,-0.471331609762,0.0,0.0429209041499,0.0,1.42021924562,0.0,0.0,0.0,0.0,0.2674221852,-96.7921312162,88.7516752733,1.07174715201,-65.0,-0.904502542811,50.0,1.08210413624,-65.0,-0.907571211037,50.0,8656416.84032,0.0,0.0,0.0,0.0,0.0,0.0
1402601777027525775,3,10.0322171137,-0.114322152727,-6.14752493879,0.043815185726,-0.471331609762,0.0,0.0429209041499,0.0,1.42021924562,0.0,0.0,0.0,0.0,0.2674221852,-96.7921312162,88.7516752733,1.07021269004,-65.0,-0.902968319255,50.0,1.08210413624,-65.0,-0.907571211037,50.0,8656416.84032,0.0,0.0,0.0,0.0,0.0,0.0
1402601777048095358,3,10.0045968113,-0.114322152727,-6.15091190358,0.043815185726,-0.492788545433,0.0,0.0327893823774,0.0,1.42204430271,0.0,0.0,0.0,0.0,0.2674221852,-96.7921312162,88.7516752733,1.07021269004,-65.0,-0.904502542811,50.0,1.08210413624,-65.0,-0.907571211037,50.0,8656416.84032,0.0,0.0,0.0,0.0,0.0,0.0
1402601777067538671,3,10.0045968113,-0.114322152727,-6.15091190358,0.043815185726,-0.492788545433,0.0,0.0327893823774,0.0,1.42204430271,0.0,0.0,0.0,0.0,0.2674221852,-96.7921312162,88.7516752733,1.07021269004,-65.0,-0.904502542811,50.0,1.08210413624,-65.0,-0.907571211037,50.0,8656416.84032,0.0,0.0,0.0,0.0,0.0,0.0
1402601777088087059,3,9.98464936314,-0.114322152727,-6.15520474878,0.043815185726,-0.490752358777,0.0,0.025687640729,0.0,1.42376948959,0.0,0.0,0.0,0.0,0.2674221852,-96.7921312162,88.7516752733,1.07021269004,-65.0,-0.904502542811,50.0,1.08210413624,-65.0,-0.907571211037,50.0,8656416.84032,0.0,0.0,0.0,0.0,0.0,0.0
1402601777107489231,3,9.98464936314,-0.114322152727,-6.15520474878,0.043815185726,-0.490752358777,0.0,0.025687640729,0.0,1.42376948959,0.0,0.0,0.0,0.0,0.2674221852,-96.7921312162,88.7516752733,1.07021269004,-65.0,-0.904502542811,50.0,1.08210413624,-65.0,-0.907571211037,50.0,8656416.84032,0.0,0.0,0.0,0.0,0.0,0.0
1402601777128140467,3,9.9644476248,-0.114322152727,-6.15414954359,0.043815185726,-0.491547963933,0.0,0.0253657272533,0.0,1.42539397196,0.0,0.0,0.0,0.0,0.2674221852,-96.7921312162,88.7516752733,1.07174715201,-65.0,-0.902968319255,50.0,1.08210413624,-65.0,-0.907571211037,50.0,8656416.84032,0.0,0.0,0.0,0.0,0.0,0.0
1402601777147496121,3,9.9644476248,-0.114322152727,-6.15414954359,0.043815185726,-0.491547963933,0.0,0.0253657272533,0.0,1.42539397196,0.0,0.0,0.0,0.0,0.2674221852,-96.7921312162,88.7516752733,1.07174715201,-65.0,-0.904502542811,50.0,1.08210413624,-65.0,-0.907571211037,50.0,8656416.84032,0.0,0.0,0.0,0.0,0.0,0.0
1402601777168121347,3,9.95310932702,-0.114322152727,-6.15215201104,0.043815185726,-0.474323316206,0.0,0.028572386383,0.0,1.42705635409,0.0,0.0,0.0,0.0,0.2674221852,-96.7921312162,88.7516752733,1.07021269004,-65.0,-0.902968319255,50.0,1.08210413624,-65.0,-0.907571211037,50.0,8656416.84032,0.0,0.0,0.0,0.0,0.0,0.0
1402601777187559414,3,9.95310932702,-0.114322152727,-6.15215201104,0.043815185726,-0.474323316206,0.0,0.028572386383,0.0,1.42705635409,0.0,0.0,0.0,0.0,0.2674221852,-96.7921312162,88.7516752733,1.07021269004,-65.0,-0.902968319255,50.0,1.08210413624,-65.0,-0.907571211037,50.0,8656416.84032,0.0,0.0,0.0,0.0,0.0,0.0
1402601777208042213,3,9.92424313819,-0.114322152727,-6.15427185932,0.043815185726,-0.483894311113,0.0,0.0240068279669,0.0,1.42902639849,0.0,0.0,0.0,0.0,0.2674221852,-96.7921312162,88.7516752733,1.07174715201,-65.0,-0.904502542811,50.0,1.08210413624,-65.0,-0.907571211037,50.0,8656416.84032,0.0,0.0,0.0,0.0,0.0,0.0
1402601777227538755,3,9.92424313819,-0.114322152727,-6.15427185932,0.043815185726,-0.483894311113,0.0,0.0240068279669,0.0,1.42902639849,0.0,0.0,0.0,0.0,0.2674221852,-96.7921312162,88.7516752733,1.07174715201,-65.0,-0.902968319255,50.0,1.08210413624,-65.0,-0.907571211037,50.0,8656416.84032,0.0,0.0,0.0,0.0,0.0,0.0
1402601777248107019,3,9.90512503795,-0.114322152727,-6.15121334842,0.043815185726,-0.490119672802,0.0,0.0333125250465,0.0,1.43011855769,0.0,0.0,0.0,0.0,0.2674221852,-96.7921312162,88.7516752733,1.07174715201,-65.0,-0.902968319255,50.0,1.08210413624,-65.0,-0.907571211037,50.0,8656416.84032,0.0,0.0,0.0,0.0,0.0,0.0
1402601777267485253,3,9.89543884377,-0.114322152727,-6.15051374238,0.043815185726,-0.490471438209,0.0,0.033104389581,0.0,1.43098488593,0.0,0.0,0.0,0.0,0.2674221852,-96.7921312162,88.7516752733,1.07174715201,-65.0,-0.904502542811,50.0,1.08210413624,-65.0,-0.907571211037,50.0,8656416.84032,0.0,0.0,0.0,0.0,0.0,0.0
1402601777288059684,3,9.89543884377,-0.114322152727,-6.15051374238,0.043815185726,-0.490471438209,0.0,0.033104389581,0.0,1.43098488593,0.0,0.0,0.0,0.0,0.2674221852,-96.7921312162,88.7516752733,1.07174715201,-65.0,-0.902968319255,50.0,1.08210413624,-65.0,-0.907571211037,50.0,8656416.84032,0.0,0.0,0.0,0.0,0.0,0.0
1402601777307552670,3,9.88569453197,-0.114322152727,-6.15187633004,0.043815185726,-0.482947249235,0.0,0.0321277426742,0.0,1.43194608943,0.0,0.0,0.0,0.0,0.2674221852,-96.7921312162,88.7516752733,1.07174715201,-65.0,-0.904502542811,50.0,1.08210413624,-65.0,-0.907571211037,50.0,8656416.84032,0.0,0.0,0.0,0.0,0.0,0.0
1402601777328185047,3,9.88569453197,-0.114322152727,-6.15187633004,0.043815185726,-0.482947249235,0.0,0.0321277426742,0.0,1.43194608943,0.0,0.0,0.0,0.0,0.2674221852,-96.7921312162,88.7516752733,1.07174715201,-65.0,-0.902968319255,50.0,1.08210413624,-65.0,-0.907571211037,50.0,8656416.84032,0.0,0.0,0.0,0.0,0.0,0.0
1402601777347643794,3,9.86517260846,-0.114322152727,-6.15054172284,0.043815185726,-0.480708348778,0.0,0.0309553928293,0.0,1.43373304023,0.0,0.0,0.0,0.0,0.2674221852,-96.7921312162,88.7516752733,1.07174715201,-65.0,-0.904502542811,50.0,1.08210413624,-65.0,-0.907571211037,50.0,8656416.84032,0.0,0.0,0.0,0.0,0.0,0.0
1402601777368101642,3,9.86517260846,-0.114322152727,-6.15054172284,0.043815185726,-0.480708348778,0.0,0.0309553928293,0.0,1.43373304023,0.0,0.0,0.0,0.0,0.2674221852,-96.7921312162,88.7516752733,1.07174715201,-65.0,-0.902968319255,50.0,1.08210413624,-65.0,-0.907571211037,50.0,8656416.84032,0.0,0.0,0.0,0.0,0.0,0.0
1402601777387530375,3,9.83932124885,-0.114322152727,-6.14933471506,0.043815185726,-0.488756883082,0.0,0.0369616362283,0.0,1.43541663323,0.0,0.0,0.0,0.0,0.2674221852,-96.7921312162,88.7516752733,1.07174715201,-65.0,-0.902968319255,50.0,1.08210413624,-65.0,-0.907571211037,50.0,8656416.84032,0.0,0.0,0.0,0.0,0.0,0.0
1402601777408060718,3,9.83932124885,-0.114322152727,-6.14933471506,0.043815185726,-0.488756883082,0.0,0.0369616362283,0.0,1.43541663323,0.0,0.0,0.0,0.0,0.2674221852,-96.7921312162,88.7516752733,1.07174715201,-65.0,-0.904502542811,50.0,1.08210413624,-65.0,-0.907571211037,50.0,8656416.84032,0.0,0.0,0.0,0.0,0.0,0.0
1402601777427556013,3,9.78983602416,-0.114322152727,-6.15511078094,0.043815185726,-0.488626193453,0.0,0.0233323062306,0.0,1.43854363507,0.0,0.0,0.0,0.0,0.2674221852,-96.7921312162,88.7516752733,1.07021269004,-65.0,-0.902968319255,50.0,1.08210413624,-65.0,-0.907571211037,50.0,8656416.84032,0.0,0.0,0.0,0.0,0.0,0.0
1402601777448192640,3,9.78983602416,-0.114322152727,-6.15511078094,0.043815185726,-0.488626193453,0.0,0.0233323062306,0.0,1.43854363507,0.0,0.0,0.0,0.0,0.2674221852,-96.7921312162,88.7516752733,1.07021269004,-65.0,-0.902968319255,50.0,1.08210413624,-65.0,-0.907571211037,50.0,8656416.84032,0.0,0.0,0.0,0.0,0.0,0.0
1402601777467511974,3,9.77931158657,-0.114322152727,-6.15481748014,0.043815185726,-0.489882081553,0.0,0.0232180021112,0.0,1.43934063192,0.0,0.0,0.0,0.0,0.2674221852,-96.7921312162,88.7516752733,1.07174715201,-65.0,-0.902968319255,50.0,1.08210413624,-65.0,-0.907571211037,50.0,8656416.84032,0.0,0.0,0.0,0.0,0.0,0.0
1402601777488098403,3,9.77931158657,-0.114322152727,-6.15481748014,0.043815185726,-0.489882081553,0.0,0.0232180021112,0.0,1.43934063192,0.0,0.0,0.0,0.0,0.2674221852,-96.7921312162,88.7516752733,1.07021269004,-65.0,-0.902968319255,50.0,1.08210413624,-65.0,-0.907571211037,50.0,8656416.84032,0.0,0.0,0.0,0.0,0.0,0.0
1402601777507379165,3,9.77401914443,-0.114322152727,-6.15502274774,0.043815185726,-0.471029160643,0.0,0.0241316971257,0.0,1.44017737637,0.0,0.0,0.0,0.0,0.2674221852,-96.7921312162,88.7516752733,1.07021269004,-65.0,-0.902968319255,50.0,1.08210413624,-65.0,-0.907571211037,50.0,8656416.84032,0.0,0.0,0.0,0.0,0.0,0.0
1402601777528025014,3,9.77401914443,-0.114322152727,-6.15502274774,0.043815185726,-0.471029160643,0.0,0.0241316971257,0.0,1.44017737637,0.0,0.0,0.0,0.0,0.2674221852,-96.7921312162,88.7516752733,1.07174715201,-65.0,-0.902968319255,50.0,1.08210413624,-65.0,-0.907571211037,50.0,8656416.84032,0.0,0.0,0.0,0.0,0.0,0.0
1402601777548410448,3,9.75485606178,-0.114322152727,-6.15403945218,0.043815185726,-0.471999138421,0.0,0.0248816057805,0.0,1.44161588388,0.0,0.0,0.0,0.0,0.2674221852,-96.7921312162,88.7516752733,1.07021269004,-65.0,-0.902968319255,50.0,1.08210413624,-65.0,-0.907571211037,50.0,8656416.84032,0.0,0.0,0.0,0.0,0.0,0.0
1402601777568077118,3,9.75485606178,-0.114322152727,-6.15403945218,0.043815185726,-0.471999138421,0.0,0.0248816057805,0.0,1.44161588388,0.0,0.0,0.0,0.0,0.2674221852,-96.7921312162,88.7516752733,1.07174715201,-65.0,-0.902968319255,50.0,1.08210413624,-65.0,-0.907571211037,50.0,8656416.84032,0.0,0.0,0.0,0.0,0.0,0.0
1402601777587646079,3,9.73549724353,-0.114322152727,-6.15316969978,0.043815185726,-0.471692896327,0.0,0.0231580221689,0.0,1.4430626943,0.0,0.0,0.0,0.0,0.2674221852,-96.7921312162,88.7516752733,1.07021269004,-65.0,-0.902968319255,50.0,1.08210413624,-65.0,-0.907571211037,50.0,8656416.84032,0.0,0.0,0.0,0.0,0.0,0.0
1402601777608073572,3,9.73549724353,-0.114322152727,-6.15316969978,0.043815185726,-0.471692896327,0.0,0.0231580221689,0.0,1.4430626943,0.0,0.0,0.0,0.0,0.2674221852,-96.7921312162,88.7516752733,1.07021269004,-65.0,-0.902968319255,50.0,1.08210413624,-65.0,-0.907571211037,50.0,8656416.84032,0.0,0.0,0.0,0.0,0.0,0.0
1402601777627593069,3,9.70969632112,-0.114322152727,-6.14546726915,0.043815185726,-0.477902155021,0.0,0.0435121013377,0.0,1.4444565294,0.0,0.0,0.0,0.0,0.2674221852,-96.7921312162,88.7516752733,1.07174715201,-65.0,-0.902968319255,50.0,1.08210413624,-65.0,-0.907571211037,50.0,8656416.84032,0.0,0.0,0.0,0.0,0.0,0.0
1402601777648138289,3,9.70969632112,-0.114322152727,-6.14546726915,0.043815185726,-0.477902155021,0.0,0.0435121013377,0.0,1.4444565294,0.0,0.0,0.0,0.0,0.2674221852,-96.7921312162,88.7516752733,1.07021269004,-65.0,-0.904502542811,50.0,1.08210413624,-65.0,-0.907571211037,50.0,8656416.84032,0.0,0.0,0.0,0.0,0.0,0.0
1402601777667529680,3,9.68603400229,-0.114322152727,-6.15501766807,0.043815185726,-0.478861970794,0.0,0.0187587315971,0.0,1.44618016403,0.0,0.0,0.0,0.0,0.2674221852,-96.7921312162,88.7516752733,1.07021269004,-65.0,-0.902968319255,50.0,1.08210413624,-65.0,-0.907571211037,50.0,8656416.84032,0.0,0.0,0.0,0.0,0.0,0.0
1402601777687943484,3,9.68603400229,-0.114322152727,-6.15501766807,0.043815185726,-0.478861970794,0.0,0.0187587315971,0.0,1.44618016403,0.0,0.0,0.0,0.0,0.2674221852,-96.7921312162,88.7516752733,1.07021269004,-65.0,-0.902968319255,50.0,1.08210413624,-65.0,-0.907571211037,50.0,8656416.84032,0.0,0.0,0.0,0.0,0.0,0.0
1402601777707733277,3,9.66028684697,-0.114322152727,-6.14691213994,0.043815185726,-0.484933498301,0.0,0.0378010067732,0.0,1.44762744005,0.0,0.0,0.0,0.0,0.2674221852,-96.7921312162,88.7516752733,1.07174715201,-65.0,-0.904502542811,50.0,1.08210413624,-65.0,-0.907571211037,50.0,8656416.84032,0.0,0.0,0.0,0.0,0.0,0.0
1402601777728060438,3,9.66028684697,-0.114322152727,-6.14691213994,0.043815185726,-0.484933498301,0.0,0.0378010067732,0.0,1.44762744005,0.0,0.0,0.0,0.0,0.2674221852,-96.7921312162,88.7516752733,1.07021269004,-65.0,-0.902968319255,50.0,1.08210413624,-65.0,-0.907571211037,50.0,8656416.84032,0.0,0.0,0.0,0.0,0.0,0.0
1402601777747621873,3,9.64667587788,-0.114322152727,-6.14942978495,0.043815185726,-0.463721585432,0.0,0.0287426284731,0.0,1.44916146763,0.0,0.0,0.0,0.0,0.2674221852,-96.7921312162,88.7516752733,1.07174715201,-65.0,-0.904502542811,50.0,1.08210413624,-65.0,-0.907571211037,50.0,8656416.84032,0.0,0.0,0.0,0.0,0.0,0.0
1402601777768132108,3,9.64667587788,-0.114322152727,-6.14942978495,0.043815185726,-0.463721585432,0.0,0.0287426284731,0.0,1.44916146763,0.0,0.0,0.0,0.0,0.2674221852,-96.7921312162,88.7516752733,1.07174715201,-65.0,-0.902968319255,50.0,1.08210413624,-65.0,-0.907571211037,50.0,8656416.84032,0.0,0.0,0.0,0.0,0.0,0.0
1402601777787923700,3,9.60093396648,-0.114322152727,-6.1475615187,0.043815185726,-0.503576803371,0.0,0.0357183295749,0.0,1.45136346277,0.0,0.0,0.0,0.0,0.2674221852,-96.7921312162,88.7516752733,1.07174715201,-65.0,-0.902968319255,50.0,1.08210413624,-65.0,-0.907571211037,50.0,8656416.84032,0.0,0.0,0.0,0.0,0.0,0.0
1402601777808169246,3,9.60093396648,-0.114322152727,-6.1475615187,0.043815185726,-0.503576803371,0.0,0.0357183295749,0.0,1.45136346277,0.0,0.0,0.0,0.0,0.2674221852,-96.7921312162,88.7516752733,1.07174715201,-65.0,-0.904502542811,50.0,1.08210413624,-65.0,-0.907571211037,50.0,8656416.84032,0.0,0.0,0.0,0.0,0.0,0.0
1402601777827514033,3,9.56622691796,-0.114322152727,-6.15227507039,0.043815185726,-0.501355537537,0.0,0.0253677527553,0.0,1.45348486766,0.0,0.0,0.0,0.0,0.2674221852,-96.7921312162,88.7516752733,1.07021269004,-65.0,-0.902968319255,50.0,1.08210413624,-65.0,-0.907571211037,50.0,8656416.84032,0.0,0.0,0.0,0.0,0.0,0.0
1402601777848163256,3,9.56622691796,-0.114322152727,-6.15227507039,0.043815185726,-0.501355537537,0.0,0.0253677527553,0.0,1.45348486766,0.0,0.0,0.0,0.0,0.2674221852,-96.7921312162,88.7516752733,1.07174715201,-65.0,-0.904502542811,50.0,1.08210413624,-65.0,-0.907571211037,50.0,8656416.84032,0.0,0.0,0.0,0.0,0.0,0.0
1402601777867497413,3,9.55621119904,-0.114322152727,-6.15179673702,0.043815185726,-0.500602829601,0.0,0.0239704692667,0.0,1.45441529632,0.0,0.0,0.0,0.0,0.2674221852,-96.7921312162,88.7516752733,1.07174715201,-65.0,-0.902968319255,50.0,1.08210413624,-65.0,-0.907571211037,50.0,8656416.84032,0.0,0.0,0.0,0.0,0.0,0.0
1402601777888184071,3,9.55621119904,-0.114322152727,-6.15179673702,0.043815185726,-0.500602829601,0.0,0.0239704692667,0.0,1.45441529632,0.0,0.0,0.0,0.0,0.2674221852,-96.7921312162,88.7516752733,1.07174715201,-65.0,-0.904502542811,50.0,1.08210413624,-65.0,-0.907571211037,50.0,8656416.84032,0.0,0.0,0.0,0.0,0.0,0.0
1402601777907515052,3,9.53538253303,-0.114322152727,-6.15222591201,0.043815185726,-0.497319699205,0.0,0.0234233942685,0.0,1.45607109904,0.0,0.0,0.0,0.0,0.2674221852,-96.7921312162,88.7516752733,1.07174715201,-65.0,-0.904502542811,50.0,1.08210413624,-65.0,-0.907571211037,50.0,8656416.84032,0.0,0.0,0.0,0.0,0.0,0.0
1402601777928064089,3,9.53538253303,-0.114322152727,-6.15222591201,0.043815185726,-0.497319699205,0.0,0.0234233942685,0.0,1.45607109904,0.0,0.0,0.0,0.0,0.2674221852,-96.7921312162,88.7516752733,1.07021269004,-65.0,-0.902968319255,50.0,1.08210413624,-65.0,-0.907571211037,50.0,8656416.84032,0.0,0.0,0.0,0.0,0.0,0.0
1402601777947529591,3,9.51451842783,-0.114322152727,-6.1516202869,0.043815185726,-0.491173854856,0.0,0.0223601311819,0.0,1.45780530619,0.0,0.0,0.0,0.0,0.2674221852,-96.7921312162,88.7516752733,1.07174715201,-65.0,-0.902968319255,50.0,1.08210413624,-65.0,-0.907571211037,50.0,8656416.84032,0.0,0.0,0.0,0.0,0.0,0.0
1402601777968130187,3,9.51451842783,-0.114322152727,-6.1516202869,0.043815185726,-0.491173854856,0.0,0.0223601311819,0.0,1.45780530619,0.0,0.0,0.0,0.0,0.2674221852,-96.7921312162,88.7516752733,1.07021269004,-65.0,-0.904502542811,50.0,1.08210413624,-65.0,-0.907571211037,50.0,8656416.84032,0.0,0.0,0.0,0.0,0.0,0.0
