rosbagTimestamp,header,seq,stamp,secs,nsecs,frame_id,child_frame_id,pose,pose,position,x,y,z,orientation,x,y,z,w,covariance,twist,twist,linear,x,y,z,angular,x,y,z,covariance
1402416553444119794,,208484,,1402416553,443145036,/enu,/imu,,,,6.65720007636,21.9795574493,-31.173724945,,-0.649490679746,-0.759400127114,-0.0235872867377,0.0302810793604,"[0.025889224261523684, -0.004503785104415471, -0.004960431795758085, -3.414654821408496e-06, -6.309612616894969e-06, -5.637239598035553e-05, -0.004503785104415471, 0.03217490969089997, 0.0031083037294761286, -5.685500787365124e-07, 7.989542906700474e-07, -3.96498256839309e-06, -0.004960431795758085, 0.0031083037294761286, 0.21714167855423608, 4.011164749588391e-06, -6.990257204820414e-07, -3.372662013110696e-06, -3.414654821408496e-06, -5.685500787365124e-07, 4.011164749588391e-06, 3.8809073621801595e-06, -1.2947829982794981e-07, 2.2314855939924586e-06, -6.309612616894969e-06, 7.989542906700474e-07, -6.990257204820414e-07, -1.2947829982794981e-07, 4.634945954752735e-06, 4.9587362852017775e-06, -5.637239598035553e-05, -3.96498256839309e-06, -3.372662013110696e-06, 2.2314855939924586e-06, 4.9587362852017775e-06, 5.668260437028255e-05]",,,,1.0154210871,0.199927811773,0.0371929589475,,-0.00864251754826,0.0664530381546,-0.775306160226,"[0.00021289298646024686, -3.995884004106342e-05, 4.0255394540070306e-05, -4.067252853740295e-09, -5.900960343343463e-10, 3.296238969604542e-08, -3.995884004106342e-05, 0.0002735194803428611, 2.5677878708567076e-05, 3.979730202926186e-09, -1.0718734120653536e-08, -2.7496242817017664e-08, 4.0255394540070306e-05, 2.5677878708567076e-05, 0.000179897914653128, -1.8044521744169458e-09, 5.020815414857858e-10, 3.2187507112938233e-09, -4.067252853740295e-09, 3.979730202926186e-09, -1.8044521744169458e-09, 1.97154819357638e-09, -3.6269559865181486e-12, -1.098162392363616e-11, -5.900960343343463e-10, -1.0718734120653536e-08, 5.020815414857858e-10, -3.6269559865181486e-12, 1.952444178661785e-09, 2.1130879015011707e-12, 3.296238969604542e-08, -2.7496242817017664e-08, 3.2187507112938233e-09, -1.098162392363616e-11, 2.1130879015011707e-12, 1.9538760374298994e-09]"
1402416553454109974,,208485,,1402416553,453174114,/enu,/imu,,,,6.65751701757,21.9899340048,-31.1733522944,,-0.646568868875,-0.761881496917,-0.023906231745,0.0302287039176,"[0.025890885549866932, -0.004502270886572627, -0.0049622133005874725, -3.441955423547874e-06, -6.1111879212797095e-06, -5.621469266149853e-05, -0.004502270886572627, 0.03217688339867142, 0.0031045579109601875, -7.461103734025802e-07, 7.790786795874376e-07, -4.548905110717264e-06, -0.0049622133005874725, 0.0031045579109601875, 0.2171549012448852, 4.028680660293533e-06, -6.916138217356817e-07, -3.336642815327849e-06, -3.441955423547874e-06, -7.461103734025802e-07, 4.028680660293533e-06, 3.921084113828475e-06, -1.2952129621604624e-07, 2.2312437681664025e-06, -6.1111879212797095e-06, 7.790786795874376e-07, -6.916138217356817e-07, -1.2952129621604624e-07, 4.674971502420305e-06, 4.9575353052566984e-06, -5.621469266149853e-05, -4.548905110717264e-06, -3.336642815327849e-06, 2.2312437681664025e-06, 4.9575353052566984e-06, 5.671722271918729e-05]",,,,1.0040419998,0.201981269571,0.0434465255935,,-0.0253201304489,0.0323246805995,-0.767574809707,"[0.00021741229602289389, -4.080175408271362e-05, 4.009205064786292e-05, -4.164166518345667e-09, -6.482087840966593e-10, 3.332421138260714e-08, -4.080175408271362e-05, 0.00027801934214437957, 2.582321635465352e-05, 4.109790863818178e-09, -1.0854587486006975e-08, -2.745946399227826e-08, 4.009205064786292e-05, 2.582321635465352e-05, 0.00018032676870892377, -1.8142744909664006e-09, 5.083755697583968e-10, 3.2342229002209773e-09, -4.164166518345667e-09, 4.109790863818178e-09, -1.8142744909664006e-09, 1.9715481784431928e-09, -3.6269350593288535e-12, -1.0981486897123975e-11, -6.482087840966593e-10, -1.0854587486006975e-08, 5.083755697583968e-10, -3.6269350593288535e-12, 1.9524441161570253e-09, 2.112842024374749e-12, 3.332421138260714e-08, -2.745946399227826e-08, 3.2342229002209773e-09, -1.0981486897123975e-11, 2.112842024374749e-12, 1.953874699281189e-09]"
1402416553464096299,,208486,,1402416553,463141918,/enu,/imu,,,,6.65792491891,21.9999786845,-31.1728720133,,-0.643614865139,-0.764366492997,-0.0241505795209,0.0303400604062,"[0.025892559632576757, -0.004500785067851324, -0.004963869219534809, -3.4689666166204734e-06, -5.908980764346645e-06, -5.6046825291421274e-05, -0.004500785067851324, 0.03217888011238914, 0.003100886688364054, -9.26450402606648e-07, 7.591432102638752e-07, -5.135080715591048e-06, -0.004963869219534809, 0.003100886688364054, 0.21716797835978924, 4.045602921827683e-06, -6.839058309413246e-07, -3.3009106319877977e-06, -3.4689666166204734e-06, -9.26450402606648e-07, 4.045602921827683e-06, 3.960769188228696e-06, -1.295643923355041e-07, 2.231002308330985e-06, -5.908980764346645e-06, 7.591432102638752e-07, -6.839058309413246e-07, -1.295643923355041e-07, 4.71450450706852e-06, 4.956327137271207e-06, -5.6046825291421274e-05, -5.135080715591048e-06, -3.3009106319877977e-06, 2.231002308330985e-06, 4.956327137271207e-06, 5.675134177747094e-05]",,,,0.991654975801,0.198157873843,0.0401519388327,,0.00737240627835,0.0480082636796,-0.776410623684,"[0.00022198852697383707, -4.1643725218185696e-05, 3.995176547186915e-05, -4.262779808358146e-09, -7.048757520249824e-10, 3.368678818528317e-08, -4.1643725218185696e-05, 0.0002825679239466813, 2.5931544272318112e-05, 4.238673273346514e-09, -1.0991002129827204e-08, -2.741447727898232e-08, 3.995176547186915e-05, 2.5931544272318112e-05, 0.00018074496299797383, -1.8259948724928029e-09, 5.17574671376679e-10, 3.2639433431139998e-09, -4.262779808358146e-09, 4.238673273346514e-09, -1.8259948724928029e-09, 1.9715481630207097e-09, -3.6269138759769913e-12, -1.0981348080852465e-11, -7.048757520249824e-10, -1.0991002129827204e-08, 5.17574671376679e-10, -3.6269138759769913e-12, 1.952444053375221e-09, 2.1125962506325185e-12, 3.368678818528317e-08, -2.741447727898232e-08, 3.2639433431139998e-09, -1.0981348080852465e-11, 2.1125962506325185e-12, 1.9538733608645457e-09]"
1402416553475115060,,208487,,1402416553,474144935,/enu,/imu,,,,6.65823759941,22.0110719051,-31.1725554334,,-0.640367563271,-0.767074778186,-0.024412142406,0.0304912427466,"[0.025894437254369927, -0.004499126033410662, -0.004965819396857081, -3.4986467389654958e-06, -5.679989004531157e-06, -5.58490643265746e-05, -0.004499126033410662, 0.03218112659472812, 0.0030967631810030873, -1.1300743076807272e-06, 7.369481398872055e-07, -5.7885841056939455e-06, -0.004965819396857081, 0.0030967631810030873, 0.2171825309842562, 4.063756815541677e-06, -6.75018333536405e-07, -3.2613989630272173e-06, -3.4986467389654958e-06, -1.1300743076807272e-06, 4.063756815541677e-06, 4.009139492284381e-06, -1.2960871994510834e-07, 2.230755475227123e-06, -5.679989004531157e-06, 7.369481398872055e-07, -6.75018333536405e-07, -1.2960871994510834e-07, 4.762721741674946e-06, 4.9551116545984e-06, -5.58490643265746e-05, -5.7885841056939455e-06, -3.2613989630272173e-06, 2.230755475227123e-06, 4.9551116545984e-06, 5.6794193892585234e-05]",,,,0.978771812803,0.201171051296,0.0453144172406,,0.0115694203705,0.0511008019675,-0.770225541646,"[0.00022718192087533128, -4.2579892309996834e-05, 3.980943989977908e-05, -4.3739116116781755e-09, -7.679255442498003e-10, 3.408674673366031e-08, -4.2579892309996834e-05, 0.00028772437253934047, 2.6038537372273778e-05, 4.381894862026463e-09, -1.1143353312910348e-08, -2.736226317645195e-08, 3.980943989977908e-05, 2.6038537372273778e-05, 0.00018125118971232086, -1.8394677124977e-09, 5.277006157690374e-10, 3.299518460193485e-09, -4.3739116116781755e-09, 4.381894862026463e-09, -1.8394677124977e-09, 1.9715481473064275e-09, -3.6268924407400845e-12, -1.0981208195354172e-11, -7.679255442498003e-10, -1.1143353312910348e-08, 5.277006157690374e-10, -3.6268924407400845e-12, 1.952443990410084e-09, 2.1123506647897526e-12, 3.408674673366031e-08, -2.736226317645195e-08, 3.299518460193485e-09, -1.0981208195354172e-11, 2.1123506647897526e-12, 1.9538720201669245e-09]"
1402416553485985573,,208488,,1402416553,484141111,/enu,/imu,,,,6.6693714782,22.0361175985,-31.18632549,,-0.63939306629,-0.767983310187,-0.0233357795478,0.028871845239,"[0.02588147179237652, -0.004503266405553131, -0.00496243787671761, -2.9678170982504174e-06, -6.676197599357114e-06, -5.58292444358947e-05, -0.004503266405553131, 0.03217140955548896, 0.0031078495583587223, -5.941804061040407e-07, 4.750988842624238e-07, -5.733916492925074e-06, -0.00496243787671761, 0.0031078495583587223, 0.21712952251907913, 4.225787631386367e-06, -3.9534625365557345e-07, -2.8779410623418495e-06, -2.9678170982504174e-06, -5.941804061040407e-07, 4.225787631386367e-06, 3.786159680571683e-06, -1.6667692238996006e-07, 1.9109533366182647e-06, -6.676197599357114e-06, 4.750988842624238e-07, -3.9534625365557345e-07, -1.6667692238996006e-07, 4.491820316201318e-06, 4.707627106240762e-06, -5.58292444358947e-05, -5.733916492925074e-06, -2.8779410623418495e-06, 1.9109533366182647e-06, 4.707627106240762e-06, 5.630747120291705e-05]",,,,1.00771130606,0.207929644661,0.0621683189113,,-0.00676599724143,0.0307773871513,-0.7744201951,"[0.00020817684698825207, -4.26829312657753e-05, 3.9919411199013264e-05, -3.6918342228307633e-09, -3.358030052856152e-10, 3.29677037198025e-08, -4.26829312657753e-05, 0.00026414082742196406, 2.6228892365410712e-05, 3.702705942390824e-09, -1.0463020100332984e-08, -2.7643545558297478e-08, 3.9919411199013264e-05, 2.6228892365410712e-05, 0.0001799643235913544, -1.8251562913867858e-09, 5.44053351605734e-10, 3.197292668469816e-09, -3.6918342228307633e-09, 3.702705942390824e-09, -1.8251562913867858e-09, 1.971507963515825e-09, -3.6199621216858284e-12, -1.091744019456606e-11, -3.358030052856152e-10, -1.0463020100332984e-08, 5.44053351605734e-10, -3.6199621216858284e-12, 1.9523992668390652e-09, 2.124337038346179e-12, 3.29677037198025e-08, -2.7643545558297478e-08, 3.197292668469816e-09, -1.091744019456606e-11, 2.124337038346179e-12, 1.953757369430762e-09]"
1402416553495069263,,208489,,1402416553,494065999,/enu,/imu,,,,6.66963424506,22.0464173673,-31.1863932477,,-0.636425768173,-0.770431459009,-0.0235811539947,0.0290092700869,"[0.02588290588281159, -0.004501883910630932, -0.004964053343397506, -2.994167737129763e-06, -6.490119720488613e-06, -5.564887029489024e-05, -0.004501883910630932, 0.03217341027852568, 0.00310410836732583, -7.606141668730243e-07, 4.575729138606569e-07, -6.302635284265924e-06, -0.004964053343397506, 0.00310410836732583, 0.21714258505217499, 4.241806803338417e-06, -3.869284703566485e-07, -2.8419710736234925e-06, -2.994167737129763e-06, -7.606141668730243e-07, 4.241806803338417e-06, 3.825510349801648e-06, -1.667106555447233e-07, 1.9107549226910914e-06, -6.490119720488613e-06, 4.575729138606569e-07, -3.869284703566485e-07, -1.667106555447233e-07, 4.531031286369396e-06, 4.7064833539392475e-06, -5.564887029489024e-05, -6.302635284265924e-06, -2.8419710736234925e-06, 1.9107549226910914e-06, 4.7064833539392475e-06, 5.634139665261739e-05]",,,,0.997103029806,0.203137283038,0.0552664794106,,0.00891758424887,0.0527564926541,-0.776850039388,"[0.00021250085504344587, -4.3444339814787704e-05, 3.9750138592814434e-05, -3.781948430177329e-09, -3.9365451855278843e-10, 3.331777278928584e-08, -4.3444339814787704e-05, 0.00026832628136040166, 2.6336534171089726e-05, 3.8317913420982196e-09, -1.0590333990177553e-08, -2.758967139124934e-08, 3.9750138592814434e-05, 2.6336534171089726e-05, 0.00018038097318526312, -1.8361021495603367e-09, 5.539037636991708e-10, 3.2270683798297835e-09, -3.781948430177329e-09, 3.8317913420982196e-09, -1.8361021495603367e-09, 1.971507950100314e-09, -3.619942277156049e-12, -1.0917312054931327e-11, -3.9365451855278843e-10, -1.0590333990177553e-08, 5.539037636991708e-10, -3.619942277156049e-12, 1.9523992062023865e-09, 2.1240984204744663e-12, 3.331777278928584e-08, -2.758967139124934e-08, 3.2270683798297835e-09, -1.0917312054931327e-11, 2.1240984204744663e-12, 1.9537560660303753e-09]"
1402416553506055244,,208490,,1402416553,505100011,/enu,/imu,,,,6.66986039348,22.0576329118,-31.1862007424,,-0.633150287992,-0.773122039535,-0.023828035754,0.0289006836115,"[0.025884526945758185, -0.004500221584490499, -0.004965970514184029, -3.0234274903318913e-06, -6.277683801529153e-06, -5.5436643467780296e-05, -0.004500221584490499, 0.03217563581615301, 0.00309997108331912, -9.500799329602604e-07, 4.379597192404053e-07, -6.9410934660203e-06, -0.004965970514184029, 0.00309997108331912, 0.21715717796903047, 4.259137232095526e-06, -3.772120022188476e-07, -2.8017384976870276e-06, -3.0234274903318913e-06, -9.500799329602604e-07, 4.259137232095526e-06, 3.874161240629256e-06, -1.6674560508107196e-07, 1.910550618074901e-06, -6.277683801529153e-06, 4.379597192404053e-07, -3.772120022188476e-07, -1.6674560508107196e-07, 4.579541471339001e-06, 4.705332191150447e-06, -5.5436643467780296e-05, -6.9410934660203e-06, -2.8017384976870276e-06, 1.910550618074901e-06, 4.705332191150447e-06, 5.638467338976898e-05]",,,,0.984067597084,0.207164753422,0.0619743293353,,-0.017921222622,0.0133266423791,-0.770775406194,"[0.00021748554216816668, -4.429718523625338e-05, 3.954144665054318e-05, -3.885301784929355e-09, -4.58310250043467e-10, 3.370815053209019e-08, -4.429718523625338e-05, 0.0002730991681305675, 2.6496059177578743e-05, 3.9769894366162844e-09, -1.0733856214461439e-08, -2.752843200844287e-08, 3.954144665054318e-05, 2.6496059177578743e-05, 0.00018087284428165422, -1.8456182609376863e-09, 5.613800700184727e-10, 3.2377367977141896e-09, -3.885301784929355e-09, 3.9769894366162844e-09, -1.8456182609376863e-09, 1.9715079364117284e-09, -3.6199222158576096e-12, -1.0917182313116771e-11, -4.58310250043467e-10, -1.0733856214461439e-08, 5.613800700184727e-10, -3.6199222158576096e-12, 1.952399145313875e-09, 2.123860005152384e-12, 3.370815053209019e-08, -2.752843200844287e-08, 3.2377367977141896e-09, -1.0917182313116771e-11, 2.123860005152384e-12, 1.953754759504328e-09]"
1402416553542857069,,208491,,1402416553,515098094,/enu,/imu,,,,6.66984422332,22.0674986226,-31.1857821496,,-0.630127704094,-0.775576932893,-0.0241019342818,0.0289584954881,"[0.02588599208959648, -0.00449878006245729, -0.0049675941140560785, -3.0498645107028036e-06, -6.079820410501783e-06, -5.52323077412668e-05, -0.00449878006245729, 0.03217771629353172, 0.0030962080358603985, -1.1258414943026561e-06, 4.201041635515245e-07, -7.524842862960144e-06, -0.0049675941140560785, 0.0030962080358603985, 0.21717032971693542, 4.274343900389694e-06, -3.680694367842518e-07, -2.7653076304619887e-06, -3.0498645107028036e-06, -1.1258414943026561e-06, 4.274343900389694e-06, 3.914092413144706e-06, -1.6677967021220095e-07, 1.910352085999408e-06, -6.079820410501783e-06, 4.201041635515245e-07, -3.680694367842518e-07, -1.6677967021220095e-07, 4.619331171467868e-06, 4.704172857989484e-06, -5.52323077412668e-05, -7.524842862960144e-06, -2.7653076304619887e-06, 1.910352085999408e-06, 4.704172857989484e-06, 5.641917283452447e-05]",,,,0.973015178932,0.202328782842,0.0533317800445,,-0.00544062628426,0.0440311210764,-0.781157488957,"[0.00022204299133060274, -4.50834061603159e-05, 3.93702857394041e-05, -3.981119714313501e-09, -5.158625424546217e-10, 3.4064156707428375e-08, -4.50834061603159e-05, 0.00027745216216901983, 2.661849047987146e-05, 4.108532375714363e-09, -1.0865414726200684e-08, -2.746430940423551e-08, 3.93702857394041e-05, 2.661849047987146e-05, 0.00018129342363116103, -1.85583809016157e-09, 5.688734385087443e-10, 3.2612353117059155e-09, -3.981119714313501e-09, 4.108532375714363e-09, -1.85583809016157e-09, 1.971507922405482e-09, -3.619901892616972e-12, -1.0917050455606263e-11, -5.158625424546217e-10, -1.0865414726200684e-08, 5.688734385087443e-10, -3.619901892616972e-12, 1.9523990840794654e-09, 2.1236217787489425e-12, 3.4064156707428375e-08, -2.746430940423551e-08, 3.2612353117059155e-09, -1.0917050455606263e-11, 2.1236217787489425e-12, 1.953753453127868e-09]"
1402416553542879648,,208492,,1402416553,525047063,/enu,/imu,,,,6.66972233816,22.0773431114,-31.1856657239,,-0.627123409401,-0.778003202314,-0.0242809379211,0.0289427473417,"[0.02588750142135609, -0.004497278970439483, -0.004969367659880595, -3.0761217810532286e-06, -5.877808244751506e-06, -5.5017940727682945e-05, -0.004497278970439483, 0.03217980265099763, 0.0030924157985037933, -1.3047292855182048e-06, 4.0225857055334434e-07, -8.110726869860984e-06, -0.004969367659880595, 0.0030924157985037933, 0.21718365441663937, 4.289032419276599e-06, -3.586614662488183e-07, -2.728957476632283e-06, -3.0761217810532286e-06, -1.3047292855182048e-06, 4.289032419276599e-06, 3.953630193661e-06, -1.6681380193599766e-07, 1.910153962317263e-06, -5.877808244751506e-06, 4.0225857055334434e-07, -3.586614662488183e-07, -1.6681380193599766e-07, 4.658726697815585e-06, 4.7030064889778076e-06, -5.5017940727682945e-05, -8.110726869860984e-06, -2.728957476632283e-06, 1.910153962317263e-06, 4.7030064889778076e-06, 5.645327197568302e-05]",,,,0.961519079189,0.206511897209,0.0557810324998,,-0.000249582218694,0.0208370918699,-0.778285840574,"[0.00022668236075178995, -4.586229171020518e-05, 3.919810145800553e-05, -4.079035952671774e-09, -5.732399899753899e-10, 3.4419281931547485e-08, -4.586229171020518e-05, 0.0002818561786577316, 2.674274026851834e-05, 4.240134000385172e-09, -1.0997801912745627e-08, -2.7396965998878167e-08, 3.919810145800553e-05, 2.674274026851834e-05, 0.00018168798436606995, -1.8654244898210307e-09, 5.76571915922307e-10, 3.2783319576673836e-09, -4.079035952671774e-09, 4.240134000385172e-09, -1.8654244898210307e-09, 1.971507908122264e-09, -3.6198813180345977e-12, -1.0916917231552349e-11, -5.732399899753899e-10, -1.0997801912745627e-08, 5.76571915922307e-10, -3.6198813180345977e-12, 1.952399022615619e-09, 2.123383757622699e-12, 3.4419281931547485e-08, -2.7396965998878167e-08, 3.2783319576673836e-09, -1.0916917231552349e-11, 2.123383757622699e-12, 1.9537521446770076e-09]"
1402416553542909850,,208493,,1402416553,535155057,/enu,/imu,,,,6.6581538613,22.0804768688,-31.1574893749,,-0.625426131198,-0.779386686444,-0.025464833761,0.0273877646255,"[0.025875370701202282, -0.00450130537336638, -0.004965985168911339, -2.550003925861331e-06, -6.7328481947973175e-06, -5.502083372711652e-05, -0.00450130537336638, 0.032170125310264475, 0.0031035409675272962, -7.391317571767134e-07, 1.812500647456014e-07, -8.03474953194032e-06, -0.004965985168911339, 0.0031035409675272962, 0.21713060563552974, 4.3846049484878224e-06, -1.3183496549094066e-07, -2.4403980149964552e-06, -2.550003925861331e-06, -7.391317571767134e-07, 4.3846049484878224e-06, 3.736965315943226e-06, -2.0075243420386186e-07, 1.5963288588432627e-06, -6.7328481947973175e-06, 1.812500647456014e-07, -1.3183496549094066e-07, -2.0075243420386186e-07, 4.402066455953903e-06, 4.427891876823982e-06, -5.502083372711652e-05, -8.03474953194032e-06, -2.4403980149964552e-06, 1.5963288588432627e-06, 4.427891876823982e-06, 5.592181516833912e-05]",,,,0.964337273114,0.164855749643,0.0540194226957,,0.00460898542203,0.0455782188492,-0.773755818742,"[0.0002013019594861104, -4.13484221944719e-05, 3.900775427596515e-05, -3.4086832034616037e-09, -2.687964613727336e-10, 3.218666401716388e-08, -4.13484221944719e-05, 0.0002556720853938921, 2.85603300711828e-05, 3.576176020081902e-09, -1.0235446769099155e-08, -2.6765203220207126e-08, 3.900775427596515e-05, 2.85603300711828e-05, 0.00018058394501084435, -1.7955216407875929e-09, 4.5075777221127173e-10, 3.0574229847512465e-09, -3.4086832034616037e-09, 3.576176020081902e-09, -1.7955216407875929e-09, 1.971469749529215e-09, -3.6130434869582978e-12, -1.0851444693489414e-11, -2.687964613727336e-10, -1.0235446769099155e-08, 4.5075777221127173e-10, -3.6130434869582978e-12, 1.9523546503243826e-09, 2.1334281055981946e-12, 3.218666401716388e-08, -2.6765203220207126e-08, 3.0574229847512465e-09, -1.0851444693489414e-11, 2.1334281055981946e-12, 1.953627559122737e-09]"
1402416553582820982,,208494,,1402416553,545048952,/enu,/imu,,,,6.65756442562,22.0901818346,-31.1574189465,,-0.622419601998,-0.781788102129,-0.025561436698,0.0273462131149,"[0.025876646276379252, -0.004499912704132879, -0.004967668426122411, -2.5759089030434515e-06, -6.550953939109271e-06, -5.480936931493147e-05, -0.004499912704132879, 0.03217216410640137, 0.003099787456402674, -9.001985944326676e-07, 1.660965298601946e-07, -8.598665605689204e-06, -0.004967668426122411, 0.003099787456402674, 0.21714371446717903, 4.398853888727762e-06, -1.220969088867758e-07, -2.4038752111043574e-06, -2.5759089030434515e-06, -9.001985944326676e-07, 4.398853888727762e-06, 3.7760738654899477e-06, -2.0077796280619886e-07, 1.5961710332750563e-06, -6.550953939109271e-06, 1.660965298601946e-07, -1.220969088867758e-07, -2.0077796280619886e-07, 4.441046326548737e-06, 4.426798253271422e-06, -5.480936931493147e-05, -8.598665605689204e-06, -2.4038752111043574e-06, 1.5961710332750563e-06, 4.426798253271422e-06, 5.595564493559995e-05]",,,,0.952238188652,0.164963208028,0.05613080469,,0.00891644747607,0.00802598053226,-0.779388648364,"[0.00020549536458445286, -4.203491045074923e-05, 3.880538906739529e-05, -3.496648526847876e-09, -3.274551737787846e-10, 3.252035996734877e-08, -4.203491045074923e-05, 0.0002597040995629188, 2.8720324848066316e-05, 3.7069643452932686e-09, -1.0358392054443134e-08, -2.6701065742506027e-08, 3.880538906739529e-05, 2.8720324848066316e-05, 0.0001809571828722186, -1.8028549839018723e-09, 4.5907180076511963e-10, 3.0704755840515423e-09, -3.496648526847876e-09, 3.7069643452932686e-09, -1.8028549839018723e-09, 1.9714697374234417e-09, -3.6130245272319014e-12, -1.0851323422142489e-11, -3.274551737787846e-10, -1.0358392054443134e-08, 4.5907180076511963e-10, -3.6130245272319014e-12, 1.952354591309899e-09, 2.133197218610414e-12, 3.252035996734877e-08, -2.6701065742506027e-08, 3.0704755840515423e-09, -1.0851323422142489e-11, 2.133197218610414e-12, 1.953626288623401e-09]"
1402416553582853229,,208495,,1402416553,556041955,/enu,/imu,,,,6.65704006351,22.1007916719,-31.1573180856,,-0.619035631689,-0.784469306226,-0.0257291499963,0.027217735581,"[0.025878119652440575, -0.004498356746259916, -0.004969543580649491, -2.6047215946822207e-06, -6.343505167234453e-06, -5.456295870085991e-05, -0.004498356746259916, 0.03217447109482894, 0.0030955902788021884, -1.0834630367939888e-06, 1.4913688354255729e-07, -9.23123273141264e-06, -0.004969543580649491, 0.0030955902788021884, 0.21715827624222034, 4.414170209892204e-06, -1.1084923267762647e-07, -2.363054633031239e-06, -2.6047215946822207e-06, -1.0834630367939888e-06, 4.414170209892204e-06, 3.824367066683733e-06, -2.0080461390496206e-07, 1.5960072532356314e-06, -6.343505167234453e-06, 1.4913688354255729e-07, -1.1084923267762647e-07, -2.0080461390496206e-07, 4.489209831755075e-06, 4.425696983196575e-06, -5.456295870085991e-05, -9.23123273141264e-06, -2.363054633031239e-06, 1.5960072532356314e-06, 4.425696983196575e-06, 5.599870941175865e-05]",,,,0.941562633102,0.161874255437,0.0538242779086,,-0.00875519509637,0.00327672750304,-0.787561776657,"[0.0002103098958974098, -4.2817221480059546e-05, 3.857063857324746e-05, -3.597470087141451e-09, -3.913949790736376e-10, 3.289489878746926e-08, -4.2817221480059546e-05, 0.0002642937060415013, 2.8917219197315417e-05, 3.853018715262623e-09, -1.0496961417700145e-08, -2.6623162131748843e-08, 3.857063857324746e-05, 2.8917219197315417e-05, 0.0001814258125928122, -1.8100266250438935e-09, 4.659287739914194e-10, 3.0781822173729056e-09, -3.597470087141451e-09, 3.853018715262623e-09, -1.8100266250438935e-09, 1.9714697250596235e-09, -3.6130053174353524e-12, -1.0851201044123309e-11, -3.913949790736376e-10, -1.0496961417700145e-08, 4.659287739914194e-10, -3.6130053174353524e-12, 1.9523545320239173e-09, 2.1329665807549096e-12, 3.289489878746926e-08, -2.6623162131748843e-08, 3.0781822173729056e-09, -1.0851201044123309e-11, 2.1329665807549096e-12, 1.9536250194527325e-09]"
1402416553582884481,,208496,,1402416553,566046953,/enu,/imu,,,,6.65624064146,22.1103104303,-31.1572584883,,-0.615940514961,-0.786893007717,-0.0259086987152,0.0273023033222,"[0.025879479639716204, -0.004496910134778917, -0.00497121471127723, -2.6309758695527567e-06, -6.149563821932126e-06, -5.4327729574842004e-05, -0.004496910134778917, 0.032176635121476574, 0.0030917252094314167, -1.2542688153507545e-06, 1.3359668504268233e-07, -9.812984251251736e-06, -0.00497121471127723, 0.0030917252094314167, 0.21717173454535268, 4.427682985972581e-06, -1.0022405041139405e-07, -2.3257765325248346e-06, -2.6309758695527567e-06, -1.2542688153507545e-06, 4.427682985972581e-06, 3.864357319206128e-06, -2.0083040636114242e-07, 1.595849332647929e-06, -6.149563821932126e-06, 1.3359668504268233e-07, -1.0022405041139405e-07, -2.0083040636114242e-07, 4.529069785327902e-06, 4.424588133853788e-06, -5.4327729574842004e-05, -9.812984251251736e-06, -2.3257765325248346e-06, 1.595849332647929e-06, 4.424588133853788e-06, 5.6033416372091126e-05]",,,,0.932638338975,0.159529720683,0.0562722310413,,0.0120089834579,0.0383991166286,-0.787230426817,"[0.00021471900897283467, -4.353597742311827e-05, 3.83785798099705e-05, -3.690957586902769e-09, -4.499289350931635e-10, 3.323487423833158e-08, -4.353597742311827e-05, 0.0002685164061363869, 2.906227544866774e-05, 3.986419674447544e-09, -1.062454290253998e-08, -2.654720656666506e-08, 3.83785798099705e-05, 2.906227544866774e-05, 0.00018182719990717037, -1.8185901053826421e-09, 4.738297369503583e-10, 3.102314774788331e-09, -3.690957586902769e-09, 3.986419674447544e-09, -1.8185901053826421e-09, 1.971469712392499e-09, -3.612985881135701e-12, -1.0851077203644264e-11, -4.499289350931635e-10, -1.062454290253998e-08, 4.738297369503583e-10, -3.612985881135701e-12, 1.9523544724893778e-09, 2.1327361577366137e-12, 3.323487423833158e-08, -2.654720656666506e-08, 3.102314774788331e-09, -1.0851077203644264e-11, 2.1327361577366137e-12, 1.9536237471813156e-09]"
1402416553582908810,,208497,,1402416553,576046943,/enu,/imu,,,,6.65571067907,22.1197738258,-31.1572721102,,-0.612838336772,-0.789310281114,-0.0260424746773,0.0272074001575,"[0.02588080899672145, -0.004495417426494186, -0.004972988608030509, -2.6572438343012554e-06, -5.950962703243826e-06, -5.4082355047301944e-05, -0.004495417426494186, 0.03217887287241747, 0.003087769085286341, -1.4287092790490778e-06, 1.1800115051730303e-07, -1.0399177016636195e-05, -0.004972988608030509, 0.003087769085286341, 0.21718527862960646, 4.440745214924827e-06, -8.925378480045888e-08, -2.2882520876923386e-06, -2.6572438343012554e-06, -1.4287092790490778e-06, 4.440745214924827e-06, 3.904306118909363e-06, -2.0085626430029625e-07, 1.5956916971571327e-06, -5.950962703243826e-06, 1.1800115051730303e-07, -8.925378480045888e-08, -2.0085626430029625e-07, 4.568887565840045e-06, 4.423472339749879e-06, -5.4082355047301944e-05, -1.0399177016636195e-05, -2.2882520876923386e-06, 1.5956916971571327e-06, 4.423472339749879e-06, 5.606807719387252e-05]",,,,0.92027640167,0.159981691051,0.059241849826,,-0.00290146508582,0.00460210221392,-0.788555793759,"[0.00021924121556054203, -4.4257097648538066e-05, 3.8171736574032844e-05, -3.7873861222635795e-09, -5.080983966500627e-10, 3.357673413584947e-08, -4.4257097648538066e-05, 0.00027279693043214746, 2.9233519022608315e-05, 4.120694075077115e-09, -1.075369184448344e-08, -2.6467094125279523e-08, 3.8171736574032844e-05, 2.9233519022608315e-05, 0.0001822097806160943, -1.8253496879752544e-09, 4.798795533070007e-10, 3.111354580712343e-09, -3.7873861222635795e-09, 4.120694075077115e-09, -1.8253496879752544e-09, 1.971469699465452e-09, -3.612966156236743e-12, -1.0850950861282935e-11, -5.080983966500627e-10, -1.075369184448344e-08, 4.798795533070007e-10, -3.612966156236743e-12, 1.952354412615857e-09, 2.1325059564247545e-12, 3.357673413584947e-08, -2.6467094125279523e-08, 3.111354580712343e-09, -1.0850950861282935e-11, 2.1325059564247545e-12, 1.953622474567657e-09]"
1402416553622858088,,208498,,1402416553,586039066,/enu,/imu,,,,6.6699647944,22.1421104947,-31.1622867234,,-0.610822246646,-0.790937327772,-0.0245050261347,0.0267176015472,"[0.025869225713911072, -0.004499376096954442, -0.004969598551061359, -2.1344965205401903e-06, -6.696235941155337e-06, -5.4064520127860117e-05, -0.004499376096954442, 0.03216899183570172, 0.0030992371657229353, -8.336235890370715e-07, -6.46934437872945e-08, -1.0264153482755892e-05, -0.004969598551061359, 0.0030992371657229353, 0.21713178519955217, 4.479388052720929e-06, 9.254547344193229e-08, -2.090743345255324e-06, -2.1344965205401903e-06, -8.336235890370715e-07, 4.479388052720929e-06, 3.6935428088939117e-06, -2.31444822813121e-07, 1.2850400488158024e-06, -6.696235941155337e-06, -6.46934437872945e-08, 9.254547344193229e-08, -2.31444822813121e-07, 4.3231424362066425e-06, 4.129741509277605e-06, -5.4064520127860117e-05, -1.0264153482755892e-05, -2.090743345255324e-06, 1.2850400488158024e-06, 4.129741509277605e-06, 5.548768214605847e-05]",,,,0.937226955611,0.178735455799,0.0565150681524,,0.0250415625816,0.0229350886312,-0.786787400386,"[0.00020220259438934974, -4.3720888086754806e-05, 3.861916526607604e-05, -3.1380160317015215e-09, -1.1668211504180288e-11, 3.2771942429176095e-08, -4.3720888086754806e-05, 0.00025050308271002157, 2.9069234227744218e-05, 3.484750817853621e-09, -1.0087095449445982e-08, -2.6160683174034784e-08, 3.861916526607604e-05, 2.9069234227744218e-05, 0.00018090753913247093, -1.8491192187831728e-09, 5.217247101624428e-10, 3.163082922786498e-09, -3.1380160317015215e-09, 3.484750817853621e-09, -1.8491192187831728e-09, 1.971433486698051e-09, -3.6058717542495278e-12, -1.0784650943527265e-11, -1.1668211504180288e-11, -1.0087095449445982e-08, 5.217247101624428e-10, -3.6058717542495278e-12, 1.952310915891467e-09, 2.1421043674050466e-12, 3.2771942429176095e-08, -2.6160683174034784e-08, 3.163082922786498e-09, -1.0784650943527265e-11, 2.1421043674050466e-12, 1.953487741195803e-09]"
1402416553622881349,,208499,,1402416553,596043109,/enu,/imu,,,,6.66922527883,22.1514779016,-31.162022123,,-0.607706127515,-0.793334626856,-0.024608715451,0.0266053290861,"[0.025870417767767606, -0.004497962518566299, -0.004971324589169716, -2.160678102682539e-06, -6.5154810589094595e-06, -5.3822665892797134e-05, -0.004497962518566299, 0.032171162162033126, 0.0030952925030945547, -9.914977035814652e-07, -7.73317888838482e-08, -1.082921059520132e-05, -0.004971324589169716, 0.0030952925030945547, 0.21714522006141826, 4.492058714961267e-06, 1.036260647894496e-07, -2.053167423266866e-06, -2.160678102682539e-06, -9.914977035814652e-07, 4.492058714961267e-06, 3.7335314546981066e-06, -2.314627999342586e-07, 1.2849216515053734e-06, -6.5154810589094595e-06, -7.73317888838482e-08, 1.036260647894496e-07, -2.314627999342586e-07, 4.363013661766679e-06, 4.128698931816693e-06, -5.3822665892797134e-05, -1.082921059520132e-05, -2.053167423266866e-06, 1.2849216515053734e-06, 4.128698931816693e-06, 5.552255739569699e-05]",,,,0.926082858693,0.179920316776,0.0621877358521,,-0.00135545314271,-0.00246789584279,-0.78789187194,"[0.0002063958282015745, -4.434848547653169e-05, 3.8389827791463334e-05, -3.2254715618849738e-09, -7.117596864729148e-11, 3.309651260378879e-08, -4.434848547653169e-05, 0.0002544154714695401, 2.9232557312580166e-05, 3.619413325764839e-09, -1.0206381595978163e-08, -2.6073356161001818e-08, 3.8389827791463334e-05, 2.9232557312580166e-05, 0.00018128489985329906, -1.855742195142874e-09, 5.288656833897595e-10, 3.169008113965341e-09, -3.2254715618849738e-09, 3.619413325764839e-09, -1.855742195142874e-09, 1.9714334757867633e-09, -3.6058535888984757e-12, -1.0784537474679855e-11, -7.117596864729148e-11, -1.0206381595978163e-08, 5.288656833897595e-10, -3.6058535888984757e-12, 1.9523108584105687e-09, 2.1418813079097237e-12, 3.309651260378879e-08, -2.6073356161001818e-08, 3.169008113965341e-09, -1.0784537474679855e-11, 2.1418813079097237e-12, 1.9534865104728843e-09]"
1402416553622913406,,208500,,1402416553,606036901,/enu,/imu,,,,6.66865384616,22.1609482588,-31.1621273079,,-0.604566033651,-0.795726343766,-0.0245967713152,0.0267300511095,"[0.025871585938068455, -0.004496595799038699, -0.004972966084030946, -2.1869357691066544e-06, -6.330270039222264e-06, -5.357142501926132e-05, -0.004496595799038699, 0.032173327866191245, 0.0030914356339513073, -1.1528668270819933e-06, -8.990310080366973e-08, -1.1397507585748927e-05, -0.004972966084030946, 0.0030914356339513073, 0.21715851060625413, 4.5043292881535e-06, 1.1494827717992341e-07, -2.0155078093634964e-06, -2.1869357691066544e-06, -1.1528668270819933e-06, 4.5043292881535e-06, 3.773436765867884e-06, -2.3148079310664542e-07, 1.2848037102345007e-06, -6.330270039222264e-06, -8.990310080366973e-08, 1.1494827717992341e-07, -2.3148079310664542e-07, 4.402800894069332e-06, 4.12764959295184e-06, -5.357142501926132e-05, -1.1397507585748927e-05, -2.0155078093634964e-06, 1.2848037102345007e-06, 4.12764959295184e-06, 5.555734437494613e-05]",,,,0.917126328792,0.178781716781,0.0573483280465,,0.0456952932824,0.02116792527,-0.78910679567,"[0.00021065206946350524, -4.4969907990237884e-05, 3.818973916586619e-05, -3.314778179345548e-09, -1.3043162608755643e-10, 3.3421105392054794e-08, -4.4969907990237884e-05, 0.00025841745314845354, 2.9347944356773934e-05, 3.753634779494589e-09, -1.0326803551671775e-08, -2.5979749356802955e-08, 3.818973916586619e-05, 2.9347944356773934e-05, 0.00018165118225946903, -1.8648907819240162e-09, 5.405192645422267e-10, 3.195171703159531e-09, -3.314778179345548e-09, 3.753634779494589e-09, -1.8648907819240162e-09, 1.971433464662506e-09, -3.6058351925834013e-12, -1.0784421490805797e-11, -1.3043162608755643e-10, -1.0326803551671775e-08, 5.405192645422267e-10, -3.6058351925834013e-12, 1.9523108006770247e-09, 2.1416584648618817e-12, 3.3421105392054794e-08, -2.5979749356802955e-08, 3.195171703159531e-09, -1.0784421490805797e-11, 2.1416584648618817e-12, 1.953485277532662e-09]"
1402416553622935019,,208501,,1402416553,616017103,/enu,/imu,,,,6.66786824878,22.1703344373,-31.1622828122,,-0.601399512992,-0.798123868726,-0.0246647568895,0.0266188976259,"[0.02587276933582674, -0.004495159697647336, -0.004974728268238887, -2.213240396103241e-06, -6.140896598422158e-06, -5.331131846488651e-05, -0.004495159697647336, 0.03217560545566438, 0.0030874736258649817, -1.3174890789672425e-06, -1.0244064624818286e-07, -1.1968875524759779e-05, -0.004974728268238887, 0.0030874736258649817, 0.21717191450651596, 4.516170322482057e-06, 1.2653486831822013e-07, -1.9779495809387272e-06, -2.213240396103241e-06, -1.3174890789672425e-06, 4.516170322482057e-06, 3.813232132970552e-06, -2.314987993230072e-07, 1.2846862378180188e-06, -6.140896598422158e-06, -1.0244064624818286e-07, 1.2653486831822013e-07, -2.314987993230072e-07, 4.442477534354656e-06, 4.126593481740499e-06, -5.331131846488651e-05, -1.1968875524759779e-05, -1.9779495809387272e-06, 1.2846862378180188e-06, 4.126593481740499e-06, 5.559201634808299e-05]",,,,0.905671666847,0.179166564501,0.0736835166019,,0.00482962073143,-0.0065544622314,-0.797611267362,"[0.00021501345369186469, -4.5607282901218726e-05, 3.796263977249209e-05, -3.407096371453934e-09, -1.8900706825653687e-10, 3.374835669687814e-08, -4.5607282901218726e-05, 0.0002624537603036612, 2.9506260199015652e-05, 3.889209713297506e-09, -1.044889796306226e-08, -2.58813839863666e-08, 3.796263977249209e-05, 2.9506260199015652e-05, 0.00018201829978447265, -1.8716297822370015e-09, 5.476503095211652e-10, 3.2013827136209093e-09, -3.407096371453934e-09, 3.889209713297506e-09, -1.8716297822370015e-09, 1.971433453224946e-09, -3.6058165684052675e-12, -1.0784305067717357e-11, -1.8900706825653687e-10, -1.044889796306226e-08, 5.476503095211652e-10, -3.6058165684052675e-12, 1.9523107427472023e-09, 2.14143590779525e-12, 3.374835669687814e-08, -2.58813839863666e-08, 3.2013827136209093e-09, -1.0784305067717357e-11, 2.14143590779525e-12, 1.9534840437510266e-09]"
1402416553662859582,,208502,,1402416553,626019954,/enu,/imu,,,,6.66701610015,22.1794387091,-31.1621514737,,-0.598234529975,-0.800496693306,-0.0246639085953,0.0266867525981,"[0.025874014365129493, -0.004493757875749744, -0.004976408008315157, -2.239696442566779e-06, -5.946480171403276e-06, -5.304086069796621e-05, -0.004493757875749744, 0.032177856484778236, 0.0030835887066994797, -1.48614333737347e-06, -1.1501835448081104e-07, -1.2546056911877158e-05, -0.004976408008315157, 0.0030835887066994797, 0.2171852811157687, 4.5276025489237055e-06, 1.3847748876151367e-07, -1.9401170761372693e-06, -2.239696442566779e-06, -1.48614333737347e-06, 4.5276025489237055e-06, 3.853207272643154e-06, -2.3151685132540018e-07, 1.2845690337529388e-06, -5.946480171403276e-06, -1.1501835448081104e-07, 1.3847748876151367e-07, -2.3151685132540018e-07, 4.482333292507789e-06, 4.125530601362964e-06, -5.304086069796621e-05, -1.2546056911877158e-05, -1.9401170761372693e-06, 1.2845690337529388e-06, 4.125530601362964e-06, 5.5626864833573833e-05]",,,,0.896301029443,0.175415284418,0.0626477273007,,0.0371908143885,0.0138783744565,-0.791315739086,"[0.00021944966737233505, -4.6241994997104735e-05, 3.7760921522889075e-05, -3.5013547382033283e-09, -2.48225270033229e-10, 3.407436343006467e-08, -4.6241994997104735e-05, 0.00026659574467652786, 2.962396608239851e-05, 4.025151013562223e-09, -1.0572655786347527e-08, -2.5779941807499118e-08, 3.7760921522889075e-05, 2.962396608239851e-05, 0.0001823827011572142, -1.8803191403917944e-09, 5.578651918045203e-10, 3.2229104834230695e-09, -3.5013547382033283e-09, 4.025151013562223e-09, -1.8803191403917944e-09, 1.971433441556539e-09, -3.6057977043534113e-12, -1.0784186372279679e-11, -2.48225270033229e-10, -1.0572655786347527e-08, 5.578651918045203e-10, -3.6057977043534113e-12, 1.9523106845645034e-09, 2.1412135816965432e-12, 3.407436343006467e-08, -2.5779941807499118e-08, 3.2229104834230695e-09, -1.0784186372279679e-11, 2.1412135816965432e-12, 1.9534828086034115e-09]"
1402416553662884742,,208503,,1402416553,637003898,/enu,/imu,,,,6.64552385851,22.1848509606,-31.1379200007,,-0.598389056132,-0.800440528647,-0.0265441095174,0.0228234057743,"[0.025863008976952765, -0.004497475688735403, -0.004973182845342929, -1.7313162671692633e-06, -6.582503493369892e-06, -5.295774988126084e-05, -0.004497475688735403, 0.03216813097603152, 0.0030947075797239073, -8.896323707740177e-07, -2.6443319122698755e-07, -1.2408046851736592e-05, -0.004973182845342929, 0.0030947075797239073, 0.21713321925918425, 4.521380502602215e-06, 2.8328752795278143e-07, -1.8224369440412857e-06, -1.7313162671692633e-06, -8.896323707740177e-07, 4.521380502602215e-06, 3.6612732389373175e-06, -2.5797541632131753e-07, 9.816837524007935e-07, -6.582503493369892e-06, -2.6443319122698755e-07, 2.8328752795278143e-07, -2.5797541632131753e-07, 4.258738219030537e-06, 3.825692780180532e-06, -5.295774988126084e-05, -1.2408046851736592e-05, -1.8224369440412857e-06, 9.816837524007935e-07, 3.825692780180532e-06, 5.5026090622052666e-05]",,,,0.921253324569,0.100712298393,0.0711344477856,,-0.00445054864283,-0.0169350146916,-0.798932307753,"[0.0001901733574315004, -4.099113077682176e-05, 3.653370249783774e-05, -2.899863169184531e-09, -1.6365954464656038e-10, 3.079837995113322e-08, -4.099113077682176e-05, 0.000246688253509904, 3.232023821228451e-05, 3.456178985837694e-09, -9.978073812684158e-09, -2.58669945277739e-08, 3.653370249783774e-05, 3.232023821228451e-05, 0.00018134003390948885, -1.7121212399203498e-09, 3.794996628039197e-10, 2.6689819214330287e-09, -2.899863169184531e-09, 3.456178985837694e-09, -1.7121212399203498e-09, 1.9713994135307126e-09, -3.598350569765743e-12, -1.0719032518122131e-11, -1.6365954464656038e-10, -9.978073812684158e-09, 3.794996628039197e-10, -3.598350569765743e-12, 1.9522686238375307e-09, 2.1511949083342803e-12, 3.079837995113322e-08, -2.58669945277739e-08, 2.6689819214330287e-09, -1.0719032518122131e-11, 2.1511949083342803e-12, 1.9533422910823636e-09]"
1402416553662906186,,208504,,1402416553,647037982,/enu,/imu,,,,6.64373212334,22.1937688927,-31.1378091179,,-0.595193413279,-0.802823720844,-0.0265150295438,0.0227118305565,"[0.025864036436040735, -0.004496159960729294, -0.004974893301058195, -1.7578889480499958e-06, -6.404542267033244e-06, -5.269226291165628e-05, -0.004496159960729294, 0.032170437695785294, 0.003090675198321704, -1.0425872926036203e-06, -2.740600983694473e-07, -1.296509606026892e-05, -0.004974893301058195, 0.003090675198321704, 0.2171468170137389, 4.5325328651281446e-06, 2.952316398409443e-07, -1.784409659099153e-06, -1.7578889480499958e-06, -1.0425872926036203e-06, 4.5325328651281446e-06, 3.7015049824791883e-06, -2.579867085591138e-07, 9.81600713914198e-07, -6.404542267033244e-06, -2.740600983694473e-07, 2.952316398409443e-07, -2.579867085591138e-07, 4.298863811033077e-06, 3.82469901290508e-06, -5.269226291165628e-05, -1.296509606026892e-05, -1.784409659099153e-06, 9.81600713914198e-07, 3.82469901290508e-06, 5.5061373682994535e-05]",,,,0.910785291926,0.101844961676,0.0853713180501,,0.0187434809457,-0.0150574022541,-0.795508422735,"[0.00019421028736880066, -4.1621586899250946e-05, 3.625828660085651e-05, -2.986165440848982e-09, -2.2461649535515144e-10, 3.1110363680187526e-08, -4.1621586899250946e-05, 0.0002505725078350084, 3.252883691280086e-05, 3.5940645826761427e-09, -1.0095151095558661e-08, -2.5778009717453318e-08, 3.625828660085651e-05, 3.252883691280086e-05, 0.00018169365635300948, -1.7157818437794279e-09, 3.8790989874513323e-10, 2.673874357238929e-09, -2.986165440848982e-09, 3.5940645826761427e-09, -1.7157818437794279e-09, 1.9713994036792554e-09, -3.5983331486804646e-12, -1.0718925582198582e-11, -2.2461649535515144e-10, -1.0095151095558661e-08, 3.8790989874513323e-10, -3.5983331486804646e-12, 1.952268567865748e-09, 2.1509794888164627e-12, 3.1110363680187526e-08, -2.5778009717453318e-08, 2.673874357238929e-09, -1.0718925582198582e-11, 2.1509794888164627e-12, 1.9533410974125205e-09]"
1402416553662921279,,208505,,1402416553,657038927,/enu,/imu,,,,6.64207779493,22.2028817106,-31.1381392877,,-0.592000696313,-0.805183131109,-0.0263956657161,0.0227721271201,"[0.025865122213435805, -0.004494780198756278, -0.004976615572838601, -1.7845206865966507e-06, -6.222773002417847e-06, -5.241830631158896e-05, -0.004494780198756278, 0.032172628323926235, 0.003086778629482467, -1.1985479353448718e-06, -2.8364767478049434e-07, -1.352476727149387e-05, -0.004976615572838601, 0.003086778629482467, 0.21716013745064008, 4.543241735097236e-06, 3.0748017571570176e-07, -1.7461778289882038e-06, -1.7845206865966507e-06, -1.1985479353448718e-06, 4.543241735097236e-06, 3.7414697477641505e-06, -2.579979580225171e-07, 9.815183758426914e-07, -6.222773002417847e-06, -2.8364767478049434e-07, 3.0748017571570176e-07, -2.579979580225171e-07, 4.338721851013588e-06, 3.823698630116559e-06, -5.241830631158896e-05, -1.352476727149387e-05, -1.7461778289882038e-06, 9.815183758426914e-07, 3.823698630116559e-06, 5.5096383753860736e-05]",,,,0.902593164688,0.0967580428637,0.0785328528051,,0.0536449732592,0.0018411059147,-0.793630805856,"[0.00019830060010087036, -4.224822056525407e-05, 3.600136513002593e-05, -3.0741839337320786e-09, -2.8556543784815564e-10, 3.142054864382709e-08, -4.224822056525407e-05, 0.0002545371841954833, 3.270103722483569e-05, 3.731578957615379e-09, -1.0213290424450493e-08, -2.5685358798018505e-08, 3.600136513002593e-05, 3.270103722483569e-05, 0.00018203355368245444, -1.7211538730430652e-09, 3.9958271802500795e-10, 2.6929773294492514e-09, -3.0741839337320786e-09, 3.731578957615379e-09, -1.7211538730430652e-09, 1.9713993935697327e-09, -3.5983154770522837e-12, -1.0718817043198012e-11, -2.8556543784815564e-10, -1.0213290424450493e-08, 3.9958271802500795e-10, -3.5983154770522837e-12, 1.9522685116508657e-09, 2.1507643115053647e-12, 3.142054864382709e-08, -2.5685358798018505e-08, 2.6929773294492514e-09, -1.0718817043198012e-11, 2.1507643115053647e-12, 1.9533399022623305e-09]"
1402416553702828155,,208506,,1402416553,667015075,/enu,/imu,,,,6.64028895662,22.2116771157,-31.1382755859,,-0.588775951807,-0.807549837343,-0.026316230667,0.0226626296808,"[0.025866236914833474, -0.004493429189891038, -0.004978257673073039, -1.8112180413980918e-06, -6.036844221021347e-06, -5.213536474619477e-05, -0.004493429189891038, 0.03217497392614415, 0.0030827885227008075, -1.3577752802296404e-06, -2.9320564876053977e-07, -1.4087539983451966e-05, -0.004978257673073039, 0.0030827885227008075, 0.21717363809075557, 4.55344724447227e-06, 3.200596402571474e-07, -1.708105644082329e-06, -1.8112180413980918e-06, -1.3577752802296404e-06, 4.55344724447227e-06, 3.781234972022698e-06, -2.580091702974834e-07, 9.81436699471331e-07, -6.036844221021347e-06, -2.9320564876053977e-07, 3.200596402571474e-07, -2.580091702974834e-07, 4.378379782399288e-06, 3.822691644511063e-06, -5.213536474619477e-05, -1.4087539983451966e-05, -1.708105644082329e-06, 9.81436699471331e-07, 3.822691644511063e-06, 5.513118873911468e-05]",,,,0.891810113816,0.0964787449019,0.0846662170641,,0.0273584054315,-0.0206902369689,-0.802687517596,"[0.00020248623442872403, -4.288719354653434e-05, 3.572719014847454e-05, -3.16508501126748e-09, -3.4549695633116054e-10, 3.173315683788835e-08, -4.288719354653434e-05, 0.00025853615832326755, 3.290022593127292e-05, 3.8697665027387645e-09, -1.033285452953926e-08, -2.5587043186026947e-08, 3.572719014847454e-05, 3.290022593127292e-05, 0.00018237164112859286, -1.7249127031751361e-09, 4.0838647586055217e-10, 2.6982150894273624e-09, -3.16508501126748e-09, 3.8697665027387645e-09, -1.7249127031751361e-09, 1.9713993832360573e-09, -3.5982975727393957e-12, -1.0718706831708949e-11, -3.4549695633116054e-10, -1.033285452953926e-08, 4.0838647586055217e-10, -3.5982975727393957e-12, 1.952268455230625e-09, 2.1505494189721733e-12, 3.173315683788835e-08, -2.5587043186026947e-08, 2.6982150894273624e-09, -1.0718706831708949e-11, 2.1505494189721733e-12, 1.9533387073791453e-09]"
1402416553702856112,,208507,,1402416553,677018880,/enu,/imu,,,,6.63838367679,22.2204845264,-31.1385127658,,-0.585536620208,-0.809902288721,-0.0263155842413,0.0226415358814,"[0.025867321150057243, -0.004492057317369505, -0.004980025805824869, -1.8381403109634046e-06, -5.845852790002083e-06, -5.18423328021418e-05, -0.004492057317369505, 0.03217727275842997, 0.0030788719691937894, -1.5210728553689369e-06, -3.027183539724118e-07, -1.4655685842448044e-05, -0.004980025805824869, 0.0030788719691937894, 0.21718694183927514, 4.563284627869956e-06, 3.3294520991011097e-07, -1.6697023323876153e-06, -1.8381403109634046e-06, -1.5210728553689369e-06, 4.563284627869956e-06, 3.8212199900360885e-06, -2.5802039410052256e-07, 9.813553532013416e-07, -5.845852790002083e-06, -3.027183539724118e-07, 3.3294520991011097e-07, -2.5802039410052256e-07, 4.4182569279790446e-06, 3.821678015385048e-06, -5.18423328021418e-05, -1.4655685842448044e-05, -1.6697023323876153e-06, 9.813553532013416e-07, 3.821678015385048e-06, 5.516621054134003e-05]",,,,0.884818801808,0.0948027830531,0.0823631710217,,0.0249285542422,0.00305603228538,-0.800920349176,"[0.00020675014178104937, -4.354239908442453e-05, 3.5456620534065756e-05, -3.2581785412629312e-09, -4.0580093314626024e-10, 3.2045794575395194e-08, -4.354239908442453e-05, 0.00026261787400910645, 3.3087755929324985e-05, 4.009065993145357e-09, -1.0454359119987115e-08, -2.5485330597161982e-08, 3.5456620534065756e-05, 3.3087755929324985e-05, 0.00018272965779213225, -1.729344351698123e-09, 4.166987927851715e-10, 2.7103650230355793e-09, -3.2581785412629312e-09, 4.009065993145357e-09, -1.729344351698123e-09, 1.971399372664537e-09, -3.5982794296134177e-12, -1.0718595136409374e-11, -4.0580093314626024e-10, -1.0454359119987115e-08, 4.166987927851715e-10, -3.5982794296134177e-12, 1.952268398523917e-09, 2.150334837352311e-12, 3.2045794575395194e-08, -2.5485330597161982e-08, 2.7103650230355793e-09, -1.0718595136409374e-11, 2.150334837352311e-12, 1.9533375099134828e-09]"
1402416553702879407,,208508,,1402416553,688013076,/enu,/imu,,,,6.60315734121,22.214197643,-31.1683753668,,-0.582473761097,-0.812000574501,-0.0305098285366,0.021178645054,"[0.025856721281245103, -0.00449572674963969, -0.004976769720145574, -1.3500549877761298e-06, -6.414217109092336e-06, -5.175220361452916e-05, -0.00449572674963969, 0.032167527646752354, 0.0030900138871528655, -9.075600021843485e-07, -4.234173790677657e-07, -1.4490750795744853e-05, -0.004976769720145574, 0.0030900138871528655, 0.21713512635657434, 4.517946503529302e-06, 4.47284769872653e-07, -1.628161773273938e-06, -1.3500549877761298e-06, -9.075600021843485e-07, 4.517946503529302e-06, 3.6372117824893016e-06, -2.8048000825278556e-07, 6.945889239529978e-07, -6.414217109092336e-06, -4.234173790677657e-07, 4.47284769872653e-07, -2.8048000825278556e-07, 4.204053467289842e-06, 3.517920405297724e-06, -5.175220361452916e-05, -1.4490750795744853e-05, -1.628161773273938e-06, 6.945889239529978e-07, 3.517920405297724e-06, 5.456503576457466e-05]",,,,0.852574650084,0.00772377146221,0.0986131324162,,0.0208404931855,-0.00986261864454,-0.800588282834,"[0.00017705440076568534, -3.45370883816192e-05, 3.488908538768397e-05, -2.7351731884162297e-09, -3.46004217143338e-10, 2.8529227238837705e-08, -3.45370883816192e-05, 0.00023725190206231952, 3.621613901640716e-05, 3.485634988265921e-09, -9.687488782099398e-09, -2.3925452794183762e-08, 3.488908538768397e-05, 3.621613901640716e-05, 0.00018217936082759087, -1.5859869795864639e-09, 1.3834236770615513e-10, 2.400564779369669e-09, -2.7351731884162297e-09, 3.485634988265921e-09, -1.5859869795864639e-09, 1.9713667725037912e-09, -3.5905944273482847e-12, -1.0655179394115435e-11, -3.46004217143338e-10, -9.687488782099398e-09, 1.3834236770615513e-10, -3.5905944273482847e-12, 1.952227045155784e-09, 2.160356180341596e-12, 2.8529227238837705e-08, -2.3925452794183762e-08, 2.400564779369669e-09, -1.0655179394115435e-11, 2.160356180341596e-12, 1.953197163369232e-09]"
1402416553702903638,,208509,,1402416553,698014020,/enu,/imu,,,,6.60056731874,22.2222100237,-31.1685291674,,-0.579211656087,-0.814335138935,-0.0304341821047,0.0211163327477,"[0.025857667922736822, -0.004494364416330098, -0.0049785555264750345, -1.3771237286623575e-06, -6.2390394737707376e-06, -5.146660682812569e-05, -0.004494364416330098, 0.032169836169113605, 0.00308598225380581, -1.055673666369048e-06, -4.300068428693681e-07, -1.50384041170542e-05, -0.0049785555264750345, 0.00308598225380581, 0.21714862413649932, 4.527524853034696e-06, 4.6013005499165897e-07, -1.589726589561986e-06, -1.3771237286623575e-06, -1.055673666369048e-06, 4.527524853034696e-06, 3.6771793345641688e-06, -2.8048536920410114e-07, 6.945390903218966e-07, -6.2390394737707376e-06, -4.300068428693681e-07, 4.6013005499165897e-07, -2.8048536920410114e-07, 4.243925709798449e-06, 3.5169716885663103e-06, -5.146660682812569e-05, -1.50384041170542e-05, -1.589726589561986e-06, 6.945390903218966e-07, 3.5169716885663103e-06, 5.46002143411826e-05]",,,,0.845030270337,0.00380558985385,0.0993872562733,,0.0333210899192,-0.00875814066536,-0.802576338587,"[0.00018085072870764406, -3.514088060430483e-05, 3.460105372384789e-05, -2.8215537539715088e-09, -4.086783979899418e-10, 2.8813118018546037e-08, -3.514088060430483e-05, 0.00024113319007173018, 3.647793594599392e-05, 3.625083026651618e-09, -9.803344268259254e-09, -2.3837681789306364e-08, 3.460105372384789e-05, 3.647793594599392e-05, 0.00018252096938335338, -1.5869667822724584e-09, 1.4552744130973564e-10, 2.4091048561413336e-09, -2.8215537539715088e-09, 3.625083026651618e-09, -1.5869667822724584e-09, 1.9713667635763295e-09, -3.5905776471480284e-12, -1.065507893818403e-11, -4.086783979899418e-10, -9.803344268259254e-09, 1.4552744130973564e-10, -3.5905776471480284e-12, 1.952226990619991e-09, 2.1601482315121066e-12, 2.8813118018546037e-08, -2.3837681789306364e-08, 2.4091048561413336e-09, -1.065507893818403e-11, 2.1601482315121066e-12, 1.9531960072686277e-09]"
1402416553742860264,,208510,,1402416553,707982063,/enu,/imu,,,,6.59775003627,22.2302496032,-31.1691395695,,-0.575955591222,-0.816649233913,-0.0303162090739,0.0209788740554,"[0.025858640105642667, -0.004493053911302735, -0.004980220608022089, -1.4042953403391497e-06, -6.059957739826215e-06, -5.117219174976605e-05, -0.004493053911302735, 0.03217215412386408, 0.0030820628013560523, -1.2068675058445844e-06, -4.3654508570348965e-07, -1.5588924586443235e-05, -0.004980220608022089, 0.0030820628013560523, 0.2171619323444975, 4.5365962605194695e-06, 4.733065798998022e-07, -1.5512690942044509e-06, -1.4042953403391497e-06, -1.2068675058445844e-06, 4.5365962605194695e-06, 3.7168826956336954e-06, -2.804906548199701e-07, 6.944900366184239e-07, -6.059957739826215e-06, -4.3654508570348965e-07, 4.733065798998022e-07, -2.804906548199701e-07, 4.283533270604716e-06, 3.5160165378995456e-06, -5.117219174976605e-05, -1.5588924586443235e-05, -1.5512690942044509e-06, 6.944900366184239e-07, 3.5160165378995456e-06, 5.4635122830591e-05]",,,,0.835057583369,-0.000792660369722,0.0985926770124,,0.0313330300616,-0.0259879916052,-0.801582307415,"[0.00018472488827974253, -3.5745211914049375e-05, 3.431245091404557e-05, -2.910299385839071e-09, -4.712018504826007e-10, 2.9096573941272472e-08, -3.5745211914049375e-05, 0.0002450687541422932, 3.6743274581709865e-05, 3.764842089238718e-09, -9.920398645601379e-09, -2.3746776858696782e-08, 3.431245091404557e-05, 3.6743274581709865e-05, 0.0001828488718049256, -1.5873347412556682e-09, 1.523543753295243e-10, 2.4122087965847627e-09, -2.910299385839071e-09, 3.764842089238718e-09, -1.5873347412556682e-09, 1.971366754430501e-09, -3.5905606304621244e-12, -1.0654976425096985e-11, -4.712018504826007e-10, -9.920398645601379e-09, 1.523543753295243e-10, -3.5905606304621244e-12, 1.9522269359101176e-09, 2.1599405568052934e-12, 2.9096573941272472e-08, -2.3746776858696782e-08, 2.4122087965847627e-09, -1.0654976425096985e-11, 2.1599405568052934e-12, 1.95319485033326e-09]"
1402416553742887540,,208511,,1402416553,718020915,/enu,/imu,,,,6.59487184985,22.2380846659,-31.1694132817,,-0.572687415222,-0.818949659518,-0.0301892745183,0.0209567966599,"[0.02585964935850865, -0.004491734109421888, -0.004981974442418921, -1.4318794467318123e-06, -5.8749749376855865e-06, -5.086639129367747e-05, -0.004491734109421888, 0.03217456872143144, 0.003077953701364969, -1.3628388125520515e-06, -4.430531979093306e-07, -1.6147500532781306e-05, -0.004981974442418921, 0.003077953701364969, 0.21717552837884196, 4.545277503383185e-06, 4.868969745969117e-07, -1.5124025119241742e-06, -1.4318794467318123e-06, -1.3628388125520515e-06, 4.545277503383185e-06, 3.7571516479409353e-06, -2.804959505408542e-07, 6.944411480432547e-07, -5.8749749376855865e-06, -4.430531979093306e-07, 4.868969745969117e-07, -2.804959505408542e-07, 4.3237058914704515e-06, 3.515054798081495e-06, -5.086639129367747e-05, -1.6147500532781306e-05, -1.5124025119241742e-06, 6.944411480432547e-07, 3.515054798081495e-06, 5.467059602676195e-05]",,,,0.828911742769,-0.00221849338094,0.0954591253979,,0.0459121342598,-0.00787455824581,-0.796170363071,"[0.00018869325897453426, -3.636127091104628e-05, 3.402813724069866e-05, -3.0015922073052307e-09, -5.347821088079213e-10, 2.9380265471399462e-08, -3.636127091104628e-05, 0.00024912252715415795, 3.6989966977075866e-05, 3.906188264718046e-09, -1.0039894726982903e-08, -2.3653475841303047e-08, 3.402813724069866e-05, 3.6989966977075866e-05, 0.00018318308218101903, -1.5887836994077965e-09, 1.604595655486988e-10, 2.423983026114567e-09, -3.0015922073052307e-09, 3.906188264718046e-09, -1.5887836994077965e-09, 1.9713667449955277e-09, -3.5905433953541317e-12, -1.0654872855303375e-11, -5.347821088079213e-10, -1.0039894726982903e-08, 1.604595655486988e-10, -3.5905433953541317e-12, 1.95222688094265e-09, 2.1597332494914237e-12, 2.9380265471399462e-08, -2.3653475841303047e-08, 2.423983026114567e-09, -1.0654872855303375e-11, 2.1597332494914237e-12, 1.953193691110074e-09]"
1402416553742918283,,208512,,1402416553,728976011,/enu,/imu,,,,6.59180950949,22.2467590043,-31.1700208305,,-0.569078978083,-0.821467317293,-0.0299865159562,0.0210088596574,"[0.025860755953539413, -0.00449024388887604, -0.004983860493755395, -1.4622053653759118e-06, -5.667887738256098e-06, -5.05235330249265e-05, -0.00449024388887604, 0.032177189775956516, 0.0030736536675214574, -1.5374136081916924e-06, -4.500740798836196e-07, -1.6761368514747148e-05, -0.004983860493755395, 0.0030736536675214574, 0.21719015897074936, 4.554358482184567e-06, 5.02091192502111e-07, -1.4698368120779995e-06, -1.4622053653759118e-06, -1.5374136081916924e-06, 4.554358482184567e-06, 3.805116370957674e-06, -2.805019442825406e-07, 6.943873911693989e-07, -5.667887738256098e-06, -4.500740798836196e-07, 5.02091192502111e-07, -2.805019442825406e-07, 4.3715733290624694e-06, 3.514084657919355e-06, -5.05235330249265e-05, -1.6761368514747148e-05, -1.4698368120779995e-06, 6.943873911693989e-07, 3.514084657919355e-06, 5.471380442925889e-05]",,,,0.821720318894,-0.00398511980343,0.0917474182709,,0.0636942235112,-0.00301485615901,-0.802576328651,"[0.0001931564093633392, -3.704466862032132e-05, 3.372240226863009e-05, -3.10422766379253e-09, -6.032878552301658e-10, 2.9691747085649676e-08, -3.704466862032132e-05, 0.00025367822670740656, 3.724166998745667e-05, 4.060558792110258e-09, -1.0172241528510225e-08, -2.3545615632873608e-08, 3.372240226863009e-05, 3.724166998745667e-05, 0.0001835750506145878, -1.591370218885431e-09, 1.7109726540726866e-10, 2.4430112700490898e-09, -3.10422766379253e-09, 4.060558792110258e-09, -1.591370218885431e-09, 1.971366735313329e-09, -3.590525897481821e-12, -1.0654767618083759e-11, -6.032878552301658e-10, -1.0172241528510225e-08, 1.7109726540726866e-10, -3.590525897481821e-12, 1.952226825761388e-09, 2.1595262327797484e-12, 2.9691747085649676e-08, -2.3545615632873608e-08, 2.4430112700490898e-09, -1.0654767618083759e-11, 2.1595262327797484e-12, 1.9531925311729643e-09]"
1402416553742944867,,208513,,1402416553,739017963,/enu,/imu,,,,6.58874687126,22.2543647723,-31.1703289325,,-0.56577745457,-0.823753175638,-0.0298489338889,0.0208714798669,"[0.025861802466468266, -0.0044889305574973976, -0.004985585749362207, -1.490208151112048e-06, -5.473103333878531e-06, -5.019861016564072e-05, -0.0044889305574973976, 0.03217963306379837, 0.0030695257234095983, -1.7013586329545663e-06, -4.5642029107081603e-07, -1.7328545110182932e-05, -0.004985585749362207, 0.0030695257234095983, 0.2172039751980733, 4.562185072070199e-06, 5.163767322245733e-07, -1.4306607508272685e-06, -1.490208151112048e-06, -1.7013586329545663e-06, 4.562185072070199e-06, 3.845407246590372e-06, -2.8050713198429097e-07, 6.943398621559679e-07, -5.473103333878531e-06, -4.5642029107081603e-07, 5.163767322245733e-07, -2.8050713198429097e-07, 4.41176678263785e-06, 3.513108525678594e-06, -5.019861016564072e-05, -1.7328545110182932e-05, -1.4306607508272685e-06, 6.943398621559679e-07, 3.513108525678594e-06, 5.474929004549503e-05]",,,,0.811504331802,-0.0105203681759,0.0947756826746,,0.0346464617025,-0.0277551544469,-0.800367369319,"[0.00019731665075851086, -3.7679388204217486e-05, 3.342846628504145e-05, -3.2011773058336494e-09, -6.664394518849488e-10, 2.997710179944302e-08, -3.7679388204217486e-05, 0.00025787381977464914, 3.749720394947596e-05, 4.203403118660315e-09, -1.0295262660300138e-08, -2.3444180636037575e-08, 3.342846628504145e-05, 3.749720394947596e-05, 0.00018390286040376064, -1.5917423057723629e-09, 1.7784103684039666e-10, 2.4461416929634604e-09, -3.2011773058336494e-09, 4.203403118660315e-09, -1.5917423057723629e-09, 1.9713667255482274e-09, -3.590508140971828e-12, -1.065466118635265e-11, -6.664394518849488e-10, -1.0295262660300138e-08, 1.7784103684039666e-10, -3.590508140971828e-12, 1.9522267703586985e-09, 2.1593195761804395e-12, 2.997710179944302e-08, -2.3444180636037575e-08, 2.4461416929634604e-09, -1.065466118635265e-11, 2.1593195761804395e-12, 1.953191369875822e-09]"
