rosbagTimestamp,transforms,-,header,seq,stamp,secs,nsecs,frame_id,child_frame_id,transform,translation,x,y,z,rotation,x,y,z,w
1402416553437900766,,errorv,,0,,1402416553,437485944,base_link,/z_drive,,,0.0,0.0,0.0,,0.0,0.0,0.0,1.0
1402416553438179491,,errorv,,0,,1402416553,437512547,/z_drive,port,,,-0.3,0.3048,0.0,,0.0,0.0,0.0,1.0
1402416553438211365,,errorv,,0,,1402416553,437768115,/z_drive,starboard,,,-0.3,-0.3048,0.0,,0.0,0.0,0.0,1.0
1402416553442995172,,errorv,,0,,1402416553,370142936,/enu,/base_link,,,6.68951762879,21.7933348435,-31.1613960713,,0.0297930340621,-0.0191081553572,0.740079291667,0.671587593368
1402416553443284922,,errorv,,0,,1402416553,381141901,/enu,/base_link,,,6.69187470926,21.8062561848,-31.1617349531,,0.0298287717636,-0.0193767643161,0.742855387744,0.668506288886
1402416553443326820,,errorv,,0,,1402416553,391143083,/enu,/base_link,,,6.67068686513,21.7882552094,-31.0853873728,,0.0301911593756,-0.021968978095,0.746366940823,0.664486453996
1402416553443356880,,errorv,,0,,1402416553,401139974,/enu,/base_link,,,6.67231975275,21.7992000163,-31.0851337461,,0.0302094278277,-0.0222139206474,0.748891031525,0.661631434487
1402416553457747685,,errorv,,0,,1402416553,457514986,base_link,/z_drive,,,0.0,0.0,0.0,,0.0,0.0,0.0,1.0
1402416553457779656,,errorv,,0,,1402416553,457535327,/z_drive,port,,,-0.3,0.3048,0.0,,0.0,0.0,0.0,1.0
1402416553457802351,,errorv,,0,,1402416553,457544841,/z_drive,starboard,,,-0.3,-0.3048,0.0,,0.0,0.0,0.0,1.0
1402416553468658137,,errorv,,0,,1402416553,568456627,/base_link,/gps,,,-0.84,0.0,-0.14,,0.0,0.0,0.0,1.0
1402416553468796607,,errorv,,0,,1402416553,568622711,base_link,imu,,,0.13,0.0,-0.1,,1.0,0.0,0.0,0.0
1402416553477616514,,errorv,,0,,1402416553,477471755,base_link,/z_drive,,,0.0,0.0,0.0,,0.0,0.0,0.0,1.0
1402416553478091094,,errorv,,0,,1402416553,477488060,/z_drive,port,,,-0.3,0.3048,0.0,,0.0,0.0,0.0,1.0
1402416553478113571,,errorv,,0,,1402416553,477563555,/z_drive,starboard,,,-0.3,-0.3048,0.0,,0.0,0.0,0.0,1.0
1402416553483049009,,errorv,,0,,1402416553,412142038,/enu,/base_link,,,6.674090281,21.8111384971,-31.084878232,,0.0301639768451,-0.022532077378,0.751652898237,0.658483379109
1402416553483078740,,errorv,,0,,1402416553,422139883,/enu,/base_link,,,6.67568127296,21.8218113961,-31.0845756227,,0.030261957924,-0.0228578816548,0.754141324436,0.65561619407
1402416553483233642,,errorv,,0,,1402416553,432141065,/enu,/base_link,,,6.6770899267,21.8323841659,-31.0841799996,,0.0301367248855,-0.0231833415563,0.75664018497,0.652725011759
1402416553483257926,,errorv,,0,,1402416553,443145036,/enu,/base_link,,,6.67881834619,21.8439935266,-31.083982247,,0.0302810793602,-0.0235872867379,0.759400127111,0.649490679749
1402416553483287567,,errorv,,0,,1402416553,453174114,/enu,/base_link,,,6.68010024615,21.8544961881,-31.0836568525,,0.030228703918,-0.0239062317445,0.761881496914,0.646568868879
1402416553497799090,,errorv,,0,,1402416553,497522038,base_link,/z_drive,,,0.0,0.0,0.0,,0.0,0.0,0.0,1.0
1402416553497821001,,errorv,,0,,1402416553,497544780,/z_drive,port,,,-0.3,0.3048,0.0,,0.0,0.0,0.0,1.0
1402416553497867208,,errorv,,0,,1402416553,497552771,/z_drive,starboard,,,-0.3,-0.3048,0.0,,0.0,0.0,0.0,1.0
1402416553517722249,,errorv,,0,,1402416553,517452022,base_link,/z_drive,,,0.0,0.0,0.0,,0.0,0.0,0.0,1.0
1402416553517753029,,errorv,,0,,1402416553,517469513,/z_drive,port,,,-0.3,0.3048,0.0,,0.0,0.0,0.0,1.0
1402416553517776466,,errorv,,0,,1402416553,517477850,/z_drive,starboard,,,-0.3,-0.3048,0.0,,0.0,0.0,0.0,1.0
1402416553523077453,,errorv,,0,,1402416553,463141918,/enu,/base_link,,,6.68151199358,21.8646670948,-31.0832444601,,0.0303400604062,-0.0241505795208,0.764366492994,0.643614865142
1402416553523108545,,errorv,,0,,1402416553,474144935,/enu,/base_link,,,6.68292812567,21.8759049098,-31.0830069372,,0.030491242746,-0.024412142406,0.767074778185,0.640367563273
1402416553523133884,,errorv,,0,,1402416553,484141111,/enu,/base_link,,,6.69431044939,21.90134941,-31.0962461805,,0.0288718452389,-0.0233357795485,0.767983310177,0.639393066302
1402416553531320392,,errorv,,0,,1402416553,494065999,/enu,/base_link,,,6.69557333581,21.911789672,-31.0963863381,,0.0290092700858,-0.023581153994,0.770431459006,0.636425768177
1402416553531362740,,errorv,,0,,1402416553,505100011,/enu,/base_link,,,6.69686529348,21.9232014946,-31.0962139436,,0.0289006836111,-0.0238280357542,0.773122039538,0.633150287989
1402416553537854551,,errorv,,0,,1402416553,537697018,base_link,/z_drive,,,0.0,0.0,0.0,,0.0,0.0,0.0,1.0
1402416553537884061,,errorv,,0,,1402416553,537712515,/z_drive,port,,,-0.3,0.3048,0.0,,0.0,0.0,0.0,1.0
1402416553537906603,,errorv,,0,,1402416553,537716643,/z_drive,starboard,,,-0.3,-0.3048,0.0,,0.0,0.0,0.0,1.0
1402416553557627777,,errorv,,0,,1402416553,557464226,base_link,/z_drive,,,0.0,0.0,0.0,,0.0,0.0,0.0,1.0
1402416553557809559,,errorv,,0,,1402416553,557480959,/z_drive,port,,,-0.3,0.3048,0.0,,0.0,0.0,0.0,1.0
1402416553557837964,,errorv,,0,,1402416553,557518638,/z_drive,starboard,,,-0.3,-0.3048,0.0,,0.0,0.0,0.0,1.0
1402416553568746328,,errorv,,0,,1402416553,668554138,/base_link,/gps,,,-0.84,0.0,-0.14,,0.0,0.0,0.0,1.0
1402416553568913604,,errorv,,0,,1402416553,668713084,base_link,imu,,,0.13,0.0,-0.1,,1.0,0.0,0.0,0.0
1402416553571230233,,errorv,,0,,1402416553,515098094,/enu,/base_link,,,6.69784404026,21.9332310061,-31.0958548989,,0.0289584954879,-0.024101934281,0.775576932881,0.630127704109
1402416553571259021,,errorv,,0,,1402416553,525047063,/enu,/base_link,,,6.69870805276,21.9432667766,-31.0957654687,,0.0289427473422,-0.0242809379209,0.778003202308,0.627123409409
1402416553577896990,,errorv,,0,,1402416553,577730191,base_link,/z_drive,,,0.0,0.0,0.0,,0.0,0.0,0.0,1.0
1402416553577925543,,errorv,,0,,1402416553,577752208,/z_drive,port,,,-0.3,0.3048,0.0,,0.0,0.0,0.0,1.0
1402416553577947593,,errorv,,0,,1402416553,577756977,/z_drive,starboard,,,-0.3,-0.3048,0.0,,0.0,0.0,0.0,1.0
1402416553597718328,,errorv,,0,,1402416553,597506872,base_link,/z_drive,,,0.0,0.0,0.0,,0.0,0.0,0.0,1.0
1402416553597748664,,errorv,,0,,1402416553,597531135,/z_drive,port,,,-0.3,0.3048,0.0,,0.0,0.0,0.0,1.0
1402416553597770682,,errorv,,0,,1402416553,597538104,/z_drive,starboard,,,-0.3,-0.3048,0.0,,0.0,0.0,0.0,1.0
1402416553611111176,,errorv,,0,,1402416553,535155057,/enu,/base_link,,,6.68734086048,21.9465305087,-31.0674604519,,0.0273877646251,-0.0254648337618,0.779386686435,0.625426131208
1402416553611247987,,errorv,,0,,1402416553,545048952,/enu,/base_link,,,6.68773736651,21.9564508152,-31.0673949385,,0.0273462131146,-0.0255614366979,0.781788102133,0.622419601993
1402416553611272730,,errorv,,0,,1402416553,556041955,/enu,/base_link,,,6.6882981081,21.9673116828,-31.0672917616,,0.0272177355811,-0.0257291499963,0.784469306227,0.619035631687
1402416553611297492,,errorv,,0,,1402416553,566046953,/enu,/base_link,,,6.68851158942,21.9770411246,-31.0672774445,,0.0273023033216,-0.0259086987151,0.786893007704,0.615940514977
1402416553617685975,,errorv,,0,,1402416553,617504320,base_link,/z_drive,,,0.0,0.0,0.0,,0.0,0.0,0.0,1.0
1402416553617714293,,errorv,,0,,1402416553,617520096,/z_drive,port,,,-0.3,0.3048,0.0,,0.0,0.0,0.0,1.0
1402416553617732329,,errorv,,0,,1402416553,617526263,/z_drive,starboard,,,-0.3,-0.3048,0.0,,0.0,0.0,0.0,1.0
1402416553637700825,,errorv,,0,,1402416553,637466274,base_link,/z_drive,,,0.0,0.0,0.0,,0.0,0.0,0.0,1.0
1402416553637731859,,errorv,,0,,1402416553,637487623,/z_drive,port,,,-0.3,0.3048,0.0,,0.0,0.0,0.0,1.0
1402416553637755964,,errorv,,0,,1402416553,637499138,/z_drive,starboard,,,-0.3,-0.3048,0.0,,0.0,0.0,0.0,1.0
1402416553651379582,,errorv,,0,,1402416553,576046943,/enu,/base_link,,,6.68897192839,21.9867492704,-31.0672895255,,0.0272074001568,-0.0260424746775,0.789310281105,0.612838336783
1402416553651406154,,errorv,,0,,1402416553,586039066,/enu,/base_link,,,6.70400400801,22.0095327465,-31.0719362446,,0.0267176015467,-0.0245050261345,0.790937327769,0.61082224665
1402416553651420718,,errorv,,0,,1402416553,596043109,/enu,/base_link,,,6.70425092482,22.0191642765,-31.0716614919,,0.0266053290861,-0.0246087154509,0.793334626856,0.607706127515
1402416553651435342,,errorv,,0,,1402416553,606036901,/enu,/base_link,,,6.704716933,22.0288988537,-31.0717882725,,0.0267300511099,-0.024596771315,0.795726343757,0.604566033664
1402416553657748650,,errorv,,0,,1402416553,657481021,base_link,/z_drive,,,0.0,0.0,0.0,,0.0,0.0,0.0,1.0
1402416553657776381,,errorv,,0,,1402416553,657495390,/z_drive,port,,,-0.3,0.3048,0.0,,0.0,0.0,0.0,1.0
1402416553657796937,,errorv,,0,,1402416553,657501925,/z_drive,starboard,,,-0.3,-0.3048,0.0,,0.0,0.0,0.0,1.0
1402416553668884208,,errorv,,0,,1402416553,768667216,/base_link,/gps,,,-0.84,0.0,-0.14,,0.0,0.0,0.0,1.0
1402416553669012881,,errorv,,0,,1402416553,768819821,base_link,imu,,,0.13,0.0,-0.1,,1.0,0.0,0.0,0.0
1402416553678868051,,errorv,,0,,1402416553,677532716,base_link,/z_drive,,,0.0,0.0,0.0,,0.0,0.0,0.0,1.0
1402416553678889485,,errorv,,0,,1402416553,677550841,/z_drive,port,,,-0.3,0.3048,0.0,,0.0,0.0,0.0,1.0
1402416553678912490,,errorv,,0,,1402416553,677560928,/z_drive,starboard,,,-0.3,-0.3048,0.0,,0.0,0.0,0.0,1.0
1402416553691530965,,errorv,,0,,1402416553,616017103,/enu,/base_link,,,6.70492818603,22.0385726724,-31.0719272396,,0.0266188976255,-0.0246647568898,0.798123868714,0.601399513007
1402416553691556347,,errorv,,0,,1402416553,626019954,/enu,/base_link,,,6.70510144857,22.047962232,-31.071806734,,0.0266867525982,-0.0246639085948,0.800496693301,0.598234529982
1402416553691583758,,errorv,,0,,1402416553,637003898,/enu,/base_link,,,6.68276633474,22.053498186,-31.0470453388,,0.0228234057747,-0.0265441095177,0.800440528647,0.598389056132
1402416553691618148,,errorv,,0,,1402416553,647037982,/enu,/base_link,,,6.68198098795,22.0627313184,-31.0468974323,,0.0227118305565,-0.0265150295435,0.80282372085,0.595193413272
1402416553697775844,,errorv,,0,,1402416553,697630800,base_link,/z_drive,,,0.0,0.0,0.0,,0.0,0.0,0.0,1.0
1402416553697859446,,errorv,,0,,1402416553,697649714,/z_drive,port,,,-0.3,0.3048,0.0,,0.0,0.0,0.0,1.0
1402416553697878123,,errorv,,0,,1402416553,697657831,/z_drive,starboard,,,-0.3,-0.3048,0.0,,0.0,0.0,0.0,1.0
1402416553717736114,,errorv,,0,,1402416553,717470034,base_link,/z_drive,,,0.0,0.0,0.0,,0.0,0.0,0.0,1.0
1402416553717765081,,errorv,,0,,1402416553,717484177,/z_drive,port,,,-0.3,0.3048,0.0,,0.0,0.0,0.0,1.0
1402416553717780254,,errorv,,0,,1402416553,717488604,/z_drive,starboard,,,-0.3,-0.3048,0.0,,0.0,0.0,0.0,1.0
1402416553731187715,,errorv,,0,,1402416553,657038927,/enu,/base_link,,,6.68136290231,22.0721611818,-31.0472130615,,0.0227721271205,-0.0263956657164,0.805183131107,0.592000696317
1402416553731224063,,errorv,,0,,1402416553,667015075,/enu,/base_link,,,6.68058480067,22.0812960708,-31.047304262,,0.0226626296809,-0.0263162306664,0.807549837339,0.588775951813
1402416553731248811,,errorv,,0,,1402416553,677018880,/enu,/base_link,,,6.67969314535,22.0904302081,-31.0475284032,,0.0226415358817,-0.0263155842413,0.809902288721,0.585536620208
1402416553731268599,,errorv,,0,,1402416553,688013076,/enu,/base_link,,,6.64471305288,22.083975639,-31.0777435572,,0.0211786450541,-0.0305098285362,0.812000574505,0.582473761092
1402416553737915170,,errorv,,0,,1402416553,737727355,base_link,/z_drive,,,0.0,0.0,0.0,,0.0,0.0,0.0,1.0
1402416553737940311,,errorv,,0,,1402416553,737750876,/z_drive,port,,,-0.3,0.3048,0.0,,0.0,0.0,0.0,1.0
1402416553738007296,,errorv,,0,,1402416553,737757559,/z_drive,starboard,,,-0.3,-0.3048,0.0,,0.0,0.0,0.0,1.0
1402416553757732371,,errorv,,0,,1402416553,757497883,base_link,/z_drive,,,0.0,0.0,0.0,,0.0,0.0,0.0,1.0
1402416553757814198,,errorv,,0,,1402416553,757585317,/z_drive,port,,,-0.3,0.3048,0.0,,0.0,0.0,0.0,1.0
1402416553757838958,,errorv,,0,,1402416553,757594736,/z_drive,starboard,,,-0.3,-0.3048,0.0,,0.0,0.0,0.0,1.0
1402416553769009086,,errorv,,0,,1402416553,868779135,/base_link,/gps,,,-0.84,0.0,-0.14,,0.0,0.0,0.0,1.0
1402416553769152933,,errorv,,0,,1402416553,868942284,base_link,imu,,,0.13,0.0,-0.1,,1.0,0.0,0.0,0.0
1402416553771218021,,errorv,,0,,1402416553,698014020,/enu,/base_link,,,6.64313737278,22.0923433367,-31.0778583056,,0.0211163327474,-0.0304341821041,0.814335138932,0.579211656091
1402416553771445502,,errorv,,0,,1402416553,707982063,/enu,/base_link,,,6.64132023193,22.1007588128,-31.0784062057,,0.0209788740556,-0.0303162090736,0.816649233903,0.575955591237
1402416553771478403,,errorv,,0,,1402416553,718020915,/enu,/base_link,,,6.63945867677,22.1089674858,-31.0786413873,,0.0209567966602,-0.0301892745188,0.818949659519,0.57268741522
1402416553771512310,,errorv,,0,,1402416553,728976011,/enu,/base_link,,,6.63753090099,22.1180642468,-31.0792134491,,0.0210088596578,-0.0299865159561,0.821467317297,0.569078978077
1402416553777779940,,errorv,,0,,1402416553,777508453,base_link,/z_drive,,,0.0,0.0,0.0,,0.0,0.0,0.0,1.0
1402416553777810295,,errorv,,0,,1402416553,777529381,/z_drive,port,,,-0.3,0.3048,0.0,,0.0,0.0,0.0,1.0
1402416553777835807,,errorv,,0,,1402416553,777537025,/z_drive,starboard,,,-0.3,-0.3048,0.0,,0.0,0.0,0.0,1.0
1402416553797650933,,errorv,,0,,1402416553,797480480,base_link,/z_drive,,,0.0,0.0,0.0,,0.0,0.0,0.0,1.0
1402416553797734244,,errorv,,0,,1402416553,797505664,/z_drive,port,,,-0.3,0.3048,0.0,,0.0,0.0,0.0,1.0
1402416553797758877,,errorv,,0,,1402416553,797516296,/z_drive,starboard,,,-0.3,-0.3048,0.0,,0.0,0.0,0.0,1.0
1402416553811292124,,errorv,,0,,1402416553,739017963,/enu,/base_link,,,6.63546622366,22.1260754544,-31.0794558408,,0.0208714798663,-0.0298489338894,0.823753175637,0.565777454572
1402416553811319816,,errorv,,0,,1402416553,748956918,/enu,/base_link,,,6.63350206802,22.1339815652,-31.0797876305,,0.0208889704649,-0.0296996520384,0.826025030985,0.562462647442
1402416553811341976,,errorv,,0,,1402416553,759031057,/enu,/base_link,,,6.63142130218,22.141908807,-31.0801255569,,0.0207062596853,-0.0297136250558,0.828299561356,0.559113752249
1402416553811389189,,errorv,,0,,1402416553,769948959,/enu,/base_link,,,6.62912707368,22.1502036838,-31.0801653422,,0.0207134827113,-0.0295866056182,0.83074883187,0.555474538344
1402416553811410033,,errorv,,0,,1402416553,779946088,/enu,/base_link,,,6.62700364143,22.1578957563,-31.0806189621,,0.020548265529,-0.0295012235893,0.832965730771,0.552155356717
1402416553817956497,,errorv,,0,,1402416553,817574510,base_link,/z_drive,,,0.0,0.0,0.0,,0.0,0.0,0.0,1.0
1402416553817992259,,errorv,,0,,1402416553,817608564,/z_drive,port,,,-0.3,0.3048,0.0,,0.0,0.0,0.0,1.0
1402416553818120816,,errorv,,0,,1402416553,817615859,/z_drive,starboard,,,-0.3,-0.3048,0.0,,0.0,0.0,0.0,1.0
1402416553837940108,,errorv,,0,,1402416553,837506704,base_link,/z_drive,,,0.0,0.0,0.0,,0.0,0.0,0.0,1.0
1402416553837966899,,errorv,,0,,1402416553,837549669,/z_drive,port,,,-0.3,0.3048,0.0,,0.0,0.0,0.0,1.0
1402416553837993134,,errorv,,0,,1402416553,837559354,/z_drive,starboard,,,-0.3,-0.3048,0.0,,0.0,0.0,0.0,1.0
1402416553851159147,,errorv,,0,,1402416553,789947986,/enu,/base_link,,,6.64173920494,22.1907350468,-31.0341702388,,0.0171221893799,-0.0258998177823,0.831793794804,0.554215763935
1402416553851184123,,errorv,,0,,1402416553,799943923,/enu,/base_link,,,6.63932790269,22.1991247733,-31.0344037321,,0.0171478594998,-0.0256793277282,0.834026533488,0.550859568747
1402416553851248895,,errorv,,0,,1402416553,811378955,/enu,/base_link,,,6.63655924918,22.2085353435,-31.0346098094,,0.0170315175181,-0.0255958361437,0.836543430124,0.547037357134
1402416553857736798,,errorv,,0,,1402416553,857499089,base_link,/z_drive,,,0.0,0.0,0.0,,0.0,0.0,0.0,1.0
1402416553857776623,,errorv,,0,,1402416553,857554062,/z_drive,port,,,-0.3,0.3048,0.0,,0.0,0.0,0.0,1.0
1402416553857806758,,errorv,,0,,1402416553,857562665,/z_drive,starboard,,,-0.3,-0.3048,0.0,,0.0,0.0,0.0,1.0
1402416553859304994,,errorv,,0,,1402416553,820926904,/enu,/base_link,,,6.63403796727,22.216378722,-31.0350064933,,0.0170049011191,-0.0254325818559,0.83866301843,0.543790730553
1402416553859332693,,errorv,,0,,1402416553,830936908,/enu,/base_link,,,6.63149127024,22.2242263267,-31.035049172,,0.0169469415563,-0.0253495666018,0.840846331593,0.54041432928
1402416553869108758,,errorv,,0,,1402416553,968884580,/base_link,/gps,,,-0.84,0.0,-0.14,,0.0,0.0,0.0,1.0
1402416553869253728,,errorv,,0,,1402416553,969064565,base_link,imu,,,0.13,0.0,-0.1,,1.0,0.0,0.0,0.0
1402416553877677661,,errorv,,0,,1402416553,877491650,base_link,/z_drive,,,0.0,0.0,0.0,,0.0,0.0,0.0,1.0
1402416553877712717,,errorv,,0,,1402416553,877538887,/z_drive,port,,,-0.3,0.3048,0.0,,0.0,0.0,0.0,1.0
1402416553877747012,,errorv,,0,,1402416553,877549699,/z_drive,starboard,,,-0.3,-0.3048,0.0,,0.0,0.0,0.0,1.0
1402416553897786859,,errorv,,0,,1402416553,897526313,base_link,/z_drive,,,0.0,0.0,0.0,,0.0,0.0,0.0,1.0
1402416553897815228,,errorv,,0,,1402416553,897546832,/z_drive,port,,,-0.3,0.3048,0.0,,0.0,0.0,0.0,1.0
1402416553897834887,,errorv,,0,,1402416553,897551462,/z_drive,starboard,,,-0.3,-0.3048,0.0,,0.0,0.0,0.0,1.0
1402416553899079575,,errorv,,0,,1402416553,840925931,/enu,/base_link,,,6.62873451127,22.2322439988,-31.0354661989,,0.0169451954402,-0.0252090234665,0.843018133015,0.537026808358
1402416553899109485,,errorv,,0,,1402416553,851913928,/enu,/base_link,,,6.62589594082,22.2408965662,-31.0357500818,,0.0169205158025,-0.0250307444849,0.845385350764,0.533301759503
1402416553917751883,,errorv,,0,,1402416553,917516503,base_link,/z_drive,,,0.0,0.0,0.0,,0.0,0.0,0.0,1.0
1402416553917780573,,errorv,,0,,1402416553,917543963,/z_drive,port,,,-0.3,0.3048,0.0,,0.0,0.0,0.0,1.0
1402416553917804103,,errorv,,0,,1402416553,917548405,/z_drive,starboard,,,-0.3,-0.3048,0.0,,0.0,0.0,0.0,1.0
1402416553937921031,,errorv,,0,,1402416553,937574229,base_link,/z_drive,,,0.0,0.0,0.0,,0.0,0.0,0.0,1.0
1402416553937951982,,errorv,,0,,1402416553,937596955,/z_drive,port,,,-0.3,0.3048,0.0,,0.0,0.0,0.0,1.0
1402416553937983055,,errorv,,0,,1402416553,937605035,/z_drive,starboard,,,-0.3,-0.3048,0.0,,0.0,0.0,0.0,1.0
1402416553939093796,,errorv,,0,,1402416553,861920118,/enu,/base_link,,,6.62293570019,22.2485933977,-31.0360395972,,0.0169766473722,-0.024806286396,0.84752240259,0.529907745468
1402416553939218823,,errorv,,0,,1402416553,871921062,/enu,/base_link,,,6.62024291131,22.2560807151,-31.0359576677,,0.0169977129248,-0.0246294522275,0.849651165184,0.526495361177
1402416553939300400,,errorv,,0,,1402416553,882913112,/enu,/base_link,,,6.61674709119,22.2643073835,-31.0363338772,,0.0169100045623,-0.024565871148,0.851971912233,0.522737439339
1402416553939328261,,errorv,,0,,1402416553,892910957,/enu,/base_link,,,6.62489259577,22.2860866271,-31.0504186765,,0.0165725054219,-0.023248457297,0.853582811642,0.520174244813
1402416553957808380,,errorv,,0,,1402416553,957566661,base_link,/z_drive,,,0.0,0.0,0.0,,0.0,0.0,0.0,1.0
1402416553957891706,,errorv,,0,,1402416553,957604046,/z_drive,port,,,-0.3,0.3048,0.0,,0.0,0.0,0.0,1.0
1402416553957916004,,errorv,,0,,1402416553,957615378,/z_drive,starboard,,,-0.3,-0.3048,0.0,,0.0,0.0,0.0,1.0
1402416553969183444,,errorv,,0,,1402416554,68999058,/base_link,/gps,,,-0.84,0.0,-0.14,,0.0,0.0,0.0,1.0
1402416553969352092,,errorv,,0,,1402416554,69178603,base_link,imu,,,0.13,0.0,-0.1,,1.0,0.0,0.0,0.0
1402416553977756291,,errorv,,0,,1402416553,977606490,base_link,/z_drive,,,0.0,0.0,0.0,,0.0,0.0,0.0,1.0
1402416553977785377,,errorv,,0,,1402416553,977619525,/z_drive,port,,,-0.3,0.3048,0.0,,0.0,0.0,0.0,1.0
1402416553977806130,,errorv,,0,,1402416553,977623738,/z_drive,starboard,,,-0.3,-0.3048,0.0,,0.0,0.0,0.0,1.0
1402416553979126233,,errorv,,0,,1402416553,902895927,/enu,/base_link,,,6.62213170091,22.2935248139,-31.0505592906,,0.0165045288913,-0.0231451258109,0.855653508381,0.516767817566
1402416553979148433,,errorv,,0,,1402416553,913882017,/enu,/base_link,,,6.61855513231,22.3015356342,-31.0505550386,,0.0166477628487,-0.022877829571,0.857931889987,0.512983751252
1402416553979372417,,errorv,,0,,1402416553,923892974,/enu,/base_link,,,6.6156314951,22.3089013243,-31.050960073,,0.0165854395419,-0.0228152267595,0.859979367663,0.509548698181
1402416553979396830,,errorv,,0,,1402416553,933877944,/enu,/base_link,,,6.61232384055,22.3160218786,-31.0509398881,,0.0165990735527,-0.0226234326484,0.862023554644,0.506090942709
1402416553997704338,,errorv,,0,,1402416553,997545834,base_link,/z_drive,,,0.0,0.0,0.0,,0.0,0.0,0.0,1.0
1402416553997733818,,errorv,,0,,1402416553,997562700,/z_drive,port,,,-0.3,0.3048,0.0,,0.0,0.0,0.0,1.0
1402416553997750481,,errorv,,0,,1402416553,997566917,/z_drive,starboard,,,-0.3,-0.3048,0.0,,0.0,0.0,0.0,1.0
1402416554017849758,,errorv,,0,,1402416554,17675112,base_link,/z_drive,,,0.0,0.0,0.0,,0.0,0.0,0.0,1.0
1402416554017918662,,errorv,,0,,1402416554,17695349,/z_drive,port,,,-0.3,0.3048,0.0,,0.0,0.0,0.0,1.0
1402416554017951653,,errorv,,0,,1402416554,17704455,/z_drive,starboard,,,-0.3,-0.3048,0.0,,0.0,0.0,0.0,1.0
1402416554019133133,,errorv,,0,,1402416553,943867921,/enu,/base_link,,,6.62395858687,22.3519341604,-31.0991893857,,0.0156048842979,-0.0209007252343,0.862958827624,0.50460054409
1402416554019161711,,errorv,,0,,1402416553,954866886,/enu,/base_link,,,6.62028238789,22.360018149,-31.0993522325,,0.0155988451059,-0.0208229467272,0.865175347249,0.500794068888
1402416554019187551,,errorv,,0,,1402416553,964848995,/enu,/base_link,,,6.61685647286,22.3672558255,-31.0992784599,,0.0155642660499,-0.0207072290305,0.867171315705,0.497335775414
1402416554019208375,,errorv,,0,,1402416553,974852085,/enu,/base_link,,,6.61360322087,22.37458458,-31.0995878471,,0.0155191693633,-0.0206285555695,0.869164283724,0.493849234054
1402416554037920854,,errorv,,0,,1402416554,37519678,base_link,/z_drive,,,0.0,0.0,0.0,,0.0,0.0,0.0,1.0
1402416554037958301,,errorv,,0,,1402416554,37541292,/z_drive,port,,,-0.3,0.3048,0.0,,0.0,0.0,0.0,1.0
1402416554037991333,,errorv,,0,,1402416554,37552943,/z_drive,starboard,,,-0.3,-0.3048,0.0,,0.0,0.0,0.0,1.0
1402416554057657631,,errorv,,0,,1402416554,57506739,base_link,/z_drive,,,0.0,0.0,0.0,,0.0,0.0,0.0,1.0
1402416554057685037,,errorv,,0,,1402416554,57518860,/z_drive,port,,,-0.3,0.3048,0.0,,0.0,0.0,0.0,1.0
1402416554057713246,,errorv,,0,,1402416554,57523120,/z_drive,starboard,,,-0.3,-0.3048,0.0,,0.0,0.0,0.0,1.0
1402416554059275668,,errorv,,0,,1402416553,984847068,/enu,/base_link,,,6.64405906839,22.419508931,-31.1312838449,,0.0161155770211,-0.0164668256004,0.870780345611,0.491132081551
1402416554059357805,,errorv,,0,,1402416553,995848894,/enu,/base_link,,,6.64070985982,22.4279250519,-31.1313448515,,0.0161428541029,-0.0164264774023,0.872916851404,0.487325096456
1402416554059384254,,errorv,,0,,1402416554,5856990,/enu,/base_link,,,6.63770405164,22.4356885211,-31.1318357957,,0.0161496314938,-0.0162886095123,0.874847900039,0.483854340066
1402416554059405106,,errorv,,0,,1402416554,15870094,/enu,/base_link,,,6.63450265973,22.4431319719,-31.1318166017,,0.016082634845,-0.0162934632583,0.876768796782,0.480366889888
1402416554069277979,,errorv,,0,,1402416554,169107099,/base_link,/gps,,,-0.84,0.0,-0.14,,0.0,0.0,0.0,1.0
1402416554069464505,,errorv,,0,,1402416554,169281504,base_link,imu,,,0.13,0.0,-0.1,,1.0,0.0,0.0,0.0
1402416554077772895,,errorv,,0,,1402416554,77507885,base_link,/z_drive,,,0.0,0.0,0.0,,0.0,0.0,0.0,1.0
1402416554077802528,,errorv,,0,,1402416554,77527148,/z_drive,port,,,-0.3,0.3048,0.0,,0.0,0.0,0.0,1.0
1402416554077827569,,errorv,,0,,1402416554,77537148,/z_drive,starboard,,,-0.3,-0.3048,0.0,,0.0,0.0,0.0,1.0
1402416554097683816,,errorv,,0,,1402416554,97494754,base_link,/z_drive,,,0.0,0.0,0.0,,0.0,0.0,0.0,1.0
1402416554097714663,,errorv,,0,,1402416554,97514835,/z_drive,port,,,-0.3,0.3048,0.0,,0.0,0.0,0.0,1.0
1402416554097788951,,errorv,,0,,1402416554,97522277,/z_drive,starboard,,,-0.3,-0.3048,0.0,,0.0,0.0,0.0,1.0
1402416554099017332,,errorv,,0,,1402416554,25830984,/enu,/base_link,,,6.63147915119,22.4505381955,-31.1319830306,,0.0160992582698,-0.0162316113504,0.878660459565,0.476899512972
1402416554099105465,,errorv,,0,,1402416554,35856962,/enu,/base_link,,,6.64265927304,22.4815062708,-31.1242688676,,0.0150003829394,-0.0135968467884,0.879215494662,0.475993937162
1402416554099123699,,errorv,,0,,1402416554,46827077,/enu,/base_link,,,6.63921402733,22.4900947822,-31.1243659761,,0.0149671986372,-0.013561729811,0.881275537099,0.472171039095
1402416554099137832,,errorv,,0,,1402416554,56818008,/enu,/base_link,,,6.63600714559,22.4979127923,-31.1246357539,,0.0150133745149,-0.0134460554697,0.883139449899,0.468677409537
1402416554117697581,,errorv,,0,,1402416554,117486685,base_link,/z_drive,,,0.0,0.0,0.0,,0.0,0.0,0.0,1.0
1402416554117725334,,errorv,,0,,1402416554,117505474,/z_drive,port,,,-0.3,0.3048,0.0,,0.0,0.0,0.0,1.0
1402416554117748429,,errorv,,0,,1402416554,117513333,/z_drive,starboard,,,-0.3,-0.3048,0.0,,0.0,0.0,0.0,1.0
1402416554137650596,,errorv,,0,,1402416554,137432337,base_link,/z_drive,,,0.0,0.0,0.0,,0.0,0.0,0.0,1.0
1402416554137736799,,errorv,,0,,1402416554,137480415,/z_drive,port,,,-0.3,0.3048,0.0,,0.0,0.0,0.0,1.0
1402416554137759262,,errorv,,0,,1402416554,137490172,/z_drive,starboard,,,-0.3,-0.3048,0.0,,0.0,0.0,0.0,1.0
1402416554139264288,,errorv,,0,,1402416554,66808938,/enu,/base_link,,,6.63277481301,22.5055695721,-31.1246839629,,0.0149917833583,-0.0134082018426,0.88497778442,0.465198653952
1402416554139295800,,errorv,,0,,1402416554,77828884,/enu,/base_link,,,6.62903227754,22.5138589958,-31.1248923273,,0.015010671535,-0.0133364694228,0.887004644802,0.461323724107
1402416554139321063,,errorv,,0,,1402416554,87811946,/enu,/base_link,,,6.6294509006,22.5304802318,-31.0974166801,,0.0137680083342,-0.0121344901169,0.887763681108,0.459933519762
1402416554139402732,,errorv,,0,,1402416554,97937107,/enu,/base_link,,,6.62588930507,22.5382531604,-31.0975168031,,0.0137753794748,-0.0120543415918,0.889614638942,0.45634496376
1402416554139425784,,errorv,,0,,1402416554,107795953,/enu,/base_link,,,6.62231355822,22.5458662804,-31.0978032412,,0.0138121525518,-0.0119673081278,0.891382864055,0.452882542882
1402416554157745522,,errorv,,0,,1402416554,157499537,base_link,/z_drive,,,0.0,0.0,0.0,,0.0,0.0,0.0,1.0
1402416554157774408,,errorv,,0,,1402416554,157519774,/z_drive,port,,,-0.3,0.3048,0.0,,0.0,0.0,0.0,1.0
1402416554157799800,,errorv,,0,,1402416554,157528639,/z_drive,starboard,,,-0.3,-0.3048,0.0,,0.0,0.0,0.0,1.0
1402416554169370609,,errorv,,0,,1402416554,269203839,/base_link,/gps,,,-0.84,0.0,-0.14,,0.0,0.0,0.0,1.0
1402416554169555873,,errorv,,0,,1402416554,269384240,base_link,imu,,,0.13,0.0,-0.1,,1.0,0.0,0.0,0.0
1402416554177696837,,errorv,,0,,1402416554,177478871,base_link,/z_drive,,,0.0,0.0,0.0,,0.0,0.0,0.0,1.0
1402416554177823844,,errorv,,0,,1402416554,177495329,/z_drive,port,,,-0.3,0.3048,0.0,,0.0,0.0,0.0,1.0
1402416554177849871,,errorv,,0,,1402416554,177504954,/z_drive,starboard,,,-0.3,-0.3048,0.0,,0.0,0.0,0.0,1.0
1402416554179068149,,errorv,,0,,1402416554,118798971,/enu,/base_link,,,6.61821193933,22.5538749128,-31.0976563957,,0.0138132193752,-0.0119316954167,0.893357597499,0.448975536757
1402416554179122838,,errorv,,0,,1402416554,128796100,/enu,/base_link,,,6.61451919428,22.5612016735,-31.0976387609,,0.0137647418149,-0.0118621138034,0.895126442219,0.445441886872
1402416554179143306,,errorv,,0,,1402416554,138855934,/enu,/base_link,,,6.60301189627,22.5613193996,-31.0738186581,,0.0127579251892,-0.0127045826841,0.896444117213,0.442790891547
1402416554187371093,,errorv,,0,,1402416554,149785041,/enu,/base_link,,,6.59843226463,22.5691105586,-31.0739521619,,0.0127164669414,-0.0125941058305,0.898371916943,0.438870799684
1402416554187391138,,errorv,,0,,1402416554,159795045,/enu,/base_link,,,6.59424788865,22.5760893553,-31.0737881445,,0.0126522395047,-0.0125863988814,0.900119060601,0.435278278969
1402416554197709474,,errorv,,0,,1402416554,197505748,base_link,/z_drive,,,0.0,0.0,0.0,,0.0,0.0,0.0,1.0
1402416554197740108,,errorv,,0,,1402416554,197526712,/z_drive,port,,,-0.3,0.3048,0.0,,0.0,0.0,0.0,1.0
1402416554197871253,,errorv,,0,,1402416554,197536632,/z_drive,starboard,,,-0.3,-0.3048,0.0,,0.0,0.0,0.0,1.0
1402416554217698656,,errorv,,0,,1402416554,217506953,base_link,/z_drive,,,0.0,0.0,0.0,,0.0,0.0,0.0,1.0
1402416554217728470,,errorv,,0,,1402416554,217518911,/z_drive,port,,,-0.3,0.3048,0.0,,0.0,0.0,0.0,1.0
1402416554217795226,,errorv,,0,,1402416554,217523619,/z_drive,starboard,,,-0.3,-0.3048,0.0,,0.0,0.0,0.0,1.0
1402416554227111335,,errorv,,0,,1402416554,169787883,/enu,/base_link,,,6.59013117722,22.5830560881,-31.0740552664,,0.0126767068899,-0.0124903330525,0.901836164009,0.431711507802
1402416554227135561,,errorv,,0,,1402416554,180788040,/enu,/base_link,,,6.58544802971,22.5906968429,-31.0742735899,,0.0125614894112,-0.0124988518199,0.903726374766,0.427743646639
1402416554237682441,,errorv,,0,,1402416554,237484281,base_link,/z_drive,,,0.0,0.0,0.0,,0.0,0.0,0.0,1.0
1402416554237711286,,errorv,,0,,1402416554,237510826,/z_drive,port,,,-0.3,0.3048,0.0,,0.0,0.0,0.0,1.0
1402416554237731177,,errorv,,0,,1402416554,237522385,/z_drive,starboard,,,-0.3,-0.3048,0.0,,0.0,0.0,0.0,1.0
1402416554257633786,,errorv,,0,,1402416554,257464338,base_link,/z_drive,,,0.0,0.0,0.0,,0.0,0.0,0.0,1.0
1402416554257725317,,errorv,,0,,1402416554,257481106,/z_drive,port,,,-0.3,0.3048,0.0,,0.0,0.0,0.0,1.0
1402416554257890146,,errorv,,0,,1402416554,257490738,/z_drive,starboard,,,-0.3,-0.3048,0.0,,0.0,0.0,0.0,1.0
1402416554267186152,,errorv,,0,,1402416554,190771102,/enu,/base_link,,,6.5757703132,22.6176114335,-31.0799697441,,0.00952471388361,-0.0115559811802,0.903482556004,0.428363175495
1402416554267257134,,errorv,,0,,1402416554,200793981,/enu,/base_link,,,6.57106098374,22.6246954717,-31.0801489464,,0.00950774906674,-0.011500057425,0.905191971249,0.424740917
1402416554267434287,,errorv,,0,,1402416554,211782932,/enu,/base_link,,,6.5655771765,22.6321642479,-31.0801189985,,0.00940013390671,-0.0115293770705,0.907044974045,0.420770871147
1402416554267457795,,errorv,,0,,1402416554,221771001,/enu,/base_link,,,6.56060808817,22.6391858476,-31.0805888096,,0.0093163118213,-0.0114730432157,0.908713520141,0.417158619624
1402416554269471795,,errorv,,0,,1402416554,369300021,/base_link,/gps,,,-0.84,0.0,-0.14,,0.0,0.0,0.0,1.0
1402416554269649104,,errorv,,0,,1402416554,369485433,base_link,imu,,,0.13,0.0,-0.1,,1.0,0.0,0.0,0.0
1402416554277657539,,errorv,,0,,1402416554,277479714,base_link,/z_drive,,,0.0,0.0,0.0,,0.0,0.0,0.0,1.0
1402416554277684920,,errorv,,0,,1402416554,277497844,/z_drive,port,,,-0.3,0.3048,0.0,,0.0,0.0,0.0,1.0
1402416554277706495,,errorv,,0,,1402416554,277505732,/z_drive,starboard,,,-0.3,-0.3048,0.0,,0.0,0.0,0.0,1.0
1402416554297714395,,errorv,,0,,1402416554,297513854,base_link,/z_drive,,,0.0,0.0,0.0,,0.0,0.0,0.0,1.0
1402416554297764051,,errorv,,0,,1402416554,297527366,/z_drive,port,,,-0.3,0.3048,0.0,,0.0,0.0,0.0,1.0
1402416554297792392,,errorv,,0,,1402416554,297557162,/z_drive,starboard,,,-0.3,-0.3048,0.0,,0.0,0.0,0.0,1.0
1402416554307238160,,errorv,,0,,1402416554,232769012,/enu,/base_link,,,6.55508796653,22.6464735884,-31.0805244469,,0.00918408152011,-0.011481368055,0.91053443812,0.413171717124
1402416554307265982,,errorv,,0,,1402416554,242768049,/enu,/base_link,,,6.54990684938,22.6533644043,-31.0811150959,,0.00914061634891,-0.0113390105329,0.912184020067,0.409521903575
1402416554307287658,,errorv,,0,,1402416554,253740072,/enu,/base_link,,,6.54428700874,22.6607369171,-31.0816234313,,0.00907777194164,-0.01133970735,0.91398731646,0.405482663557
1402416554307308474,,errorv,,0,,1402416554,263756990,/enu,/base_link,,,6.53901611237,22.6671044279,-31.0817810471,,0.00895669182345,-0.0113938244036,0.915606437341,0.401814397871
1402416554317787265,,errorv,,0,,1402416554,317608817,base_link,/z_drive,,,0.0,0.0,0.0,,0.0,0.0,0.0,1.0
1402416554317814558,,errorv,,0,,1402416554,317627901,/z_drive,port,,,-0.3,0.3048,0.0,,0.0,0.0,0.0,1.0
1402416554317837286,,errorv,,0,,1402416554,317637085,/z_drive,starboard,,,-0.3,-0.3048,0.0,,0.0,0.0,0.0,1.0
1402416554337746664,,errorv,,0,,1402416554,337592506,base_link,/z_drive,,,0.0,0.0,0.0,,0.0,0.0,0.0,1.0
1402416554337779613,,errorv,,0,,1402416554,337605063,/z_drive,port,,,-0.3,0.3048,0.0,,0.0,0.0,0.0,1.0
1402416554337848567,,errorv,,0,,1402416554,337609081,/z_drive,starboard,,,-0.3,-0.3048,0.0,,0.0,0.0,0.0,1.0
1402416554347330229,,errorv,,0,,1402416554,273749113,/enu,/base_link,,,6.4578043082,22.6540438027,-31.2661639862,,0.00149281063036,-0.0222048330658,0.914836666688,0.403210354764
1402416554347357832,,errorv,,0,,1402416554,284714937,/enu,/base_link,,,6.44965869367,22.6597373614,-31.2675043628,,0.00132522751409,-0.0222126996848,0.916614540947,0.399152380764
1402416554347427746,,errorv,,0,,1402416554,294730901,/enu,/base_link,,,6.44174783946,22.6645392219,-31.2681281032,,0.00120718721625,-0.0221360823423,0.918215485307,0.395460312927
1402416554347450928,,errorv,,0,,1402416554,305713891,/enu,/base_link,,,6.43346606203,22.6700418922,-31.2696376164,,0.00101659036274,-0.0221883384236,0.919943172676,0.391422027011
1402416554357815528,,errorv,,0,,1402416554,357541563,base_link,/z_drive,,,0.0,0.0,0.0,,0.0,0.0,0.0,1.0
1402416554357845070,,errorv,,0,,1402416554,357660134,/z_drive,port,,,-0.3,0.3048,0.0,,0.0,0.0,0.0,1.0
1402416554357869540,,errorv,,0,,1402416554,357673042,/z_drive,starboard,,,-0.3,-0.3048,0.0,,0.0,0.0,0.0,1.0
1402416554369587846,,errorv,,0,,1402416554,469406081,/base_link,/gps,,,-0.84,0.0,-0.14,,0.0,0.0,0.0,1.0
1402416554369770389,,errorv,,0,,1402416554,469582872,base_link,imu,,,0.13,0.0,-0.1,,1.0,0.0,0.0,0.0
1402416554377630669,,errorv,,0,,1402416554,377472772,base_link,/z_drive,,,0.0,0.0,0.0,,0.0,0.0,0.0,1.0
1402416554377713944,,errorv,,0,,1402416554,377484523,/z_drive,port,,,-0.3,0.3048,0.0,,0.0,0.0,0.0,1.0
1402416554377742725,,errorv,,0,,1402416554,377488670,/z_drive,starboard,,,-0.3,-0.3048,0.0,,0.0,0.0,0.0,1.0
1402416554387468048,,errorv,,0,,1402416554,315762042,/enu,/base_link,,,6.42562854972,22.6746939151,-31.2705261898,,0.000863319914864,-0.0220955554212,0.92153092167,0.387674865726
1402416554387530863,,errorv,,0,,1402416554,326766967,/enu,/base_link,,,6.41714277286,22.6798299186,-31.2717557,,0.000771117702645,-0.021977851815,0.92324433859,0.383583459848
1402416554387591572,,errorv,,0,,1402416554,336728096,/enu,/base_link,,,6.40915115996,22.6842317164,-31.2727381798,,0.000566789325567,-0.021944151564,0.924787631126,0.37984993126
1402416554387671052,,errorv,,0,,1402416554,346716880,/enu,/base_link,,,6.40116816035,22.6887310567,-31.274092455,,0.000462463907451,-0.0218852490018,0.926304593456,0.376139099465
1402416554387696209,,errorv,,0,,1402416554,357701063,/enu,/base_link,,,6.44027726872,22.7515000678,-31.3632237753,,0.00278540972399,-0.0166396794048,0.928308767511,0.371427240148
1402416554397694946,,errorv,,0,,1402416554,397462060,base_link,/z_drive,,,0.0,0.0,0.0,,0.0,0.0,0.0,1.0
1402416554397761410,,errorv,,0,,1402416554,397532605,/z_drive,port,,,-0.3,0.3048,0.0,,0.0,0.0,0.0,1.0
1402416554397789060,,errorv,,0,,1402416554,397546163,/z_drive,starboard,,,-0.3,-0.3048,0.0,,0.0,0.0,0.0,1.0
1402416554417635273,,errorv,,0,,1402416554,417471500,base_link,/z_drive,,,0.0,0.0,0.0,,0.0,0.0,0.0,1.0
1402416554417660012,,errorv,,0,,1402416554,417487619,/z_drive,port,,,-0.3,0.3048,0.0,,0.0,0.0,0.0,1.0
1402416554417771691,,errorv,,0,,1402416554,417492850,/z_drive,starboard,,,-0.3,-0.3048,0.0,,0.0,0.0,0.0,1.0
1402416554427964219,,errorv,,0,,1402416554,367698907,/enu,/base_link,,,6.43302392608,22.7564467747,-31.3646064528,,0.00270806285269,-0.0165453482555,0.929809202855,0.36765984841
1402416554427990201,,errorv,,0,,1402416554,378715038,/enu,/base_link,,,6.42518151083,22.7619020935,-31.3661613351,,0.00253415121469,-0.0166061571708,0.931437643579,0.363513039306
1402416554428054496,,errorv,,0,,1402416554,388700008,/enu,/base_link,,,6.4605339072,22.8441608172,-31.536193164,,0.00354758943906,-0.012003444543,0.932543059253,0.360841758347
1402416554437741525,,errorv,,0,,1402416554,437597927,base_link,/z_drive,,,0.0,0.0,0.0,,0.0,0.0,0.0,1.0
1402416554437767425,,errorv,,0,,1402416554,437615828,/z_drive,port,,,-0.3,0.3048,0.0,,0.0,0.0,0.0,1.0
1402416554437833712,,errorv,,0,,1402416554,437623153,/z_drive,starboard,,,-0.3,-0.3048,0.0,,0.0,0.0,0.0,1.0
1402416554439262121,,errorv,,0,,1402416554,399714946,/enu,/base_link,,,6.45310042878,22.850239667,-31.5379773218,,0.00344670119017,-0.011983530701,0.934145627776,0.356674166922
1402416554439288572,,errorv,,0,,1402416554,409699916,/enu,/base_link,,,6.44617553834,22.8556766787,-31.5395605814,,0.00328952725901,-0.012045483245,0.935588687753,0.352870929224
1402416554457727018,,errorv,,0,,1402416554,457571377,base_link,/z_drive,,,0.0,0.0,0.0,,0.0,0.0,0.0,1.0
1402416554457757451,,errorv,,0,,1402416554,457593426,/z_drive,port,,,-0.3,0.3048,0.0,,0.0,0.0,0.0,1.0
1402416554457784250,,errorv,,0,,1402416554,457602047,/z_drive,starboard,,,-0.3,-0.3048,0.0,,0.0,0.0,0.0,1.0
1402416554469684468,,errorv,,0,,1402416554,569511790,/base_link,/gps,,,-0.84,0.0,-0.14,,0.0,0.0,0.0,1.0
1402416554469871035,,errorv,,0,,1402416554,569686207,base_link,imu,,,0.13,0.0,-0.1,,1.0,0.0,0.0,0.0
1402416554477625652,,errorv,,0,,1402416554,477473326,base_link,/z_drive,,,0.0,0.0,0.0,,0.0,0.0,0.0,1.0
1402416554477663867,,errorv,,0,,1402416554,477488682,/z_drive,port,,,-0.3,0.3048,0.0,,0.0,0.0,0.0,1.0
1402416554477689797,,errorv,,0,,1402416554,477494102,/z_drive,starboard,,,-0.3,-0.3048,0.0,,0.0,0.0,0.0,1.0
1402416554479185288,,errorv,,0,,1402416554,419676065,/enu,/base_link,,,6.43924719597,22.8610369032,-31.5411531159,,0.00326468878255,-0.0120230339402,0.937002864868,0.349099440978
1402416554479250948,,errorv,,0,,1402416554,430674076,/enu,/base_link,,,6.43162483147,22.8667882385,-31.5430112404,,0.00314636517639,-0.0120646304444,0.93854160511,0.344940865304
1402416554497764394,,errorv,,0,,1402416554,497604639,base_link,/z_drive,,,0.0,0.0,0.0,,0.0,0.0,0.0,1.0
1402416554497799965,,errorv,,0,,1402416554,497624867,/z_drive,port,,,-0.3,0.3048,0.0,,0.0,0.0,0.0,1.0
1402416554497957992,,errorv,,0,,1402416554,497629789,/z_drive,starboard,,,-0.3,-0.3048,0.0,,0.0,0.0,0.0,1.0
1402416554517630606,,errorv,,0,,1402416554,517474173,base_link,/z_drive,,,0.0,0.0,0.0,,0.0,0.0,0.0,1.0
1402416554517659340,,errorv,,0,,1402416554,517490435,/z_drive,port,,,-0.3,0.3048,0.0,,0.0,0.0,0.0,1.0
1402416554517682248,,errorv,,0,,1402416554,517495977,/z_drive,starboard,,,-0.3,-0.3048,0.0,,0.0,0.0,0.0,1.0
1402416554519211619,,errorv,,0,,1402416554,440682888,/enu,/base_link,,,6.44609308349,22.9453251777,-31.7019661026,,0.00164434887666,-0.00877429717062,0.938686347677,0.344656711105
1402416554519236419,,errorv,,0,,1402416554,451670885,/enu,/base_link,,,6.43824118785,22.9518300403,-31.7041440454,,0.00143888074195,-0.00882492993478,0.940218248117,0.340455130879
1402416554519260862,,errorv,,0,,1402416554,461662054,/enu,/base_link,,,6.43096548891,22.9575451369,-31.7059975058,,0.00143442474378,-0.00878063601876,0.941591791291,0.336638888768
1402416554519276035,,errorv,,0,,1402416554,471662044,/enu,/base_link,,,6.42394427462,22.9634370517,-31.7080790396,,0.00141138909141,-0.00873375305597,0.942953265544,0.33280755481
1402416554537674822,,errorv,,0,,1402416554,537517434,base_link,/z_drive,,,0.0,0.0,0.0,,0.0,0.0,0.0,1.0
1402416554538037901,,errorv,,0,,1402416554,537549841,/z_drive,port,,,-0.3,0.3048,0.0,,0.0,0.0,0.0,1.0
1402416554538066040,,errorv,,0,,1402416554,537587088,/z_drive,starboard,,,-0.3,-0.3048,0.0,,0.0,0.0,0.0,1.0
1402416554557639724,,errorv,,0,,1402416554,557473718,base_link,/z_drive,,,0.0,0.0,0.0,,0.0,0.0,0.0,1.0
1402416554557710566,,errorv,,0,,1402416554,557485812,/z_drive,port,,,-0.3,0.3048,0.0,,0.0,0.0,0.0,1.0
1402416554557738032,,errorv,,0,,1402416554,557491367,/z_drive,starboard,,,-0.3,-0.3048,0.0,,0.0,0.0,0.0,1.0
1402416554562776127,,errorv,,0,,1402416554,482661008,/enu,/base_link,,,6.4157458265,22.9696501495,-31.7101472656,,0.00121111644712,-0.00881035135024,0.944436936631,0.328572341551
1402416554562801185,,errorv,,0,,1402416554,492672920,/enu,/base_link,,,6.43131868643,23.0160488015,-31.6509497634,,0.00120034023408,-0.00248997403106,0.944856866514,0.327471924009
1402416554562821220,,errorv,,0,,1402416554,502674102,/enu,/base_link,,,6.42455013669,23.0228165683,-31.652845979,,0.00108624707757,-0.00255790288093,0.946185552521,0.3236126966
1402416554562843991,,errorv,,0,,1402416554,513663053,/enu,/base_link,,,6.41680031128,23.0298145294,-31.654409972,,0.00107344897989,-0.00256965777939,0.947622719104,0.319379753277
1402416554569785002,,errorv,,0,,1402416554,669607972,/base_link,/gps,,,-0.84,0.0,-0.14,,0.0,0.0,0.0,1.0
1402416554569970535,,errorv,,0,,1402416554,669785394,base_link,imu,,,0.13,0.0,-0.1,,1.0,0.0,0.0,0.0
1402416554577799965,,errorv,,0,,1402416554,577497381,base_link,/z_drive,,,0.0,0.0,0.0,,0.0,0.0,0.0,1.0
1402416554577828599,,errorv,,0,,1402416554,577516167,/z_drive,port,,,-0.3,0.3048,0.0,,0.0,0.0,0.0,1.0
1402416554577850878,,errorv,,0,,1402416554,577523506,/z_drive,starboard,,,-0.3,-0.3048,0.0,,0.0,0.0,0.0,1.0
1402416554597687904,,errorv,,0,,1402416554,597464435,base_link,/z_drive,,,0.0,0.0,0.0,,0.0,0.0,0.0,1.0
1402416554597747395,,errorv,,0,,1402416554,597485900,/z_drive,port,,,-0.3,0.3048,0.0,,0.0,0.0,0.0,1.0
1402416554597766905,,errorv,,0,,1402416554,597493162,/z_drive,starboard,,,-0.3,-0.3048,0.0,,0.0,0.0,0.0,1.0
1402416554599360344,,errorv,,0,,1402416554,523628950,/enu,/base_link,,,6.40966629078,23.0365168965,-31.6565368884,,0.000967088943135,-0.00261173836494,0.948911920476,0.315528779574
1402416554599386795,,errorv,,0,,1402416554,533629894,/enu,/base_link,,,6.40266851363,23.0428021805,-31.6580846654,,0.000951225577219,-0.00264670200716,0.950177609068,0.311696328763
1402416554599449734,,errorv,,0,,1402416554,544617891,/enu,/base_link,,,6.39475798472,23.0498177984,-31.6600383846,,0.000956891202837,-0.00266714808644,0.951547288466,0.307489395743
1402416554599470607,,errorv,,0,,1402416554,554629087,/enu,/base_link,,,6.38715135216,23.0558775149,-31.6613613885,,0.000818059657457,-0.00277523401151,0.952788363479,0.303621414385
1402416554617644809,,errorv,,0,,1402416554,617478874,base_link,/z_drive,,,0.0,0.0,0.0,,0.0,0.0,0.0,1.0
1402416554617665825,,errorv,,0,,1402416554,617496852,/z_drive,port,,,-0.3,0.3048,0.0,,0.0,0.0,0.0,1.0
1402416554617684910,,errorv,,0,,1402416554,617505345,/z_drive,starboard,,,-0.3,-0.3048,0.0,,0.0,0.0,0.0,1.0
1402416554637695072,,errorv,,0,,1402416554,637427116,base_link,/z_drive,,,0.0,0.0,0.0,,0.0,0.0,0.0,1.0
1402416554637727752,,errorv,,0,,1402416554,637482082,/z_drive,port,,,-0.3,0.3048,0.0,,0.0,0.0,0.0,1.0
1402416554637768174,,errorv,,0,,1402416554,637490437,/z_drive,starboard,,,-0.3,-0.3048,0.0,,0.0,0.0,0.0,1.0
1402416554639413195,,errorv,,0,,1402416554,565617084,/enu,/base_link,,,6.3793944865,23.0626983866,-31.6634462758,,0.000866856588944,-0.00277189824827,0.954134076274,0.299365545165
1402416554639438134,,errorv,,0,,1402416554,575601100,/enu,/base_link,,,6.3721800247,23.0688496585,-31.6653044325,,0.000710225410001,-0.0028496952189,0.955337337825,0.295502869316
1402416554639601657,,errorv,,0,,1402416554,585614919,/enu,/base_link,,,6.38655239263,23.1098502028,-31.6452098326,,0.00141486786445,0.00185130688273,0.956055627689,0.293176069242
1402416554639628368,,errorv,,0,,1402416554,596599102,/enu,/base_link,,,6.37872529259,23.1172523196,-31.6469676048,,0.0012452854499,0.00172340488276,0.957347069617,0.28893263477
1402416554657814389,,errorv,,0,,1402416554,657665389,base_link,/z_drive,,,0.0,0.0,0.0,,0.0,0.0,0.0,1.0
1402416554657840938,,errorv,,0,,1402416554,657683033,/z_drive,port,,,-0.3,0.3048,0.0,,0.0,0.0,0.0,1.0
1402416554657881257,,errorv,,0,,1402416554,657690925,/z_drive,starboard,,,-0.3,-0.3048,0.0,,0.0,0.0,0.0,1.0
1402416554669901059,,errorv,,0,,1402416554,769705079,/base_link,/gps,,,-0.84,0.0,-0.14,,0.0,0.0,0.0,1.0
1402416554670076649,,errorv,,0,,1402416554,769897021,base_link,imu,,,0.13,0.0,-0.1,,1.0,0.0,0.0,0.0
1402416554677742050,,errorv,,0,,1402416554,677579225,base_link,/z_drive,,,0.0,0.0,0.0,,0.0,0.0,0.0,1.0
1402416554677863285,,errorv,,0,,1402416554,677609409,/z_drive,port,,,-0.3,0.3048,0.0,,0.0,0.0,0.0,1.0
1402416554677894365,,errorv,,0,,1402416554,677615249,/z_drive,starboard,,,-0.3,-0.3048,0.0,,0.0,0.0,0.0,1.0
1402416554679261885,,errorv,,0,,1402416554,606616973,/enu,/base_link,,,6.3717631505,23.1240996978,-31.6488752794,,0.00124290522921,0.00167282550886,0.958505428892,0.285066658217
1402416554679324007,,errorv,,0,,1402416554,616625070,/enu,/base_link,,,6.36473959459,23.1308103025,-31.6506803227,,0.00123488645007,0.00161646515712,0.959667224831,0.281131072065
1402416554679345882,,errorv,,0,,1402416554,627580881,/enu,/base_link,,,6.35688047045,23.1379175234,-31.6522398094,,0.00105826665759,0.00155248120482,0.960902038924,0.276882179755
1402416554679403786,,errorv,,0,,1402416554,637582063,/enu,/base_link,,,6.35471406072,23.1757904076,-31.6251368022,,-0.000111518881991,0.00523298968429,0.961187481458,0.275846386365
1402416554697741929,,errorv,,0,,1402416554,697522967,base_link,/z_drive,,,0.0,0.0,0.0,,0.0,0.0,0.0,1.0
1402416554697769131,,errorv,,0,,1402416554,697540865,/z_drive,port,,,-0.3,0.3048,0.0,,0.0,0.0,0.0,1.0
1402416554697807172,,errorv,,0,,1402416554,697549945,/z_drive,starboard,,,-0.3,-0.3048,0.0,,0.0,0.0,0.0,1.0
1402416554717676788,,errorv,,0,,1402416554,717468229,base_link,/z_drive,,,0.0,0.0,0.0,,0.0,0.0,0.0,1.0
1402416554717708226,,errorv,,0,,1402416554,717555484,/z_drive,port,,,-0.3,0.3048,0.0,,0.0,0.0,0.0,1.0
1402416554717742667,,errorv,,0,,1402416554,717571786,/z_drive,starboard,,,-0.3,-0.3048,0.0,,0.0,0.0,0.0,1.0
1402416554719159900,,errorv,,0,,1402416554,647574901,/enu,/base_link,,,6.34734303783,23.1829632968,-31.6266144329,,-0.000231302052831,0.00509212689481,0.96231019124,0.271906440855
1402416554719192618,,errorv,,0,,1402416554,658601999,/enu,/base_link,,,6.33925671878,23.1907170641,-31.6282600974,,-0.000227489214482,0.00507840286342,0.963514650355,0.267607317959
1402416554719245312,,errorv,,0,,1402416554,668565034,/enu,/base_link,,,6.33180603993,23.1976403106,-31.6295845899,,-0.000429490319519,0.00493635996957,0.964592428019,0.263698493922
1402416554719273290,,errorv,,0,,1402416554,678561925,/enu,/base_link,,,6.3245964261,23.2048750756,-31.6315140618,,-0.000399979166691,0.00491677852766,0.965654460542,0.259782848051
1402416554719297774,,errorv,,0,,1402416554,689563035,/enu,/base_link,,,6.31633230186,23.2122785726,-31.6329495706,,-0.000350925069233,0.00488888522727,0.966808388341,0.255455506667
1402416554737722102,,errorv,,0,,1402416554,737542600,base_link,/z_drive,,,0.0,0.0,0.0,,0.0,0.0,0.0,1.0
1402416554737849366,,errorv,,0,,1402416554,737569946,/z_drive,port,,,-0.3,0.3048,0.0,,0.0,0.0,0.0,1.0
1402416554737976251,,errorv,,0,,1402416554,737613629,/z_drive,starboard,,,-0.3,-0.3048,0.0,,0.0,0.0,0.0,1.0
1402416554757882852,,errorv,,0,,1402416554,757677352,base_link,/z_drive,,,0.0,0.0,0.0,,0.0,0.0,0.0,1.0
1402416554757915585,,errorv,,0,,1402416554,757706776,/z_drive,port,,,-0.3,0.3048,0.0,,0.0,0.0,0.0,1.0
1402416554757934743,,errorv,,0,,1402416554,757715203,/z_drive,starboard,,,-0.3,-0.3048,0.0,,0.0,0.0,0.0,1.0
1402416554759173761,,errorv,,0,,1402416554,699563026,/enu,/base_link,,,6.30849679138,23.2190213332,-31.6343155097,,-0.000543008548934,0.00480332517273,0.967844565481,0.251502545271
1402416554759201885,,errorv,,0,,1402416554,710561037,/enu,/base_link,,,6.30016526677,23.2265072488,-31.6360776337,,-0.000600968574823,0.00465198487358,0.96896427713,0.247156281572
1402416554759242189,,errorv,,0,,1402416554,720558881,/enu,/base_link,,,6.29255355845,23.2331070542,-31.6373612662,,-0.000754769990998,0.00453625961893,0.969961167878,0.243216334729
1402416554770018929,,errorv,,0,,1402416554,869810650,/base_link,/gps,,,-0.84,0.0,-0.14,,0.0,0.0,0.0,1.0
1402416554770184377,,errorv,,0,,1402416554,870000204,base_link,imu,,,0.13,0.0,-0.1,,1.0,0.0,0.0,0.0
1402416554771293687,,errorv,,0,,1402416554,732321977,/enu,/base_link,,,6.28372651569,23.2409218726,-31.6392964856,,-0.000706748016145,0.00444531822434,0.971112098068,0.23858129147
1402416554771319896,,errorv,,0,,1402416554,741538047,/enu,/base_link,,,6.26738601152,23.2399856144,-31.6212724534,,-0.00199992086052,0.0036960411406,0.971870487401,0.235478439171
1402416554777852998,,errorv,,0,,1402416554,777697194,base_link,/z_drive,,,0.0,0.0,0.0,,0.0,0.0,0.0,1.0
1402416554777877889,,errorv,,0,,1402416554,777714420,/z_drive,port,,,-0.3,0.3048,0.0,,0.0,0.0,0.0,1.0
1402416554777941673,,errorv,,0,,1402416554,777719090,/z_drive,starboard,,,-0.3,-0.3048,0.0,,0.0,0.0,0.0,1.0
1402416554797891402,,errorv,,0,,1402416554,797700180,base_link,/z_drive,,,0.0,0.0,0.0,,0.0,0.0,0.0,1.0
1402416554797926544,,errorv,,0,,1402416554,797722797,/z_drive,port,,,-0.3,0.3048,0.0,,0.0,0.0,0.0,1.0
1402416554797949363,,errorv,,0,,1402416554,797726951,/z_drive,starboard,,,-0.3,-0.3048,0.0,,0.0,0.0,0.0,1.0
1402416554811094975,,errorv,,0,,1402416554,751538991,/enu,/base_link,,,6.25942105559,23.2463292084,-31.6228114923,,-0.00203709054107,0.00359135744429,0.972834515817,0.231464807796
1402416554811170992,,errorv,,0,,1402416554,761537075,/enu,/base_link,,,6.25131653435,23.2524656901,-31.624122408,,-0.00203443106556,0.00348720702961,0.973775353791,0.227475846687
1402416554817710619,,errorv,,0,,1402416554,817489395,base_link,/z_drive,,,0.0,0.0,0.0,,0.0,0.0,0.0,1.0
1402416554817761377,,errorv,,0,,1402416554,817507950,/z_drive,port,,,-0.3,0.3048,0.0,,0.0,0.0,0.0,1.0
1402416554817790041,,errorv,,0,,1402416554,817547783,/z_drive,starboard,,,-0.3,-0.3048,0.0,,0.0,0.0,0.0,1.0
1402416554837669785,,errorv,,0,,1402416554,837463414,base_link,/z_drive,,,0.0,0.0,0.0,,0.0,0.0,0.0,1.0
1402416554837745583,,errorv,,0,,1402416554,837483177,/z_drive,port,,,-0.3,0.3048,0.0,,0.0,0.0,0.0,1.0
1402416554837770312,,errorv,,0,,1402416554,837489476,/z_drive,starboard,,,-0.3,-0.3048,0.0,,0.0,0.0,0.0,1.0
1402416554851187862,,errorv,,0,,1402416554,772536993,/enu,/base_link,,,6.24246111701,23.2593415795,-31.6259366424,,-0.00218151216808,0.00337184108529,0.974789076863,0.223092194666
1402416554851232915,,errorv,,0,,1402416554,782533884,/enu,/base_link,,,6.23418818225,23.265432882,-31.6274708719,,-0.00222108574776,0.00329425533303,0.975696234464,0.219091471109
1402416554851272960,,errorv,,0,,1402416554,792537927,/enu,/base_link,,,6.23761759764,23.2687665002,-31.5944289676,,-0.00105380671376,0.00406444300994,0.976719495726,0.214479361391
1402416554851294748,,errorv,,0,,1402416554,803503990,/enu,/base_link,,,6.22902163811,23.2754173087,-31.5960968161,,-0.00104037548713,0.0039591135143,0.9776833066,0.210044269224
1402416554857714751,,errorv,,0,,1402416554,857459218,base_link,/z_drive,,,0.0,0.0,0.0,,0.0,0.0,0.0,1.0
1402416554857792065,,errorv,,0,,1402416554,857495544,/z_drive,port,,,-0.3,0.3048,0.0,,0.0,0.0,0.0,1.0
1402416554857818453,,errorv,,0,,1402416554,857505059,/z_drive,starboard,,,-0.3,-0.3048,0.0,,0.0,0.0,0.0,1.0
1402416554870088185,,errorv,,0,,1402416554,969904213,/base_link,/gps,,,-0.84,0.0,-0.14,,0.0,0.0,0.0,1.0
1402416554870283119,,errorv,,0,,1402416554,970105849,base_link,imu,,,0.13,0.0,-0.1,,1.0,0.0,0.0,0.0
1402416554877753680,,errorv,,0,,1402416554,877458112,base_link,/z_drive,,,0.0,0.0,0.0,,0.0,0.0,0.0,1.0
1402416554877780795,,errorv,,0,,1402416554,877474444,/z_drive,port,,,-0.3,0.3048,0.0,,0.0,0.0,0.0,1.0
1402416554877804208,,errorv,,0,,1402416554,877484258,/z_drive,starboard,,,-0.3,-0.3048,0.0,,0.0,0.0,0.0,1.0
1402416554891231505,,errorv,,0,,1402416554,813522100,/enu,/base_link,,,6.22096472237,23.2814643727,-31.5976248093,,-0.00120468039724,0.00391872302089,0.978542891788,0.206002430292
1402416554891258120,,errorv,,0,,1402416554,823489904,/enu,/base_link,,,6.2131129805,23.2871547827,-31.5988076548,,-0.00123585078896,0.00386013975561,0.979381990953,0.201976453555
1402416554891279923,,errorv,,0,,1402416554,834507942,/enu,/base_link,,,6.20556825765,23.2901340696,-31.5777313356,,-0.00118984043143,0.00382012054932,0.980295424258,0.197496511711
1402416554891313914,,errorv,,0,,1402416554,844505071,/enu,/base_link,,,6.19734187617,23.2958765426,-31.5792502497,,-0.00133038444774,0.00374815536303,0.981109517787,0.193412242416
1402416554898027454,,errorv,,0,,1402416554,897826705,base_link,/z_drive,,,0.0,0.0,0.0,,0.0,0.0,0.0,1.0
1402416554898062127,,errorv,,0,,1402416554,897846129,/z_drive,port,,,-0.3,0.3048,0.0,,0.0,0.0,0.0,1.0
1402416554898083199,,errorv,,0,,1402416554,897854168,/z_drive,starboard,,,-0.3,-0.3048,0.0,,0.0,0.0,0.0,1.0
1402416554917747934,,errorv,,0,,1402416554,917563113,base_link,/z_drive,,,0.0,0.0,0.0,,0.0,0.0,0.0,1.0
1402416554917820499,,errorv,,0,,1402416554,917608985,/z_drive,port,,,-0.3,0.3048,0.0,,0.0,0.0,0.0,1.0
1402416554917888425,,errorv,,0,,1402416554,917617591,/z_drive,starboard,,,-0.3,-0.3048,0.0,,0.0,0.0,0.0,1.0
1402416554931258909,,errorv,,0,,1402416554,854476928,/enu,/base_link,,,6.18922350274,23.3014115573,-31.580522681,,-0.00135123812846,0.00356970261116,0.981905359038,0.189333824953
1402416554931279612,,errorv,,0,,1402416554,864490985,/enu,/base_link,,,6.18105233721,23.3070708817,-31.5821426407,,-0.00149499107578,0.00347446770979,0.982691104535,0.185213083076
1402416554931300619,,errorv,,0,,1402416554,875477075,/enu,/base_link,,,6.17220179599,23.3130535762,-31.5835345307,,-0.00150748012916,0.00341031726956,0.983529113441,0.18071131745
1402416554931354109,,errorv,,0,,1402416554,885463953,/enu,/base_link,,,6.16055384952,23.301044781,-31.563372329,,-0.00183529852716,0.0018241143775,0.98437569032,0.176061933971
1402416554937656822,,errorv,,0,,1402416554,937491336,base_link,/z_drive,,,0.0,0.0,0.0,,0.0,0.0,0.0,1.0
1402416554937679203,,errorv,,0,,1402416554,937505654,/z_drive,port,,,-0.3,0.3048,0.0,,0.0,0.0,0.0,1.0
1402416554937694509,,errorv,,0,,1402416554,937509878,/z_drive,starboard,,,-0.3,-0.3048,0.0,,0.0,0.0,0.0,1.0
1402416554957657290,,errorv,,0,,1402416554,957453958,base_link,/z_drive,,,0.0,0.0,0.0,,0.0,0.0,0.0,1.0
1402416554957680949,,errorv,,0,,1402416554,957467762,/z_drive,port,,,-0.3,0.3048,0.0,,0.0,0.0,0.0,1.0
1402416554957827368,,errorv,,0,,1402416554,957471754,/z_drive,starboard,,,-0.3,-0.3048,0.0,,0.0,0.0,0.0,1.0
1402416554970278831,,errorv,,0,,1402416555,70012478,/base_link,/gps,,,-0.84,0.0,-0.14,,0.0,0.0,0.0,1.0
1402416554970397646,,errorv,,0,,1402416555,70205284,base_link,imu,,,0.13,0.0,-0.1,,1.0,0.0,0.0,0.0
1402416554971129802,,errorv,,0,,1402416554,896467924,/enu,/base_link,,,6.15148325974,23.306455606,-31.5648409609,,-0.00180763505806,0.00177257155159,0.985173210928,0.171543973707
1402416554971161955,,errorv,,0,,1402416554,906490087,/enu,/base_link,,,6.14330114028,23.3113191383,-31.5661194021,,-0.00179104879119,0.00165635671036,0.985882456275,0.167421118849
1402416554971208224,,errorv,,0,,1402416554,916476011,/enu,/base_link,,,6.13489296263,23.3162434913,-31.5676316751,,-0.00187719739147,0.0015513389404,0.986578884932,0.163267183734
1402416554971230081,,errorv,,0,,1402416554,927443027,/enu,/base_link,,,6.12573006927,23.3213947375,-31.5691814703,,-0.00185165455023,0.00137927447931,0.987320886621,0.158720306892
1402416554977726485,,errorv,,0,,1402416554,977453550,base_link,/z_drive,,,0.0,0.0,0.0,,0.0,0.0,0.0,1.0
1402416554977752884,,errorv,,0,,1402416554,977519385,/z_drive,port,,,-0.3,0.3048,0.0,,0.0,0.0,0.0,1.0
1402416554977823573,,errorv,,0,,1402416554,977525980,/z_drive,starboard,,,-0.3,-0.3048,0.0,,0.0,0.0,0.0,1.0
1402416554997716992,,errorv,,0,,1402416554,997479389,base_link,/z_drive,,,0.0,0.0,0.0,,0.0,0.0,0.0,1.0
1402416554997744911,,errorv,,0,,1402416554,997502472,/z_drive,port,,,-0.3,0.3048,0.0,,0.0,0.0,0.0,1.0
1402416554997799506,,errorv,,0,,1402416554,997512873,/z_drive,starboard,,,-0.3,-0.3048,0.0,,0.0,0.0,0.0,1.0
1402416555011114228,,errorv,,0,,1402416554,937438011,/enu,/base_link,,,6.11776952973,23.3179720437,-31.5505126355,,-0.00186234145381,0.000969206611238,0.988010377055,0.154373207373
1402416555011198833,,errorv,,0,,1402416554,947453022,/enu,/base_link,,,6.10935047636,23.3224007056,-31.5518131451,,-0.0018035338025,0.000930767618205,0.988650499443,0.150220074854
1402416555011222726,,errorv,,0,,1402416554,958409070,/enu,/base_link,,,6.10020245803,23.3273934148,-31.5534341945,,-0.00182993437582,0.000923847256111,0.989330677833,0.145672947885
1402416555011290281,,errorv,,0,,1402416554,968396902,/enu,/base_link,,,6.09179444525,23.3316618553,-31.5545844909,,-0.00175219194322,0.000771620513958,0.989937193272,0.141494479757
1402416555017665748,,errorv,,0,,1402416555,17501635,base_link,/z_drive,,,0.0,0.0,0.0,,0.0,0.0,0.0,1.0
1402416555017759621,,errorv,,0,,1402416555,17514674,/z_drive,port,,,-0.3,0.3048,0.0,,0.0,0.0,0.0,1.0
1402416555017785960,,errorv,,0,,1402416555,17518820,/z_drive,starboard,,,-0.3,-0.3048,0.0,,0.0,0.0,0.0,1.0
1402416555037665134,,errorv,,0,,1402416555,37481299,base_link,/z_drive,,,0.0,0.0,0.0,,0.0,0.0,0.0,1.0
1402416555037726924,,errorv,,0,,1402416555,37500215,/z_drive,port,,,-0.3,0.3048,0.0,,0.0,0.0,0.0,1.0
1402416555037754836,,errorv,,0,,1402416555,37510606,/z_drive,starboard,,,-0.3,-0.3048,0.0,,0.0,0.0,0.0,1.0
1402416555051108638,,errorv,,0,,1402416554,978410959,/enu,/base_link,,,6.08337686607,23.3357053973,-31.5556332169,,-0.00166695979355,0.000681546083965,0.99052339429,0.137332305395
1402416555051253393,,errorv,,0,,1402416554,989396095,/enu,/base_link,,,6.07694203059,23.3336973106,-31.5431492141,,-0.00132338535506,0.000221818595789,0.991190709441,0.132435557781
1402416555051279482,,errorv,,0,,1402416554,999408960,/enu,/base_link,,,6.06856776301,23.3375238807,-31.5440814736,,-0.0011737475807,0.000193478360864,0.991742980196,0.128235900255
1402416555051438770,,errorv,,0,,1402416555,9396076,/enu,/base_link,,,6.06017358339,23.3413602584,-31.5451902551,,-0.00110957044097,0.000182254199296,0.992272757584,0.124070585529
1402416555057653852,,errorv,,0,,1402416555,57477283,base_link,/z_drive,,,0.0,0.0,0.0,,0.0,0.0,0.0,1.0
1402416555057683186,,errorv,,0,,1402416555,57489369,/z_drive,port,,,-0.3,0.3048,0.0,,0.0,0.0,0.0,1.0
1402416555057708293,,errorv,,0,,1402416555,57493472,/z_drive,starboard,,,-0.3,-0.3048,0.0,,0.0,0.0,0.0,1.0
1402416555070355294,,errorv,,0,,1402416555,170121133,/base_link,/gps,,,-0.84,0.0,-0.14,,0.0,0.0,0.0,1.0
1402416555070495427,,errorv,,0,,1402416555,170306255,base_link,imu,,,0.13,0.0,-0.1,,1.0,0.0,0.0,0.0
1402416555077660814,,errorv,,0,,1402416555,77510425,base_link,/z_drive,,,0.0,0.0,0.0,,0.0,0.0,0.0,1.0
1402416555077751121,,errorv,,0,,1402416555,77535954,/z_drive,port,,,-0.3,0.3048,0.0,,0.0,0.0,0.0,1.0
1402416555077776452,,errorv,,0,,1402416555,77570794,/z_drive,starboard,,,-0.3,-0.3048,0.0,,0.0,0.0,0.0,1.0
1402416555091266274,,errorv,,0,,1402416555,19408941,/enu,/base_link,,,6.05169724177,23.3454132221,-31.5467211133,,-0.00102997704628,0.000123445840259,0.99278426905,0.119909628621
1402416555091291159,,errorv,,0,,1402416555,29396057,/enu,/base_link,,,6.04318279765,23.3490828747,-31.5476572915,,-0.000931461890934,0.000190727114613,0.993277029852,0.115757669168
1402416555091348387,,errorv,,0,,1402416555,40373086,/enu,/base_link,,,6.03408911465,23.3531575799,-31.5488623486,,-0.000767346911786,0.00012524730773,0.993800127433,0.11117869493
1402416555091376760,,errorv,,0,,1402416555,50365924,/enu,/base_link,,,6.02552263377,23.356861899,-31.5500060705,,-0.000631042287456,0.000191924035865,0.994257986999,0.107007570949
1402416555091406651,,errorv,,0,,1402416555,60369014,/enu,/base_link,,,6.01713808422,23.3605429822,-31.5511652185,,-0.000487912519939,0.000284668387196,0.99470000442,0.102818199328
1402416555097756562,,errorv,,0,,1402416555,97542487,base_link,/z_drive,,,0.0,0.0,0.0,,0.0,0.0,0.0,1.0
1402416555097794568,,errorv,,0,,1402416555,97569411,/z_drive,port,,,-0.3,0.3048,0.0,,0.0,0.0,0.0,1.0
1402416555097828025,,errorv,,0,,1402416555,97580419,/z_drive,starboard,,,-0.3,-0.3048,0.0,,0.0,0.0,0.0,1.0
1402416555117643074,,errorv,,0,,1402416555,117436964,base_link,/z_drive,,,0.0,0.0,0.0,,0.0,0.0,0.0,1.0
1402416555117668029,,errorv,,0,,1402416555,117484626,/z_drive,port,,,-0.3,0.3048,0.0,,0.0,0.0,0.0,1.0
