rosbagTimestamp,control_method,x_current,x_desired,y_current,y_desired,z_current,z_desired,x_velocity_current,x_velocity_desired,y_velocity_current,y_velocity_desired,z_velocity_current,z_velocity_desired,yaw_current,yaw_desired,yaw_velocity_current,yaw_velocity_desired,roll_current,roll_desired,roll_velocity_current,roll_velocity_desired,pitch_current,pitch_desired,pitch_velocity_current,pitch_velocity_desired,required_force_x,required_force_y,required_moment_z,resultant_force_x,resultant_force_y,resultant_moment_z,current_port_servo_angle,current_port_thruster_force,current_starboard_servo_angle,current_starboard_thruster_force,estimated_port_servo_angle,estimated_port_thruster_force,estimated_starboard_servo_angle,estimated_starboard_thruster_force,cost_value,step,user_defined_1,user_defined_2,user_defined_3,user_defined_4,user_defined_5
1402753386148667739,3,-8.55958228635,-0.00591572024346,-2.64074012852,-0.122189614607,8.8091388133,0.10862951003,-0.00211919327768,0.0,-0.0185367500298,0.0,0.0666162234744,0.0,-1.58014356728,0.0,-0.0112750491718,0.0,0.000417051217181,0.0,0.00377096577272,0.0,0.0679564767583,0.0,0.0124319094093,0.0,0.0,0.0,0.0,200.0,-0.0,0.0,-0.00537029107169,0.0,-0.00383606751517,0.0,-0.0,100.0,-0.0,100.0,2100000.0,0.0,0.0,0.0,0.0,0.0,0.0
1402753386168294936,3,-8.55958228635,-0.00591572024346,-2.64074012852,-0.122189614607,8.8091388133,0.10862951003,-0.00211919327768,0.0,-0.0185367500298,0.0,0.0666162234744,0.0,-1.58014356728,0.0,-0.0112750491718,0.0,0.000417051217181,0.0,0.00377096577272,0.0,0.0679564767583,0.0,0.0124319094093,0.0,0.0,0.0,0.0,200.0,-0.0,0.0,-0.00537029107169,0.0,-0.00383606751517,0.0,-0.0,100.0,-0.0,100.0,2100000.0,0.0,0.0,0.0,0.0,0.0,0.0
1402753386188187787,3,-8.56055642767,-0.00591572024346,-2.64365505117,-0.122189614607,8.80393638493,0.10862951003,-0.00943108837663,0.0,-0.034004683353,0.0,0.0694687471793,0.0,-1.58028406415,0.0,-0.00741672906414,0.0,0.000920876566582,0.0,0.00883989197568,0.0,0.0699360340809,0.0,-0.000928610860174,0.0,0.0,0.0,0.0,200.0,-0.0,0.0,-0.00537029107169,0.0,-0.00383606751517,0.0,-0.0,100.0,-0.0,100.0,2100000.0,0.0,0.0,0.0,0.0,0.0,0.0
1402753386209769189,3,-8.56055642767,-0.00591572024346,-2.64365505117,-0.122189614607,8.80393638493,0.10862951003,-0.00943108837663,0.0,-0.034004683353,0.0,0.0694687471793,0.0,-1.58028406415,0.0,-0.00741672906414,0.0,0.000920876566582,0.0,0.00883989197568,0.0,0.0699360340809,0.0,-0.000928610860174,0.0,0.0,0.0,0.0,200.0,-0.0,0.0,-0.00690451462821,0.0,-0.00383606751517,0.0,-0.0,100.0,-0.0,100.0,2100000.0,0.0,0.0,0.0,0.0,0.0,0.0
1402753386229043253,3,-8.56088619651,-0.00591572024346,-2.64508155867,-0.122189614607,8.80687109742,0.10862951003,-0.00910570668294,0.0,-0.0345137384447,0.0,0.0715410889764,0.0,-1.58048492625,0.0,-0.00745149670703,0.0,0.000816376734578,0.0,0.00763493091827,0.0,0.0702745442882,0.0,0.000193493516898,0.0,0.0,0.0,0.0,200.0,-0.0,0.0,-0.00537029107169,0.0,-0.00383606751517,0.0,-0.0,100.0,-0.0,100.0,2100000.0,0.0,0.0,0.0,0.0,0.0,0.0
1402753386248401111,3,-8.56088619651,-0.00591572024346,-2.64508155867,-0.122189614607,8.80687109742,0.10862951003,-0.00910570668294,0.0,-0.0345137384447,0.0,0.0715410889764,0.0,-1.58048492625,0.0,-0.00745149670703,0.0,0.000816376734578,0.0,0.00763493091827,0.0,0.0702745442882,0.0,0.000193493516898,0.0,0.0,0.0,0.0,200.0,-0.0,0.0,-0.00537029107169,0.0,-0.00383606751517,0.0,-0.0,100.0,-0.0,100.0,2100000.0,0.0,0.0,0.0,0.0,0.0,0.0
1402753386268350803,3,-8.55316725618,-0.00591572024346,-2.63788212833,-0.122189614607,8.80666281342,0.10862951003,0.00372905780805,0.0,-0.0250033200726,0.0,0.0770861043027,0.0,-1.58087596214,0.0,-0.0110968407061,0.0,-0.000498095993588,0.0,0.00847851839408,0.0,0.0694761253045,0.0,0.00840225290403,0.0,0.0,0.0,0.0,200.0,-0.0,0.0,-0.00537029107169,0.0,-0.00383606751517,0.0,-0.0,100.0,-0.0,100.0,2100000.0,0.0,0.0,0.0,0.0,0.0,0.0
1402753386288861836,3,-8.55316725618,-0.00591572024346,-2.63788212833,-0.122189614607,8.80666281342,0.10862951003,0.00372905780805,0.0,-0.0250033200726,0.0,0.0770861043027,0.0,-1.58087596214,0.0,-0.0110968407061,0.0,-0.000498095993588,0.0,0.00847851839408,0.0,0.0694761253045,0.0,0.00840225290403,0.0,0.0,0.0,0.0,200.0,-0.0,0.0,-0.00537029107169,0.0,-0.00383606751517,0.0,-0.0,100.0,-0.0,100.0,2100000.0,0.0,0.0,0.0,0.0,0.0,0.0
1402753386309606562,3,-8.55239672964,-0.00591572024346,-2.63630905242,-0.122189614607,8.79186917799,0.10862951003,0.00146589812751,0.0,-0.0348927208601,0.0,0.0773478114555,0.0,-1.58135977491,0.0,-0.0134531018075,0.0,-0.000429169716191,0.0,0.00959757879467,0.0,0.0709473594504,0.0,0.00934601486359,0.0,0.0,0.0,0.0,200.0,-0.0,0.0,-0.00537029107169,0.0,-0.00383606751517,0.0,-0.0,100.0,-0.0,100.0,2100000.0,0.0,0.0,0.0,0.0,0.0,0.0
1402753386328683913,3,-8.55239672964,-0.00591572024346,-2.63630905242,-0.122189614607,8.79186917799,0.10862951003,0.00146589812751,0.0,-0.0348927208601,0.0,0.0773478114555,0.0,-1.58135977491,0.0,-0.0134531018075,0.0,-0.000429169716191,0.0,0.00959757879467,0.0,0.0709473594504,0.0,0.00934601486359,0.0,0.0,0.0,0.0,200.0,-0.0,0.0,-0.00537029107169,0.0,-0.00383606751517,0.0,-0.0,100.0,-0.0,100.0,2100000.0,0.0,0.0,0.0,0.0,0.0,0.0
1402753386348298963,3,-8.55599965575,-0.00591572024346,-2.62746225093,-0.122189614607,8.77074553161,0.10862951003,-0.014345327412,0.0,-0.0312150922632,0.0,0.0764697486514,0.0,-1.58144193699,0.0,-0.00510565117213,0.0,0.000874790733961,0.0,0.0127225184539,0.0,0.0709112135712,0.0,0.0112643887074,0.0,0.0,0.0,0.0,200.0,-0.0,0.0,-0.00537029107169,0.0,-0.00383606751517,0.0,-0.0,100.0,-0.0,100.0,2100000.0,0.0,0.0,0.0,0.0,0.0,0.0
1402753386368097984,3,-8.55599965575,-0.00591572024346,-2.62746225093,-0.122189614607,8.77074553161,0.10862951003,-0.014345327412,0.0,-0.0312150922632,0.0,0.0764697486514,0.0,-1.58144193699,0.0,-0.00510565117213,0.0,0.000874790733961,0.0,0.0127225184539,0.0,0.0709112135712,0.0,0.0112643887074,0.0,0.0,0.0,0.0,200.0,-0.0,0.0,-0.00537029107169,0.0,-0.00383606751517,0.0,-0.0,100.0,-0.0,100.0,2100000.0,0.0,0.0,0.0,0.0,0.0,0.0
1402753386388151120,3,-8.55211197963,-0.00591572024346,-2.62311363814,-0.122189614607,8.76320656817,0.10862951003,-0.0121585218821,0.0,-0.032739599499,0.0,0.0794461682666,0.0,-1.58170206408,0.0,-0.00606904162933,0.0,0.000199708468767,0.0,0.0118866421539,0.0,0.0714202347391,0.0,0.00558402138938,0.0,0.0,0.0,0.0,200.0,-0.0,0.0,-0.00537029107169,0.0,-0.00383606751517,0.0,-0.0,100.0,-0.0,100.0,2100000.0,0.0,0.0,0.0,0.0,0.0,0.0
1402753386408751587,3,-8.55211197963,-0.00591572024346,-2.62311363814,-0.122189614607,8.76320656817,0.10862951003,-0.0121585218821,0.0,-0.032739599499,0.0,0.0794461682666,0.0,-1.58170206408,0.0,-0.00606904162933,0.0,0.000199708468767,0.0,0.0118866421539,0.0,0.0714202347391,0.0,0.00558402138938,0.0,0.0,0.0,0.0,200.0,-0.0,0.0,-0.00537029107169,0.0,-0.00383606751517,0.0,-0.0,100.0,-0.0,100.0,2100000.0,0.0,0.0,0.0,0.0,0.0,0.0
1402753386428308112,3,-8.55259723355,-0.00591572024346,-2.62442484719,-0.122189614607,8.76640963885,0.10862951003,-0.00960082800519,0.0,-0.0319411978039,0.0,0.0805535939655,0.0,-1.58190837758,0.0,-0.00963188523204,0.0,-0.000242966753966,0.0,0.0079148633891,0.0,0.0717176068342,0.0,0.0161823746095,0.0,0.0,0.0,0.0,200.0,-0.0,0.0,-0.00537029107169,0.0,-0.00383606751517,0.0,-0.0,100.0,-0.0,100.0,2100000.0,0.0,0.0,0.0,0.0,0.0,0.0
1402753386448334551,3,-8.55259723355,-0.00591572024346,-2.62442484719,-0.122189614607,8.76640963885,0.10862951003,-0.00960082800519,0.0,-0.0319411978039,0.0,0.0805535939655,0.0,-1.58190837758,0.0,-0.00963188523204,0.0,-0.000242966753966,0.0,0.0079148633891,0.0,0.0717176068342,0.0,0.0161823746095,0.0,0.0,0.0,0.0,200.0,-0.0,0.0,-0.00537029107169,0.0,-0.00383606751517,0.0,-0.0,100.0,-0.0,100.0,2100000.0,0.0,0.0,0.0,0.0,0.0,0.0
1402753386469300642,3,-8.54391767733,-0.00591572024346,-2.6174877914,-0.122189614607,8.75581792629,0.10862951003,0.00511781991438,0.0,-0.0286798105432,0.0,0.0814135680023,0.0,-1.58226909584,0.0,-0.00786539047457,0.0,-0.00206382004665,0.0,0.00187049046343,0.0,0.0717355427324,0.0,0.0100323250431,0.0,0.0,0.0,0.0,200.0,-0.0,0.0,-0.00537029107169,0.0,-0.00383606751517,0.0,-0.0,100.0,-0.0,100.0,2100000.0,0.0,0.0,0.0,0.0,0.0,0.0
1402753386488300133,3,-8.54391767733,-0.00591572024346,-2.6174877914,-0.122189614607,8.75581792629,0.10862951003,0.00511781991438,0.0,-0.0286798105432,0.0,0.0814135680023,0.0,-1.58226909584,0.0,-0.00786539047457,0.0,-0.00206382004665,0.0,0.00187049046343,0.0,0.0717355427324,0.0,0.0100323250431,0.0,0.0,0.0,0.0,200.0,-0.0,0.0,-0.00537029107169,0.0,-0.00383606751517,0.0,-0.0,100.0,-0.0,100.0,2100000.0,0.0,0.0,0.0,0.0,0.0,0.0
1402753386508255556,3,-8.54614285797,-0.00591572024346,-2.61287146393,-0.122189614607,8.7484336281,0.10862951003,-0.00567537436138,0.0,-0.027796756431,0.0,0.083638157015,0.0,-1.58229484471,0.0,-0.00496221376952,0.0,-0.000964473669655,0.0,0.003176711301,0.0,0.0717178405444,0.0,0.00726079299099,0.0,0.0,0.0,0.0,200.0,-0.0,0.0,-0.00537029107169,0.0,-0.00383606751517,0.0,-0.0,100.0,-0.0,100.0,2100000.0,0.0,0.0,0.0,0.0,0.0,0.0
1402753386528937804,3,-8.54614285797,-0.00591572024346,-2.61287146393,-0.122189614607,8.7484336281,0.10862951003,-0.00567537436138,0.0,-0.027796756431,0.0,0.083638157015,0.0,-1.58229484471,0.0,-0.00496221376952,0.0,-0.000964473669655,0.0,0.003176711301,0.0,0.0717178405444,0.0,0.00726079299099,0.0,0.0,0.0,0.0,200.0,-0.0,0.0,-0.00690451462821,0.0,-0.00230160554007,0.0,-0.0,100.0,-0.0,100.0,2100000.0,0.0,0.0,0.0,0.0,0.0,0.0
1402753386548691950,3,-8.54622026993,-0.00591572024346,-2.61391644321,-0.122189614607,8.75175744911,0.10862951003,-0.00362659841232,0.0,-0.0261189895862,0.0,0.0832879754035,0.0,-1.58256369775,0.0,-0.0103305066375,0.0,-0.00121268938625,0.0,-0.00324445296242,0.0,0.0716546486214,0.0,0.00650239906297,0.0,0.0,0.0,0.0,200.0,-0.0,0.0,-0.00537029107169,0.0,-0.00383606751517,0.0,-0.0,100.0,-0.0,100.0,2100000.0,0.0,0.0,0.0,0.0,0.0,0.0
1402753386568355735,3,-8.54622026993,-0.00591572024346,-2.61391644321,-0.122189614607,8.75175744911,0.10862951003,-0.00362659841232,0.0,-0.0261189895862,0.0,0.0832879754035,0.0,-1.58256369775,0.0,-0.0103305066375,0.0,-0.00121268938625,0.0,-0.00324445296242,0.0,0.0716546486214,0.0,0.00650239906297,0.0,0.0,0.0,0.0,200.0,-0.0,0.0,-0.00537029107169,0.0,-0.00383606751517,0.0,-0.0,100.0,-0.0,100.0,2100000.0,0.0,0.0,0.0,0.0,0.0,0.0
1402753386588530529,3,-8.5452658359,-0.00591572024346,-2.60899135371,-0.122189614607,8.72894940218,0.10862951003,-0.00629874587844,0.0,-0.032334121819,0.0,0.0795677520562,0.0,-1.58272538114,0.0,-0.00354406858798,0.0,-0.00122053999082,0.0,-0.00269608730489,0.0,0.0724511502772,0.0,0.00534779503137,0.0,0.0,0.0,0.0,200.0,-0.0,0.0,-0.00537029107169,0.0,-0.00383606751517,0.0,-0.0,100.0,-0.0,100.0,2100000.0,0.0,0.0,0.0,0.0,0.0,0.0
1402753386608273270,3,-8.5452658359,-0.00591572024346,-2.60899135371,-0.122189614607,8.72894940218,0.10862951003,-0.00629874587844,0.0,-0.032334121819,0.0,0.0795677520562,0.0,-1.58272538114,0.0,-0.00354406858798,0.0,-0.00122053999082,0.0,-0.00269608730489,0.0,0.0724511502772,0.0,0.00534779503137,0.0,0.0,0.0,0.0,200.0,-0.0,0.0,-0.00537029107169,0.0,-0.00383606751517,0.0,-0.0,100.0,-0.0,100.0,2100000.0,0.0,0.0,0.0,0.0,0.0,0.0
1402753386629054947,3,-8.5395483221,-0.00591572024346,-2.59628014176,-0.122189614607,8.71625686695,0.10862951003,0.00113771944114,0.0,-0.0162301436998,0.0,0.0794972439687,0.0,-1.58293597099,0.0,-0.00703149451732,0.0,-0.0020480789511,0.0,-0.00192225771159,0.0,0.0706593466984,0.0,0.00624349708047,0.0,0.0,0.0,0.0,200.0,-0.0,0.0,-0.00537029107169,0.0,-0.00383606751517,0.0,-0.0,100.0,-0.0,100.0,2100000.0,0.0,0.0,0.0,0.0,0.0,0.0
1402753386648304203,3,-8.5395483221,-0.00591572024346,-2.59628014176,-0.122189614607,8.71625686695,0.10862951003,0.00113771944114,0.0,-0.0162301436998,0.0,0.0794972439687,0.0,-1.58293597099,0.0,-0.00703149451732,0.0,-0.0020480789511,0.0,-0.00192225771159,0.0,0.0706593466984,0.0,0.00624349708047,0.0,0.0,0.0,0.0,200.0,-0.0,0.0,-0.00537029107169,0.0,-0.00383606751517,0.0,-0.0,100.0,-0.0,100.0,2100000.0,0.0,0.0,0.0,0.0,0.0,0.0
1402753386668117837,3,-8.53306320377,-0.00591572024346,-2.59224657007,-0.122189614607,8.70323005665,0.10862951003,0.0113061892015,0.0,-0.0209250822374,0.0,0.0778321118492,0.0,-1.58326534699,0.0,-0.00383305355613,0.0,-0.00328118137034,0.0,-0.00368963821321,0.0,0.0711650543498,0.0,0.00593184636989,0.0,0.0,0.0,0.0,200.0,-0.0,0.0,-0.00537029107169,0.0,-0.00383606751517,0.0,-0.0,100.0,-0.0,100.0,2100000.0,0.0,0.0,0.0,0.0,0.0,0.0
1402753386688796614,3,-8.53306320377,-0.00591572024346,-2.59224657007,-0.122189614607,8.70323005665,0.10862951003,0.0113061892015,0.0,-0.0209250822374,0.0,0.0778321118492,0.0,-1.58326534699,0.0,-0.00383305355613,0.0,-0.00328118137034,0.0,-0.00368963821321,0.0,0.0711650543498,0.0,0.00593184636989,0.0,0.0,0.0,0.0,200.0,-0.0,0.0,-0.00537029107169,0.0,-0.00383606751517,0.0,-0.0,100.0,-0.0,100.0,2100000.0,0.0,0.0,0.0,0.0,0.0,0.0
1402753386708314146,3,-8.53124433055,-0.00591572024346,-2.5911625839,-0.122189614607,8.69187146463,0.10862951003,0.00915218463526,0.0,-0.030487637189,0.0,0.0773508854383,0.0,-1.58350710121,0.0,-0.00653223794011,0.0,-0.00315461170069,0.0,-0.00518282703756,0.0,0.0719706624503,0.0,-0.00702872103669,0.0,0.0,0.0,0.0,200.0,-0.0,0.0,-0.00537029107169,0.0,-0.00230160554007,0.0,-0.0,100.0,-0.0,100.0,2100000.0,0.0,0.0,0.0,0.0,0.0,0.0
1402753386729004768,3,-8.53124433055,-0.00591572024346,-2.5911625839,-0.122189614607,8.69187146463,0.10862951003,0.00915218463526,0.0,-0.030487637189,0.0,0.0773508854383,0.0,-1.58350710121,0.0,-0.00653223794011,0.0,-0.00315461170069,0.0,-0.00518282703756,0.0,0.0719706624503,0.0,-0.00702872103669,0.0,0.0,0.0,0.0,200.0,-0.0,0.0,-0.00537029107169,0.0,-0.00383606751517,0.0,-0.0,100.0,-0.0,100.0,2100000.0,0.0,0.0,0.0,0.0,0.0,0.0
1402753386748750325,3,-8.53505641883,-0.00591572024346,-2.5793479229,-0.122189614607,8.67481719321,0.10862951003,-0.00667883062979,0.0,-0.016431714757,0.0,0.0749996472481,0.0,-1.58331895199,0.0,-0.00416662847779,0.0,-0.00128612091711,0.0,-0.00607752646946,0.0,0.0701855059254,0.0,-0.000220613661979,0.0,0.0,0.0,0.0,200.0,-0.0,0.0,-0.00690451462821,0.0,-0.00383606751517,0.0,-0.0,100.0,-0.0,100.0,2100000.0,0.0,0.0,0.0,0.0,0.0,0.0
1402753386768204143,3,-8.53505641883,-0.00591572024346,-2.5793479229,-0.122189614607,8.67481719321,0.10862951003,-0.00667883062979,0.0,-0.016431714757,0.0,0.0749996472481,0.0,-1.58331895199,0.0,-0.00416662847779,0.0,-0.00128612091711,0.0,-0.00607752646946,0.0,0.0701855059254,0.0,-0.000220613661979,0.0,0.0,0.0,0.0,200.0,-0.0,0.0,-0.00537029107169,0.0,-0.00383606751517,0.0,-0.0,100.0,-0.0,100.0,2100000.0,0.0,0.0,0.0,0.0,0.0,0.0
1402753386788715384,3,-8.52938560321,-0.00591572024346,-2.57706787012,-0.122189614607,8.66464750992,0.10862951003,0.00155053679327,0.0,-0.0236706585664,0.0,0.0749609035398,0.0,-1.58367889584,0.0,-0.00654000213265,0.0,-0.00225446485444,0.0,-0.00528294618802,0.0,0.0709462532977,0.0,0.00215845900661,0.0,0.0,0.0,0.0,200.0,-0.0,0.0,-0.00537029107169,0.0,-0.00383606751517,0.0,-0.0,100.0,-0.0,100.0,2100000.0,0.0,0.0,0.0,0.0,0.0,0.0
1402753386808846191,3,-8.52938560321,-0.00591572024346,-2.57706787012,-0.122189614607,8.66464750992,0.10862951003,0.00155053679327,0.0,-0.0236706585664,0.0,0.0749609035398,0.0,-1.58367889584,0.0,-0.00654000213265,0.0,-0.00225446485444,0.0,-0.00528294618802,0.0,0.0709462532977,0.0,0.00215845900661,0.0,0.0,0.0,0.0,200.0,-0.0,0.0,-0.00537029107169,0.0,-0.00383606751517,0.0,-0.0,100.0,-0.0,100.0,2100000.0,0.0,0.0,0.0,0.0,0.0,0.0
1402753386828400470,3,-8.529456603,-0.00591572024346,-2.57811503802,-0.122189614607,8.66777966001,0.10862951003,-0.000449566813351,0.0,-0.024111648685,0.0,0.0765320211425,0.0,-1.58377685252,0.0,-0.0131981234836,0.0,-0.00199493107693,0.0,-0.00174084533984,0.0,0.0707819726385,0.0,-0.0135832054296,0.0,0.0,0.0,0.0,200.0,-0.0,0.0,-0.00537029107169,0.0,-0.00383606751517,0.0,-0.0,100.0,-0.0,100.0,2100000.0,0.0,0.0,0.0,0.0,0.0,0.0
1402753386848193079,3,-8.529456603,-0.00591572024346,-2.57811503802,-0.122189614607,8.66777966001,0.10862951003,-0.000449566813351,0.0,-0.024111648685,0.0,0.0765320211425,0.0,-1.58377685252,0.0,-0.0131981234836,0.0,-0.00199493107693,0.0,-0.00174084533984,0.0,0.0707819726385,0.0,-0.0135832054296,0.0,0.0,0.0,0.0,200.0,-0.0,0.0,-0.00537029107169,0.0,-0.00383606751517,0.0,-0.0,100.0,-0.0,100.0,2100000.0,0.0,0.0,0.0,0.0,0.0,0.0
1402753386868085870,3,-8.52672265867,-0.00591572024346,-2.5754435017,-0.122189614607,8.66260431715,0.10862951003,-0.00141782781951,0.0,-0.0278157945252,0.0,0.0787076121601,0.0,-1.58398890629,0.0,-0.00627925790788,0.0,-0.00164498696448,0.0,-0.00530197757777,0.0,0.0708730786342,0.0,-0.00815701641417,0.0,0.0,0.0,0.0,200.0,-0.0,0.0,-0.00537029107169,0.0,-0.00230160554007,0.0,-0.0,100.0,-0.0,100.0,2100000.0,0.0,0.0,0.0,0.0,0.0,0.0
1402753386888449613,3,-8.52672265867,-0.00591572024346,-2.5754435017,-0.122189614607,8.66260431715,0.10862951003,-0.00141782781951,0.0,-0.0278157945252,0.0,0.0787076121601,0.0,-1.58398890629,0.0,-0.00627925790788,0.0,-0.00164498696448,0.0,-0.00530197757777,0.0,0.0708730786342,0.0,-0.00815701641417,0.0,0.0,0.0,0.0,200.0,-0.0,0.0,-0.00537029107169,0.0,-0.00383606751517,0.0,-0.0,100.0,-0.0,100.0,2100000.0,0.0,0.0,0.0,0.0,0.0,0.0
1402753386908332238,3,-8.5186781393,-0.00591572024346,-2.55975802975,-0.122189614607,8.63665553652,0.10862951003,0.00931589387636,0.0,-0.0141356443671,0.0,0.0749535678521,0.0,-1.58445858439,0.0,-0.0148164325112,0.0,-0.00222458381381,0.0,-0.00754188531161,0.0,0.0691570025434,0.0,-0.0166210191822,0.0,0.0,0.0,0.0,200.0,-0.0,0.0,-0.00537029107169,0.0,-0.00230160554007,0.0,-0.0,100.0,-0.0,100.0,2100000.0,0.0,0.0,0.0,0.0,0.0,0.0
1402753386928811301,3,-8.5186781393,-0.00591572024346,-2.55975802975,-0.122189614607,8.63665553652,0.10862951003,0.00931589387636,0.0,-0.0141356443671,0.0,0.0749535678521,0.0,-1.58445858439,0.0,-0.0148164325112,0.0,-0.00222458381381,0.0,-0.00754188531161,0.0,0.0691570025434,0.0,-0.0166210191822,0.0,0.0,0.0,0.0,200.0,-0.0,0.0,-0.00537029107169,0.0,-0.00230160554007,0.0,-0.0,100.0,-0.0,100.0,2100000.0,0.0,0.0,0.0,0.0,0.0,0.0
1402753386948539755,3,-8.52000623418,-0.00591572024346,-2.55841387824,-0.122189614607,8.6284383886,0.10862951003,-0.00280732470783,0.0,-0.0250627222598,0.0,0.0788461976556,0.0,-1.58447278763,0.0,-0.00862321434397,0.0,-0.000387306628141,0.0,-0.00154559006855,0.0,0.0700732342782,0.0,-0.0163507414473,0.0,0.0,0.0,0.0,200.0,-0.0,0.0,-0.00537029107169,0.0,-0.00383606751517,0.0,-0.0,100.0,-0.0,100.0,2100000.0,0.0,0.0,0.0,0.0,0.0,0.0
1402753386968211791,3,-8.52000623418,-0.00591572024346,-2.55841387824,-0.122189614607,8.6284383886,0.10862951003,-0.00280732470783,0.0,-0.0250627222598,0.0,0.0788461976556,0.0,-1.58447278763,0.0,-0.00862321434397,0.0,-0.000387306628141,0.0,-0.00154559006855,0.0,0.0700732342782,0.0,-0.0163507414473,0.0,0.0,0.0,0.0,200.0,-0.0,0.0,-0.00537029107169,0.0,-0.00230160554007,0.0,-0.0,100.0,-0.0,100.0,2100000.0,0.0,0.0,0.0,0.0,0.0,0.0
1402753386988348197,3,-8.51675603868,-0.00591572024346,-2.55130046597,-0.122189614607,8.61386874659,0.10862951003,-0.0051254244276,0.0,-0.0257689242669,0.0,0.080469511639,0.0,-1.58459128454,0.0,2.31541332592e-05,0.0,0.000376718354815,0.0,-0.00103487083314,0.0,0.0699175537516,0.0,-0.0194004749307,0.0,0.0,0.0,0.0,200.0,-0.0,0.0,-0.00537029107169,0.0,-0.00383606751517,0.0,-0.0,100.0,-0.0,100.0,2100000.0,0.0,0.0,0.0,0.0,0.0,0.0
1402753387008229190,3,-8.51675603868,-0.00591572024346,-2.55130046597,-0.122189614607,8.61386874659,0.10862951003,-0.0051254244276,0.0,-0.0257689242669,0.0,0.080469511639,0.0,-1.58459128454,0.0,2.31541332592e-05,0.0,0.000376718354815,0.0,-0.00103487083314,0.0,0.0699175537516,0.0,-0.0194004749307,0.0,0.0,0.0,0.0,200.0,-0.0,0.0,-0.00537029107169,0.0,-0.00383606751517,0.0,-0.0,100.0,-0.0,100.0,2100000.0,0.0,0.0,0.0,0.0,0.0,0.0
1402753387028370589,3,-8.51677230403,-0.00591572024346,-2.55211546736,-0.122189614607,8.61680862278,0.10862951003,-0.00472431284331,0.0,-0.0246779326834,0.0,0.0812787199021,0.0,-1.58472504877,0.0,-0.00322654973433,0.0,0.00109634485851,0.0,-0.0145581206299,0.0,0.0695295942466,0.0,-0.0148882574535,0.0,0.0,0.0,0.0,200.0,-0.0,0.0,-0.00537029107169,0.0,-0.00383606751517,0.0,-0.0,100.0,-0.0,100.0,2100000.0,0.0,0.0,0.0,0.0,0.0,0.0
1402753387049116958,3,-8.51677230403,-0.00591572024346,-2.55211546736,-0.122189614607,8.61680862278,0.10862951003,-0.00472431284331,0.0,-0.0246779326834,0.0,0.0812787199021,0.0,-1.58472504877,0.0,-0.00322654973433,0.0,0.00109634485851,0.0,-0.0145581206299,0.0,0.0695295942466,0.0,-0.0148882574535,0.0,0.0,0.0,0.0,200.0,-0.0,0.0,-0.00537029107169,0.0,-0.00383606751517,0.0,-0.0,100.0,-0.0,100.0,2100000.0,0.0,0.0,0.0,0.0,0.0,0.0
1402753387068269113,3,-8.51387732139,-0.00591572024346,-2.54346382479,-0.122189614607,8.60001904472,0.10862951003,-0.00380874606659,0.0,-0.021711429005,0.0,0.082118703936,0.0,-1.58503594894,0.0,-0.0104943524627,0.0,0.00153752016777,0.0,-0.00718810459495,0.0,0.068782567123,0.0,-0.00983937941199,0.0,0.0,0.0,0.0,200.0,-0.0,0.0,-0.00537029107169,0.0,-0.00383606751517,0.0,-0.0,100.0,-0.0,100.0,2100000.0,0.0,0.0,0.0,0.0,0.0,0.0
1402753387088432701,3,-8.51387732139,-0.00591572024346,-2.54346382479,-0.122189614607,8.60001904472,0.10862951003,-0.00380874606659,0.0,-0.021711429005,0.0,0.082118703936,0.0,-1.58503594894,0.0,-0.0104943524627,0.0,0.00153752016777,0.0,-0.00718810459495,0.0,0.068782567123,0.0,-0.00983937941199,0.0,0.0,0.0,0.0,200.0,-0.0,0.0,-0.00537029107169,0.0,-0.00383606751517,0.0,-0.0,100.0,-0.0,100.0,2100000.0,0.0,0.0,0.0,0.0,0.0,0.0
1402753387108250361,3,-8.50940127237,-0.00591572024346,-2.53966715271,-0.122189614607,8.58854818797,0.10862951003,-0.00153141474761,0.0,-0.0278246047111,0.0,0.0836560190935,0.0,-1.58523649468,0.0,-0.00962508601129,0.0,0.00177670417054,0.0,-0.0107703510771,0.0,0.0691333185004,0.0,-0.0130537765189,0.0,0.0,0.0,0.0,200.0,-0.0,0.0,-0.00690451462821,0.0,-0.00383606751517,0.0,-0.0,100.0,-0.0,100.0,2100000.0,0.0,0.0,0.0,0.0,0.0,0.0
1402753387128287530,3,-8.50940127237,-0.00591572024346,-2.53966715271,-0.122189614607,8.58854818797,0.10862951003,-0.00153141474761,0.0,-0.0278246047111,0.0,0.0836560190935,0.0,-1.58523649468,0.0,-0.00962508601129,0.0,0.00177670417054,0.0,-0.0107703510771,0.0,0.0691333185004,0.0,-0.0130537765189,0.0,0.0,0.0,0.0,200.0,-0.0,0.0,-0.00537029107169,0.0,-0.00383606751517,0.0,-0.0,100.0,-0.0,100.0,2100000.0,0.0,0.0,0.0,0.0,0.0,0.0
1402753387148341754,3,-8.5087393954,-0.00591572024346,-2.52997288277,-0.122189614607,8.57399680128,0.10862951003,-0.00799730322914,0.0,-0.0203410841694,0.0,0.0839843294764,0.0,-1.58540494176,0.0,-0.0104237325557,0.0,0.0029878110606,0.0,-0.0102766746946,0.0,0.0678259111917,0.0,-0.0102489203591,0.0,0.0,0.0,0.0,200.0,-0.0,0.0,-0.00537029107169,0.0,-0.00383606751517,0.0,-0.0,100.0,-0.0,100.0,2100000.0,0.0,0.0,0.0,0.0,0.0,0.0
1402753387168151873,3,-8.5087393954,-0.00591572024346,-2.52997288277,-0.122189614607,8.57399680128,0.10862951003,-0.00799730322914,0.0,-0.0203410841694,0.0,0.0839843294764,0.0,-1.58540494176,0.0,-0.0104237325557,0.0,0.0029878110606,0.0,-0.0102766746946,0.0,0.0678259111917,0.0,-0.0102489203591,0.0,0.0,0.0,0.0,200.0,-0.0,0.0,-0.00537029107169,0.0,-0.00383606751517,0.0,-0.0,100.0,-0.0,100.0,2100000.0,0.0,0.0,0.0,0.0,0.0,0.0
1402753387188412147,3,-8.50638412186,-0.00591572024346,-2.5226419192,-0.122189614607,8.55808047434,0.10862951003,-0.00943442802632,0.0,-0.0205891461009,0.0,0.0827734527052,0.0,-1.58569584442,0.0,-0.00594614656,0.0,0.00329383142912,0.0,-0.00728736080154,0.0,0.0674967381891,0.0,-0.00151815055515,0.0,0.0,0.0,0.0,200.0,-0.0,0.0,-0.00537029107169,0.0,-0.00383606751517,0.0,-0.0,100.0,-0.0,100.0,2100000.0,0.0,0.0,0.0,0.0,0.0,0.0
1402753387208383596,3,-8.50638412186,-0.00591572024346,-2.5226419192,-0.122189614607,8.55808047434,0.10862951003,-0.00943442802632,0.0,-0.0205891461009,0.0,0.0827734527052,0.0,-1.58569584442,0.0,-0.00594614656,0.0,0.00329383142912,0.0,-0.00728736080154,0.0,0.0674967381891,0.0,-0.00151815055515,0.0,0.0,0.0,0.0,200.0,-0.0,0.0,-0.00537029107169,0.0,-0.00383606751517,0.0,-0.0,100.0,-0.0,100.0,2100000.0,0.0,0.0,0.0,0.0,0.0,0.0
1402753387228246403,3,-8.50674649883,-0.00591572024346,-2.52352293769,-0.122189614607,8.56142975389,0.10862951003,-0.0087504176283,0.0,-0.0210326190775,0.0,0.082395686537,0.0,-1.58600001466,0.0,-0.00989137669875,0.0,0.00341059239151,0.0,-0.00444614991437,0.0,0.06726756807,0.0,-0.0043945602896,0.0,0.0,0.0,0.0,200.0,-0.0,0.0,-0.00537029107169,0.0,-0.00383606751517,0.0,-0.0,100.0,-0.0,100.0,2100000.0,0.0,0.0,0.0,0.0,0.0,0.0
1402753387250278012,3,-8.50674649883,-0.00591572024346,-2.52352293769,-0.122189614607,8.56142975389,0.10862951003,-0.0087504176283,0.0,-0.0210326190775,0.0,0.082395686537,0.0,-1.58600001466,0.0,-0.00989137669875,0.0,0.00341059239151,0.0,-0.00444614991437,0.0,0.06726756807,0.0,-0.0043945602896,0.0,0.0,0.0,0.0,200.0,-0.0,0.0,-0.00537029107169,0.0,-0.00383606751517,0.0,-0.0,100.0,-0.0,100.0,2100000.0,0.0,0.0,0.0,0.0,0.0,0.0
1402753387268319074,3,-8.49760356351,-0.00591572024346,-2.51809719657,-0.122189614607,8.54482502767,0.10862951003,0.00571760557879,0.0,-0.0264319974755,0.0,0.0785800659182,0.0,-1.58644559743,0.0,-0.0112899145748,0.0,0.00192064485552,0.0,-0.00489973737938,0.0,0.0678633089093,0.0,0.00269118195234,0.0,0.0,0.0,0.0,200.0,-0.0,0.0,-0.00537029107169,0.0,-0.00383606751517,0.0,-0.0,100.0,-0.0,100.0,2100000.0,0.0,0.0,0.0,0.0,0.0,0.0
1402753387288544455,3,-8.49760356351,-0.00591572024346,-2.51809719657,-0.122189614607,8.54482502767,0.10862951003,0.00571760557879,0.0,-0.0264319974755,0.0,0.0785800659182,0.0,-1.58644559743,0.0,-0.0112899145748,0.0,0.00192064485552,0.0,-0.00489973737938,0.0,0.0678633089093,0.0,0.00269118195234,0.0,0.0,0.0,0.0,200.0,-0.0,0.0,-0.00537029107169,0.0,-0.00383606751517,0.0,-0.0,100.0,-0.0,100.0,2100000.0,0.0,0.0,0.0,0.0,0.0,0.0
1402753387308332223,3,-8.49345252231,-0.00591572024346,-2.507192749,-0.122189614607,8.53276472758,0.10862951003,0.00689507972319,0.0,-0.0162925328187,0.0,0.0767460933777,0.0,-1.58685176283,0.0,-0.00906705688147,0.0,0.00177892310581,0.0,-0.00137296515673,0.0,0.0666293361604,0.0,0.00933787323236,0.0,0.0,0.0,0.0,200.0,-0.0,0.0,-0.00537029107169,0.0,-0.00383606751517,0.0,-0.0,100.0,-0.0,100.0,2100000.0,0.0,0.0,0.0,0.0,0.0,0.0
1402753387328411644,3,-8.49345252231,-0.00591572024346,-2.507192749,-0.122189614607,8.53276472758,0.10862951003,0.00689507972319,0.0,-0.0162925328187,0.0,0.0767460933777,0.0,-1.58685176283,0.0,-0.00906705688147,0.0,0.00177892310581,0.0,-0.00137296515673,0.0,0.0666293361604,0.0,0.00933787323236,0.0,0.0,0.0,0.0,200.0,-0.0,0.0,-0.00537029107169,0.0,-0.00383606751517,0.0,-0.0,100.0,-0.0,100.0,2100000.0,0.0,0.0,0.0,0.0,0.0,0.0
1402753387348230923,3,-8.49176053579,-0.00591572024346,-2.50056141109,-0.122189614607,8.51251782481,0.10862951003,0.00375593760812,0.0,-0.0207629048444,0.0,0.0720553518842,0.0,-1.58720033484,0.0,-0.00969780841674,0.0,0.00190677176114,0.0,0.00545451059405,0.0,0.0673242375136,0.0,0.0143682196047,0.0,0.0,0.0,0.0,200.0,-0.0,0.0,-0.00537029107169,0.0,-0.00383606751517,0.0,-0.0,100.0,-0.0,100.0,2100000.0,0.0,0.0,0.0,0.0,0.0,0.0
1402753387368268294,3,-8.49176053579,-0.00591572024346,-2.50056141109,-0.122189614607,8.51251782481,0.10862951003,0.00375593760812,0.0,-0.0207629048444,0.0,0.0720553518842,0.0,-1.58720033484,0.0,-0.00969780841674,0.0,0.00190677176114,0.0,0.00545451059405,0.0,0.0673242375136,0.0,0.0143682196047,0.0,0.0,0.0,0.0,200.0,-0.0,0.0,-0.00537029107169,0.0,-0.00383606751517,0.0,-0.0,100.0,-0.0,100.0,2100000.0,0.0,0.0,0.0,0.0,0.0,0.0
1402753387388145514,3,-8.48804120662,-0.00591572024346,-2.49370769966,-0.122189614607,8.49579546017,0.10862951003,0.00384189628919,0.0,-0.0239482406381,0.0,0.0697766436401,0.0,-1.5875539375,0.0,-0.011296215259,0.0,0.0014367870031,0.0,0.01684109209,0.0,0.0680466764127,0.0,0.0147350779747,0.0,0.0,0.0,0.0,200.0,-0.0,0.0,-0.00537029107169,0.0,-0.00383606751517,0.0,-0.0,100.0,-0.0,100.0,2100000.0,0.0,0.0,0.0,0.0,0.0,0.0
1402753387408364086,3,-8.48804120662,-0.00591572024346,-2.49370769966,-0.122189614607,8.49579546017,0.10862951003,0.00384189628919,0.0,-0.0239482406381,0.0,0.0697766436401,0.0,-1.5875539375,0.0,-0.011296215259,0.0,0.0014367870031,0.0,0.01684109209,0.0,0.0680466764127,0.0,0.0147350779747,0.0,0.0,0.0,0.0,200.0,-0.0,0.0,-0.00537029107169,0.0,-0.00383606751517,0.0,-0.0,100.0,-0.0,100.0,2100000.0,0.0,0.0,0.0,0.0,0.0,0.0
1402753387428756659,3,-8.48785412343,-0.00591572024346,-2.49475793574,-0.122189614607,8.49869573427,0.10862951003,0.00421247787505,0.0,-0.0246347900248,0.0,0.0687577700003,0.0,-1.58794413349,0.0,-0.0103931456977,0.0,0.000777037462316,0.0,0.0258962952492,0.0,0.0687291362728,0.0,0.0147410073962,0.0,0.0,0.0,0.0,200.0,-0.0,0.0,-0.00690451462821,0.0,-0.00383606751517,0.0,-0.0,100.0,-0.0,100.0,2100000.0,0.0,0.0,0.0,0.0,0.0,0.0
1402753387448861540,3,-8.48785412343,-0.00591572024346,-2.49475793574,-0.122189614607,8.49869573427,0.10862951003,0.00421247787505,0.0,-0.0246347900248,0.0,0.0687577700003,0.0,-1.58794413349,0.0,-0.0103931456977,0.0,0.000777037462316,0.0,0.0258962952492,0.0,0.0687291362728,0.0,0.0147410073962,0.0,0.0,0.0,0.0,200.0,-0.0,0.0,-0.00537029107169,0.0,-0.00383606751517,0.0,-0.0,100.0,-0.0,100.0,2100000.0,0.0,0.0,0.0,0.0,0.0,0.0
1402753387468221457,3,-8.48400921297,-0.00591572024346,-2.48858483749,-0.122189614607,8.49143021599,0.10862951003,0.00410318839679,0.0,-0.0209341134334,0.0,0.0687445968469,0.0,-1.588377746,0.0,-0.0141660649136,0.0,0.000153761522708,0.0,0.0187461429535,0.0,0.0692964291353,0.0,0.0164527477047,0.0,0.0,0.0,0.0,200.0,-0.0,0.0,-0.00537029107169,0.0,-0.00383606751517,0.0,-0.0,100.0,-0.0,100.0,2100000.0,0.0,0.0,0.0,0.0,0.0,0.0
1402753387488366800,3,-8.48400921297,-0.00591572024346,-2.48858483749,-0.122189614607,8.49143021599,0.10862951003,0.00410318839679,0.0,-0.0209341134334,0.0,0.0687445968469,0.0,-1.588377746,0.0,-0.0141660649136,0.0,0.000153761522708,0.0,0.0187461429535,0.0,0.0692964291353,0.0,0.0164527477047,0.0,0.0,0.0,0.0,200.0,-0.0,0.0,-0.00537029107169,0.0,-0.00383606751517,0.0,-0.0,100.0,-0.0,100.0,2100000.0,0.0,0.0,0.0,0.0,0.0,0.0
1402753387508315886,3,-8.47905417573,-0.00591572024346,-2.48354981275,-0.122189614607,8.47863014587,0.10862951003,0.00596568849606,0.0,-0.0254274549334,0.0,0.0691936188675,0.0,-1.58892015837,0.0,-0.0129564154823,0.0,-0.000839735830959,0.0,0.0185716343563,0.0,0.0705661057758,0.0,0.0131685442789,0.0,0.0,0.0,0.0,200.0,-0.0,0.0,-0.00537029107169,0.0,-0.00383606751517,0.0,-0.0,100.0,-0.0,100.0,2100000.0,0.0,0.0,0.0,0.0,0.0,0.0
1402753387528326529,3,-8.47905417573,-0.00591572024346,-2.48354981275,-0.122189614607,8.47863014587,0.10862951003,0.00596568849606,0.0,-0.0254274549334,0.0,0.0691936188675,0.0,-1.58892015837,0.0,-0.0129564154823,0.0,-0.000839735830959,0.0,0.0185716343563,0.0,0.0705661057758,0.0,0.0131685442789,0.0,0.0,0.0,0.0,200.0,-0.0,0.0,-0.00537029107169,0.0,-0.00383606751517,0.0,-0.0,100.0,-0.0,100.0,2100000.0,0.0,0.0,0.0,0.0,0.0,0.0
1402753387548461183,3,-8.47875729144,-0.00591572024346,-2.48466207459,-0.122189614607,8.48154218022,0.10862951003,0.00479035281186,0.0,-0.0262935004975,0.0,0.0719173422032,0.0,-1.58933536185,0.0,-0.00754286285983,0.0,-0.00153847680306,0.0,0.0241249348939,0.0,0.0715038039813,0.0,0.014565956205,0.0,0.0,0.0,0.0,200.0,-0.0,0.0,-0.00537029107169,0.0,-0.00383606751517,0.0,-0.0,100.0,-0.0,100.0,2100000.0,0.0,0.0,0.0,0.0,0.0,0.0
1402753387568195212,3,-8.47875729144,-0.00591572024346,-2.48466207459,-0.122189614607,8.48154218022,0.10862951003,0.00479035281186,0.0,-0.0262935004975,0.0,0.0719173422032,0.0,-1.58933536185,0.0,-0.00754286285983,0.0,-0.00153847680306,0.0,0.0241249348939,0.0,0.0715038039813,0.0,0.014565956205,0.0,0.0,0.0,0.0,200.0,-0.0,0.0,-0.00537029107169,0.0,-0.00383606751517,0.0,-0.0,100.0,-0.0,100.0,2100000.0,0.0,0.0,0.0,0.0,0.0,0.0
1402753387588349607,3,-8.47979075323,-0.00591572024346,-2.47500244253,-0.122189614607,8.45771793727,0.10862951003,-0.0051296276798,0.0,-0.0231018759967,0.0,0.0706010345888,0.0,-1.58969702696,0.0,-0.0136655269055,0.0,-0.00110536373939,0.0,0.0192245706394,0.0,0.0721131289366,0.0,0.0123281309241,0.0,0.0,0.0,0.0,200.0,-0.0,0.0,-0.00537029107169,0.0,-0.00383606751517,0.0,-0.0,100.0,-0.0,100.0,2100000.0,0.0,0.0,0.0,0.0,0.0,0.0
1402753387608318334,3,-8.47979075323,-0.00591572024346,-2.47500244253,-0.122189614607,8.45771793727,0.10862951003,-0.0051296276798,0.0,-0.0231018759967,0.0,0.0706010345888,0.0,-1.58969702696,0.0,-0.0136655269055,0.0,-0.00110536373939,0.0,0.0192245706394,0.0,0.0721131289366,0.0,0.0123281309241,0.0,0.0,0.0,0.0,200.0,-0.0,0.0,-0.00537029107169,0.0,-0.00383606751517,0.0,-0.0,100.0,-0.0,100.0,2100000.0,0.0,0.0,0.0,0.0,0.0,0.0
1402753387629796176,3,-8.47247421531,-0.00591572024346,-2.47062304604,-0.122189614607,8.4454948886,0.10862951003,0.00529408181569,0.0,-0.0258792482252,0.0,0.0730413107952,0.0,-1.59039206518,0.0,-0.0173597452822,0.0,-0.00258947115035,0.0,0.0164266297671,0.0,0.0732439103647,0.0,0.00590135750849,0.0,0.0,0.0,0.0,200.0,-0.0,0.0,-0.00537029107169,0.0,-0.00383606751517,0.0,-0.0,100.0,-0.0,100.0,2100000.0,0.0,0.0,0.0,0.0,0.0,0.0
1402753387648796168,3,-8.47247421531,-0.00591572024346,-2.47062304604,-0.122189614607,8.4454948886,0.10862951003,0.00529408181569,0.0,-0.0258792482252,0.0,0.0730413107952,0.0,-1.59039206518,0.0,-0.0173597452822,0.0,-0.00258947115035,0.0,0.0164266297671,0.0,0.0732439103647,0.0,0.00590135750849,0.0,0.0,0.0,0.0,200.0,-0.0,0.0,-0.00537029107169,0.0,-0.00383606751517,0.0,-0.0,100.0,-0.0,100.0,2100000.0,0.0,0.0,0.0,0.0,0.0,0.0
1402753387668553171,3,-8.47196029502,-0.00591572024346,-2.46499936696,-0.122189614607,8.43949749517,0.10862951003,-0.00204588445891,0.0,-0.0210788645695,0.0,0.077768695211,0.0,-1.59079337374,0.0,-0.012224845609,0.0,-0.00198850166571,0.0,0.0105329158137,0.0,0.0732494598058,0.0,-0.00278276090238,0.0,0.0,0.0,0.0,200.0,-0.0,0.0,-0.00537029107169,0.0,-0.00383606751517,0.0,-0.0,100.0,-0.0,100.0,2100000.0,0.0,0.0,0.0,0.0,0.0,0.0
1402753387688916954,3,-8.47196029502,-0.00591572024346,-2.46499936696,-0.122189614607,8.43949749517,0.10862951003,-0.00204588445891,0.0,-0.0210788645695,0.0,0.077768695211,0.0,-1.59079337374,0.0,-0.012224845609,0.0,-0.00198850166571,0.0,0.0105329158137,0.0,0.0732494598058,0.0,-0.00278276090238,0.0,0.0,0.0,0.0,200.0,-0.0,0.0,-0.00537029107169,0.0,-0.00383606751517,0.0,-0.0,100.0,-0.0,100.0,2100000.0,0.0,0.0,0.0,0.0,0.0,0.0
1402753387708475061,3,-8.47567115939,-0.00591572024346,-2.46248107697,-0.122189614607,8.42981182491,0.10862951003,-0.0149242640793,0.0,-0.0237481581194,0.0,0.0798367506267,0.0,-1.5910287402,0.0,-0.0149784564736,0.0,-0.000319884070352,0.0,-0.000251574325477,0.0,0.073796720445,0.0,-0.00712076492529,0.0,0.0,0.0,0.0,200.0,-0.0,0.0,-0.00537029107169,0.0,-0.00383606751517,0.0,-0.0,100.0,-0.0,100.0,2100000.0,0.0,0.0,0.0,0.0,0.0,0.0
1402753387728313867,3,-8.47567115939,-0.00591572024346,-2.46248107697,-0.122189614607,8.42981182491,0.10862951003,-0.0149242640793,0.0,-0.0237481581194,0.0,0.0798367506267,0.0,-1.5910287402,0.0,-0.0149784564736,0.0,-0.000319884070352,0.0,-0.000251574325477,0.0,0.073796720445,0.0,-0.00712076492529,0.0,0.0,0.0,0.0,200.0,-0.0,0.0,-0.00537029107169,0.0,-0.00383606751517,0.0,-0.0,100.0,-0.0,100.0,2100000.0,0.0,0.0,0.0,0.0,0.0,0.0
1402753387749010288,3,-8.47359012245,-0.00591572024346,-2.4492633736,-0.122189614607,8.41417405019,0.10862951003,-0.0160708809036,0.0,-0.00779242019016,0.0,0.081199489898,0.0,-1.59134524509,0.0,-0.00857769901971,0.0,0.000214263910731,0.0,-0.00529131630829,0.0,0.0718404888682,0.0,-0.010607391417,0.0,0.0,0.0,0.0,200.0,-0.0,0.0,-0.00537029107169,0.0,-0.00383606751517,0.0,-0.0,100.0,-0.0,100.0,2100000.0,0.0,0.0,0.0,0.0,0.0,0.0
1402753387769203545,3,-8.47359012245,-0.00591572024346,-2.4492633736,-0.122189614607,8.41417405019,0.10862951003,-0.0160708809036,0.0,-0.00779242019016,0.0,0.081199489898,0.0,-1.59134524509,0.0,-0.00857769901971,0.0,0.000214263910731,0.0,-0.00529131630829,0.0,0.0718404888682,0.0,-0.010607391417,0.0,0.0,0.0,0.0,200.0,-0.0,0.0,-0.00537029107169,0.0,-0.00383606751517,0.0,-0.0,100.0,-0.0,100.0,2100000.0,0.0,0.0,0.0,0.0,0.0,0.0
1402753387788334438,3,-8.46247915639,-0.00591572024346,-2.45037048317,-0.122189614607,8.40890346579,0.10862951003,0.00281181652584,0.0,-0.0230981096697,0.0,0.0850620423624,0.0,-1.59171182421,0.0,-0.00737130922456,0.0,-0.00153567709081,0.0,-0.00947157180585,0.0,0.0734176831647,0.0,-0.0196763832857,0.0,0.0,0.0,0.0,200.0,-0.0,0.0,-0.00537029107169,0.0,-0.00383606751517,0.0,-0.0,100.0,-0.0,100.0,2100000.0,0.0,0.0,0.0,0.0,0.0,0.0
1402753387808555057,3,-8.46247915639,-0.00591572024346,-2.45037048317,-0.122189614607,8.40890346579,0.10862951003,0.00281181652584,0.0,-0.0230981096697,0.0,0.0850620423624,0.0,-1.59171182421,0.0,-0.00737130922456,0.0,-0.00153567709081,0.0,-0.00947157180585,0.0,0.0734176831647,0.0,-0.0196763832857,0.0,0.0,0.0,0.0,200.0,-0.0,0.0,-0.00537029107169,0.0,-0.00383606751517,0.0,-0.0,100.0,-0.0,100.0,2100000.0,0.0,0.0,0.0,0.0,0.0,0.0
1402753387828289545,3,-8.46017609512,-0.00591572024346,-2.44209385745,-0.122189614607,8.3899575876,0.10862951003,0.00270048915169,0.0,-0.0210250025717,0.0,0.0840130172893,0.0,-1.59231854619,0.0,-0.00901274082737,0.0,-0.000328278161799,0.0,-0.0201674328404,0.0,0.07188332023,0.0,-0.0133505845159,0.0,0.0,0.0,0.0,200.0,-0.0,0.0,-0.00537029107169,0.0,-0.00230160554007,0.0,-0.0,100.0,-0.0,100.0,2100000.0,0.0,0.0,0.0,0.0,0.0,0.0
1402753387848420951,3,-8.46017609512,-0.00591572024346,-2.44209385745,-0.122189614607,8.3899575876,0.10862951003,0.00270048915169,0.0,-0.0210250025717,0.0,0.0840130172893,0.0,-1.59231854619,0.0,-0.00901274082737,0.0,-0.000328278161799,0.0,-0.0201674328404,0.0,0.07188332023,0.0,-0.0133505845159,0.0,0.0,0.0,0.0,200.0,-0.0,0.0,-0.00537029107169,0.0,-0.00230160554007,0.0,-0.0,100.0,-0.0,100.0,2100000.0,0.0,0.0,0.0,0.0,0.0,0.0
1402753387868137398,3,-8.4588660882,-0.00591572024346,-2.4328501537,-0.122189614607,8.36881300541,0.10862951003,0.000237197893394,0.0,-0.0185730438807,0.0,0.0818471084527,0.0,-1.59248767142,0.0,-0.0128018116549,0.0,0.000348938212529,0.0,-0.0198811336509,0.0,0.0711916724131,0.0,-0.0105415770122,0.0,0.0,0.0,0.0,200.0,-0.0,0.0,-0.00690451462821,0.0,-0.00230160554007,0.0,-0.0,100.0,-0.0,100.0,2100000.0,0.0,0.0,0.0,0.0,0.0,0.0
1402753387888298571,3,-8.4588660882,-0.00591572024346,-2.4328501537,-0.122189614607,8.36881300541,0.10862951003,0.000237197893394,0.0,-0.0185730438807,0.0,0.0818471084527,0.0,-1.59248767142,0.0,-0.0128018116549,0.0,0.000348938212529,0.0,-0.0198811336509,0.0,0.0711916724131,0.0,-0.0105415770122,0.0,0.0,0.0,0.0,200.0,-0.0,0.0,-0.00537029107169,0.0,-0.00230160554007,0.0,-0.0,100.0,-0.0,100.0,2100000.0,0.0,0.0,0.0,0.0,0.0,0.0
1402753387908378160,3,-8.45880157204,-0.00591572024346,-2.43325955032,-0.122189614607,8.37038768443,0.10862951003,-0.000364772515438,0.0,-0.0190016398441,0.0,0.0829055208157,0.0,-1.59251465294,0.0,-0.00396359743086,0.0,0.00054061567331,0.0,-0.015074813634,0.0,0.0708567095063,0.0,-0.00784361441935,0.0,0.0,0.0,0.0,200.0,-0.0,0.0,-0.00537029107169,0.0,-0.00230160554007,0.0,-0.0,100.0,-0.0,100.0,2100000.0,0.0,0.0,0.0,0.0,0.0,0.0
1402753387928237850,3,-8.45880157204,-0.00591572024346,-2.43325955032,-0.122189614607,8.37038768443,0.10862951003,-0.000364772515438,0.0,-0.0190016398441,0.0,0.0829055208157,0.0,-1.59251465294,0.0,-0.00396359743086,0.0,0.00054061567331,0.0,-0.015074813634,0.0,0.0708567095063,0.0,-0.00784361441935,0.0,0.0,0.0,0.0,200.0,-0.0,0.0,-0.00537029107169,0.0,-0.00383606751517,0.0,-0.0,100.0,-0.0,100.0,2100000.0,0.0,0.0,0.0,0.0,0.0,0.0
1402753387948495449,3,-8.45533119535,-0.00591572024346,-2.42357996984,-0.122189614607,8.359602338,0.10862951003,0.00290297606102,0.0,-0.00952376887854,0.0,0.0827113128347,0.0,-1.59287416905,0.0,-0.0108495856972,0.0,0.000705022069359,0.0,-0.0207972609898,0.0,0.0689995755157,0.0,0.00305649540992,0.0,0.0,0.0,0.0,200.0,-0.0,0.0,-0.00537029107169,0.0,-0.00383606751517,0.0,-0.0,100.0,-0.0,100.0,2100000.0,0.0,0.0,0.0,0.0,0.0,0.0
1402753387968341060,3,-8.45533119535,-0.00591572024346,-2.42357996984,-0.122189614607,8.359602338,0.10862951003,0.00290297606102,0.0,-0.00952376887854,0.0,0.0827113128347,0.0,-1.59287416905,0.0,-0.0108495856972,0.0,0.000705022069359,0.0,-0.0207972609898,0.0,0.0689995755157,0.0,0.00305649540992,0.0,0.0,0.0,0.0,200.0,-0.0,0.0,-0.00537029107169,0.0,-0.00383606751517,0.0,-0.0,100.0,-0.0,100.0,2100000.0,0.0,0.0,0.0,0.0,0.0,0.0
1402753387988323017,3,-8.45116944114,-0.00591572024346,-2.41810275626,-0.122189614607,8.34922164982,0.10862951003,0.00462532343252,0.0,-0.0105798675845,0.0,0.0833714650351,0.0,-1.59303807924,0.0,0.00244554356408,0.0,0.000321093490448,0.0,-0.0176380983098,0.0,0.0683333957937,0.0,0.00140794578674,0.0,0.0,0.0,0.0,200.0,-0.0,0.0,-0.00690451462821,0.0,-0.00383606751517,0.0,-0.0,100.0,-0.0,100.0,2100000.0,0.0,0.0,0.0,0.0,0.0,0.0
1402753388008637992,3,-8.45116944114,-0.00591572024346,-2.41810275626,-0.122189614607,8.34922164982,0.10862951003,0.00462532343252,0.0,-0.0105798675845,0.0,0.0833714650351,0.0,-1.59303807924,0.0,0.00244554356408,0.0,0.000321093490448,0.0,-0.0176380983098,0.0,0.0683333957937,0.0,0.00140794578674,0.0,0.0,0.0,0.0,200.0,-0.0,0.0,-0.00537029107169,0.0,-0.00383606751517,0.0,-0.0,100.0,-0.0,100.0,2100000.0,0.0,0.0,0.0,0.0,0.0,0.0
1402753388028786683,3,-8.45083460946,-0.00591572024346,-2.41858570684,-0.122189614607,8.35270600587,0.10862951003,0.00748843853706,0.0,-0.0104253780189,0.0,0.0837194384641,0.0,-1.59309691935,0.0,-0.0117642046541,0.0,0.000419321683805,0.0,-0.0126764390032,0.0,0.0677571339941,0.0,0.000714012638302,0.0,0.0,0.0,0.0,200.0,-0.0,0.0,-0.00537029107169,0.0,-0.00383606751517,0.0,-0.0,100.0,-0.0,100.0,2100000.0,0.0,0.0,0.0,0.0,0.0,0.0
1402753388048330656,3,-8.45083460946,-0.00591572024346,-2.41858570684,-0.122189614607,8.35270600587,0.10862951003,0.00748843853706,0.0,-0.0104253780189,0.0,0.0837194384641,0.0,-1.59309691935,0.0,-0.0117642046541,0.0,0.000419321683805,0.0,-0.0126764390032,0.0,0.0677571339941,0.0,0.000714012638302,0.0,0.0,0.0,0.0,200.0,-0.0,0.0,-0.00537029107169,0.0,-0.00230160554007,0.0,-0.0,100.0,-0.0,100.0,2100000.0,0.0,0.0,0.0,0.0,0.0,0.0
1402753388068310521,3,-8.44885473862,-0.00591572024346,-2.41482161617,-0.122189614607,8.34198986475,0.10862951003,0.00708187869417,0.0,-0.0127015856451,0.0,0.0818606782595,0.0,-1.59302467921,0.0,0.00253371145886,0.0,0.000371460438086,0.0,-0.0126765718749,0.0,0.067604831885,0.0,0.000960986773207,0.0,0.0,0.0,0.0,200.0,-0.0,0.0,-0.00537029107169,0.0,-0.00383606751517,0.0,-0.0,100.0,-0.0,100.0,2100000.0,0.0,0.0,0.0,0.0,0.0,0.0
1402753388088815207,3,-8.44885473862,-0.00591572024346,-2.41482161617,-0.122189614607,8.34198986475,0.10862951003,0.00708187869417,0.0,-0.0127015856451,0.0,0.0818606782595,0.0,-1.59302467921,0.0,0.00253371145886,0.0,0.000371460438086,0.0,-0.0126765718749,0.0,0.067604831885,0.0,0.000960986773207,0.0,0.0,0.0,0.0,200.0,-0.0,0.0,-0.00537029107169,0.0,-0.00383606751517,0.0,-0.0,100.0,-0.0,100.0,2100000.0,0.0,0.0,0.0,0.0,0.0,0.0
1402753388108565727,3,-8.45231227578,-0.00591572024346,-2.41252580167,-0.122189614607,8.33854244344,0.10862951003,-0.00373562154485,0.0,-0.0136660479061,0.0,0.0826842656455,0.0,-1.59275294119,0.0,0.000917620970157,0.0,0.00170921839945,0.0,-0.00724961439734,0.0,0.0673688686288,0.0,0.00161162206673,0.0,0.0,0.0,0.0,200.0,-0.0,0.0,-0.00537029107169,0.0,-0.00383606751517,0.0,-0.0,100.0,-0.0,100.0,2100000.0,0.0,0.0,0.0,0.0,0.0,0.0
1402753388128294296,3,-8.45231227578,-0.00591572024346,-2.41252580167,-0.122189614607,8.33854244344,0.10862951003,-0.00373562154485,0.0,-0.0136660479061,0.0,0.0826842656455,0.0,-1.59275294119,0.0,0.000917620970157,0.0,0.00170921839945,0.0,-0.00724961439734,0.0,0.0673688686288,0.0,0.00161162206673,0.0,0.0,0.0,0.0,200.0,-0.0,0.0,-0.00537029107169,0.0,-0.00383606751517,0.0,-0.0,100.0,-0.0,100.0,2100000.0,0.0,0.0,0.0,0.0,0.0,0.0
1402753388148821686,3,-8.44338390153,-0.00591572024346,-2.40904743679,-0.122189614607,8.3260096475,0.10862951003,0.014308581484,0.0,-0.0183062405539,0.0,0.079817683544,0.0,-1.59281007811,0.0,-0.00186708793675,0.0,-0.000226393772585,0.0,-0.00847316493763,0.0,0.0678097561591,0.0,0.00116445683809,0.0,0.0,0.0,0.0,200.0,-0.0,0.0,-0.00537029107169,0.0,-0.00383606751517,0.0,-0.0,100.0,-0.0,100.0,2100000.0,0.0,0.0,0.0,0.0,0.0,0.0
1402753388168750988,3,-8.44338390153,-0.00591572024346,-2.40904743679,-0.122189614607,8.3260096475,0.10862951003,0.014308581484,0.0,-0.0183062405539,0.0,0.079817683544,0.0,-1.59281007811,0.0,-0.00186708793675,0.0,-0.000226393772585,0.0,-0.00847316493763,0.0,0.0678097561591,0.0,0.00116445683809,0.0,0.0,0.0,0.0,200.0,-0.0,0.0,-0.00537029107169,0.0,-0.00383606751517,0.0,-0.0,100.0,-0.0,100.0,2100000.0,0.0,0.0,0.0,0.0,0.0,0.0
1402753388188618323,3,-8.44497972042,-0.00591572024346,-2.40268439949,-0.122189614607,8.3182095819,0.10862951003,0.00529325910839,0.0,-0.013218754372,0.0,0.0802097351879,0.0,-1.59268095812,0.0,-0.00685468464775,0.0,0.000871916328395,0.0,-0.00161991867619,0.0,0.0670850667129,0.0,-0.00396824401064,0.0,0.0,0.0,0.0,200.0,-0.0,0.0,-0.00690451462821,0.0,-0.00383606751517,0.0,-0.0,100.0,-0.0,100.0,2100000.0,0.0,0.0,0.0,0.0,0.0,0.0
1402753388209585199,3,-8.44497972042,-0.00591572024346,-2.40268439949,-0.122189614607,8.3182095819,0.10862951003,0.00529325910839,0.0,-0.013218754372,0.0,0.0802097351879,0.0,-1.59268095812,0.0,-0.00685468464775,0.0,0.000871916328395,0.0,-0.00161991867619,0.0,0.0670850667129,0.0,-0.00396824401064,0.0,0.0,0.0,0.0,200.0,-0.0,0.0,-0.00537029107169,0.0,-0.00383606751517,0.0,-0.0,100.0,-0.0,100.0,2100000.0,0.0,0.0,0.0,0.0,0.0,0.0
1402753388228315741,3,-8.44469419327,-0.00591572024346,-2.40319185905,-0.122189614607,8.32138069358,0.10862951003,0.00427920274138,0.0,-0.0127797475318,0.0,0.0800745964088,0.0,-1.59263070873,0.0,0.000324868044088,0.0,0.000846053252903,0.0,-0.000601525641643,0.0,0.0670845347082,0.0,-0.00259073984242,0.0,0.0,0.0,0.0,200.0,-0.0,0.0,-0.00537029107169,0.0,-0.00383606751517,0.0,-0.0,100.0,-0.0,100.0,2100000.0,0.0,0.0,0.0,0.0,0.0,0.0
1402753388248307353,3,-8.44469419327,-0.00591572024346,-2.40319185905,-0.122189614607,8.32138069358,0.10862951003,0.00427920274138,0.0,-0.0127797475318,0.0,0.0800745964088,0.0,-1.59263070873,0.0,0.000324868044088,0.0,0.000846053252903,0.0,-0.000601525641643,0.0,0.0670845347082,0.0,-0.00259073984242,0.0,0.0,0.0,0.0,200.0,-0.0,0.0,-0.00537029107169,0.0,-0.00383606751517,0.0,-0.0,100.0,-0.0,100.0,2100000.0,0.0,0.0,0.0,0.0,0.0,0.0
1402753388268497918,3,-8.44277370934,-0.00591572024346,-2.40241771678,-0.122189614607,8.30569215141,0.10862951003,0.00437747850214,0.0,-0.0255376769215,0.0,0.0769804916692,0.0,-1.59273056535,0.0,0.00270299996949,0.0,0.000620258854367,0.0,0.000590775185675,0.0,0.0685608101726,0.0,0.00142709748964,0.0,0.0,0.0,0.0,200.0,-0.0,0.0,-0.00537029107169,0.0,-0.00383606751517,0.0,-0.0,100.0,-0.0,100.0,2100000.0,0.0,0.0,0.0,0.0,0.0,0.0
1402753388288087021,3,-8.44277370934,-0.00591572024346,-2.40241771678,-0.122189614607,8.30569215141,0.10862951003,0.00437747850214,0.0,-0.0255376769215,0.0,0.0769804916692,0.0,-1.59273056535,0.0,0.00270299996949,0.0,0.000620258854367,0.0,0.000590775185675,0.0,0.0685608101726,0.0,0.00142709748964,0.0,0.0,0.0,0.0,200.0,-0.0,0.0,-0.00537029107169,0.0,-0.00230160554007,0.0,-0.0,100.0,-0.0,100.0,2100000.0,0.0,0.0,0.0,0.0,0.0,0.0
1402753388308488421,3,-8.43709893398,-0.00591572024346,-2.39572305239,-0.122189614607,8.30790191925,0.10862951003,0.010413311285,0.0,-0.0163180295303,0.0,0.0813930200706,0.0,-1.59291670448,0.0,-0.00534684068899,0.0,0.000105079524398,0.0,0.00910723641831,0.0,0.0674918808579,0.0,-0.00319675016415,0.0,0.0,0.0,0.0,200.0,-0.0,0.0,-0.00537029107169,0.0,-0.00383606751517,0.0,-0.0,100.0,-0.0,100.0,2100000.0,0.0,0.0,0.0,0.0,0.0,0.0
1402753388328408408,3,-8.43709893398,-0.00591572024346,-2.39572305239,-0.122189614607,8.30790191925,0.10862951003,0.010413311285,0.0,-0.0163180295303,0.0,0.0813930200706,0.0,-1.59291670448,0.0,-0.00534684068899,0.0,0.000105079524398,0.0,0.00910723641831,0.0,0.0674918808579,0.0,-0.00319675016415,0.0,0.0,0.0,0.0,200.0,-0.0,0.0,-0.00537029107169,0.0,-0.00383606751517,0.0,-0.0,100.0,-0.0,100.0,2100000.0,0.0,0.0,0.0,0.0,0.0,0.0
1402753388348450084,3,-8.43833126303,-0.00591572024346,-2.38878357194,-0.122189614607,8.29000557399,0.10862951003,0.00397376175637,0.0,-0.0143135170598,0.0,0.076752945841,0.0,-1.59300455093,0.0,-0.0063254064353,0.0,0.000765959840888,0.0,0.0046616081988,0.0,0.0674822890681,0.0,0.000399464342057,0.0,0.0,0.0,0.0,200.0,-0.0,0.0,-0.00690451462821,0.0,-0.00383606751517,0.0,-0.0,100.0,-0.0,100.0,2100000.0,0.0,0.0,0.0,0.0,0.0,0.0
1402753388368226071,3,-8.43833126303,-0.00591572024346,-2.38878357194,-0.122189614607,8.29000557399,0.10862951003,0.00397376175637,0.0,-0.0143135170598,0.0,0.076752945841,0.0,-1.59300455093,0.0,-0.0063254064353,0.0,0.000765959840888,0.0,0.0046616081988,0.0,0.0674822890681,0.0,0.000399464342057,0.0,0.0,0.0,0.0,200.0,-0.0,0.0,-0.00537029107169,0.0,-0.00383606751517,0.0,-0.0,100.0,-0.0,100.0,2100000.0,0.0,0.0,0.0,0.0,0.0,0.0
1402753388388181463,3,-8.43977294979,-0.00591572024346,-2.38845604611,-0.122189614607,8.28173242989,0.10862951003,-0.00354039009058,0.0,-0.0242409695045,0.0,0.0768467320122,0.0,-1.59302635752,0.0,-0.00969973449551,0.0,0.00144964703379,0.0,0.0121582271634,0.0,0.0688342054715,0.0,-0.000744505959432,0.0,0.0,0.0,0.0,200.0,-0.0,0.0,-0.00537029107169,0.0,-0.00383606751517,0.0,-0.0,100.0,-0.0,100.0,2100000.0,0.0,0.0,0.0,0.0,0.0,0.0
1402753388408379249,3,-8.43977294979,-0.00591572024346,-2.38845604611,-0.122189614607,8.28173242989,0.10862951003,-0.00354039009058,0.0,-0.0242409695045,0.0,0.0768467320122,0.0,-1.59302635752,0.0,-0.00969973449551,0.0,0.00144964703379,0.0,0.0121582271634,0.0,0.0688342054715,0.0,-0.000744505959432,0.0,0.0,0.0,0.0,200.0,-0.0,0.0,-0.00537029107169,0.0,-0.00230160554007,0.0,-0.0,100.0,-0.0,100.0,2100000.0,0.0,0.0,0.0,0.0,0.0,0.0
1402753388428790131,3,-8.43998610516,-0.00591572024346,-2.38931627844,-0.122189614607,8.28477957164,0.10862951003,-0.00389213010407,0.0,-0.0237010579868,0.0,0.0769766260287,0.0,-1.59331278521,0.0,-0.00960821682089,0.0,0.00127235056306,0.0,0.0142434770583,0.0,0.0692934719829,0.0,0.00850542875152,0.0,0.0,0.0,0.0,200.0,-0.0,0.0,-0.00537029107169,0.0,-0.00383606751517,0.0,-0.0,100.0,-0.0,100.0,2100000.0,0.0,0.0,0.0,0.0,0.0,0.0
1402753388448276118,3,-8.43998610516,-0.00591572024346,-2.38931627844,-0.122189614607,8.28477957164,0.10862951003,-0.00389213010407,0.0,-0.0237010579868,0.0,0.0769766260287,0.0,-1.59331278521,0.0,-0.00960821682089,0.0,0.00127235056306,0.0,0.0142434770583,0.0,0.0692934719829,0.0,0.00850542875152,0.0,0.0,0.0,0.0,200.0,-0.0,0.0,-0.00537029107169,0.0,-0.00383606751517,0.0,-0.0,100.0,-0.0,100.0,2100000.0,0.0,0.0,0.0,0.0,0.0,0.0
1402753388469198316,3,-8.43953282671,-0.00591572024346,-2.38243629007,-0.122189614607,8.27137986569,0.10862951003,-0.00797530630062,0.0,-0.0194349511141,0.0,0.0761129205482,0.0,-1.59355534789,0.0,-0.00738270179187,0.0,0.00132139722322,0.0,0.0190279578011,0.0,0.0695460624719,0.0,0.0100123241804,0.0,0.0,0.0,0.0,200.0,-0.0,0.0,-0.00537029107169,0.0,-0.00383606751517,0.0,-0.0,100.0,-0.0,100.0,2100000.0,0.0,0.0,0.0,0.0,0.0,0.0
1402753388488766405,3,-8.43953282671,-0.00591572024346,-2.38243629007,-0.122189614607,8.27137986569,0.10862951003,-0.00797530630062,0.0,-0.0194349511141,0.0,0.0761129205482,0.0,-1.59355534789,0.0,-0.00738270179187,0.0,0.00132139722322,0.0,0.0190279578011,0.0,0.0695460624719,0.0,0.0100123241804,0.0,0.0,0.0,0.0,200.0,-0.0,0.0,-0.00537029107169,0.0,-0.00383606751517,0.0,-0.0,100.0,-0.0,100.0,2100000.0,0.0,0.0,0.0,0.0,0.0,0.0
1402753388508463887,3,-8.42912591816,-0.00591572024346,-2.37372871965,-0.122189614607,8.26593852769,0.10862951003,0.0105293455182,0.0,-0.00749163372564,0.0,0.0777878304123,0.0,-1.59410755107,0.0,-0.0110700786978,0.0,-0.000996516381295,0.0,0.0169901596285,0.0,0.068985099923,0.0,0.0086396911754,0.0,0.0,0.0,0.0,200.0,-0.0,0.0,-0.00537029107169,0.0,-0.00383606751517,0.0,-0.0,100.0,-0.0,100.0,2100000.0,0.0,0.0,0.0,0.0,0.0,0.0
1402753388528234943,3,-8.42912591816,-0.00591572024346,-2.37372871965,-0.122189614607,8.26593852769,0.10862951003,0.0105293455182,0.0,-0.00749163372564,0.0,0.0777878304123,0.0,-1.59410755107,0.0,-0.0110700786978,0.0,-0.000996516381295,0.0,0.0169901596285,0.0,0.068985099923,0.0,0.0086396911754,0.0,0.0,0.0,0.0,200.0,-0.0,0.0,-0.00537029107169,0.0,-0.00383606751517,0.0,-0.0,100.0,-0.0,100.0,2100000.0,0.0,0.0,0.0,0.0,0.0,0.0
1402753388548799561,3,-8.42870931547,-0.00591572024346,-2.37409898861,-0.122189614607,8.26916063961,0.10862951003,0.0115855460061,0.0,-0.00702324345856,0.0,0.0789241864337,0.0,-1.59440936447,0.0,-0.0133474538546,0.0,-0.0013049967189,0.0,0.0182526917414,0.0,0.0698558638765,0.0,0.00611642626329,0.0,0.0,0.0,0.0,200.0,-0.0,0.0,-0.00537029107169,0.0,-0.00383606751517,0.0,-0.0,100.0,-0.0,100.0,2100000.0,0.0,0.0,0.0,0.0,0.0,0.0
1402753388568192825,3,-8.42870931547,-0.00591572024346,-2.37409898861,-0.122189614607,8.26916063961,0.10862951003,0.0115855460061,0.0,-0.00702324345856,0.0,0.0789241864337,0.0,-1.59440936447,0.0,-0.0133474538546,0.0,-0.0013049967189,0.0,0.0182526917414,0.0,0.0698558638765,0.0,0.00611642626329,0.0,0.0,0.0,0.0,200.0,-0.0,0.0,-0.00537029107169,0.0,-0.00383606751517,0.0,-0.0,100.0,-0.0,100.0,2100000.0,0.0,0.0,0.0,0.0,0.0,0.0
1402753388588271609,3,-8.43207685435,-0.00591572024346,-2.3722524889,-0.122189614607,8.25568955291,0.10862951003,-0.00139918524195,0.0,-0.0154565542611,0.0,0.0782813962155,0.0,-1.59458822585,0.0,-0.00611202781115,0.0,-0.000232845133528,0.0,0.021145371472,0.0,0.0716628430634,0.0,-0.00309044413724,0.0,0.0,0.0,0.0,200.0,-0.0,0.0,-0.00537029107169,0.0,-0.00383606751517,0.0,-0.0,100.0,-0.0,100.0,2100000.0,0.0,0.0,0.0,0.0,0.0,0.0
1402753388608250101,3,-8.43207685435,-0.00591572024346,-2.3722524889,-0.122189614607,8.25568955291,0.10862951003,-0.00139918524195,0.0,-0.0154565542611,0.0,0.0782813962155,0.0,-1.59458822585,0.0,-0.00611202781115,0.0,-0.000232845133528,0.0,0.021145371472,0.0,0.0716628430634,0.0,-0.00309044413724,0.0,0.0,0.0,0.0,200.0,-0.0,0.0,-0.00537029107169,0.0,-0.00383606751517,0.0,-0.0,100.0,-0.0,100.0,2100000.0,0.0,0.0,0.0,0.0,0.0,0.0
1402753388628726551,3,-8.43299411292,-0.00591572024346,-2.36932740042,-0.122189614607,8.25557926419,0.10862951003,-0.00599549585555,0.0,-0.0118813896876,0.0,0.0811498307271,0.0,-1.59472332912,0.0,-0.00600162013749,0.0,0.00017785500828,0.0,0.0193406870703,0.0,0.0719993556265,0.0,0.00912781082053,0.0,0.0,0.0,0.0,200.0,-0.0,0.0,-0.00537029107169,0.0,-0.00383606751517,0.0,-0.0,100.0,-0.0,100.0,2100000.0,0.0,0.0,0.0,0.0,0.0,0.0
1402753388648305753,3,-8.43299411292,-0.00591572024346,-2.36932740042,-0.122189614607,8.25557926419,0.10862951003,-0.00599549585555,0.0,-0.0118813896876,0.0,0.0811498307271,0.0,-1.59472332912,0.0,-0.00600162013749,0.0,0.00017785500828,0.0,0.0193406870703,0.0,0.0719993556265,0.0,0.00912781082053,0.0,0.0,0.0,0.0,200.0,-0.0,0.0,-0.00537029107169,0.0,-0.00383606751517,0.0,-0.0,100.0,-0.0,100.0,2100000.0,0.0,0.0,0.0,0.0,0.0,0.0
1402753388668520594,3,-8.43069896079,-0.00591572024346,-2.36606517438,-0.122189614607,8.24250625631,0.10862951003,-0.0036121137543,0.0,-0.0158540715912,0.0,0.0800088541214,0.0,-1.59502288185,0.0,-0.00884454636415,0.0,-0.000259332409543,0.0,0.0190580215467,0.0,0.0732403840777,0.0,0.00203481809057,0.0,0.0,0.0,0.0,200.0,-0.0,0.0,-0.00537029107169,0.0,-0.00383606751517,0.0,-0.0,100.0,-0.0,100.0,2100000.0,0.0,0.0,0.0,0.0,0.0,0.0
1402753388688995674,3,-8.43069896079,-0.00591572024346,-2.36606517438,-0.122189614607,8.24250625631,0.10862951003,-0.0036121137543,0.0,-0.0158540715912,0.0,0.0800088541214,0.0,-1.59502288185,0.0,-0.00884454636415,0.0,-0.000259332409543,0.0,0.0190580215467,0.0,0.0732403840777,0.0,0.00203481809057,0.0,0.0,0.0,0.0,200.0,-0.0,0.0,-0.00537029107169,0.0,-0.00383606751517,0.0,-0.0,100.0,-0.0,100.0,2100000.0,0.0,0.0,0.0,0.0,0.0,0.0
1402753388708358715,3,-8.43138965548,-0.00591572024346,-2.36103402081,-0.122189614607,8.22665385991,0.10862951003,-0.00935430915579,0.0,-0.0162338558284,0.0,0.0774200524487,0.0,-1.59504166042,0.0,-0.0013547437699,0.0,8.35970395592e-05,0.0,0.0158425915868,0.0,0.0739114379169,0.0,0.0014527144963,0.0,0.0,0.0,0.0,200.0,-0.0,0.0,-0.00537029107169,0.0,-0.00383606751517,0.0,-0.0,100.0,-0.0,100.0,2100000.0,0.0,0.0,0.0,0.0,0.0,0.0
1402753388728436956,3,-8.43138965548,-0.00591572024346,-2.36103402081,-0.122189614607,8.22665385991,0.10862951003,-0.00935430915579,0.0,-0.0162338558284,0.0,0.0774200524487,0.0,-1.59504166042,0.0,-0.0013547437699,0.0,8.35970395592e-05,0.0,0.0158425915868,0.0,0.0739114379169,0.0,0.0014527144963,0.0,0.0,0.0,0.0,200.0,-0.0,0.0,-0.00537029107169,0.0,-0.00383606751517,0.0,-0.0,100.0,-0.0,100.0,2100000.0,0.0,0.0,0.0,0.0,0.0,0.0
1402753388748912508,3,-8.42658793118,-0.00591572024346,-2.36144056975,-0.122189614607,8.22723279388,0.10862951003,-0.00227913937041,0.0,-0.0211599987323,0.0,0.0791786446545,0.0,-1.59532227646,0.0,-0.00466552214224,0.0,-0.000706599315597,0.0,0.00977518879728,0.0,0.0749396804267,0.0,-0.00258386210349,0.0,0.0,0.0,0.0,200.0,-0.0,0.0,-0.00537029107169,0.0,-0.00383606751517,0.0,-0.0,100.0,-0.0,100.0,2100000.0,0.0,0.0,0.0,0.0,0.0,0.0
1402753388768410835,3,-8.42658793118,-0.00591572024346,-2.36144056975,-0.122189614607,8.22723279388,0.10862951003,-0.00227913937041,0.0,-0.0211599987323,0.0,0.0791786446545,0.0,-1.59532227646,0.0,-0.00466552214224,0.0,-0.000706599315597,0.0,0.00977518879728,0.0,0.0749396804267,0.0,-0.00258386210349,0.0,0.0,0.0,0.0,200.0,-0.0,0.0,-0.00537029107169,0.0,-0.00383606751517,0.0,-0.0,100.0,-0.0,100.0,2100000.0,0.0,0.0,0.0,0.0,0.0,0.0
1402753388788321299,3,-8.4244679767,-0.00591572024346,-2.3578721702,-0.122189614607,8.22202233085,0.10862951003,0.000163928961914,0.0,-0.0183360627701,0.0,0.0794459831639,0.0,-1.59554304477,0.0,-0.0098224160652,0.0,-0.000876996556151,0.0,0.0107068017611,0.0,0.074883978287,0.0,-0.00488118210025,0.0,0.0,0.0,0.0,200.0,-0.0,0.0,-0.00537029107169,0.0,-0.00383606751517,0.0,-0.0,100.0,-0.0,100.0,2100000.0,0.0,0.0,0.0,0.0,0.0,0.0
1402753388808306533,3,-8.4244679767,-0.00591572024346,-2.3578721702,-0.122189614607,8.22202233085,0.10862951003,0.000163928961914,0.0,-0.0183360627701,0.0,0.0794459831639,0.0,-1.59554304477,0.0,-0.0098224160652,0.0,-0.000876996556151,0.0,0.0107068017611,0.0,0.074883978287,0.0,-0.00488118210025,0.0,0.0,0.0,0.0,200.0,-0.0,0.0,-0.00537029107169,0.0,-0.00383606751517,0.0,-0.0,100.0,-0.0,100.0,2100000.0,0.0,0.0,0.0,0.0,0.0,0.0
1402753388828258050,3,-8.42445565305,-0.00591572024346,-2.35867632048,-0.122189614607,8.22535619425,0.10862951003,-0.000987641486507,0.0,-0.0188152235874,0.0,0.079868912161,0.0,-1.59564343735,0.0,-0.000150514955356,0.0,-0.000895459768778,0.0,0.00527764257635,0.0,0.075174857761,0.0,-0.00137385352852,0.0,0.0,0.0,0.0,200.0,-0.0,0.0,-0.00537029107169,0.0,-0.00383606751517,0.0,-0.0,100.0,-0.0,100.0,2100000.0,0.0,0.0,0.0,0.0,0.0,0.0
1402753388848274659,3,-8.42445565305,-0.00591572024346,-2.35867632048,-0.122189614607,8.22535619425,0.10862951003,-0.000987641486507,0.0,-0.0188152235874,0.0,0.079868912161,0.0,-1.59564343735,0.0,-0.000150514955356,0.0,-0.000895459768778,0.0,0.00527764257635,0.0,0.075174857761,0.0,-0.00137385352852,0.0,0.0,0.0,0.0,200.0,-0.0,0.0,-0.00690451462821,0.0,-0.00383606751517,0.0,-0.0,100.0,-0.0,100.0,2100000.0,0.0,0.0,0.0,0.0,0.0,0.0
1402753388868841222,3,-8.42193420749,-0.00591572024346,-2.35547856453,-0.122189614607,8.20803624561,0.10862951003,0.00206097380778,0.0,-0.0240555811055,0.0,0.0756125848309,0.0,-1.59583462626,0.0,-0.00480191524059,0.0,-0.00114175989572,0.0,0.000414675556268,0.0,0.0758190153868,0.0,-0.00566377760243,0.0,0.0,0.0,0.0,200.0,-0.0,0.0,-0.00537029107169,0.0,-0.00383606751517,0.0,-0.0,100.0,-0.0,100.0,2100000.0,0.0,0.0,0.0,0.0,0.0,0.0
1402753388888218928,3,-8.42193420749,-0.00591572024346,-2.35547856453,-0.122189614607,8.20803624561,0.10862951003,0.00206097380778,0.0,-0.0240555811055,0.0,0.0756125848309,0.0,-1.59583462626,0.0,-0.00480191524059,0.0,-0.00114175989572,0.0,0.000414675556268,0.0,0.0758190153868,0.0,-0.00566377760243,0.0,0.0,0.0,0.0,200.0,-0.0,0.0,-0.00537029107169,0.0,-0.00383606751517,0.0,-0.0,100.0,-0.0,100.0,2100000.0,0.0,0.0,0.0,0.0,0.0,0.0
