rosbagTimestamp,control_method,x_current,x_desired,y_current,y_desired,x_velocity_current,x_velocity_desired,y_velocity_current,y_velocity_desired,yaw_current,yaw_desired,required_force_x,required_force_y,required_moment_z,resultant_force_x,resultant_force_y,resultant_moment_z,current_port_servo_angle,current_port_thruster_force,current_starboard_servo_angle,current_starboard_thruster_force,estimated_port_servo_angle,estimated_port_thruster_force,estimated_starboard_servo_angle,estimated_starboard_thruster_force,cost_value,step,user_defined_1,user_defined_2,user_defined_3,user_defined_4,user_defined_5
1402599584584720163,0,14.2721111472,-0.114322152727,-15.2243100479,0.043815185726,-0.0774550525904,0.0,0.12649631118,0.0,-0.764381034086,0.0,0.0,0.0,0.0,9.2925645411,0.0,-2.83237367213,0.00690445105478,9.2925645411,0.129653064412,-0.0,0.0,9.2925645411,0.128544895134,-0.0,8760.51687581,0.0,0.0,0.0,0.0,0.0,0.0
1402599584604879057,0,14.2697538829,-0.114322152727,-15.2204698781,0.043815185726,-0.0770718437733,0.0,0.125889526709,0.0,-0.763959991209,0.0,0.0,0.0,0.0,9.2925645411,0.0,-2.83237367213,0.00690445105478,9.2925645411,0.131187287969,-0.0,0.0,9.2925645411,0.128544895134,-0.0,8760.51687583,0.0,0.0,0.0,0.0,0.0,0.0
1402599584624420799,0,14.2685299677,-0.114322152727,-15.219438609,0.043815185726,-0.0780243032682,0.0,0.119885408827,0.0,-0.763576464587,0.0,0.0,0.0,0.0,9.2925645411,0.0,-2.83237367213,0.00690445105478,9.2925645411,0.131187287969,-0.0,0.0,9.2925645411,0.128544895134,-0.0,8760.51687583,0.0,0.0,0.0,0.0,0.0,0.0
1402599584644420605,0,14.2685299677,-0.114322152727,-15.219438609,0.043815185726,-0.0780243032682,0.0,0.119885408827,0.0,-0.763576464587,0.0,0.0,0.0,0.0,14.6734595299,0.0,-4.47247046471,0.00690445105478,9.2925645411,0.131187287969,-0.0,0.0,14.6734595299,0.128544895134,-0.0,21843.5688307,0.0,0.0,0.0,0.0,0.0,0.0
1402599584664407639,0,14.2669213416,-0.114322152727,-15.2170720737,0.043815185726,-0.0758137666612,0.0,0.121339973965,0.0,-0.763315021881,0.0,0.0,0.0,0.0,95.7113444805,0.0,-29.1728177977,0.00690445105478,14.6734595299,0.131187287969,-0.0,0.0,95.7113444805,0.122545591627,-0.0,929363.029553,0.0,0.0,0.0,0.0,0.0,0.0
1402599584684404671,0,14.2669213416,-0.114322152727,-15.2170720737,0.043815185726,-0.0758137666612,0.0,0.121339973965,0.0,-0.763315021881,0.0,0.0,0.0,0.0,100.0,0.0,-30.48,0.00690445105478,95.7113444805,0.131187287969,-0.0,0.0,100.0,0.122545591627,-0.0,1014515.2,0.0,0.0,0.0,0.0,0.0,0.0
1402599584705051157,0,14.2577658545,-0.114322152727,-15.2065334394,0.043815185726,-0.0882433505516,0.0,0.136685639794,0.0,-0.762982754749,0.0,0.0,0.0,0.0,100.0,0.0,-30.48,0.00690445105478,100.0,0.129653064412,-0.0,0.0,100.0,0.122545591627,-0.0,1014515.2,0.0,0.0,0.0,0.0,0.0,0.0
1402599584724381920,0,14.2577658545,-0.114322152727,-15.2065334394,0.043815185726,-0.0882433505516,0.0,0.136685639794,0.0,-0.762982754749,0.0,0.0,0.0,0.0,100.0,0.0,-30.48,0.00690445105478,100.0,0.128118602437,-0.0,0.0,100.0,0.122545591627,-0.0,1014515.2,0.0,0.0,0.0,0.0,0.0,0.0
1402599584744954793,0,14.2611655138,-0.114322152727,-15.2039992906,0.043815185726,-0.0751907006243,0.0,0.130708749996,0.0,-0.76275030221,0.0,0.0,0.0,0.0,100.0,0.0,-30.48,0.00690445105478,100.0,0.126584378881,-0.0,0.0,100.0,0.122545591627,-0.0,1014515.2,0.0,0.0,0.0,0.0,0.0,0.0
1402599584764378955,0,14.2611655138,-0.114322152727,-15.2039992906,0.043815185726,-0.0751907006243,0.0,0.130708749996,0.0,-0.76275030221,0.0,0.0,0.0,0.0,100.0,0.0,-30.48,0.00690445105478,100.0,0.126584378881,-0.0,0.0,100.0,0.122545591627,-0.0,1014515.2,0.0,0.0,0.0,0.0,0.0,0.0
1402599584784960155,0,14.2591930748,-0.114322152727,-15.19052239,0.043815185726,-0.0731405376982,0.0,0.150626399751,0.0,-0.762664020412,0.0,0.0,0.0,0.0,100.0,0.0,-30.48,0.00690445105478,100.0,0.123515454931,-0.0,0.0,100.0,0.122545591627,-0.0,1014515.2,0.0,0.0,0.0,0.0,0.0,0.0
1402599584804443653,0,14.2591930748,-0.114322152727,-15.19052239,0.043815185726,-0.0731405376982,0.0,0.150626399751,0.0,-0.762664020412,0.0,0.0,0.0,0.0,100.0,0.0,-30.48,0.00690445105478,100.0,0.126584378881,-0.0,0.0,100.0,0.122545591627,-0.0,1014515.2,0.0,0.0,0.0,0.0,0.0,0.0
1402599584824998383,0,14.2475879836,-0.114322152727,-15.1849312381,0.043815185726,-0.0905933771059,0.0,0.142972961551,0.0,-0.762380575944,0.0,0.0,0.0,0.0,100.0,0.0,-30.48,0.00690445105478,100.0,0.126584378881,-0.0,0.0,100.0,0.122545591627,-0.0,1014515.2,0.0,0.0,0.0,0.0,0.0,0.0
1402599584844151853,0,14.2475879836,-0.114322152727,-15.1849312381,0.043815185726,-0.0905933771059,0.0,0.142972961551,0.0,-0.762380575944,0.0,0.0,0.0,0.0,100.0,0.0,-30.48,0.00690445105478,100.0,0.126584378881,-0.0,0.0,100.0,0.122545591627,-0.0,1014515.2,0.0,0.0,0.0,0.0,0.0,0.0
1402599584865480809,0,14.2564933817,-0.114322152727,-15.1806934688,0.043815185726,-0.0696989900434,0.0,0.1341795575,0.0,-0.762916352285,0.0,0.0,0.0,0.0,100.0,0.0,-30.48,0.00690445105478,100.0,0.126584378881,-0.0,0.0,100.0,0.122545591627,-0.0,1014515.2,0.0,0.0,0.0,0.0,0.0,0.0
1402599584884062168,0,14.2564933817,-0.114322152727,-15.1806934688,0.043815185726,-0.0696989900434,0.0,0.1341795575,0.0,-0.762916352285,0.0,0.0,0.0,0.0,100.0,0.0,-30.48,0.00690445105478,100.0,0.126584378881,-0.0,0.0,100.0,0.122545591627,-0.0,1014515.2,0.0,0.0,0.0,0.0,0.0,0.0
1402599584905211453,0,14.2683805045,-0.114322152727,-15.1650790431,0.043815185726,-0.0355442226683,0.0,0.131900291627,0.0,-0.763602477677,0.0,0.0,0.0,0.0,100.0,0.0,-30.48,0.00690445105478,100.0,0.126584378881,-0.0,0.0,100.0,0.122545591627,-0.0,1014515.2,0.0,0.0,0.0,0.0,0.0,0.0
1402599584924446490,0,14.2683805045,-0.114322152727,-15.1650790431,0.043815185726,-0.0355442226683,0.0,0.131900291627,0.0,-0.763602477677,0.0,0.0,0.0,0.0,100.0,0.0,-30.48,0.00690445105478,100.0,0.126584378881,-0.0,0.0,100.0,0.122545591627,-0.0,1014515.2,0.0,0.0,0.0,0.0,0.0,0.0
1402599584944305590,0,14.2801838574,-0.114322152727,-15.1596449857,0.043815185726,-0.00627137501495,0.0,0.0952558614514,0.0,-0.768461867994,0.0,0.0,0.0,0.0,100.0,0.0,-30.48,0.00690445105478,100.0,0.126584378881,-0.0,0.0,100.0,0.122545591627,-0.0,1014515.2,0.0,0.0,0.0,0.0,0.0,0.0
1402599584964269400,0,14.2801838574,-0.114322152727,-15.1596449857,0.043815185726,-0.00627137501495,0.0,0.0952558614514,0.0,-0.768461867994,0.0,0.0,0.0,0.0,100.0,0.0,-30.48,0.00690445105478,100.0,0.126584378881,-0.0,0.0,100.0,0.122545591627,-0.0,1014515.2,0.0,0.0,0.0,0.0,0.0,0.0
1402599584984794959,0,14.3015486343,-0.114322152727,-15.1509619766,0.043815185726,0.044007220365,0.0,0.0504163028906,0.0,-0.775188334325,0.0,0.0,0.0,0.0,100.0,0.0,-30.48,0.00690445105478,100.0,0.126584378881,-0.0,0.0,100.0,0.122545591627,-0.0,1014515.2,0.0,0.0,0.0,0.0,0.0,0.0
1402599585004305645,0,14.3015486343,-0.114322152727,-15.1509619766,0.043815185726,0.044007220365,0.0,0.0504163028906,0.0,-0.775188334325,0.0,0.0,0.0,0.0,100.0,0.0,-30.48,0.00690445105478,100.0,0.126584378881,-0.0,0.0,100.0,0.122545591627,-0.0,1014515.2,0.0,0.0,0.0,0.0,0.0,0.0
1402599585024879746,0,14.3031938411,-0.114322152727,-15.1496731268,0.043815185726,0.0599331418335,0.0,0.0242736322267,0.0,-0.779919179776,0.0,0.0,0.0,0.0,100.0,0.0,-30.48,0.00690445105478,100.0,0.126584378881,-0.0,0.0,100.0,0.122545591627,-0.0,1014515.2,0.0,0.0,0.0,0.0,0.0,0.0
1402599585044284130,0,14.3434313668,-0.114322152727,-15.1513889403,0.043815185726,0.129927842661,0.0,-0.0188033072718,0.0,-0.788418509131,0.0,0.0,0.0,0.0,100.0,0.0,-30.48,0.00690445105478,100.0,0.126584378881,-0.0,0.0,100.0,0.122545591627,-0.0,1014515.2,0.0,0.0,0.0,0.0,0.0,0.0
1402599585065049898,0,14.3434313668,-0.114322152727,-15.1513889403,0.043815185726,0.129927842661,0.0,-0.0188033072718,0.0,-0.788418509131,0.0,0.0,0.0,0.0,100.0,0.0,-30.48,0.00690445105478,100.0,0.126584378881,-0.0,0.0,100.0,0.122545591627,-0.0,1014515.2,0.0,0.0,0.0,0.0,0.0,0.0
1402599585084251272,0,14.3465766367,-0.114322152727,-15.1520340122,0.043815185726,0.142687918521,0.0,-0.038208768715,0.0,-0.791947407698,0.0,0.0,0.0,0.0,100.0,0.0,-30.48,0.00690445105478,100.0,0.126584378881,-0.0,0.0,100.0,0.122545591627,-0.0,1014515.2,0.0,0.0,0.0,0.0,0.0,0.0
1402599585104970927,0,14.3465766367,-0.114322152727,-15.1520340122,0.043815185726,0.142687918521,0.0,-0.038208768715,0.0,-0.791947407698,0.0,0.0,0.0,0.0,100.0,0.0,-30.48,0.00690445105478,100.0,0.125049916906,-0.0,0.0,100.0,0.122545591627,-0.0,1014515.2,0.0,0.0,0.0,0.0,0.0,0.0
1402599585124375312,0,14.3771139587,-0.114322152727,-15.1387187367,0.043815185726,0.176058916195,0.0,-0.0474224619699,0.0,-0.790910248897,0.0,0.0,0.0,0.0,100.0,0.0,-30.48,0.00690445105478,100.0,0.126584378881,-0.0,0.0,100.0,0.122545591627,-0.0,1014515.2,0.0,0.0,0.0,0.0,0.0,0.0
1402599585144885402,0,14.3771139587,-0.114322152727,-15.1387187367,0.043815185726,0.176058916195,0.0,-0.0474224619699,0.0,-0.790910248897,0.0,0.0,0.0,0.0,100.0,0.0,-30.48,0.00690445105478,100.0,0.126584378881,-0.0,0.0,100.0,0.122545591627,-0.0,1014515.2,0.0,0.0,0.0,0.0,0.0,0.0
1402599585164582635,0,14.3914365427,-0.114322152727,-15.1331196145,0.043815185726,0.178187765374,0.0,-0.0745584165853,0.0,-0.79707640918,0.0,0.0,0.0,0.0,100.0,0.0,-30.48,0.00690445105478,100.0,0.125049916906,-0.0,0.0,100.0,0.122545591627,-0.0,1014515.2,0.0,0.0,0.0,0.0,0.0,0.0
1402599585184454419,0,14.3914365427,-0.114322152727,-15.1331196145,0.043815185726,0.178187765374,0.0,-0.0745584165853,0.0,-0.79707640918,0.0,0.0,0.0,0.0,101.511951163,0.0,-30.0191572854,0.00690445105478,100.0,0.126584378881,-0.0,0.0,100.0,0.0,1.51195116341,1015820.14357,0.0,0.0,0.0,0.0,0.0,0.0
1402599585204415088,0,14.4081055379,-0.114322152727,-15.1359526896,0.043815185726,0.187861962235,0.0,-0.120664808619,0.0,-0.808554042693,0.0,0.0,0.0,0.0,100.0,0.0,-30.48,0.00690445105478,100.0,0.125049916906,1.51195116341,0.0,100.0,0.0,-0.0,1014515.20008,0.0,0.0,0.0,0.0,0.0,0.0
1402599585224436289,0,14.4081055379,-0.114322152727,-15.1359526896,0.043815185726,0.187861962235,0.0,-0.120664808619,0.0,-0.808554042693,0.0,0.0,0.0,0.0,100.0,0.0,-30.48,0.00690445105478,100.0,0.121981231374,-0.0,0.0,100.0,0.0,-0.0,1014515.20007,0.0,0.0,0.0,0.0,0.0,0.0
1402599585245044785,0,14.4233094959,-0.114322152727,-15.1359348898,0.043815185726,0.193501758643,0.0,-0.153139732325,0.0,-0.819101589132,0.0,0.0,0.0,0.0,100.0,0.0,-30.48,0.00690445105478,100.0,0.103568879766,-0.0,0.0,100.0,0.0,-0.0,1014515.20005,0.0,0.0,0.0,0.0,0.0,0.0
1402599585265174975,0,14.4233094959,-0.114322152727,-15.1359348898,0.043815185726,0.193501758643,0.0,-0.153139732325,0.0,-0.819101589132,0.0,0.0,0.0,0.0,100.84375646,0.0,-30.2228230311,0.00690445105478,100.0,0.0728820244496,-0.0,0.0,100.0,0.0,0.843756459653,1015186.23648,0.0,0.0,0.0,0.0,0.0,0.0
1402599585284531973,0,14.4491988361,-0.114322152727,-15.1443537935,0.043815185726,0.225403219174,0.0,-0.20160111067,0.0,-0.836244506317,0.0,0.0,0.0,0.0,101.848095608,-0.0656451585216,-29.8691799285,0.00690445105478,100.0,0.0437291542713,0.843756459653,0.0,100.0,-0.0355055068225,1.84926111251,1014754.93726,0.0,0.0,0.0,0.0,0.0,0.0
1402599585305155012,0,14.4491988361,-0.114322152727,-15.1443537935,0.043815185726,0.225403219174,0.0,-0.20160111067,0.0,-0.836244506317,0.0,0.0,0.0,0.0,105.323537588,-1.47587006121,-27.7890034058,0.00690445105478,100.0,0.0207138935749,1.84926111251,0.0,100.0,-0.270442729133,5.52433207631,992008.421516,0.0,0.0,0.0,0.0,0.0,0.0
1402599585324712456,0,14.4706577305,-0.114322152727,-15.1415631096,0.043815185726,0.250185574231,0.0,-0.199499888449,0.0,-0.834885380474,0.0,0.0,0.0,0.0,109.453141743,-6.60994561756,-22.813742764,0.00690445105478,100.0,0.00230154196664,5.52433207631,0.0,100.0,-0.610210797571,11.534871906,931743.900087,0.0,0.0,0.0,0.0,0.0,0.0
1402599585344613223,0,14.4706577305,-0.114322152727,-15.1415631096,0.043815185726,0.250185574231,0.0,-0.199499888449,0.0,-0.834885380474,0.0,0.0,0.0,0.0,109.45386924,-12.7609425372,-18.3608143531,0.00690445105478,100.0,-0.02378264268,11.534871906,0.0,100.0,-0.933180779777,15.8813506365,900249.144275,0.0,0.0,0.0,0.0,0.0,0.0
1402599585364610664,0,14.4788667644,-0.114322152727,-15.1482465279,0.043815185726,0.266004893944,0.0,-0.220982409948,0.0,-0.844117914593,0.0,0.0,0.0,0.0,106.574421871,-18.063075638,-15.4002557592,0.00690445105478,100.0,-0.0560039599712,15.8813506365,0.0,100.0,-1.2217304764,19.2223235965,901474.154756,0.0,0.0,0.0,0.0,0.0,0.0
1402599585384749139,0,14.4788667644,-0.114322152727,-15.1482465279,0.043815185726,0.266004893944,0.0,-0.220982409948,0.0,-0.844117914593,0.0,0.0,0.0,0.0,106.574421871,-18.063075638,-15.4002557592,0.00690445105478,100.0,-0.086691053706,19.2223235965,0.0,100.0,-1.2217304764,19.2223235965,901474.154403,0.0,0.0,0.0,0.0,0.0,0.0
1402599585404482726,0,14.4875295634,-0.114322152727,-15.1569806756,0.043815185726,0.26709765261,0.0,-0.253386280993,0.0,-0.864360579208,0.0,0.0,0.0,0.0,106.574421871,-18.063075638,-15.4002557592,0.00690445105478,100.0,-0.118912609416,19.2223235965,0.0,100.0,-1.2217304764,19.2223235965,901474.154042,0.0,0.0,0.0,0.0,0.0,0.0
1402599585424938477,0,14.4875295634,-0.114322152727,-15.1569806756,0.043815185726,0.26709765261,0.0,-0.253386280993,0.0,-0.864360579208,0.0,0.0,0.0,0.0,106.574421871,-18.063075638,-15.4002557592,0.00690445105478,100.0,-0.151134165126,19.2223235965,0.0,100.0,-1.2217304764,19.2223235965,901474.153692,0.0,0.0,0.0,0.0,0.0,0.0
1402599585444479854,0,14.5055685597,-0.114322152727,-15.1647190257,0.043815185726,0.282954451329,0.0,-0.272155538832,0.0,-0.881977308273,0.0,0.0,0.0,0.0,106.574421871,-18.063075638,-15.4002557592,0.00690445105478,100.0,-0.186424167949,19.2223235965,0.0,100.0,-1.2217304764,19.2223235965,901474.15332,0.0,0.0,0.0,0.0,0.0,0.0
1402599585464892556,0,14.5055685597,-0.114322152727,-15.1647190257,0.043815185726,0.282954451329,0.0,-0.272155538832,0.0,-0.881977308273,0.0,0.0,0.0,0.0,106.574421871,-18.063075638,-15.4002557592,0.00537022749826,100.0,-0.21864548524,19.2223235965,0.0,100.0,-1.2217304764,19.2223235965,901474.152992,0.0,0.0,0.0,0.0,0.0,0.0
1402599585484450761,0,14.521549927,-0.114322152727,-15.1671758489,0.043815185726,0.302720132588,0.0,-0.279756182091,0.0,-0.888597291927,0.0,0.0,0.0,0.0,106.574421871,-18.063075638,-15.4002557592,0.00537022749826,100.0,-0.252401264506,19.2223235965,0.0,100.0,-1.2217304764,19.2223235965,901474.152659,0.0,0.0,0.0,0.0,0.0,0.0
1402599585504792464,0,14.521549927,-0.114322152727,-15.1671758489,0.043815185726,0.302720132588,0.0,-0.279756182091,0.0,-0.888597291927,0.0,0.0,0.0,0.0,106.574421871,-18.063075638,-15.4002557592,0.00537022749826,100.0,-0.286157282191,19.2223235965,0.0,100.0,-1.2217304764,19.2223235965,901474.152337,0.0,0.0,0.0,0.0,0.0,0.0
1402599585524120809,0,14.5347338346,-0.114322152727,-15.1794384454,0.043815185726,0.322008608805,0.0,-0.297916964413,0.0,-0.904910707206,0.0,0.0,0.0,0.0,106.574421871,-18.063075638,-15.4002557592,0.00690445105478,100.0,-0.321447523433,19.2223235965,0.0,100.0,-1.2217304764,19.2223235965,901474.152014,0.0,0.0,0.0,0.0,0.0,0.0
1402599585544768604,0,14.5347338346,-0.114322152727,-15.1794384454,0.043815185726,0.322008608805,0.0,-0.297916964413,0.0,-0.904910707206,0.0,0.0,0.0,0.0,106.574421871,-18.063075638,-15.4002557592,0.00690445105478,100.0,-0.356737526255,19.2223235965,0.0,100.0,-1.2217304764,19.2223235965,901474.151702,0.0,0.0,0.0,0.0,0.0,0.0
1402599585564702350,0,14.5511855107,-0.114322152727,-15.1912777106,0.043815185726,0.329629596887,0.0,-0.317563405372,0.0,-0.926213027211,0.0,0.0,0.0,0.0,106.574421871,-18.063075638,-15.4002557592,0.00537022749826,100.0,-0.39049354394,19.2223235965,0.0,100.0,-1.2217304764,19.2223235965,901474.151416,0.0,0.0,0.0,0.0,0.0,0.0
1402599585584871702,0,14.5511855107,-0.114322152727,-15.1912777106,0.043815185726,0.329629596887,0.0,-0.317563405372,0.0,-0.926213027211,0.0,0.0,0.0,0.0,106.574421871,-18.063075638,-15.4002557592,0.00537022749826,100.0,-0.427318008738,19.2223235965,0.0,100.0,-1.2217304764,19.2223235965,901474.151116,0.0,0.0,0.0,0.0,0.0,0.0
1402599585604449380,0,14.5616724265,-0.114322152727,-15.2012990487,0.043815185726,0.342329802346,0.0,-0.331977152333,0.0,-0.938889411776,0.0,0.0,0.0,0.0,106.574421871,-18.063075638,-15.4002557592,0.00690445105478,100.0,-0.45953932603,19.2223235965,0.0,100.0,-1.2217304764,19.2223235965,901474.150866,0.0,0.0,0.0,0.0,0.0,0.0
1402599585624391770,0,14.5822730319,-0.114322152727,-15.2132010192,0.043815185726,0.353530131647,0.0,-0.350119457662,0.0,-0.954901361208,0.0,0.0,0.0,0.0,106.574421871,-18.063075638,-15.4002557592,0.00690445105478,100.0,-0.493295105296,19.2223235965,0.0,100.0,-1.2217304764,19.2223235965,901474.150614,0.0,0.0,0.0,0.0,0.0,0.0
1402599585644989153,0,14.5822730319,-0.114322152727,-15.2132010192,0.043815185726,0.353530131647,0.0,-0.350119457662,0.0,-0.954901361208,0.0,0.0,0.0,0.0,106.574421871,-18.063075638,-15.4002557592,0.00537022749826,100.0,-0.525516899424,19.2223235965,0.0,100.0,-1.2217304764,19.2223235965,901474.150385,0.0,0.0,0.0,0.0,0.0,0.0
1402599585664471907,0,14.5870987143,-0.114322152727,-15.2176580767,0.043815185726,0.353193348703,0.0,-0.357441255273,0.0,-0.960280754132,0.0,0.0,0.0,0.0,106.574421871,-18.063075638,-15.4002557592,0.00537022749826,100.0,-0.559272678691,19.2223235965,0.0,100.0,-1.2217304764,19.2223235965,901474.150155,0.0,0.0,0.0,0.0,0.0,0.0
1402599585684994316,0,14.5870987143,-0.114322152727,-15.2176580767,0.043815185726,0.353193348703,0.0,-0.357441255273,0.0,-0.960280754132,0.0,0.0,0.0,0.0,106.574421871,-18.063075638,-15.4002557592,0.00690445105478,100.0,-0.594562681514,19.2223235965,0.0,100.0,-1.2217304764,19.2223235965,901474.149928,0.0,0.0,0.0,0.0,0.0,0.0
1402599585704707742,0,14.6073987979,-0.114322152727,-15.2261264907,0.043815185726,0.371160863183,0.0,-0.3702719314,0.0,-0.970867488949,0.0,0.0,0.0,0.0,106.574421871,-18.063075638,-15.4002557592,0.00537022749826,100.0,-0.626784237223,19.2223235965,0.0,100.0,-1.2217304764,19.2223235965,901474.149731,0.0,0.0,0.0,0.0,0.0,0.0
1402599585724975042,0,14.6073987979,-0.114322152727,-15.2261264907,0.043815185726,0.371160863183,0.0,-0.3702719314,0.0,-0.970867488949,0.0,0.0,0.0,0.0,106.574421871,-18.063075638,-15.4002557592,0.00690445105478,100.0,-0.659005554515,19.2223235965,0.0,100.0,-1.2217304764,19.2223235965,901474.149544,0.0,0.0,0.0,0.0,0.0,0.0
1402599585744548672,0,14.6274506044,-0.114322152727,-15.2393064624,0.043815185726,0.373812639893,0.0,-0.388138907507,0.0,-0.988059716803,0.0,0.0,0.0,0.0,106.574421871,-18.063075638,-15.4002557592,0.00690445105478,100.0,-0.694295795756,19.2223235965,0.0,100.0,-1.2217304764,19.2223235965,901474.149352,0.0,0.0,0.0,0.0,0.0,0.0
1402599585764919877,0,14.6274506044,-0.114322152727,-15.2393064624,0.043815185726,0.373812639893,0.0,-0.388138907507,0.0,-0.988059716803,0.0,0.0,0.0,0.0,106.574421871,-18.063075638,-15.4002557592,0.00690445105478,100.0,-0.729586036998,19.2223235965,0.0,100.0,-1.2217304764,19.2223235965,901474.149172,0.0,0.0,0.0,0.0,0.0,0.0
1402599585784705244,0,14.6415792817,-0.114322152727,-15.2645463058,0.043815185726,0.345157036104,0.0,-0.42520593267,0.0,-1.01270500598,0.0,0.0,0.0,0.0,106.574421871,-18.063075638,-15.4002557592,0.00690445105478,100.0,-0.766410740214,19.2223235965,0.0,100.0,-1.2217304764,19.2223235965,901474.148998,0.0,0.0,0.0,0.0,0.0,0.0
1402599585804537708,0,14.6415792817,-0.114322152727,-15.2645463058,0.043815185726,0.345157036104,0.0,-0.42520593267,0.0,-1.01270500598,0.0,0.0,0.0,0.0,106.574421871,-18.063075638,-15.4002557592,0.00690445105478,100.0,-0.798632057505,19.2223235965,0.0,100.0,-1.2217304764,19.2223235965,901474.148856,0.0,0.0,0.0,0.0,0.0,0.0
1402599585825238970,0,14.6724989233,-0.114322152727,-15.2998090179,0.043815185726,0.340458198867,0.0,-0.48854533696,0.0,-1.04554564391,0.0,0.0,0.0,0.0,106.574421871,-18.063075638,-15.4002557592,0.00690445105478,100.0,-0.833922060328,19.2223235965,0.0,100.0,-1.2217304764,19.2223235965,901474.148713,0.0,0.0,0.0,0.0,0.0,0.0
1402599585844496364,0,14.6724989233,-0.114322152727,-15.2998090179,0.043815185726,0.340458198867,0.0,-0.48854533696,0.0,-1.04554564391,0.0,0.0,0.0,0.0,106.574421871,-18.063075638,-15.4002557592,0.00537022749826,100.0,-0.866143616038,19.2223235965,0.0,100.0,-1.2217304764,19.2223235965,901474.148593,0.0,0.0,0.0,0.0,0.0,0.0
1402599585865280607,0,14.6846663332,-0.114322152727,-15.3031871592,0.043815185726,0.340664671609,0.0,-0.489721924342,0.0,-1.05418931467,0.0,0.0,0.0,0.0,106.574421871,-18.063075638,-15.4002557592,0.00537022749826,100.0,-0.899899395304,19.2223235965,0.0,100.0,-1.2217304764,19.2223235965,901474.148479,0.0,0.0,0.0,0.0,0.0,0.0
1402599585884209709,0,14.6846663332,-0.114322152727,-15.3031871592,0.043815185726,0.340664671609,0.0,-0.489721924342,0.0,-1.05418931467,0.0,0.0,0.0,0.0,106.574421871,-18.063075638,-15.4002557592,0.00690445105478,100.0,-0.935189636546,19.2223235965,0.0,100.0,-1.2217304764,19.2223235965,901474.148372,0.0,0.0,0.0,0.0,0.0,0.0
1402599585904772641,0,14.6917880712,-0.114322152727,-15.3136936151,0.043815185726,0.333762992845,0.0,-0.502768110828,0.0,-1.06415818699,0.0,0.0,0.0,0.0,106.574421871,-18.063075638,-15.4002557592,0.00690445105478,100.0,-0.967411192256,19.2223235965,0.0,100.0,-1.2217304764,19.2223235965,901474.148284,0.0,0.0,0.0,0.0,0.0,0.0
1402599585924466324,0,14.6917880712,-0.114322152727,-15.3136936151,0.043815185726,0.333762992845,0.0,-0.502768110828,0.0,-1.06415818699,0.0,0.0,0.0,0.0,106.574421871,-18.063075638,-15.4002557592,0.00690445105478,100.0,-1.00270119508,19.2223235965,0.0,100.0,-1.2217304764,19.2223235965,901474.148201,0.0,0.0,0.0,0.0,0.0,0.0
1402599585945056359,0,14.7172182369,-0.114322152727,-15.3349767491,0.043815185726,0.345631976499,0.0,-0.529860252367,0.0,-1.08251790742,0.0,0.0,0.0,0.0,106.574421871,-18.063075638,-15.4002557592,0.00690445105478,100.0,-1.03492275079,19.2223235965,0.0,100.0,-1.2217304764,19.2223235965,901474.148136,0.0,0.0,0.0,0.0,0.0,0.0
1402599585964406970,0,14.7172182369,-0.114322152727,-15.3349767491,0.043815185726,0.345631976499,0.0,-0.529860252367,0.0,-1.08251790742,0.0,0.0,0.0,0.0,106.574421871,-18.063075638,-15.4002557592,0.00690445105478,100.0,-1.07174721559,19.2223235965,0.0,100.0,-1.2217304764,19.2223235965,901474.148074,0.0,0.0,0.0,0.0,0.0,0.0
1402599585984979078,0,14.7322377255,-0.114322152727,-15.3589276954,0.043815185726,0.33902102167,0.0,-0.552983732725,0.0,-1.10325421376,0.0,0.0,0.0,0.0,106.574421871,-18.063075638,-15.4002557592,0.00690445105478,100.0,-1.10243430932,19.2223235965,0.0,100.0,-1.2217304764,19.2223235965,901474.148032,0.0,0.0,0.0,0.0,0.0,0.0
1402599586004363886,0,14.7322377255,-0.114322152727,-15.3589276954,0.043815185726,0.33902102167,0.0,-0.552983732725,0.0,-1.10325421376,0.0,0.0,0.0,0.0,106.574421871,-18.063075638,-15.4002557592,0.00690445105478,100.0,-1.13772455056,19.2223235965,0.0,100.0,-1.2217304764,19.2223235965,901474.147996,0.0,0.0,0.0,0.0,0.0,0.0
1402599586025012904,0,14.7462411017,-0.114322152727,-15.3818294069,0.043815185726,0.337857661051,0.0,-0.570336248255,0.0,-1.12318115379,0.0,0.0,0.0,0.0,106.574421871,-18.063075638,-15.4002557592,0.00537022749826,100.0,-1.17148032983,19.2223235965,0.0,100.0,-1.2217304764,19.2223235965,901474.147974,0.0,0.0,0.0,0.0,0.0,0.0
1402599586044477577,0,14.7462411017,-0.114322152727,-15.3818294069,0.043815185726,0.337857661051,0.0,-0.570336248255,0.0,-1.12318115379,0.0,0.0,0.0,0.0,106.574421871,-18.063075638,-15.4002557592,0.00690445105478,100.0,-1.2052362283,19.2223235965,0.0,100.0,-1.2217304764,19.2223235965,901474.147962,0.0,0.0,0.0,0.0,0.0,0.0
1402599586065128700,0,14.7685571521,-0.114322152727,-15.4060761011,0.043815185726,0.348327265897,0.0,-0.583938819781,0.0,-1.14273136647,0.0,0.0,0.0,0.0,106.574421871,-18.063075638,-15.4002557592,0.00690445105478,100.0,-1.22518280347,19.2223235965,0.0,100.0,-1.2217304764,19.2223235965,901474.147961,0.0,0.0,0.0,0.0,0.0,0.0
1402599586084357408,0,14.7685571521,-0.114322152727,-15.4060761011,0.043815185726,0.348327265897,0.0,-0.583938819781,0.0,-1.14273136647,0.0,0.0,0.0,0.0,106.574421871,-18.063075638,-15.4002557592,0.00537022749826,100.0,-1.22518280347,19.2223235965,0.0,100.0,-1.2217304764,19.2223235965,901474.147961,0.0,0.0,0.0,0.0,0.0,0.0
1402599586104997868,0,14.7844060769,-0.114322152727,-15.4372713232,0.043815185726,0.344696189116,0.0,-0.617783139069,0.0,-1.16321519141,0.0,0.0,0.0,0.0,106.574421871,-18.063075638,-15.4002557592,0.00537022749826,100.0,-1.22671714624,19.2223235965,0.0,100.0,-1.2217304764,19.2223235965,901474.147961,0.0,0.0,0.0,0.0,0.0,0.0
1402599586124383669,0,14.7844060769,-0.114322152727,-15.4372713232,0.043815185726,0.344696189116,0.0,-0.617783139069,0.0,-1.16321519141,0.0,0.0,0.0,0.0,106.574421871,-18.063075638,-15.4002557592,0.00537022749826,100.0,-1.228251489,19.2223235965,0.0,100.0,-1.2217304764,19.2223235965,901474.147961,0.0,0.0,0.0,0.0,0.0,0.0
1402599586145036625,0,14.8077848913,-0.114322152727,-15.4700913387,0.043815185726,0.347792173975,0.0,-0.635542252214,0.0,-1.18910271468,0.0,0.0,0.0,0.0,106.574421871,-18.063075638,-15.4002557592,0.00537022749826,100.0,-1.22978583177,19.2223235965,0.0,100.0,-1.2217304764,19.2223235965,901474.147961,0.0,0.0,0.0,0.0,0.0,0.0
1402599586164414759,0,14.8077848913,-0.114322152727,-15.4700913387,0.043815185726,0.347792173975,0.0,-0.635542252214,0.0,-1.18910271468,0.0,0.0,0.0,0.0,106.574421871,-18.063075638,-15.4002557592,0.00690445105478,100.0,-1.22978583177,19.2223235965,0.0,100.0,-1.2217304764,19.2223235965,901474.147961,0.0,0.0,0.0,0.0,0.0,0.0
1402599586184997659,0,14.8241229614,-0.114322152727,-15.4910238049,0.043815185726,0.350637731712,0.0,-0.650707949018,0.0,-1.20434621956,0.0,0.0,0.0,0.0,106.574421871,-18.063075638,-15.4002557592,0.00537022749826,100.0,-1.22978583177,19.2223235965,0.0,100.0,-1.2217304764,19.2223235965,901474.147961,0.0,0.0,0.0,0.0,0.0,0.0
1402599586204422840,0,14.831467482,-0.114322152727,-15.5046578814,0.043815185726,0.348766644599,0.0,-0.659252400079,0.0,-1.21525610862,0.0,0.0,0.0,0.0,106.574421871,-18.063075638,-15.4002557592,0.00690445105478,100.0,-1.228251489,19.2223235965,0.0,100.0,-1.2217304764,19.2223235965,901474.147961,0.0,0.0,0.0,0.0,0.0,0.0
1402599586225044287,0,14.831467482,-0.114322152727,-15.5046578814,0.043815185726,0.348766644599,0.0,-0.659252400079,0.0,-1.21525610862,0.0,0.0,0.0,0.0,106.574421871,-18.063075638,-15.4002557592,0.00537022749826,100.0,-1.228251489,19.2223235965,0.0,100.0,-1.2217304764,19.2223235965,901474.147961,0.0,0.0,0.0,0.0,0.0,0.0
1402599586244415421,0,14.8473509145,-0.114322152727,-15.5220059273,0.043815185726,0.356653819553,0.0,-0.677415403175,0.0,-1.22485508549,0.0,0.0,0.0,0.0,106.574421871,-18.063075638,-15.4002557592,0.00537022749826,100.0,-1.228251489,19.2223235965,0.0,100.0,-1.2217304764,19.2223235965,901474.147961,0.0,0.0,0.0,0.0,0.0,0.0
1402599586265040440,0,14.8473509145,-0.114322152727,-15.5220059273,0.043815185726,0.356653819553,0.0,-0.677415403175,0.0,-1.22485508549,0.0,0.0,0.0,0.0,106.574421871,-18.063075638,-15.4002557592,0.00537022749826,100.0,-1.22671714624,19.2223235965,0.0,100.0,-1.2217304764,19.2223235965,901474.147961,0.0,0.0,0.0,0.0,0.0,0.0
1402599586284518426,0,14.8623361513,-0.114322152727,-15.5508537698,0.043815185726,0.34704038809,0.0,-0.695892152182,0.0,-1.24738541327,0.0,0.0,0.0,0.0,106.574421871,-18.063075638,-15.4002557592,0.00537022749826,100.0,-1.22671714624,19.2223235965,0.0,100.0,-1.2217304764,19.2223235965,901474.147961,0.0,0.0,0.0,0.0,0.0,0.0
1402599586304962801,0,14.8623361513,-0.114322152727,-15.5508537698,0.043815185726,0.34704038809,0.0,-0.695892152182,0.0,-1.24738541327,0.0,0.0,0.0,0.0,106.574421871,-18.063075638,-15.4002557592,0.00537022749826,100.0,-1.228251489,19.2223235965,0.0,100.0,-1.2217304764,19.2223235965,901474.147961,0.0,0.0,0.0,0.0,0.0,0.0
1402599586324494069,0,14.8750510877,-0.114322152727,-15.57632747,0.043815185726,0.335285993992,0.0,-0.708834655576,0.0,-1.2697809,0.0,0.0,0.0,0.0,106.574421871,-18.063075638,-15.4002557592,0.00537022749826,100.0,-1.22671714624,19.2223235965,0.0,100.0,-1.2217304764,19.2223235965,901474.147961,0.0,0.0,0.0,0.0,0.0,0.0
1402599586345046684,0,14.8750510877,-0.114322152727,-15.57632747,0.043815185726,0.335285993992,0.0,-0.708834655576,0.0,-1.2697809,0.0,0.0,0.0,0.0,106.574421871,-18.063075638,-15.4002557592,0.00537022749826,100.0,-1.22671714624,19.2223235965,0.0,100.0,-1.2217304764,19.2223235965,901474.147961,0.0,0.0,0.0,0.0,0.0,0.0
1402599586364502352,0,14.8905503026,-0.114322152727,-15.6132684738,0.043815185726,0.319542421873,0.0,-0.728935209874,0.0,-1.29769508555,0.0,0.0,0.0,0.0,106.574421871,-18.063075638,-15.4002557592,0.00537022749826,100.0,-1.22671714624,19.2223235965,0.0,100.0,-1.2217304764,19.2223235965,901474.147961,0.0,0.0,0.0,0.0,0.0,0.0
1402599586384977110,0,14.8905503026,-0.114322152727,-15.6132684738,0.043815185726,0.319542421873,0.0,-0.728935209874,0.0,-1.29769508555,0.0,0.0,0.0,0.0,106.574421871,-18.063075638,-15.4002557592,0.00690445105478,100.0,-1.228251489,19.2223235965,0.0,100.0,-1.2217304764,19.2223235965,901474.147961,0.0,0.0,0.0,0.0,0.0,0.0
1402599586404408822,0,14.9131394619,-0.114322152727,-15.6546935998,0.043815185726,0.310685273513,0.0,-0.756784563209,0.0,-1.32369678761,0.0,0.0,0.0,0.0,106.574421871,-18.063075638,-15.4002557592,0.00690445105478,100.0,-1.228251489,19.2223235965,0.0,100.0,-1.2217304764,19.2223235965,901474.147961,0.0,0.0,0.0,0.0,0.0,0.0
1402599586424941333,0,14.9131394619,-0.114322152727,-15.6546935998,0.043815185726,0.310685273513,0.0,-0.756784563209,0.0,-1.32369678761,0.0,0.0,0.0,0.0,106.574421871,-18.063075638,-15.4002557592,0.00537022749826,100.0,-1.22671714624,19.2223235965,0.0,100.0,-1.2217304764,19.2223235965,901474.147961,0.0,0.0,0.0,0.0,0.0,0.0
1402599586444506793,0,14.9170075545,-0.114322152727,-15.6703897011,0.043815185726,0.294639277106,0.0,-0.772819064825,0.0,-1.33338518407,0.0,0.0,0.0,0.0,106.574421871,-18.063075638,-15.4002557592,0.00537022749826,100.0,-1.22671714624,19.2223235965,0.0,100.0,-1.2217304764,19.2223235965,901474.147961,0.0,0.0,0.0,0.0,0.0,0.0
1402599586464872967,0,14.9170075545,-0.114322152727,-15.6703897011,0.043815185726,0.294639277106,0.0,-0.772819064825,0.0,-1.33338518407,0.0,0.0,0.0,0.0,106.574421871,-18.063075638,-15.4002557592,0.00537022749826,100.0,-1.228251489,19.2223235965,0.0,100.0,-1.2217304764,19.2223235965,901474.147961,0.0,0.0,0.0,0.0,0.0,0.0
1402599586484485885,0,14.9315983115,-0.114322152727,-15.7032099056,0.043815185726,0.286451419799,0.0,-0.793231045594,0.0,-1.35400194374,0.0,0.0,0.0,0.0,106.574421871,-18.063075638,-15.4002557592,0.00537022749826,100.0,-1.228251489,19.2223235965,0.0,100.0,-1.2217304764,19.2223235965,901474.147961,0.0,0.0,0.0,0.0,0.0,0.0
1402599586504988148,0,14.9315983115,-0.114322152727,-15.7032099056,0.043815185726,0.286451419799,0.0,-0.793231045594,0.0,-1.35400194374,0.0,0.0,0.0,0.0,106.574421871,-18.063075638,-15.4002557592,0.00690445105478,100.0,-1.22671714624,19.2223235965,0.0,100.0,-1.2217304764,19.2223235965,901474.147961,0.0,0.0,0.0,0.0,0.0,0.0
1402599586524477550,0,14.9430724529,-0.114322152727,-15.7368971503,0.043815185726,0.267754269637,0.0,-0.808356619439,0.0,-1.37613621271,0.0,0.0,0.0,0.0,106.574421871,-18.063075638,-15.4002557592,0.00537022749826,100.0,-1.228251489,19.2223235965,0.0,100.0,-1.2217304764,19.2223235965,901474.147961,0.0,0.0,0.0,0.0,0.0,0.0
1402599586544951912,0,14.9430724529,-0.114322152727,-15.7368971503,0.043815185726,0.267754269637,0.0,-0.808356619439,0.0,-1.37613621271,0.0,0.0,0.0,0.0,106.574421871,-18.063075638,-15.4002557592,0.00690445105478,100.0,-1.22671714624,19.2223235965,0.0,100.0,-1.2217304764,19.2223235965,901474.147961,0.0,0.0,0.0,0.0,0.0,0.0
1402599586564485807,0,14.9536979937,-0.114322152727,-15.7703965611,0.043815185726,0.248218782813,0.0,-0.824632064946,0.0,-1.39799403546,0.0,0.0,0.0,0.0,106.574421871,-18.063075638,-15.4002557592,0.00690445105478,100.0,-1.22671714624,19.2223235965,0.0,100.0,-1.2217304764,19.2223235965,901474.147961,0.0,0.0,0.0,0.0,0.0,0.0
1402599586584967996,0,14.9536979937,-0.114322152727,-15.7703965611,0.043815185726,0.248218782813,0.0,-0.824632064946,0.0,-1.39799403546,0.0,0.0,0.0,0.0,106.574421871,-18.063075638,-15.4002557592,0.00537022749826,100.0,-1.228251489,19.2223235965,0.0,100.0,-1.2217304764,19.2223235965,901474.147961,0.0,0.0,0.0,0.0,0.0,0.0
1402599586604310237,0,14.9578427736,-0.114322152727,-15.7985894086,0.043815185726,0.222311728262,0.0,-0.826106498831,0.0,-1.42200381768,0.0,0.0,0.0,0.0,106.574421871,-18.063075638,-15.4002557592,0.00537022749826,100.0,-1.22671714624,19.2223235965,0.0,100.0,-1.2217304764,19.2223235965,901474.147961,0.0,0.0,0.0,0.0,0.0,0.0
1402599586625012953,0,14.9578427736,-0.114322152727,-15.7985894086,0.043815185726,0.222311728262,0.0,-0.826106498831,0.0,-1.42200381768,0.0,0.0,0.0,0.0,106.574421871,-18.063075638,-15.4002557592,0.00537022749826,100.0,-1.228251489,19.2223235965,0.0,100.0,-1.2217304764,19.2223235965,901474.147961,0.0,0.0,0.0,0.0,0.0,0.0
1402599586644496286,0,14.9716142771,-0.114322152727,-15.8407679462,0.043815185726,0.209036471676,0.0,-0.839577209683,0.0,-1.44875730426,0.0,0.0,0.0,0.0,106.574421871,-18.063075638,-15.4002557592,0.00690445105478,100.0,-1.22671714624,19.2223235965,0.0,100.0,-1.2217304764,19.2223235965,901474.147961,0.0,0.0,0.0,0.0,0.0,0.0
1402599586664923939,0,14.9716142771,-0.114322152727,-15.8407679462,0.043815185726,0.209036471676,0.0,-0.839577209683,0.0,-1.44875730426,0.0,0.0,0.0,0.0,106.574421871,-18.063075638,-15.4002557592,0.00690445105478,100.0,-1.22671714624,19.2223235965,0.0,100.0,-1.2217304764,19.2223235965,901474.147961,0.0,0.0,0.0,0.0,0.0,0.0
1402599586684385129,0,14.9761189368,-0.114322152727,-15.8637723152,0.043815185726,0.195378389058,0.0,-0.842331015362,0.0,-1.46616752793,0.0,0.0,0.0,0.0,106.574421871,-18.063075638,-15.4002557592,0.00537022749826,100.0,-1.228251489,19.2223235965,0.0,100.0,-1.2217304764,19.2223235965,901474.147961,0.0,0.0,0.0,0.0,0.0,0.0
1402599586704911968,0,14.9802189638,-0.114322152727,-15.881477201,0.043815185726,0.190423398309,0.0,-0.844303546423,0.0,-1.47706332245,0.0,0.0,0.0,0.0,106.574421871,-18.063075638,-15.4002557592,0.00690445105478,100.0,-1.228251489,19.2223235965,0.0,100.0,-1.2217304764,19.2223235965,901474.147961,0.0,0.0,0.0,0.0,0.0,0.0
1402599586724402340,0,14.9802189638,-0.114322152727,-15.881477201,0.043815185726,0.190423398309,0.0,-0.844303546423,0.0,-1.47706332245,0.0,0.0,0.0,0.0,106.574421871,-18.063075638,-15.4002557592,0.00537022749826,100.0,-1.22671714624,19.2223235965,0.0,100.0,-1.2217304764,19.2223235965,901474.147961,0.0,0.0,0.0,0.0,0.0,0.0
1402599586745102118,0,14.9953919257,-0.114322152727,-15.9012956843,0.043815185726,0.203245134572,0.0,-0.8527567074,0.0,-1.48611322484,0.0,0.0,0.0,0.0,106.574421871,-18.063075638,-15.4002557592,0.00537022749826,100.0,-1.22671714624,19.2223235965,0.0,100.0,-1.2217304764,19.2223235965,901474.147961,0.0,0.0,0.0,0.0,0.0,0.0
1402599586764533136,0,14.9953919257,-0.114322152727,-15.9012956843,0.043815185726,0.203245134572,0.0,-0.8527567074,0.0,-1.48611322484,0.0,0.0,0.0,0.0,106.91722604,-19.0049223491,-14.6139662146,0.00690445105478,100.0,-1.22671714624,19.2223235965,0.0,100.0,-1.2217304764,20.2246159315,910987.377657,0.0,0.0,0.0,0.0,0.0,0.0
1402599586785118598,0,14.9981794815,-0.114322152727,-15.9360089063,0.043815185726,0.181836770798,0.0,-0.855011470283,0.0,-1.50805550497,0.0,0.0,0.0,0.0,106.91722604,-19.0049223491,-14.6139662146,0.00537022749826,100.0,-1.22671714624,20.2246159315,0.0,100.0,-1.2217304764,20.2246159315,910987.377656,0.0,0.0,0.0,0.0,0.0,0.0
1402599586804497256,0,14.9981794815,-0.114322152727,-15.9360089063,0.043815185726,0.181836770798,0.0,-0.855011470283,0.0,-1.50805550497,0.0,0.0,0.0,0.0,106.91722604,-19.0049223491,-14.6139662146,0.00537022749826,100.0,-1.22671714624,20.2246159315,0.0,100.0,-1.2217304764,20.2246159315,910987.377656,0.0,0.0,0.0,0.0,0.0,0.0
1402599586824520428,0,15.001869159,-0.114322152727,-15.9739827086,0.043815185726,0.163343886969,0.0,-0.86247228496,0.0,-1.52897947724,0.0,0.0,0.0,0.0,108.745514936,-24.0281048083,-10.4204219768,0.00537022749826,100.0,-1.228251489,20.2246159315,0.0,100.0,-1.2217304764,25.5701750517,987516.027622,0.0,0.0,0.0,0.0,0.0,0.0
1402599586844456126,0,15.001869159,-0.114322152727,-15.9739827086,0.043815185726,0.163343886969,0.0,-0.86247228496,0.0,-1.52897947724,0.0,0.0,0.0,0.0,109.889293282,-27.1706099862,-7.7969388387,0.00537022749826,100.0,-1.228251489,25.5701750517,0.0,100.0,-1.2217304764,28.9143592119,1057480.19088,0.0,0.0,0.0,0.0,0.0,0.0
1402599586864528460,0,15.0082597789,-0.114322152727,-16.0174864808,0.043815185726,0.142067005566,0.0,-0.883187031127,0.0,-1.54750102867,0.0,0.0,0.0,0.0,110.688071379,-29.365234771,-5.96478239305,0.00690445105478,100.0,-1.22671714624,28.9143592119,0.0,100.0,-1.2217304764,31.2498301268,1116423.03777,0.0,0.0,0.0,0.0,0.0,0.0
1402599586885120703,0,15.0082597789,-0.114322152727,-16.0174864808,0.043815185726,0.142067005566,0.0,-0.883187031127,0.0,-1.54750102867,0.0,0.0,0.0,0.0,111.031973842,-30.3100990232,-5.17597369004,0.00537022749826,100.0,-1.22671714624,31.2498301268,0.0,100.0,-1.2217304764,32.255333662,1144353.39673,0.0,0.0,0.0,0.0,0.0,0.0
1402599586904567698,0,15.0121254143,-0.114322152727,-16.060417781,0.043815185726,0.115682599046,0.0,-0.905906505155,0.0,-1.56598882875,0.0,0.0,0.0,0.0,111.031973842,-30.3100990232,-5.17597369004,0.00537022749826,100.0,-1.22671714624,32.255333662,0.0,100.0,-1.2217304764,32.255333662,1144353.39673,0.0,0.0,0.0,0.0,0.0,0.0
1402599586925055074,0,15.0121254143,-0.114322152727,-16.060417781,0.043815185726,0.115682599046,0.0,-0.905906505155,0.0,-1.56598882875,0.0,0.0,0.0,0.0,111.031973842,-30.3100990232,-5.17597369004,0.00690445105478,100.0,-1.22671714624,32.255333662,0.0,100.0,-1.2217304764,32.255333662,1144353.39673,0.0,0.0,0.0,0.0,0.0,0.0
1402599586944525020,0,15.0219195883,-0.114322152727,-16.1132242568,0.043815185726,0.098484560713,0.0,-0.926261273949,0.0,-1.59108418193,0.0,0.0,0.0,0.0,111.031973842,-30.3100990232,-5.17597369004,0.00690445105478,100.0,-1.22671714624,32.255333662,0.0,100.0,-1.2217304764,32.255333662,1144353.39673,0.0,0.0,0.0,0.0,0.0,0.0
1402599586965043406,0,15.0219195883,-0.114322152727,-16.1132242568,0.043815185726,0.098484560713,0.0,-0.926261273949,0.0,-1.59108418193,0.0,0.0,0.0,0.0,111.031973842,-30.3100990232,-5.17597369004,0.00537022749826,100.0,-1.22671714624,32.255333662,0.0,100.0,-1.2217304764,32.255333662,1144353.39673,0.0,0.0,0.0,0.0,0.0,0.0
1402599586984530581,0,15.0260058887,-0.114322152727,-16.1871526335,0.043815185726,0.0585661868894,0.0,-0.953905196383,0.0,-1.62605909332,0.0,0.0,0.0,0.0,111.031973842,-30.3100990232,-5.17597369004,0.00690445105478,100.0,-1.228251489,32.255333662,0.0,100.0,-1.2217304764,32.255333662,1144353.39673,0.0,0.0,0.0,0.0,0.0,0.0
1402599587005033505,0,15.0260058887,-0.114322152727,-16.1871526335,0.043815185726,0.0585661868894,0.0,-0.953905196383,0.0,-1.62605909332,0.0,0.0,0.0,0.0,111.031973842,-30.3100990232,-5.17597369004,0.00690445105478,100.0,-1.228251489,32.255333662,0.0,100.0,-1.2217304764,32.255333662,1144353.39673,0.0,0.0,0.0,0.0,0.0,0.0
1402599587024578823,0,15.0267862051,-0.114322152727,-16.196724161,0.043815185726,0.0531890065303,0.0,-0.956990205249,0.0,-1.63128536908,0.0,0.0,0.0,0.0,111.031973842,-30.3100990232,-5.17597369004,0.00537022749826,100.0,-1.22671714624,32.255333662,0.0,100.0,-1.2217304764,32.255333662,1144353.39673,0.0,0.0,0.0,0.0,0.0,0.0
1402599587045124599,0,15.0267862051,-0.114322152727,-16.196724161,0.043815185726,0.0531890065303,0.0,-0.956990205249,0.0,-1.63128536908,0.0,0.0,0.0,0.0,111.031973842,-30.3100990232,-5.17597369004,0.00690445105478,100.0,-1.22671714624,32.255333662,0.0,100.0,-1.2217304764,32.255333662,1144353.39673,0.0,0.0,0.0,0.0,0.0,0.0
1402599587064359525,0,15.031290323,-0.114322152727,-16.2259397865,0.043815185726,0.0490673778794,0.0,-0.961653380252,0.0,-1.6476114234,0.0,0.0,0.0,0.0,111.031973842,-30.3100990232,-5.17597369004,0.00690445105478,100.0,-1.22671714624,32.255333662,0.0,100.0,-1.2217304764,32.255333662,1144353.39673,0.0,0.0,0.0,0.0,0.0,0.0
1402599587084818523,0,15.031290323,-0.114322152727,-16.2259397865,0.043815185726,0.0490673778794,0.0,-0.961653380252,0.0,-1.6476114234,0.0,0.0,0.0,0.0,111.031973842,-30.3100990232,-5.17597369004,0.00690445105478,100.0,-1.22671714624,32.255333662,0.0,100.0,-1.2217304764,32.255333662,1144353.39673,0.0,0.0,0.0,0.0,0.0,0.0
1402599587104559096,0,15.0276238154,-0.114322152727,-16.2648205673,0.043815185726,0.0220526334509,0.0,-0.971400007608,0.0,-1.66808985681,0.0,0.0,0.0,0.0,111.031973842,-30.3100990232,-5.17597369004,0.00690445105478,100.0,-1.22671714624,32.255333662,0.0,100.0,-1.2217304764,32.255333662,1144353.39673,0.0,0.0,0.0,0.0,0.0,0.0
1402599587125148138,0,15.0276238154,-0.114322152727,-16.2648205673,0.043815185726,0.0220526334509,0.0,-0.971400007608,0.0,-1.66808985681,0.0,0.0,0.0,0.0,111.031973842,-30.3100990232,-5.17597369004,0.00537022749826,100.0,-1.22671714624,32.255333662,0.0,100.0,-1.2217304764,32.255333662,1144353.39673,0.0,0.0,0.0,0.0,0.0,0.0
1402599587144475955,0,15.0318429111,-0.114322152727,-16.3092876566,0.043815185726,0.0126429392597,0.0,-0.990136088647,0.0,-1.6877176193,0.0,0.0,0.0,0.0,111.031973842,-30.3100990232,-5.17597369004,0.00537022749826,100.0,-1.22671714624,32.255333662,0.0,100.0,-1.2217304764,32.255333662,1144353.39673,0.0,0.0,0.0,0.0,0.0,0.0
1402599587164904394,0,15.0318429111,-0.114322152727,-16.3092876566,0.043815185726,0.0126429392597,0.0,-0.990136088647,0.0,-1.6877176193,0.0,0.0,0.0,0.0,111.031973842,-30.3100990232,-5.17597369004,0.00537022749826,100.0,-1.22671714624,32.255333662,0.0,100.0,-1.2217304764,32.255333662,1144353.39673,0.0,0.0,0.0,0.0,0.0,0.0
1402599587184416743,0,15.0231967988,-0.114322152727,-16.3457147897,0.043815185726,-0.0243251509767,0.0,-0.981952370571,0.0,-1.71056577791,0.0,0.0,0.0,0.0,111.031973842,-30.3100990232,-5.17597369004,0.00537022749826,100.0,-1.22671714624,32.255333662,0.0,100.0,-1.2217304764,32.255333662,1144353.39673,0.0,0.0,0.0,0.0,0.0,0.0
1402599587204859324,0,15.0231967988,-0.114322152727,-16.3457147897,0.043815185726,-0.0243251509767,0.0,-0.981952370571,0.0,-1.71056577791,0.0,0.0,0.0,0.0,111.031973842,-30.3100990232,-5.17597369004,0.00537022749826,100.0,-1.22671714624,32.255333662,0.0,100.0,-1.2217304764,32.255333662,1144353.39673,0.0,0.0,0.0,0.0,0.0,0.0
1402599587224565525,0,15.0219182448,-0.114322152727,-16.3860621685,0.043815185726,-0.0418754620215,0.0,-0.985602777201,0.0,-1.73139425314,0.0,0.0,0.0,0.0,111.031973842,-30.3100990232,-5.17597369004,0.00690445105478,100.0,-1.228251489,32.255333662,0.0,100.0,-1.2217304764,32.255333662,1144353.39673,0.0,0.0,0.0,0.0,0.0,0.0
1402599587245075545,0,15.0219182448,-0.114322152727,-16.3860621685,0.043815185726,-0.0418754620215,0.0,-0.985602777201,0.0,-1.73139425314,0.0,0.0,0.0,0.0,111.031973842,-30.3100990232,-5.17597369004,0.00537022749826,100.0,-1.22671714624,32.255333662,0.0,100.0,-1.2217304764,32.255333662,1144353.39673,0.0,0.0,0.0,0.0,0.0,0.0
1402599587264634614,0,15.0291304719,-0.114322152727,-16.4317691346,0.043815185726,-0.0413365383351,0.0,-0.995603320608,0.0,-1.75078137694,0.0,0.0,0.0,0.0,111.031973842,-30.3100990232,-5.17597369004,0.00537022749826,100.0,-1.22671714624,32.255333662,0.0,100.0,-1.2217304764,32.255333662,1144353.39673,0.0,0.0,0.0,0.0,0.0,0.0
1402599587285406034,0,15.0291304719,-0.114322152727,-16.4317691346,0.043815185726,-0.0413365383351,0.0,-0.995603320608,0.0,-1.75078137694,0.0,0.0,0.0,0.0,111.031973842,-30.3100990232,-5.17597369004,0.00690445105478,100.0,-1.22671714624,32.255333662,0.0,100.0,-1.2217304764,32.255333662,1144353.39673,0.0,0.0,0.0,0.0,0.0,0.0
1402599587304632419,0,15.025459549,-0.114322152727,-16.4800640669,0.043815185726,-0.0573546648974,0.0,-0.998278030727,0.0,-1.77743754379,0.0,0.0,0.0,0.0,111.37477852,-31.2519471346,-4.38968297646,0.00690445105478,100.0,-1.22671714624,32.255333662,0.0,100.0,-1.2217304764,33.2576274872,1173724.17162,0.0,0.0,0.0,0.0,0.0,0.0
1402599587324481707,0,15.025459549,-0.114322152727,-16.4800640669,0.043815185726,-0.0573546648974,0.0,-0.998278030727,0.0,-1.77743754379,0.0,0.0,0.0,0.0,111.37477852,-31.2519471346,-4.38968297646,0.00537022749826,100.0,-1.22671714624,33.2576274872,0.0,100.0,-1.2217304764,33.2576274872,1173724.17162,0.0,0.0,0.0,0.0,0.0,0.0
1402599587345221246,0,15.0233912495,-0.114322152727,-16.5348759206,0.043815185726,-0.0765797772971,0.0,-1.01167142931,0.0,-1.80135760623,0.0,0.0,0.0,0.0,111.37477852,-31.2519471346,-4.38968297646,0.00537022749826,100.0,-1.22671714624,33.2576274872,0.0,100.0,-1.2217304764,33.2576274872,1173724.17162,0.0,0.0,0.0,0.0,0.0,0.0
1402599587364655109,0,15.0233912495,-0.114322152727,-16.5348759206,0.043815185726,-0.0765797772971,0.0,-1.01167142931,0.0,-1.80135760623,0.0,0.0,0.0,0.0,111.37477852,-31.2519471346,-4.38968297646,0.00537022749826,100.0,-1.22671714624,33.2576274872,0.0,100.0,-1.2217304764,33.2576274872,1173724.17162,0.0,0.0,0.0,0.0,0.0,0.0
1402599587384917819,0,15.0138052636,-0.114322152727,-16.5554167017,0.043815185726,-0.0978059402761,0.0,-1.00704399886,0.0,-1.81179762916,0.0,0.0,0.0,0.0,111.717582178,-32.1937924454,-3.60339460084,0.00537022749826,100.0,-1.22671714624,33.2576274872,0.0,100.0,-1.2217304764,34.2599183321,1204621.98074,0.0,0.0,0.0,0.0,0.0,0.0
1402599587404405541,0,15.0138052636,-0.114322152727,-16.5554167017,0.043815185726,-0.0978059402761,0.0,-1.00704399886,0.0,-1.81179762916,0.0,0.0,0.0,0.0,118.366599746,-44.6665015353,7.45222006387,0.00690445105478,100.0,-1.22671714624,34.2599183321,0.0,100.0,-1.18067730724,48.2952207327,1787510.71015,0.0,0.0,0.0,0.0,0.0,0.0
1402599587424712099,0,15.0093829056,-0.114322152727,-16.5969553948,0.043815185726,-0.119879412572,0.0,-1.00761644618,0.0,-1.83268649717,0.0,0.0,0.0,0.0,121.14543881,-46.3711083446,9.53317508003,0.00537022749826,100.0,-1.22671714624,48.2952207327,0.0,100.0,-1.14296020508,50.9647846222,1917378.47173,0.0,0.0,0.0,0.0,0.0,0.0
1402599587445267241,0,15.0093829056,-0.114322152727,-16.5969553948,0.043815185726,-0.119879412572,0.0,-1.00761644618,0.0,-1.83268649717,0.0,0.0,0.0,0.0,136.779633265,-58.3912325666,22.9998454742,0.00537022749826,100.0,-1.2236484607,50.9647846222,0.0,100.0,-1.00869348494,69.0092563629,2978509.2576,0.0,0.0,0.0,0.0,0.0,0.0
1402599587464222582,0,15.0046774306,-0.114322152727,-16.6433889677,0.043815185726,-0.136300828217,0.0,-1.01370697396,0.0,-1.85282215604,0.0,0.0,0.0,0.0,138.665824908,-57.5664838481,22.9777210895,0.00690445105478,100.0,-1.20677057107,69.0092563629,0.0,100.0,-0.979336139062,69.3465650082,2956393.14507,0.0,0.0,0.0,0.0,0.0,0.0
1402599587485006830,0,15.0046774306,-0.114322152727,-16.6433889677,0.043815185726,-0.136300828217,0.0,-1.01370697396,0.0,-1.85282215604,0.0,0.0,0.0,0.0,138.665824908,-57.5664838481,22.9777210895,0.00537022749826,100.0,-1.18068650563,69.3465650082,0.0,100.0,-0.979336139062,69.3465650082,2956393.14501,0.0,0.0,0.0,0.0,0.0,0.0
1402599587504188327,0,14.9962498986,-0.114322152727,-16.6852019828,0.043815185726,-0.160497456313,0.0,-1.01136570878,0.0,-1.87333821061,0.0,0.0,0.0,0.0,138.665824908,-57.5664838481,22.9777210895,0.00690445105478,100.0,-1.14999929269,69.3465650082,0.0,100.0,-0.979336139062,69.3465650082,2956393.14496,0.0,0.0,0.0,0.0,0.0,0.0
1402599587524724889,0,14.9962498986,-0.114322152727,-16.6852019828,0.043815185726,-0.160497456313,0.0,-1.01136570878,0.0,-1.87333821061,0.0,0.0,0.0,0.0,138.665824908,-57.5664838481,22.9777210895,0.00537022749826,100.0,-1.11470928987,69.3465650082,0.0,100.0,-0.979336139062,69.3465650082,2956393.1449,0.0,0.0,0.0,0.0,0.0,0.0
1402599587544184827,0,14.9892359971,-0.114322152727,-16.7266265472,0.043815185726,-0.180971386881,0.0,-1.00983731499,0.0,-1.89400882578,0.0,0.0,0.0,0.0,138.665824908,-57.5664838481,22.9777210895,0.00690445105478,100.0,-1.07635036309,69.3465650082,0.0,100.0,-0.979336139062,69.3465650082,2956393.14486,0.0,0.0,0.0,0.0,0.0,0.0
1402599587564931597,0,14.9892359971,-0.114322152727,-16.7266265472,0.043815185726,-0.180971386881,0.0,-1.00983731499,0.0,-1.89400882578,0.0,0.0,0.0,0.0,138.665824908,-57.5664838481,22.9777210895,0.00537022749826,100.0,-1.04259458383,69.3465650082,0.0,100.0,-0.979336139062,69.3465650082,2956393.14483,0.0,0.0,0.0,0.0,0.0,0.0
1402599587584482064,0,14.9810942134,-0.114322152727,-16.7667602448,0.043815185726,-0.199194282924,0.0,-1.00694524758,0.0,-1.91461141751,0.0,0.0,0.0,0.0,138.665824908,-57.5664838481,22.9777210895,0.00690445105478,100.0,-1.00883880456,69.3465650082,0.0,100.0,-0.979336139062,69.3465650082,2956393.14482,0.0,0.0,0.0,0.0,0.0,0.0
1402599587605047841,0,14.9810942134,-0.114322152727,-16.7667602448,0.043815185726,-0.199194282924,0.0,-1.00694524758,0.0,-1.91461141751,0.0,0.0,0.0,0.0,138.665824908,-57.5664838481,22.9777210895,0.00690445105478,100.0,-0.990426452952,69.3465650082,0.0,100.0,-0.979336139062,69.3465650082,2956393.14481,0.0,0.0,0.0,0.0,0.0,0.0
1402599587624482437,0,14.9700583801,-0.114322152727,-16.8032281022,0.043815185726,-0.214652319682,0.0,-1.00056074359,0.0,-1.93732167617,0.0,0.0,0.0,0.0,138.665824908,-57.5664838481,22.9777210895,0.00537022749826,100.0,-0.981220396357,69.3465650082,0.0,100.0,-0.979336139062,69.3465650082,2956393.14481,0.0,0.0,0.0,0.0,0.0,0.0
1402599587644851301,0,14.9700583801,-0.114322152727,-16.8032281022,0.043815185726,-0.214652319682,0.0,-1.00056074359,0.0,-1.93732167617,0.0,0.0,0.0,0.0,138.665824908,-57.5664838481,22.9777210895,0.00537022749826,100.0,-0.981220396357,69.3465650082,0.0,100.0,-0.979336139062,69.3465650082,2956393.14481,0.0,0.0,0.0,0.0,0.0,0.0
1402599587664445974,0,14.9467763963,-0.114322152727,-16.8498043586,0.043815185726,-0.267153447498,0.0,-1.01815826447,0.0,-1.95800686654,0.0,0.0,0.0,0.0,138.665824908,-57.5664838481,22.9777210895,0.00537022749826,100.0,-0.982754619914,69.3465650082,0.0,100.0,-0.979336139062,69.3465650082,2956393.14481,0.0,0.0,0.0,0.0,0.0,0.0
1402599587684444990,0,14.9467763963,-0.114322152727,-16.8498043586,0.043815185726,-0.267153447498,0.0,-1.01815826447,0.0,-1.95800686654,0.0,0.0,0.0,0.0,139.575503834,-57.3513281382,23.0992400077,0.00537022749826,100.0,-0.982754619914,69.3465650082,0.0,100.0,-0.966776879421,69.6806669235,2959717.90431,0.0,0.0,0.0,0.0,0.0,0.0
1402599587704994996,0,14.9255660205,-0.114322152727,-16.8835815764,0.043815185726,-0.302845466575,0.0,-1.0023758586,0.0,-1.98219849043,0.0,0.0,0.0,0.0,147.566561284,-58.8776766,26.6398379701,0.00690445105478,100.0,-0.984289081889,69.6806669235,0.0,100.0,-0.891264174262,75.6912052631,3255571.17772,0.0,0.0,0.0,0.0,0.0,0.0
1402599587724400896,0,14.9255660205,-0.114322152727,-16.8835815764,0.043815185726,-0.302845466575,0.0,-1.0023758586,0.0,-1.98219849043,0.0,0.0,0.0,0.0,147.566561284,-58.8776766,26.6398379701,0.00690445105478,100.0,-0.982754619914,75.6912052631,0.0,100.0,-0.891264174262,75.6912052631,3255571.17771,0.0,0.0,0.0,0.0,0.0,0.0
1402599587744524235,0,14.9255660205,-0.114322152727,-16.8835815764,0.043815185726,-0.302845466575,0.0,-1.0023758586,0.0,-1.98219849043,0.0,0.0,0.0,0.0,149.408065976,-59.0981248146,27.3607110627,0.00690445105478,100.0,-0.976617248851,75.6912052631,0.0,100.0,-0.87446608803,77.0308077335,3316405.66892,0.0,0.0,0.0,0.0,0.0,0.0
1402599587764508928,0,14.9102069619,-0.114322152727,-16.9373784746,0.043815185726,-0.326466384241,0.0,-1.0092090585,0.0,-2.01093710429,0.0,0.0,0.0,0.0,161.090436125,-58.2074144007,30.2767122154,0.00690445105478,100.0,-0.958204897242,77.0308077335,0.0,100.0,-0.761236280709,84.3809485435,3535498.35002,0.0,0.0,0.0,0.0,0.0,0.0
1402599587784501012,0,14.8971002383,-0.114322152727,-16.9701193001,0.043815185726,-0.348185647948,0.0,-1.01457716531,0.0,-2.02769220001,0.0,0.0,0.0,0.0,178.020388489,-50.7441884031,30.0343323963,0.00537022749826,100.0,-0.932120951014,84.3809485435,0.0,100.0,-0.576653911934,93.070691824,3416390.59449,0.0,0.0,0.0,0.0,0.0,0.0
1402599587804496668,0,14.8896907156,-0.114322152727,-16.9914413478,0.043815185726,-0.357811876808,0.0,-1.01667852925,0.0,-2.0396857788,0.0,0.0,0.0,0.0,180.046037019,-48.7750868871,29.2263174811,0.00690445105478,100.0,-0.898365171748,93.070691824,0.0,100.0,-0.547257352054,93.7356770039,3331354.02583,0.0,0.0,0.0,0.0,0.0,0.0
1402599587824455285,0,14.8896907156,-0.114322152727,-16.9914413478,0.043815185726,-0.357811876808,0.0,-1.01667852925,0.0,-2.0396857788,0.0,0.0,0.0,0.0,182.604383504,-47.0660568613,28.768934654,0.00690445105478,100.0,-0.863074930507,93.7356770039,0.0,100.0,-0.51790000618,95.0720667839,3283844.18855,0.0,0.0,0.0,0.0,0.0,0.0
1402599587844998648,0,14.8884489247,-0.114322152727,-17.0174889063,0.043815185726,-0.356431581715,0.0,-1.03021662472,0.0,-2.04986179826,0.0,0.0,0.0,0.0,186.42307571,-42.7347727729,26.7974554867,0.00690445105478,100.0,-0.82625022729,95.0720667839,0.0,100.0,-0.45922456485,96.4116632938,3106336.41488,0.0,0.0,0.0,0.0,0.0,0.0
1402599587864500456,0,14.8884489247,-0.114322152727,-17.0174889063,0.043815185726,-0.356431581715,0.0,-1.03021662472,0.0,-2.04986179826,0.0,0.0,0.0,0.0,187.130329961,-41.2736528551,25.9553218739,0.00690445105478,100.0,-0.794028909999,96.4116632938,0.0,100.0,-0.442387264611,96.4116632938,3035960.64107,0.0,0.0,0.0,0.0,0.0,0.0
1402599587884580809,0,14.8734491547,-0.114322152727,-17.0598555713,0.043815185726,-0.375564467034,0.0,-1.03128135957,0.0,-2.07375221676,0.0,0.0,0.0,0.0,102.514243312,0.0,-29.7136586384,0.00537022749826,100.0,-0.760273130732,96.4116632938,0.0,100.0,0.0,2.51424331218,1016940.86892,0.0,0.0,0.0,0.0,0.0,0.0
1402599587904459542,0,14.8734491547,-0.114322152727,-17.0598555713,0.043815185726,-0.375564467034,0.0,-1.03128135957,0.0,-2.07375221676,0.0,0.0,0.0,0.0,100.0,0.0,-30.48,0.00537022749826,100.0,-0.728051575022,2.51424331218,0.0,100.0,0.0,-0.0,1014515.20265,0.0,0.0,0.0,0.0,0.0,0.0
1402599587924573711,0,14.8605779757,-0.114322152727,-17.1022559075,0.043815185726,-0.380141286813,0.0,-1.0319091032,0.0,-2.09876961084,0.0,0.0,0.0,0.0,100.0,0.0,-30.48,0.00537022749826,100.0,-0.694295795756,-0.0,0.0,100.0,0.0,-0.0,1014515.20241,0.0,0.0,0.0,0.0,0.0,0.0
1402599587945011949,0,14.8605779757,-0.114322152727,-17.1022559075,0.043815185726,-0.380141286813,0.0,-1.0319091032,0.0,-2.09876961084,0.0,0.0,0.0,0.0,100.0,0.0,-30.48,0.00537022749826,100.0,-0.660540254908,-0.0,0.0,100.0,0.0,-0.0,1014515.20218,0.0,0.0,0.0,0.0,0.0,0.0
1402599587964155854,0,14.8412880555,-0.114322152727,-17.1471486381,0.043815185726,-0.411847742855,0.0,-1.04592165132,0.0,-2.12234430874,0.0,0.0,0.0,0.0,100.0,0.0,-30.48,0.00690445105478,100.0,-0.625249775248,-0.0,0.0,100.0,0.0,-0.0,1014515.20195,0.0,0.0,0.0,0.0,0.0,0.0
1402599587984756474,0,14.8412880555,-0.114322152727,-17.1471486381,0.043815185726,-0.411847742855,0.0,-1.04592165132,0.0,-2.12234430874,0.0,0.0,0.0,0.0,100.0,0.0,-30.48,0.00690445105478,100.0,-0.593028457957,-0.0,0.0,100.0,0.0,-0.0,1014515.20176,0.0,0.0,0.0,0.0,0.0,0.0
1402599588004292615,0,14.8234406086,-0.114322152727,-17.1961234589,0.043815185726,-0.44089736638,0.0,-1.07015329723,0.0,-2.14535626967,0.0,0.0,0.0,0.0,100.0,0.0,-30.48,0.00537022749826,100.0,-0.556203993159,-0.0,0.0,100.0,0.0,-0.0,1014515.20155,0.0,0.0,0.0,0.0,0.0,0.0
1402599588024760635,0,14.8234406086,-0.114322152727,-17.1961234589,0.043815185726,-0.44089736638,0.0,-1.07015329723,0.0,-2.14535626967,0.0,0.0,0.0,0.0,100.0,0.0,-30.48,0.00690445105478,100.0,-0.519379289943,-0.0,0.0,100.0,0.0,-0.0,1014515.20135,0.0,0.0,0.0,0.0,0.0,0.0
1402599588044476917,0,14.8057966632,-0.114322152727,-17.2398069052,0.043815185726,-0.470081476018,0.0,-1.07620179046,0.0,-2.16925724299,0.0,0.0,0.0,0.0,100.0,0.0,-30.48,0.00537022749826,100.0,-0.490226419764,-0.0,0.0,100.0,0.0,-0.0,1014515.2012,0.0,0.0,0.0,0.0,0.0,0.0
1402599588064823160,0,14.8057966632,-0.114322152727,-17.2398069052,0.043815185726,-0.470081476018,0.0,-1.07620179046,0.0,-2.16925724299,0.0,0.0,0.0,0.0,100.0,0.0,-30.48,0.00537022749826,100.0,-0.454936416941,-0.0,0.0,100.0,0.0,-0.0,1014515.20103,0.0,0.0,0.0,0.0,0.0,0.0
1402599588084310653,0,14.7765601402,-0.114322152727,-17.2869638509,0.043815185726,-0.51373864084,0.0,-1.07347973744,0.0,-2.19295427397,0.0,0.0,0.0,0.0,100.0,0.0,-30.48,0.00537022749826,100.0,-0.421180637675,-0.0,0.0,100.0,0.0,-0.0,1014515.20089,0.0,0.0,0.0,0.0,0.0,0.0
1402599588104885128,0,14.7765601402,-0.114322152727,-17.2869638509,0.043815185726,-0.51373864084,0.0,-1.07347973744,0.0,-2.19295427397,0.0,0.0,0.0,0.0,100.0,0.0,-30.48,0.00537022749826,100.0,-0.381287487345,-0.0,0.0,100.0,0.0,-0.0,1014515.20073,0.0,0.0,0.0,0.0,0.0,0.0
1402599588124356487,0,14.7549466607,-0.114322152727,-17.3310340723,0.043815185726,-0.538065170136,0.0,-1.0669474767,0.0,-2.21546323187,0.0,0.0,0.0,0.0,100.0,0.0,-30.48,0.00537022749826,100.0,-0.349065931636,-0.0,0.0,100.0,0.0,-0.0,1014515.20061,0.0,0.0,0.0,0.0,0.0,0.0
1402599588144943212,0,14.7549466607,-0.114322152727,-17.3310340723,0.043815185726,-0.538065170136,0.0,-1.0669474767,0.0,-2.21546323187,0.0,0.0,0.0,0.0,100.0,0.0,-30.48,0.00537022749826,100.0,-0.315310152369,-0.0,0.0,100.0,0.0,-0.0,1014515.2005,0.0,0.0,0.0,0.0,0.0,0.0
1402599588164506123,0,14.7251541288,-0.114322152727,-17.3951793358,0.043815185726,-0.568481976067,0.0,-1.06891713816,0.0,-2.24063285657,0.0,0.0,0.0,0.0,100.0,0.0,-30.48,0.00537022749826,100.0,-0.283088835078,-0.0,0.0,100.0,0.0,-0.0,1014515.2004,0.0,0.0,0.0,0.0,0.0,0.0
1402599588184986216,0,14.7251541288,-0.114322152727,-17.3951793358,0.043815185726,-0.568481976067,0.0,-1.06891713816,0.0,-2.24063285657,0.0,0.0,0.0,0.0,100.0,0.0,-30.48,0.00537022749826,100.0,-0.247798355418,-0.0,0.0,100.0,0.0,-0.0,1014515.20031,0.0,0.0,0.0,0.0,0.0,0.0
1402599588204354374,0,14.6969551857,-0.114322152727,-17.4449004246,0.043815185726,-0.586046161132,0.0,-1.04475069568,0.0,-2.26961829484,0.0,0.0,0.0,0.0,100.0,0.0,-30.48,0.00537022749826,100.0,-0.215577038127,-0.0,0.0,100.0,0.0,-0.0,1014515.20023,0.0,0.0,0.0,0.0,0.0,0.0
1402599588224917880,0,14.6969551857,-0.114322152727,-17.4449004246,0.043815185726,-0.586046161132,0.0,-1.04475069568,0.0,-2.26961829484,0.0,0.0,0.0,0.0,100.0,0.0,-30.48,0.00537022749826,100.0,-0.183355482417,-0.0,0.0,100.0,0.0,-0.0,1014515.20017,0.0,0.0,0.0,0.0,0.0,0.0
1402599588244481203,0,14.6851469847,-0.114322152727,-17.4722292365,0.043815185726,-0.59780974938,0.0,-1.04291703951,0.0,-2.27860992566,0.0,0.0,0.0,0.0,100.0,0.0,-30.48,0.00537022749826,100.0,-0.1465307792,-0.0,0.0,100.0,0.0,-0.0,1014515.20011,0.0,0.0,0.0,0.0,0.0,0.0
1402599588264773400,0,14.6851469847,-0.114322152727,-17.4722292365,0.043815185726,-0.59780974938,0.0,-1.04291703951,0.0,-2.27860992566,0.0,0.0,0.0,0.0,100.0,0.0,-30.48,0.00537022749826,100.0,-0.114309461909,-0.0,0.0,100.0,0.0,-0.0,1014515.20007,0.0,0.0,0.0,0.0,0.0,0.0
1402599588284493759,0,14.6589085342,-0.114322152727,-17.5196348215,0.043815185726,-0.624339072825,0.0,-1.03368708671,0.0,-2.29750559424,0.0,0.0,0.0,0.0,118.550868481,-0.347808364743,-24.5739168118,0.00537022749826,100.0,-0.0805536826427,-0.0,0.0,100.0,-0.0187467028666,18.5541287065,1056435.87842,0.0,0.0,0.0,0.0,0.0,0.0
1402599588304376287,0,14.6589085342,-0.114322152727,-17.5196348215,0.043815185726,-0.624339072825,0.0,-1.03368708671,0.0,-2.29750559424,0.0,0.0,0.0,0.0,168.99108948,-1.58336229954,-8.30531995796,0.00537022749826,100.0,-0.0467979033764,18.5541287065,0.0,100.0,-0.022946215322,69.0092563629,1537453.49139,0.0,0.0,0.0,0.0,0.0,0.0
1402599588324361287,0,14.6322502067,-0.114322152727,-17.5628978072,0.043815185726,-0.645768365195,0.0,-1.02022744577,0.0,-2.31622847677,0.0,0.0,0.0,0.0,199.994646326,-1.03474932947,0.747423239713,0.00537022749826,100.0,-0.0222481807049,69.0092563629,0.0,100.0,-0.0103476779557,100.0,2100707.60179,0.0,0.0,0.0,0.0,0.0,0.0
1402599588344938960,0,14.6322502067,-0.114322152727,-17.5628978072,0.043815185726,-0.645768365195,0.0,-1.02022744577,0.0,-2.31622847677,0.0,0.0,0.0,0.0,199.994646326,-1.03474932947,0.747423239713,0.00690445105478,100.0,-0.0161108096416,100.0,0.0,100.0,-0.0103476779557,100.0,2100707.60179,0.0,0.0,0.0,0.0,0.0,0.0
1402599588364380883,0,14.5986764237,-0.114322152727,-17.6101143151,0.043815185726,-0.695016811362,0.0,-1.00733571004,0.0,-2.33043971243,0.0,0.0,0.0,0.0,199.903635086,-4.38904279724,3.14785605503,0.00537022749826,100.0,-0.0145763476665,100.0,0.0,100.0,-0.0439045317335,100.0,2112659.51324,0.0,0.0,0.0,0.0,0.0,0.0
