rosbagTimestamp,control_method,x_current,x_desired,y_current,y_desired,z_current,z_desired,x_velocity_current,x_velocity_desired,y_velocity_current,y_velocity_desired,z_velocity_current,z_velocity_desired,yaw_current,yaw_desired,yaw_velocity_current,yaw_velocity_desired,roll_current,roll_desired,roll_velocity_current,roll_velocity_desired,pitch_current,pitch_desired,pitch_velocity_current,pitch_velocity_desired,required_force_x,required_force_y,required_moment_z,resultant_force_x,resultant_force_y,resultant_moment_z,current_port_servo_angle,current_port_thruster_force,current_starboard_servo_angle,current_starboard_thruster_force,estimated_port_servo_angle,estimated_port_thruster_force,estimated_starboard_servo_angle,estimated_starboard_thruster_force,cost_value,step,user_defined_1,user_defined_2,user_defined_3,user_defined_4,user_defined_5
1402752342145135066,3,-10.7272220549,-0.00591572024346,-4.72785174133,-0.122189614607,17.6388239195,0.10862951003,0.0133562013424,0.0,-0.0572001882338,0.0,0.120894503583,0.0,-2.47893694208,0.0,0.0150347364474,0.0,3.51817907191e-05,0.0,0.00370141918584,0.0,0.0656727766959,0.0,-0.00325812902262,0.0,0.0,0.0,0.0,50.0,-0.0,-15.24,0.00230154196664,0.0,-0.00383606751517,0.0,-0.0,50.0,-0.0,0.0,253628.8,0.0,0.0,0.0,0.0,0.0,0.0
1402752342164462568,3,-10.7272220549,-0.00591572024346,-4.72785174133,-0.122189614607,17.6388239195,0.10862951003,0.0133562013424,0.0,-0.0572001882338,0.0,0.120894503583,0.0,-2.47893694208,0.0,0.0150347364474,0.0,3.51817907191e-05,0.0,0.00370141918584,0.0,0.0656727766959,0.0,-0.00325812902262,0.0,0.0,0.0,0.0,50.0,-0.0,-15.24,0.00230154196664,0.0,-0.00383606751517,0.0,-0.0,50.0,-0.0,0.0,253628.8,0.0,0.0,0.0,0.0,0.0,0.0
1402752342184650799,3,-10.7217471027,-0.00591572024346,-4.72844890389,-0.122189614607,17.6458945795,0.10862951003,0.0215765167479,0.0,-0.0498899867918,0.0,0.122457355135,0.0,-2.47838148077,0.0,0.0259059916861,0.0,-0.000207441893021,0.0,0.00639908586227,0.0,0.0646571678028,0.0,-0.000454562371624,0.0,0.0,0.0,0.0,50.0,-0.0,-15.24,0.00230154196664,0.0,-0.00383606751517,0.0,-0.0,50.0,-0.0,0.0,253628.8,0.0,0.0,0.0,0.0,0.0,0.0
1402752342204558700,3,-10.7217471027,-0.00591572024346,-4.72844890389,-0.122189614607,17.6458945795,0.10862951003,0.0215765167479,0.0,-0.0498899867918,0.0,0.122457355135,0.0,-2.47838148077,0.0,0.0259059916861,0.0,-0.000207441893021,0.0,0.00639908586227,0.0,0.0646571678028,0.0,-0.000454562371624,0.0,0.0,0.0,0.0,50.0,-0.0,-15.24,0.00230154196664,0.0,-0.00383606751517,0.0,-0.0,50.0,-0.0,0.0,253628.8,0.0,0.0,0.0,0.0,0.0,0.0
1402752342225120511,3,-10.7295949182,-0.00591572024346,-4.72966630286,-0.122189614607,17.6450915179,0.10862951003,0.00210918589052,0.0,-0.0516471935802,0.0,0.121451207005,0.0,-2.47756018243,0.0,0.0143651197777,0.0,0.000566460038737,0.0,0.00656969973094,0.0,0.0664483788039,0.0,0.00642947034726,0.0,0.0,0.0,0.0,50.0,-0.0,-15.24,0.00230154196664,0.0,-0.00383606751517,0.0,-0.0,50.0,-0.0,0.0,253628.8,0.0,0.0,0.0,0.0,0.0,0.0
1402752342244570635,3,-10.7295949182,-0.00591572024346,-4.72966630286,-0.122189614607,17.6450915179,0.10862951003,0.00210918589052,0.0,-0.0516471935802,0.0,0.121451207005,0.0,-2.47756018243,0.0,0.0143651197777,0.0,0.000566460038737,0.0,0.00656969973094,0.0,0.0664483788039,0.0,0.00642947034726,0.0,0.0,0.0,0.0,50.0,-0.0,-15.24,0.00230154196664,0.0,-0.00383606751517,0.0,-0.0,50.0,-0.0,0.0,253628.8,0.0,0.0,0.0,0.0,0.0,0.0
1402752342264780080,3,-10.7295439491,-0.00591572024346,-4.73185080345,-0.122189614607,17.6502321933,0.10862951003,0.00217220860192,0.0,-0.051598475486,0.0,0.12286946838,0.0,-2.47688139443,0.0,0.0177139334092,0.0,0.000108997760943,0.0,0.00720282228682,0.0,0.0663338761434,0.0,0.00903082759475,0.0,0.0,0.0,0.0,50.0,-0.0,-15.24,0.00230154196664,0.0,-0.00383606751517,0.0,-0.0,50.0,-0.0,0.0,253628.8,0.0,0.0,0.0,0.0,0.0,0.0
1402752342285082089,3,-10.7295439491,-0.00591572024346,-4.73185080345,-0.122189614607,17.6502321933,0.10862951003,0.00217220860192,0.0,-0.051598475486,0.0,0.12286946838,0.0,-2.47688139443,0.0,0.0177139334092,0.0,0.000108997760943,0.0,0.00720282228682,0.0,0.0663338761434,0.0,0.00903082759475,0.0,0.0,0.0,0.0,50.0,-0.0,-15.24,0.00230154196664,0.0,-0.00383606751517,0.0,-0.0,50.0,-0.0,0.0,253628.8,0.0,0.0,0.0,0.0,0.0,0.0
1402752342304664184,3,-10.723545662,-0.00591572024346,-4.73656322224,-0.122189614607,17.6596598391,0.10862951003,0.0113355002123,0.0,-0.0549738885534,0.0,0.122961985143,0.0,-2.47639493031,0.0,0.0158396034106,0.0,-0.00130405136567,0.0,0.0069992486834,0.0,0.0656628218639,0.0,0.0148880510572,0.0,0.0,0.0,0.0,50.0,-0.0,-15.24,0.00230154196664,0.0,-0.00383606751517,0.0,-0.0,50.0,-0.0,0.0,253628.8,0.0,0.0,0.0,0.0,0.0,0.0
1402752342324442061,3,-10.723545662,-0.00591572024346,-4.73656322224,-0.122189614607,17.6596598391,0.10862951003,0.0113355002123,0.0,-0.0549738885534,0.0,0.122961985143,0.0,-2.47639493031,0.0,0.0158396034106,0.0,-0.00130405136567,0.0,0.0069992486834,0.0,0.0656628218639,0.0,0.0148880510572,0.0,0.0,0.0,0.0,50.0,-0.0,-15.24,0.00230154196664,0.0,-0.00383606751517,0.0,-0.0,50.0,-0.0,0.0,253628.8,0.0,0.0,0.0,0.0,0.0,0.0
1402752342345148209,3,-10.7179965199,-0.00591572024346,-4.74158238655,-0.122189614607,17.671211649,0.10862951003,0.020089380606,0.0,-0.0556952941068,0.0,0.124580823466,0.0,-2.47580463891,0.0,0.0225331242475,0.0,-0.00238767267507,0.0,0.00171378232755,0.0,0.0647829156492,0.0,0.0119707617662,0.0,0.0,0.0,0.0,50.0,-0.0,-15.24,0.00230154196664,0.0,-0.00383606751517,0.0,-0.0,50.0,-0.0,0.0,253628.8,0.0,0.0,0.0,0.0,0.0,0.0
1402752342364349551,3,-10.7179965199,-0.00591572024346,-4.74158238655,-0.122189614607,17.671211649,0.10862951003,0.020089380606,0.0,-0.0556952941068,0.0,0.124580823466,0.0,-2.47580463891,0.0,0.0225331242475,0.0,-0.00238767267507,0.0,0.00171378232755,0.0,0.0647829156492,0.0,0.0119707617662,0.0,0.0,0.0,0.0,50.0,-0.0,-15.24,0.00230154196664,0.0,-0.00383606751517,0.0,-0.0,50.0,-0.0,0.0,253628.8,0.0,0.0,0.0,0.0,0.0,0.0
1402752342384723095,3,-10.714438196,-0.00591572024346,-4.74179169931,-0.122189614607,17.6749278154,0.10862951003,0.0235579352138,0.0,-0.0502651157036,0.0,0.12494809879,0.0,-2.47492478225,0.0,0.0284944039236,0.0,-0.00248513755664,0.0,0.00249547243685,0.0,0.0638959505557,0.0,0.00554732341433,0.0,0.0,0.0,0.0,50.0,-0.0,-15.24,0.00230154196664,0.0,-0.00383606751517,0.0,-0.0,50.0,-0.0,0.0,253628.8,0.0,0.0,0.0,0.0,0.0,0.0
1402752342405178882,3,-10.714438196,-0.00591572024346,-4.74179169931,-0.122189614607,17.6749278154,0.10862951003,0.0235579352138,0.0,-0.0502651157036,0.0,0.12494809879,0.0,-2.47492478225,0.0,0.0284944039236,0.0,-0.00248513755664,0.0,0.00249547243685,0.0,0.0638959505557,0.0,0.00554732341433,0.0,0.0,0.0,0.0,50.0,-0.0,-15.24,0.00230154196664,0.0,-0.00383606751517,0.0,-0.0,50.0,-0.0,0.0,253628.8,0.0,0.0,0.0,0.0,0.0,0.0
1402752342424499772,3,-10.713899289,-0.00591572024346,-4.7556939399,-0.122189614607,17.689042809,0.10862951003,0.0207625428282,0.0,-0.0691180000437,0.0,0.125584704297,0.0,-2.47380284308,0.0,0.0249452984865,0.0,-0.00416855382155,0.0,-0.0106791920224,0.0,0.0652566500607,0.0,0.0020085897628,0.0,0.0,0.0,0.0,50.0,-0.0,-15.24,0.00230154196664,0.0,-0.00383606751517,0.0,-0.0,50.0,-0.0,0.0,253628.8,0.0,0.0,0.0,0.0,0.0,0.0
1402752342444495368,3,-10.713899289,-0.00591572024346,-4.7556939399,-0.122189614607,17.689042809,0.10862951003,0.0207625428282,0.0,-0.0691180000437,0.0,0.125584704297,0.0,-2.47380284308,0.0,0.0249452984865,0.0,-0.00416855382155,0.0,-0.0106791920224,0.0,0.0652566500607,0.0,0.0020085897628,0.0,0.0,0.0,0.0,50.0,-0.0,-15.24,0.00230154196664,0.0,-0.00383606751517,0.0,-0.0,50.0,-0.0,0.0,253628.8,0.0,0.0,0.0,0.0,0.0,0.0
1402752342465441192,3,-10.7120058536,-0.00591572024346,-4.75521343635,-0.122189614607,17.7051652135,0.10862951003,0.0201709787118,0.0,-0.049991277191,0.0,0.127406706105,0.0,-2.47229800463,0.0,0.0307748166383,0.0,-0.00199726678352,0.0,-0.0110571929633,0.0,0.0636151535226,0.0,-0.000922896400772,0.0,0.0,0.0,0.0,50.0,-0.0,-15.24,0.00230154196664,0.0,-0.00383606751517,0.0,-0.0,50.0,-0.0,0.0,253628.8,0.0,0.0,0.0,0.0,0.0,0.0
1402752342484686398,3,-10.7120058536,-0.00591572024346,-4.75521343635,-0.122189614607,17.7051652135,0.10862951003,0.0201709787118,0.0,-0.049991277191,0.0,0.127406706105,0.0,-2.47229800463,0.0,0.0307748166383,0.0,-0.00199726678352,0.0,-0.0110571929633,0.0,0.0636151535226,0.0,-0.000922896400772,0.0,0.0,0.0,0.0,50.0,-0.0,-15.24,0.00230154196664,0.0,-0.00383606751517,0.0,-0.0,50.0,-0.0,0.0,253628.8,0.0,0.0,0.0,0.0,0.0,0.0
1402752342504790273,3,-10.7115980578,-0.00591572024346,-4.75625320286,-0.122189614607,17.7078361291,0.10862951003,0.021023117612,0.0,-0.0498722047912,0.0,0.127406025248,0.0,-2.47165688301,0.0,0.0308029452049,0.0,-0.0018872548917,0.0,-0.0109170196762,0.0,0.0634617131212,0.0,0.00228508089841,0.0,0.0,0.0,0.0,50.0,-0.0,-15.24,0.00230154196664,0.0,-0.00383606751517,0.0,-0.0,50.0,-0.0,0.0,253628.8,0.0,0.0,0.0,0.0,0.0,0.0
1402752342524659667,3,-10.7115980578,-0.00591572024346,-4.75625320286,-0.122189614607,17.7078361291,0.10862951003,0.021023117612,0.0,-0.0498722047912,0.0,0.127406025248,0.0,-2.47165688301,0.0,0.0308029452049,0.0,-0.0018872548917,0.0,-0.0109170196762,0.0,0.0634617131212,0.0,0.00228508089841,0.0,0.0,0.0,0.0,50.0,-0.0,-15.24,0.00230154196664,0.0,-0.00383606751517,0.0,-0.0,50.0,-0.0,0.0,253628.8,0.0,0.0,0.0,0.0,0.0,0.0
1402752342544534566,3,-10.7107790087,-0.00591572024346,-4.75828239962,-0.122189614607,17.7131135409,0.10862951003,0.02064385218,0.0,-0.049658118244,0.0,0.128601995882,0.0,-2.47054853646,0.0,0.028698255733,0.0,-0.00145997916629,0.0,-0.0127103897605,0.0,0.0633112705537,0.0,-0.00646211369652,0.0,0.0,0.0,0.0,50.0,-0.0,-15.24,0.00230154196664,0.0,-0.00383606751517,0.0,-0.0,50.0,-0.0,0.0,253628.8,0.0,0.0,0.0,0.0,0.0,0.0
1402752342565072734,3,-10.7107790087,-0.00591572024346,-4.75828239962,-0.122189614607,17.7131135409,0.10862951003,0.02064385218,0.0,-0.049658118244,0.0,0.128601995882,0.0,-2.47054853646,0.0,0.028698255733,0.0,-0.00145997916629,0.0,-0.0127103897605,0.0,0.0633112705537,0.0,-0.00646211369652,0.0,0.0,0.0,0.0,50.0,-0.0,-15.24,0.00230154196664,0.0,-0.00383606751517,0.0,-0.0,50.0,-0.0,0.0,253628.8,0.0,0.0,0.0,0.0,0.0,0.0
1402752342585397241,3,-10.7089869868,-0.00591572024346,-4.76262290931,-0.122189614607,17.7164542869,0.10862951003,0.021046184819,0.0,-0.0546245222385,0.0,0.126460164179,0.0,-2.46933903776,0.0,0.0321951510946,0.0,-0.00171554132421,0.0,-0.00804710370817,0.0,0.0635260912603,0.0,0.000457934829179,0.0,0.0,0.0,0.0,50.0,-0.0,-15.24,0.00230154196664,0.0,-0.00383606751517,0.0,-0.0,50.0,-0.0,0.0,253628.8,0.0,0.0,0.0,0.0,0.0,0.0
1402752342604562986,3,-10.7089869868,-0.00591572024346,-4.76262290931,-0.122189614607,17.7164542869,0.10862951003,0.021046184819,0.0,-0.0546245222385,0.0,0.126460164179,0.0,-2.46933903776,0.0,0.0321951510946,0.0,-0.00171554132421,0.0,-0.00804710370817,0.0,0.0635260912603,0.0,0.000457934829179,0.0,0.0,0.0,0.0,50.0,-0.0,-15.24,0.00230154196664,0.0,-0.00383606751517,0.0,-0.0,50.0,-0.0,0.0,253628.8,0.0,0.0,0.0,0.0,0.0,0.0
1402752342624772890,3,-10.7068527139,-0.00591572024346,-4.7645236283,-0.122189614607,17.729398365,0.10862951003,0.0178051339684,0.0,-0.0469352072334,0.0,0.128126469383,0.0,-2.46804367308,0.0,0.027389162543,0.0,-0.00034606749217,0.0,-0.00847035939558,0.0,0.0630758427764,0.0,-0.00845007567728,0.0,0.0,0.0,0.0,50.0,-0.0,-15.24,0.00230154196664,0.0,-0.00383606751517,0.0,-0.0,50.0,-0.0,0.0,253628.8,0.0,0.0,0.0,0.0,0.0,0.0
1402752342644796422,3,-10.7068527139,-0.00591572024346,-4.7645236283,-0.122189614607,17.729398365,0.10862951003,0.0178051339684,0.0,-0.0469352072334,0.0,0.128126469383,0.0,-2.46804367308,0.0,0.027389162543,0.0,-0.00034606749217,0.0,-0.00847035939558,0.0,0.0630758427764,0.0,-0.00845007567728,0.0,0.0,0.0,0.0,50.0,-0.0,-15.24,0.00230154196664,0.0,-0.00383606751517,0.0,-0.0,50.0,-0.0,0.0,253628.8,0.0,0.0,0.0,0.0,0.0,0.0
1402752342664579102,3,-10.7031743057,-0.00591572024346,-4.76645448384,-0.122189614607,17.7270536558,0.10862951003,0.019752409678,0.0,-0.0529740884836,0.0,0.127781105309,0.0,-2.46694958423,0.0,0.035126720634,0.0,-0.000919321322917,0.0,0.00302992534067,0.0,0.0634324604552,0.0,-0.00608632446657,0.0,0.0,0.0,0.0,50.0,-0.0,-15.24,0.00230154196664,0.0,-0.00383606751517,0.0,-0.0,50.0,-0.0,0.0,253628.8,0.0,0.0,0.0,0.0,0.0,0.0
1402752342684540247,3,-10.7031743057,-0.00591572024346,-4.76645448384,-0.122189614607,17.7270536558,0.10862951003,0.019752409678,0.0,-0.0529740884836,0.0,0.127781105309,0.0,-2.46694958423,0.0,0.035126720634,0.0,-0.000919321322917,0.0,0.00302992534067,0.0,0.0634324604552,0.0,-0.00608632446657,0.0,0.0,0.0,0.0,50.0,-0.0,-15.24,0.00230154196664,0.0,-0.00383606751517,0.0,-0.0,50.0,-0.0,0.0,253628.8,0.0,0.0,0.0,0.0,0.0,0.0
1402752342704455906,3,-10.7025294206,-0.00591572024346,-4.76724031598,-0.122189614607,17.7245352071,0.10862951003,0.0178066312855,0.0,-0.0553868975111,0.0,0.126889869509,0.0,-2.4658371755,0.0,0.0227069979801,0.0,-0.000710193024697,0.0,-0.00379158052622,0.0,0.0638804060703,0.0,-0.00658261273101,0.0,0.0,0.0,0.0,50.0,-0.0,-15.24,0.00230154196664,0.0,-0.00383606751517,0.0,-0.0,50.0,-0.0,0.0,253628.8,0.0,0.0,0.0,0.0,0.0,0.0
1402752342724588095,3,-10.7025294206,-0.00591572024346,-4.76724031598,-0.122189614607,17.7245352071,0.10862951003,0.0178066312855,0.0,-0.0553868975111,0.0,0.126889869509,0.0,-2.4658371755,0.0,0.0227069979801,0.0,-0.000710193024697,0.0,-0.00379158052622,0.0,0.0638804060703,0.0,-0.00658261273101,0.0,0.0,0.0,0.0,50.0,-0.0,-15.24,0.00230154196664,0.0,-0.00383606751517,0.0,-0.0,50.0,-0.0,0.0,253628.8,0.0,0.0,0.0,0.0,0.0,0.0
1402752342744559634,3,-10.6959925259,-0.00591572024346,-4.76479676588,-0.122189614607,17.7233520048,0.10862951003,0.0279694144905,0.0,-0.0501588407846,0.0,0.127405273584,0.0,-2.46502435511,0.0,0.0262623993311,0.0,-0.000666932027582,0.0,0.000670025659613,0.0,0.0627769996942,0.0,-0.00626471075628,0.0,0.0,0.0,0.0,50.0,-0.0,-15.24,0.00230154196664,0.0,-0.00383606751517,0.0,-0.0,50.0,-0.0,0.0,253628.8,0.0,0.0,0.0,0.0,0.0,0.0
1402752342764976362,3,-10.6959925259,-0.00591572024346,-4.76479676588,-0.122189614607,17.7233520048,0.10862951003,0.0279694144905,0.0,-0.0501588407846,0.0,0.127405273584,0.0,-2.46502435511,0.0,0.0262623993311,0.0,-0.000666932027582,0.0,0.000670025659613,0.0,0.0627769996942,0.0,-0.00626471075628,0.0,0.0,0.0,0.0,50.0,-0.0,-15.24,0.00230154196664,0.0,-0.00383606751517,0.0,-0.0,50.0,-0.0,0.0,253628.8,0.0,0.0,0.0,0.0,0.0,0.0
1402752342784517560,3,-10.701325606,-0.00591572024346,-4.76780059375,-0.122189614607,17.7181516577,0.10862951003,0.0161782655599,0.0,-0.0603756825276,0.0,0.127255214053,0.0,-2.46404274542,0.0,0.0229826009313,0.0,-0.000878685013715,0.0,0.00135589027237,0.0,0.0645251790943,0.0,-0.00331315074321,0.0,0.0,0.0,0.0,50.0,-0.0,-15.24,0.00230154196664,0.0,-0.00383606751517,0.0,-0.0,50.0,-0.0,0.0,253628.8,0.0,0.0,0.0,0.0,0.0,0.0
1402752342804600410,3,-10.701325606,-0.00591572024346,-4.76780059375,-0.122189614607,17.7181516577,0.10862951003,0.0161782655599,0.0,-0.0603756825276,0.0,0.127255214053,0.0,-2.46404274542,0.0,0.0229826009313,0.0,-0.000878685013715,0.0,0.00135589027237,0.0,0.0645251790943,0.0,-0.00331315074321,0.0,0.0,0.0,0.0,50.0,-0.0,-15.24,0.00230154196664,0.0,-0.00383606751517,0.0,-0.0,50.0,-0.0,0.0,253628.8,0.0,0.0,0.0,0.0,0.0,0.0
1402752342824685461,3,-10.7017668656,-0.00591572024346,-4.76713046696,-0.122189614607,17.7139059954,0.10862951003,0.014668496232,0.0,-0.0602271022437,0.0,0.127352446072,0.0,-2.46316603476,0.0,0.01929713016,0.0,-0.000836305183429,0.0,0.0030515552355,0.0,0.0647569234347,0.0,-0.000807317105438,0.0,0.0,0.0,0.0,50.0,-0.0,-15.24,0.00230154196664,0.0,-0.00383606751517,0.0,-0.0,50.0,-0.0,0.0,253628.8,0.0,0.0,0.0,0.0,0.0,0.0
1402752342844561928,3,-10.7017668656,-0.00591572024346,-4.76713046696,-0.122189614607,17.7139059954,0.10862951003,0.014668496232,0.0,-0.0602271022437,0.0,0.127352446072,0.0,-2.46316603476,0.0,0.01929713016,0.0,-0.000836305183429,0.0,0.0030515552355,0.0,0.0647569234347,0.0,-0.000807317105438,0.0,0.0,0.0,0.0,50.0,-0.0,-15.24,0.00230154196664,0.0,-0.00383606751517,0.0,-0.0,50.0,-0.0,0.0,253628.8,0.0,0.0,0.0,0.0,0.0,0.0
1402752342864463035,3,-10.6979715389,-0.00591572024346,-4.7691454412,-0.122189614607,17.7210664394,0.10862951003,0.0196154613735,0.0,-0.0574927180541,0.0,0.12947619571,0.0,-2.46210688173,0.0,0.0219466710949,0.0,-0.0007650872597,0.0,0.00706901575383,0.0,0.0643235386667,0.0,-0.000398648096509,0.0,0.0,0.0,0.0,50.0,-0.0,-15.24,0.00230154196664,0.0,-0.00383606751517,0.0,-0.0,50.0,-0.0,0.0,253628.8,0.0,0.0,0.0,0.0,0.0,0.0
1402752342885106030,3,-10.6979715389,-0.00591572024346,-4.7691454412,-0.122189614607,17.7210664394,0.10862951003,0.0196154613735,0.0,-0.0574927180541,0.0,0.12947619571,0.0,-2.46210688173,0.0,0.0219466710949,0.0,-0.0007650872597,0.0,0.00706901575383,0.0,0.0643235386667,0.0,-0.000398648096509,0.0,0.0,0.0,0.0,50.0,-0.0,-15.24,0.00230154196664,0.0,-0.00383606751517,0.0,-0.0,50.0,-0.0,0.0,253628.8,0.0,0.0,0.0,0.0,0.0,0.0
1402752342904417455,3,-10.697421491,-0.00591572024346,-4.77093767517,-0.122189614607,17.7252648427,0.10862951003,0.0188123171468,0.0,-0.0556304299511,0.0,0.129951994139,0.0,-2.46137216267,0.0,0.0268900606575,0.0,-0.000632366417548,0.0,-0.0070927363159,0.0,0.0643397402374,0.0,-0.0057431176581,0.0,0.0,0.0,0.0,50.0,-0.0,-15.24,0.00230154196664,0.0,-0.00383606751517,0.0,-0.0,50.0,-0.0,0.0,253628.8,0.0,0.0,0.0,0.0,0.0,0.0
1402752342924557680,3,-10.6970274109,-0.00591572024346,-4.77327194848,-0.122189614607,17.7273367932,0.10862951003,0.0186462558252,0.0,-0.0591610963395,0.0,0.130975087184,0.0,-2.46101708505,0.0,0.0218734774984,0.0,-0.000801262306978,0.0,0.00105368269652,0.0,0.0646386440621,0.0,-0.00298944734016,0.0,0.0,0.0,0.0,50.0,-0.0,-15.24,0.00230154196664,0.0,-0.00383606751517,0.0,-0.0,50.0,-0.0,0.0,253628.8,0.0,0.0,0.0,0.0,0.0,0.0
1402752342944351401,3,-10.6970274109,-0.00591572024346,-4.77327194848,-0.122189614607,17.7273367932,0.10862951003,0.0186462558252,0.0,-0.0591610963395,0.0,0.130975087184,0.0,-2.46101708505,0.0,0.0218734774984,0.0,-0.000801262306978,0.0,0.00105368269652,0.0,0.0646386440621,0.0,-0.00298944734016,0.0,0.0,0.0,0.0,50.0,-0.0,-15.24,0.00230154196664,0.0,-0.00383606751517,0.0,-0.0,50.0,-0.0,0.0,253628.8,0.0,0.0,0.0,0.0,0.0,0.0
1402752342964581064,3,-10.6966378229,-0.00591572024346,-4.7743977115,-0.122189614607,17.7297528567,0.10862951003,0.0190260850722,0.0,-0.0590838371508,0.0,0.131389653966,0.0,-2.46057629732,0.0,0.0292760984273,0.0,-0.000815840979854,0.0,0.0045198111031,0.0,0.0646914511805,0.0,0.00322279188012,0.0,0.0,0.0,0.0,50.0,-0.0,-15.24,0.00230154196664,0.0,-0.00383606751517,0.0,-0.0,50.0,-0.0,0.0,253628.8,0.0,0.0,0.0,0.0,0.0,0.0
1402752342984505356,3,-10.6966378229,-0.00591572024346,-4.7743977115,-0.122189614607,17.7297528567,0.10862951003,0.0190260850722,0.0,-0.0590838371508,0.0,0.131389653966,0.0,-2.46057629732,0.0,0.0292760984273,0.0,-0.000815840979854,0.0,0.0045198111031,0.0,0.0646914511805,0.0,0.00322279188012,0.0,0.0,0.0,0.0,50.0,-0.0,-15.24,0.00230154196664,0.0,-0.00383606751517,0.0,-0.0,50.0,-0.0,0.0,253628.8,0.0,0.0,0.0,0.0,0.0,0.0
1402752343004583505,3,-10.6953989234,-0.00591572024346,-4.77258094082,-0.122189614607,17.7294950981,0.10862951003,0.0194098618171,0.0,-0.0536801594378,0.0,0.132023436221,0.0,-2.45966137854,0.0,0.0271206991161,0.0,-0.000182458593752,0.0,-0.00367487159051,0.0,0.0643586318969,0.0,-0.00154964035486,0.0,0.0,0.0,0.0,50.0,-0.0,-15.24,0.00230154196664,0.0,-0.00383606751517,0.0,-0.0,50.0,-0.0,0.0,253628.8,0.0,0.0,0.0,0.0,0.0,0.0
1402752343024699766,3,-10.6953989234,-0.00591572024346,-4.77258094082,-0.122189614607,17.7294950981,0.10862951003,0.0194098618171,0.0,-0.0536801594378,0.0,0.132023436221,0.0,-2.45966137854,0.0,0.0271206991161,0.0,-0.000182458593752,0.0,-0.00367487159051,0.0,0.0643586318969,0.0,-0.00154964035486,0.0,0.0,0.0,0.0,50.0,-0.0,-15.24,0.00230154196664,0.0,-0.00383606751517,0.0,-0.0,50.0,-0.0,0.0,253628.8,0.0,0.0,0.0,0.0,0.0,0.0
1402752343044553905,3,-10.6938659852,-0.00591572024346,-4.77637856902,-0.122189614607,17.7241921227,0.10862951003,0.0229146959343,0.0,-0.0672022530983,0.0,0.1315876896,0.0,-2.45894130497,0.0,0.0212563434511,0.0,-0.00138897615279,0.0,0.0038157758472,0.0,0.0650692786357,0.0,0.00279681326482,0.0,0.0,0.0,0.0,50.0,-0.0,-15.24,0.00230154196664,0.0,-0.00383606751517,0.0,-0.0,50.0,-0.0,0.0,253628.8,0.0,0.0,0.0,0.0,0.0,0.0
1402752343064739782,3,-10.6938659852,-0.00591572024346,-4.77637856902,-0.122189614607,17.7241921227,0.10862951003,0.0229146959343,0.0,-0.0672022530983,0.0,0.1315876896,0.0,-2.45894130497,0.0,0.0212563434511,0.0,-0.00138897615279,0.0,0.0038157758472,0.0,0.0650692786357,0.0,0.00279681326482,0.0,0.0,0.0,0.0,50.0,-0.0,-15.24,0.00230154196664,0.0,-0.00383606751517,0.0,-0.0,50.0,-0.0,0.0,253628.8,0.0,0.0,0.0,0.0,0.0,0.0
1402752343084540223,3,-10.6955565188,-0.00591572024346,-4.77469200932,-0.122189614607,17.7306683427,0.10862951003,0.0138888953116,0.0,-0.0525788005152,0.0,0.131996848974,0.0,-2.45778772115,0.0,0.0300771452031,0.0,0.000614764790712,0.0,-0.00883640831022,0.0,0.0646708244198,0.0,-0.00131862794237,0.0,0.0,0.0,0.0,50.0,-0.0,-15.24,0.00230154196664,0.0,-0.00383606751517,0.0,-0.0,50.0,-0.0,0.0,253628.8,0.0,0.0,0.0,0.0,0.0,0.0
1402752343104341523,3,-10.6955565188,-0.00591572024346,-4.77469200932,-0.122189614607,17.7306683427,0.10862951003,0.0138888953116,0.0,-0.0525788005152,0.0,0.131996848974,0.0,-2.45778772115,0.0,0.0300771452031,0.0,0.000614764790712,0.0,-0.00883640831022,0.0,0.0646708244198,0.0,-0.00131862794237,0.0,0.0,0.0,0.0,50.0,-0.0,-15.24,0.00230154196664,0.0,-0.00383606751517,0.0,-0.0,50.0,-0.0,0.0,253628.8,0.0,0.0,0.0,0.0,0.0,0.0
1402752343125251208,3,-10.6845845239,-0.00591572024346,-4.77642616683,-0.122189614607,17.7395703581,0.10862951003,0.0312488369667,0.0,-0.0519838530692,0.0,0.134859028795,0.0,-2.45692133848,0.0,0.0294954591238,0.0,-0.000248081312799,0.0,0.00557943642293,0.0,0.0633449205312,0.0,0.00214119653718,0.0,0.0,0.0,0.0,50.0,-0.0,-15.24,0.00230154196664,0.0,-0.00383606751517,0.0,-0.0,50.0,-0.0,0.0,253628.8,0.0,0.0,0.0,0.0,0.0,0.0
1402752343144404758,3,-10.6845845239,-0.00591572024346,-4.77642616683,-0.122189614607,17.7395703581,0.10862951003,0.0312488369667,0.0,-0.0519838530692,0.0,0.134859028795,0.0,-2.45692133848,0.0,0.0294954591238,0.0,-0.000248081312799,0.0,0.00557943642293,0.0,0.0633449205312,0.0,0.00214119653718,0.0,0.0,0.0,0.0,50.0,-0.0,-15.24,0.00230154196664,0.0,-0.00383606751517,0.0,-0.0,50.0,-0.0,0.0,253628.8,0.0,0.0,0.0,0.0,0.0,0.0
1402752343164520058,3,-10.6834516799,-0.00591572024346,-4.77854073937,-0.122189614607,17.7450521754,0.10862951003,0.0321095623337,0.0,-0.0508625331429,0.0,0.135980899946,0.0,-2.45592663532,0.0,0.028879746475,0.0,-0.000201144778215,0.0,0.00381399041466,0.0,0.0633824621392,0.0,-7.39320592754e-06,0.0,0.0,0.0,0.0,50.0,-0.0,-15.24,0.00230154196664,0.0,-0.00383606751517,0.0,-0.0,50.0,-0.0,0.0,253628.8,0.0,0.0,0.0,0.0,0.0,0.0
1402752343184543965,3,-10.6834516799,-0.00591572024346,-4.77854073937,-0.122189614607,17.7450521754,0.10862951003,0.0321095623337,0.0,-0.0508625331429,0.0,0.135980899946,0.0,-2.45592663532,0.0,0.028879746475,0.0,-0.000201144778215,0.0,0.00381399041466,0.0,0.0633824621392,0.0,-7.39320592754e-06,0.0,0.0,0.0,0.0,50.0,-0.0,-15.24,0.00230154196664,0.0,-0.00383606751517,0.0,-0.0,50.0,-0.0,0.0,253628.8,0.0,0.0,0.0,0.0,0.0,0.0
1402752343205055807,3,-10.6919373477,-0.00591572024346,-4.77430745086,-0.122189614607,17.7341879532,0.10862951003,0.0107076671969,0.0,-0.0485057339058,0.0,0.134607803425,0.0,-2.45468104734,0.0,0.0188954414499,0.0,0.00145847016112,0.0,-0.00412860525505,0.0,0.0650191942886,0.0,-0.001762327887,0.0,0.0,0.0,0.0,50.0,-0.0,-15.24,0.00230154196664,0.0,-0.00383606751517,0.0,-0.0,50.0,-0.0,0.0,253628.8,0.0,0.0,0.0,0.0,0.0,0.0
1402752343225413515,3,-10.6919373477,-0.00591572024346,-4.77430745086,-0.122189614607,17.7341879532,0.10862951003,0.0107076671969,0.0,-0.0485057339058,0.0,0.134607803425,0.0,-2.45468104734,0.0,0.0188954414499,0.0,0.00145847016112,0.0,-0.00412860525505,0.0,0.0650191942886,0.0,-0.001762327887,0.0,0.0,0.0,0.0,50.0,-0.0,-15.24,0.00230154196664,0.0,-0.00383606751517,0.0,-0.0,50.0,-0.0,0.0,253628.8,0.0,0.0,0.0,0.0,0.0,0.0
1402752343244598338,3,-10.6849470915,-0.00591572024346,-4.77570773638,-0.122189614607,17.7295349656,0.10862951003,0.0203733818467,0.0,-0.0562670752589,0.0,0.134607769603,0.0,-2.45406916682,0.0,0.0219968834373,0.0,4.84002606013e-05,0.0,0.00201473016459,0.0,0.0649484126257,0.0,-0.00118586404056,0.0,0.0,0.0,0.0,50.0,-0.0,-15.24,0.00230154196664,0.0,-0.00383606751517,0.0,-0.0,50.0,-0.0,0.0,253628.8,0.0,0.0,0.0,0.0,0.0,0.0
1402752343264600122,3,-10.6849470915,-0.00591572024346,-4.77570773638,-0.122189614607,17.7295349656,0.10862951003,0.0203733818467,0.0,-0.0562670752589,0.0,0.134607769603,0.0,-2.45406916682,0.0,0.0219968834373,0.0,4.84002606013e-05,0.0,0.00201473016459,0.0,0.0649484126257,0.0,-0.00118586404056,0.0,0.0,0.0,0.0,50.0,-0.0,-15.24,0.00230154196664,0.0,-0.00383606751517,0.0,-0.0,50.0,-0.0,0.0,253628.8,0.0,0.0,0.0,0.0,0.0,0.0
1402752343284590786,3,-10.6820896613,-0.00591572024346,-4.77238193058,-0.122189614607,17.7214647865,0.10862951003,0.0208030498654,0.0,-0.0528712251665,0.0,0.132958437385,0.0,-2.45331390297,0.0,0.0254374445425,0.0,-0.000121861970765,0.0,0.00082252721975,0.0,0.064793369607,0.0,-0.00217074635105,0.0,0.0,0.0,0.0,50.0,-0.0,-15.24,0.00230154196664,0.0,-0.00383606751517,0.0,-0.0,50.0,-0.0,0.0,253628.8,0.0,0.0,0.0,0.0,0.0,0.0
1402752343304603321,3,-10.6820896613,-0.00591572024346,-4.77238193058,-0.122189614607,17.7214647865,0.10862951003,0.0208030498654,0.0,-0.0528712251665,0.0,0.132958437385,0.0,-2.45331390297,0.0,0.0254374445425,0.0,-0.000121861970765,0.0,0.00082252721975,0.0,0.064793369607,0.0,-0.00217074635105,0.0,0.0,0.0,0.0,50.0,-0.0,-15.24,0.00230154196664,0.0,-0.00383606751517,0.0,-0.0,50.0,-0.0,0.0,253628.8,0.0,0.0,0.0,0.0,0.0,0.0
1402752343325930743,3,-10.6822967163,-0.00591572024346,-4.77884960418,-0.122189614607,17.7271342965,0.10862951003,0.0157111569772,0.0,-0.0617443463166,0.0,0.133708717801,0.0,-2.45251346146,0.0,0.0233089769631,0.0,-0.000783502926672,0.0,0.00530087269759,0.0,0.0659677876711,0.0,0.00493092275256,0.0,0.0,0.0,0.0,50.0,-0.0,-15.24,0.00230154196664,0.0,-0.00383606751517,0.0,-0.0,50.0,-0.0,0.0,253628.8,0.0,0.0,0.0,0.0,0.0,0.0
1402752343344519122,3,-10.6822967163,-0.00591572024346,-4.77884960418,-0.122189614607,17.7271342965,0.10862951003,0.0157111569772,0.0,-0.0617443463166,0.0,0.133708717801,0.0,-2.45251346146,0.0,0.0233089769631,0.0,-0.000783502926672,0.0,0.00530087269759,0.0,0.0659677876711,0.0,0.00493092275256,0.0,0.0,0.0,0.0,50.0,-0.0,-15.24,0.00230154196664,0.0,-0.00383606751517,0.0,-0.0,50.0,-0.0,0.0,253628.8,0.0,0.0,0.0,0.0,0.0,0.0
1402752343364400009,3,-10.6723808374,-0.00591572024346,-4.77482418639,-0.122189614607,17.7326520221,0.10862951003,0.0300447090264,0.0,-0.0476281556911,0.0,0.135613418303,0.0,-2.4516446531,0.0,0.0161557140787,0.0,-0.00056442024721,0.0,0.010632260184,0.0,0.0640537681081,0.0,0.00534434929246,0.0,0.0,0.0,0.0,50.0,-0.0,-15.24,0.00230154196664,0.0,-0.00383606751517,0.0,-0.0,50.0,-0.0,0.0,253628.8,0.0,0.0,0.0,0.0,0.0,0.0
1402752343384299427,3,-10.6723808374,-0.00591572024346,-4.77482418639,-0.122189614607,17.7326520221,0.10862951003,0.0300447090264,0.0,-0.0476281556911,0.0,0.135613418303,0.0,-2.4516446531,0.0,0.0161557140787,0.0,-0.00056442024721,0.0,0.010632260184,0.0,0.0640537681081,0.0,0.00534434929246,0.0,0.0,0.0,0.0,50.0,-0.0,-15.24,0.00230154196664,0.0,-0.00383606751517,0.0,-0.0,50.0,-0.0,0.0,253628.8,0.0,0.0,0.0,0.0,0.0,0.0
1402752343404501037,3,-10.671803713,-0.00591572024346,-4.77574364068,-0.122189614607,17.7354366352,0.10862951003,0.0291615679556,0.0,-0.0464743833585,0.0,0.136037657094,0.0,-2.45136196709,0.0,0.0195305794335,0.0,-0.00076640147674,0.0,0.0078717262022,0.0,0.0641097438373,0.0,0.00191563733093,0.0,0.0,0.0,0.0,50.0,-0.0,-15.24,0.00230154196664,0.0,-0.00383606751517,0.0,-0.0,50.0,-0.0,0.0,253628.8,0.0,0.0,0.0,0.0,0.0,0.0
1402752343424574028,3,-10.671803713,-0.00591572024346,-4.77574364068,-0.122189614607,17.7354366352,0.10862951003,0.0291615679556,0.0,-0.0464743833585,0.0,0.136037657094,0.0,-2.45136196709,0.0,0.0195305794335,0.0,-0.00076640147674,0.0,0.0078717262022,0.0,0.0641097438373,0.0,0.00191563733093,0.0,0.0,0.0,0.0,50.0,-0.0,-15.24,0.00230154196664,0.0,-0.00383606751517,0.0,-0.0,50.0,-0.0,0.0,253628.8,0.0,0.0,0.0,0.0,0.0,0.0
1402752343444329019,3,-10.6731370678,-0.00591572024346,-4.77530217905,-0.122189614607,17.7241565698,0.10862951003,0.0193378525993,0.0,-0.0544290473386,0.0,0.134838071578,0.0,-2.45086016165,0.0,0.0170019370507,0.0,-0.00139518922289,0.0,0.004635030398,0.0,0.0656391199577,0.0,0.000664285176364,0.0,0.0,0.0,0.0,50.0,-0.0,-15.24,0.00230154196664,0.0,-0.00383606751517,0.0,-0.0,50.0,-0.0,0.0,253628.8,0.0,0.0,0.0,0.0,0.0,0.0
1402752343465320924,3,-10.6731370678,-0.00591572024346,-4.77530217905,-0.122189614607,17.7241565698,0.10862951003,0.0193378525993,0.0,-0.0544290473386,0.0,0.134838071578,0.0,-2.45086016165,0.0,0.0170019370507,0.0,-0.00139518922289,0.0,0.004635030398,0.0,0.0656391199577,0.0,0.000664285176364,0.0,0.0,0.0,0.0,50.0,-0.0,-15.24,0.00230154196664,0.0,-0.00383606751517,0.0,-0.0,50.0,-0.0,0.0,253628.8,0.0,0.0,0.0,0.0,0.0,0.0
1402752343484646172,3,-10.6614056717,-0.00591572024346,-4.76810555093,-0.122189614607,17.716457637,0.10862951003,0.0351660572909,0.0,-0.0453532166587,0.0,0.133849672737,0.0,-2.4503907472,0.0,0.0120121714949,0.0,-0.0018595085949,0.0,0.00236715229291,0.0,0.0637199897112,0.0,0.000658884824408,0.0,0.0,0.0,0.0,50.0,-0.0,-15.24,0.00230154196664,0.0,-0.00383606751517,0.0,-0.0,50.0,-0.0,0.0,253628.8,0.0,0.0,0.0,0.0,0.0,0.0
1402752343505211127,3,-10.6614056717,-0.00591572024346,-4.76810555093,-0.122189614607,17.716457637,0.10862951003,0.0351660572909,0.0,-0.0453532166587,0.0,0.133849672737,0.0,-2.4503907472,0.0,0.0120121714949,0.0,-0.0018595085949,0.0,0.00236715229291,0.0,0.0637199897112,0.0,0.000658884824408,0.0,0.0,0.0,0.0,50.0,-0.0,-15.24,0.00230154196664,0.0,-0.00383606751517,0.0,-0.0,50.0,-0.0,0.0,253628.8,0.0,0.0,0.0,0.0,0.0,0.0
1402752343524573901,3,-10.6599767527,-0.00591572024346,-4.76996996483,-0.122189614607,17.7219868383,0.10862951003,0.034550114664,0.0,-0.0472106676951,0.0,0.135738466424,0.0,-2.4499941631,0.0,0.0131316464489,0.0,-0.00189436081074,0.0,0.00390656805027,0.0,0.0638187281752,0.0,-0.000793062140966,0.0,0.0,0.0,0.0,50.0,-0.0,-15.24,0.00230154196664,0.0,-0.00383606751517,0.0,-0.0,50.0,-0.0,0.0,253628.8,0.0,0.0,0.0,0.0,0.0,0.0
1402752343544463611,3,-10.6599767527,-0.00591572024346,-4.76996996483,-0.122189614607,17.7219868383,0.10862951003,0.034550114664,0.0,-0.0472106676951,0.0,0.135738466424,0.0,-2.4499941631,0.0,0.0131316464489,0.0,-0.00189436081074,0.0,0.00390656805027,0.0,0.0638187281752,0.0,-0.000793062140966,0.0,0.0,0.0,0.0,50.0,-0.0,-15.24,0.00230154196664,0.0,-0.00383606751517,0.0,-0.0,50.0,-0.0,0.0,253628.8,0.0,0.0,0.0,0.0,0.0,0.0
1402752343564844426,3,-10.6550173529,-0.00591572024346,-4.77133188568,-0.122189614607,17.7214582871,0.10862951003,0.0329876992561,0.0,-0.0537510837872,0.0,0.136534027867,0.0,-2.44936786225,0.0,0.0172632629097,0.0,-0.00237599605657,0.0,-0.00851951439716,0.0,0.0642530869454,0.0,-0.00408722321786,0.0,0.0,0.0,0.0,50.0,-0.0,-15.24,0.00230154196664,0.0,-0.00383606751517,0.0,-0.0,50.0,-0.0,0.0,253628.8,0.0,0.0,0.0,0.0,0.0,0.0
1402752343585700423,3,-10.6550173529,-0.00591572024346,-4.77133188568,-0.122189614607,17.7214582871,0.10862951003,0.0329876992561,0.0,-0.0537510837872,0.0,0.136534027867,0.0,-2.44936786225,0.0,0.0172632629097,0.0,-0.00237599605657,0.0,-0.00851951439716,0.0,0.0642530869454,0.0,-0.00408722321786,0.0,0.0,0.0,0.0,50.0,-0.0,-15.24,0.00230154196664,0.0,-0.00383606751517,0.0,-0.0,50.0,-0.0,0.0,253628.8,0.0,0.0,0.0,0.0,0.0,0.0
1402752343604469263,3,-10.658750734,-0.00591572024346,-4.7714719406,-0.122189614607,17.7176854256,0.10862951003,0.0171373624786,0.0,-0.0582481670974,0.0,0.137661711177,0.0,-2.44861071062,0.0,0.014228936472,0.0,-0.00127389494297,0.0,-0.0163643815684,0.0,0.0654405300791,0.0,-0.00354840654444,0.0,0.0,0.0,0.0,50.0,-0.0,-15.24,0.00230154196664,0.0,-0.00383606751517,0.0,-0.0,50.0,-0.0,0.0,253628.8,0.0,0.0,0.0,0.0,0.0,0.0
1402752343624493283,3,-10.658750734,-0.00591572024346,-4.7714719406,-0.122189614607,17.7176854256,0.10862951003,0.0171373624786,0.0,-0.0582481670974,0.0,0.137661711177,0.0,-2.44861071062,0.0,0.014228936472,0.0,-0.00127389494297,0.0,-0.0163643815684,0.0,0.0654405300791,0.0,-0.00354840654444,0.0,0.0,0.0,0.0,50.0,-0.0,-15.24,0.00230154196664,0.0,-0.00383606751517,0.0,-0.0,50.0,-0.0,0.0,253628.8,0.0,0.0,0.0,0.0,0.0,0.0
1402752343644393931,3,-10.6546416378,-0.00591572024346,-4.77017293106,-0.122189614607,17.7136205752,0.10862951003,0.0217225706787,0.0,-0.0608157099438,0.0,0.138453169095,0.0,-2.44782114919,0.0,0.0334551713808,0.0,-0.0015565108773,0.0,-0.00451737619923,0.0,0.0647429987693,0.0,0.0181716369867,0.0,0.0,0.0,0.0,50.0,-0.0,-15.24,0.00230154196664,0.0,-0.00383606751517,0.0,-0.0,50.0,-0.0,0.0,253628.8,0.0,0.0,0.0,0.0,0.0,0.0
1402752343664677147,3,-10.6546416378,-0.00591572024346,-4.77017293106,-0.122189614607,17.7136205752,0.10862951003,0.0217225706787,0.0,-0.0608157099438,0.0,0.138453169095,0.0,-2.44782114919,0.0,0.0334551713808,0.0,-0.0015565108773,0.0,-0.00451737619923,0.0,0.0647429987693,0.0,0.0181716369867,0.0,0.0,0.0,0.0,50.0,-0.0,-15.24,0.00230154196664,0.0,-0.00383606751517,0.0,-0.0,50.0,-0.0,0.0,253628.8,0.0,0.0,0.0,0.0,0.0,0.0
1402752343684545000,3,-10.6464210701,-0.00591572024346,-4.76586543901,-0.122189614607,17.7159083809,0.10862951003,0.0265677450882,0.0,-0.051533985791,0.0,0.140928538975,0.0,-2.44605451729,0.0,0.0430725613389,0.0,-0.0010215535193,0.0,-0.0219479615633,0.0,0.0623805456144,0.0,0.00365184265301,0.0,0.0,0.0,0.0,50.0,-0.0,-15.24,0.00230154196664,0.0,-0.00383606751517,0.0,-0.0,50.0,-0.0,0.0,253628.8,0.0,0.0,0.0,0.0,0.0,0.0
1402752343705167304,3,-10.6464210701,-0.00591572024346,-4.76586543901,-0.122189614607,17.7159083809,0.10862951003,0.0265677450882,0.0,-0.051533985791,0.0,0.140928538975,0.0,-2.44605451729,0.0,0.0430725613389,0.0,-0.0010215535193,0.0,-0.0219479615633,0.0,0.0623805456144,0.0,0.00365184265301,0.0,0.0,0.0,0.0,50.0,-0.0,-15.24,0.00230154196664,0.0,-0.00383606751517,0.0,-0.0,50.0,-0.0,0.0,253628.8,0.0,0.0,0.0,0.0,0.0,0.0
1402752343725282606,3,-10.6475094067,-0.00591572024346,-4.76064835648,-0.122189614607,17.6943316641,0.10862951003,0.0208574632262,0.0,-0.0544075436798,0.0,0.139180751874,0.0,-2.44464221167,0.0,0.0417209772563,0.0,-0.000627566195308,0.0,-0.0332710201722,0.0,0.0629464105977,0.0,0.00309818403849,0.0,0.0,0.0,0.0,50.0,-0.0,-15.24,0.00230154196664,0.0,-0.00383606751517,0.0,-0.0,50.0,-0.0,0.0,253628.8,0.0,0.0,0.0,0.0,0.0,0.0
1402752343744500904,3,-10.6470638158,-0.00591572024346,-4.76177820719,-0.122189614607,17.6972349526,0.10862951003,0.0251363258367,0.0,-0.0516420819549,0.0,0.139172090252,0.0,-2.44409281824,0.0,0.0304934096579,0.0,3.17377595302e-05,0.0,-0.0426199415525,0.0,0.0624532050959,0.0,-0.00341971454343,0.0,0.0,0.0,0.0,50.0,-0.0,-15.24,0.00230154196664,0.0,-0.00383606751517,0.0,-0.0,50.0,-0.0,0.0,253628.8,0.0,0.0,0.0,0.0,0.0,0.0
1402752343764555195,3,-10.6470638158,-0.00591572024346,-4.76177820719,-0.122189614607,17.6972349526,0.10862951003,0.0251363258367,0.0,-0.0516420819549,0.0,0.139172090252,0.0,-2.44409281824,0.0,0.0304934096579,0.0,3.17377595302e-05,0.0,-0.0426199415525,0.0,0.0624532050959,0.0,-0.00341971454343,0.0,0.0,0.0,0.0,50.0,-0.0,-15.24,0.00230154196664,0.0,-0.00383606751517,0.0,-0.0,50.0,-0.0,0.0,253628.8,0.0,0.0,0.0,0.0,0.0,0.0
1402752343784358016,3,-10.646122281,-0.00591572024346,-4.75417841307,-0.122189614607,17.6854623922,0.10862951003,0.0242966392527,0.0,-0.04735264827,0.0,0.138717988269,0.0,-2.44345774365,0.0,0.0242747801455,0.0,0.00119953526209,0.0,-0.0268250707646,0.0,0.0619119800552,0.0,0.00796869742412,0.0,0.0,0.0,0.0,50.0,-0.0,-15.24,0.00230154196664,0.0,-0.00383606751517,0.0,-0.0,50.0,-0.0,0.0,253628.8,0.0,0.0,0.0,0.0,0.0,0.0
1402752343804524311,3,-10.646122281,-0.00591572024346,-4.75417841307,-0.122189614607,17.6854623922,0.10862951003,0.0242966392527,0.0,-0.04735264827,0.0,0.138717988269,0.0,-2.44345774365,0.0,0.0242747801455,0.0,0.00119953526209,0.0,-0.0268250707646,0.0,0.0619119800552,0.0,0.00796869742412,0.0,0.0,0.0,0.0,50.0,-0.0,-15.24,0.00230154196664,0.0,-0.00383606751517,0.0,-0.0,50.0,-0.0,0.0,253628.8,0.0,0.0,0.0,0.0,0.0,0.0
1402752343825932537,3,-10.6451176356,-0.00591572024346,-4.75614684303,-0.122189614607,17.6910268365,0.10862951003,0.0292856679718,0.0,-0.0517991247513,0.0,0.139308644485,0.0,-2.44261739929,0.0,0.0247197330092,0.0,0.000740604995388,0.0,0.0239401771333,0.0,0.0612722407036,0.0,0.0366085032888,0.0,0.0,0.0,0.0,50.0,-0.0,-15.24,0.00230154196664,0.0,-0.00383606751517,0.0,-0.0,50.0,-0.0,0.0,253628.8,0.0,0.0,0.0,0.0,0.0,0.0
1402752343844593665,3,-10.6451176356,-0.00591572024346,-4.75614684303,-0.122189614607,17.6910268365,0.10862951003,0.0292856679718,0.0,-0.0517991247513,0.0,0.139308644485,0.0,-2.44261739929,0.0,0.0247197330092,0.0,0.000740604995388,0.0,0.0239401771333,0.0,0.0612722407036,0.0,0.0366085032888,0.0,0.0,0.0,0.0,50.0,-0.0,-15.24,0.00230154196664,0.0,-0.00383606751517,0.0,-0.0,50.0,-0.0,0.0,253628.8,0.0,0.0,0.0,0.0,0.0,0.0
1402752343864639595,3,-10.6354341795,-0.00591572024346,-4.75328701201,-0.122189614607,17.6887412228,0.10862951003,0.0270861875571,0.0,-0.0486332956927,0.0,0.139779746483,0.0,-2.44143097069,0.0,0.0304794389081,0.0,-0.000847532715418,0.0,0.0125419331998,0.0,0.0604138699403,0.0,0.00564162583791,0.0,0.0,0.0,0.0,50.0,-0.0,-15.24,0.00230154196664,0.0,-0.00383606751517,0.0,-0.0,50.0,-0.0,0.0,253628.8,0.0,0.0,0.0,0.0,0.0,0.0
1402752343884845513,3,-10.6354341795,-0.00591572024346,-4.75328701201,-0.122189614607,17.6887412228,0.10862951003,0.0270861875571,0.0,-0.0486332956927,0.0,0.139779746483,0.0,-2.44143097069,0.0,0.0304794389081,0.0,-0.000847532715418,0.0,0.0125419331998,0.0,0.0604138699403,0.0,0.00564162583791,0.0,0.0,0.0,0.0,50.0,-0.0,-15.24,0.00230154196664,0.0,-0.00383606751517,0.0,-0.0,50.0,-0.0,0.0,253628.8,0.0,0.0,0.0,0.0,0.0,0.0
1402752343904618212,3,-10.6303025202,-0.00591572024346,-4.75014974865,-0.122189614607,17.6754722242,0.10862951003,0.0221526407174,0.0,-0.0512969187503,0.0,0.137613615494,0.0,-2.44071247955,0.0,0.00557376124031,0.0,-0.00147810197573,0.0,-0.00210016863773,0.0,0.0611073485336,0.0,-0.0218549588432,0.0,0.0,0.0,0.0,50.0,-0.0,-15.24,0.00230154196664,0.0,-0.00383606751517,0.0,-0.0,50.0,-0.0,0.0,253628.8,0.0,0.0,0.0,0.0,0.0,0.0
1402752343924580982,3,-10.6303025202,-0.00591572024346,-4.75014974865,-0.122189614607,17.6754722242,0.10862951003,0.0221526407174,0.0,-0.0512969187503,0.0,0.137613615494,0.0,-2.44071247955,0.0,0.00557376124031,0.0,-0.00147810197573,0.0,-0.00210016863773,0.0,0.0611073485336,0.0,-0.0218549588432,0.0,0.0,0.0,0.0,50.0,-0.0,-15.24,0.00230154196664,0.0,-0.00383606751517,0.0,-0.0,50.0,-0.0,0.0,253628.8,0.0,0.0,0.0,0.0,0.0,0.0
1402752343944778293,3,-10.625794825,-0.00591572024346,-4.74888919716,-0.122189614607,17.674378838,0.10862951003,0.0256146604642,0.0,-0.0545847740321,0.0,0.137983596678,0.0,-2.44108483263,0.0,-0.0131512649047,0.0,-0.000597175263168,0.0,0.0162703235727,0.0,0.0621644294374,0.0,-0.0191931541763,0.0,0.0,0.0,0.0,50.0,-0.0,-15.24,0.00230154196664,0.0,-0.00383606751517,0.0,-0.0,50.0,-0.0,0.0,253628.8,0.0,0.0,0.0,0.0,0.0,0.0
1402752343964732506,3,-10.625794825,-0.00591572024346,-4.74888919716,-0.122189614607,17.674378838,0.10862951003,0.0256146604642,0.0,-0.0545847740321,0.0,0.137983596678,0.0,-2.44108483263,0.0,-0.0131512649047,0.0,-0.000597175263168,0.0,0.0162703235727,0.0,0.0621644294374,0.0,-0.0191931541763,0.0,0.0,0.0,0.0,50.0,-0.0,-15.24,0.00230154196664,0.0,-0.00383606751517,0.0,-0.0,50.0,-0.0,0.0,253628.8,0.0,0.0,0.0,0.0,0.0,0.0
1402752343984797166,3,-10.6191780191,-0.00591572024346,-4.74456937309,-0.122189614607,17.6664711063,0.10862951003,0.0333826737947,0.0,-0.0609352038722,0.0,0.137874766034,0.0,-2.44145922565,0.0,-0.00184653897878,0.0,-0.00221824114471,0.0,0.0652853621877,0.0,0.0633592254326,0.0,-0.00186707149278,0.0,0.0,0.0,0.0,50.0,-0.0,-15.24,0.00230154196664,0.0,-0.00383606751517,0.0,-0.0,50.0,-0.0,0.0,253628.8,0.0,0.0,0.0,0.0,0.0,0.0
1402752344004542627,3,-10.6191780191,-0.00591572024346,-4.74456937309,-0.122189614607,17.6664711063,0.10862951003,0.0333826737947,0.0,-0.0609352038722,0.0,0.137874766034,0.0,-2.44145922565,0.0,-0.00184653897878,0.0,-0.00221824114471,0.0,0.0652853621877,0.0,0.0633592254326,0.0,-0.00186707149278,0.0,0.0,0.0,0.0,50.0,-0.0,-15.24,0.00230154196664,0.0,-0.00383606751517,0.0,-0.0,50.0,-0.0,0.0,253628.8,0.0,0.0,0.0,0.0,0.0,0.0
1402752344024572053,3,-10.6180875807,-0.00591572024346,-4.74682784231,-0.122189614607,17.6720425343,0.10862951003,0.0241985980861,0.0,-0.0562493036159,0.0,0.137628543807,0.0,-2.44116881511,0.0,0.0126386834484,0.0,-0.0023270123477,0.0,0.0275386637409,0.0,0.0654756002316,0.0,-0.0481700115699,0.0,0.0,0.0,0.0,50.0,-0.0,-15.24,0.00230154196664,0.0,-0.00383606751517,0.0,-0.0,50.0,-0.0,0.0,253628.8,0.0,0.0,0.0,0.0,0.0,0.0
1402752344044454721,3,-10.6180875807,-0.00591572024346,-4.74682784231,-0.122189614607,17.6720425343,0.10862951003,0.0241985980861,0.0,-0.0562493036159,0.0,0.137628543807,0.0,-2.44116881511,0.0,0.0126386834484,0.0,-0.0023270123477,0.0,0.0275386637409,0.0,0.0654756002316,0.0,-0.0481700115699,0.0,0.0,0.0,0.0,50.0,-0.0,-15.24,0.00230154196664,0.0,-0.00383606751517,0.0,-0.0,50.0,-0.0,0.0,253628.8,0.0,0.0,0.0,0.0,0.0,0.0
1402752344064995133,3,-10.6184996519,-0.00591572024346,-4.74052977949,-0.122189614607,17.6600830658,0.10862951003,0.0135212353817,0.0,-0.0525445307135,0.0,0.135555814475,0.0,-2.44128710565,0.0,-0.0130430923459,0.0,-0.000620973240803,0.0,0.0170918439053,0.0,0.0684297262211,0.0,-0.0647247470137,0.0,0.0,0.0,0.0,50.0,-0.0,-15.24,0.00230154196664,0.0,-0.00383606751517,0.0,-0.0,50.0,-0.0,0.0,253628.8,0.0,0.0,0.0,0.0,0.0,0.0
1402752344084609712,3,-10.6184996519,-0.00591572024346,-4.74052977949,-0.122189614607,17.6600830658,0.10862951003,0.0135212353817,0.0,-0.0525445307135,0.0,0.135555814475,0.0,-2.44128710565,0.0,-0.0130430923459,0.0,-0.000620973240803,0.0,0.0170918439053,0.0,0.0684297262211,0.0,-0.0647247470137,0.0,0.0,0.0,0.0,50.0,-0.0,-15.24,0.00230154196664,0.0,-0.00383606751517,0.0,-0.0,50.0,-0.0,0.0,253628.8,0.0,0.0,0.0,0.0,0.0,0.0
1402752344104657278,3,-10.6083896904,-0.00591572024346,-4.73456455276,-0.122189614607,17.6471318903,0.10862951003,0.0308060444805,0.0,-0.0539908021205,0.0,0.133741932965,0.0,-2.44225587825,0.0,-0.0266689308323,0.0,-0.0011957970756,0.0,0.0433963495002,0.0,0.0701484309589,0.0,-0.0357441704547,0.0,0.0,0.0,0.0,50.0,-0.0,-15.24,0.00230154196664,0.0,-0.00383606751517,0.0,-0.0,50.0,-0.0,0.0,253628.8,0.0,0.0,0.0,0.0,0.0,0.0
1402752344124562665,3,-10.6083896904,-0.00591572024346,-4.73456455276,-0.122189614607,17.6471318903,0.10862951003,0.0308060444805,0.0,-0.0539908021205,0.0,0.133741932965,0.0,-2.44225587825,0.0,-0.0266689308323,0.0,-0.0011957970756,0.0,0.0433963495002,0.0,0.0701484309589,0.0,-0.0357441704547,0.0,0.0,0.0,0.0,50.0,-0.0,-15.24,0.00230154196664,0.0,-0.00383606751517,0.0,-0.0,50.0,-0.0,0.0,253628.8,0.0,0.0,0.0,0.0,0.0,0.0
1402752344144867738,3,-10.6070989905,-0.00591572024346,-4.72819045607,-0.122189614607,17.6424961068,0.10862951003,0.019860224195,0.0,-0.0455401679407,0.0,0.135007535501,0.0,-2.44323177675,0.0,-0.0163387621419,0.0,-4.95890043789e-05,0.0,0.0360811032198,0.0,0.0727429128717,0.0,-0.0329999793703,0.0,0.0,0.0,0.0,50.0,-0.0,-15.24,0.00230154196664,0.0,-0.00383606751517,0.0,-0.0,50.0,-0.0,0.0,253628.8,0.0,0.0,0.0,0.0,0.0,0.0
1402752344164506383,3,-10.6070989905,-0.00591572024346,-4.72819045607,-0.122189614607,17.6424961068,0.10862951003,0.019860224195,0.0,-0.0455401679407,0.0,0.135007535501,0.0,-2.44323177675,0.0,-0.0163387621419,0.0,-4.95890043789e-05,0.0,0.0360811032198,0.0,0.0727429128717,0.0,-0.0329999793703,0.0,0.0,0.0,0.0,50.0,-0.0,-15.24,0.00230154196664,0.0,-0.00383606751517,0.0,-0.0,50.0,-0.0,0.0,253628.8,0.0,0.0,0.0,0.0,0.0,0.0
1402752344184590497,3,-10.599827788,-0.00591572024346,-4.72552239346,-0.122189614607,17.6395061943,0.10862951003,0.0210520713037,0.0,-0.0446456653146,0.0,0.135979022044,0.0,-2.4437498193,0.0,-0.0068818031955,0.0,-0.000420701078736,0.0,0.0171992030797,0.0,0.0745944243693,0.0,-0.02346747792,0.0,0.0,0.0,0.0,50.0,-0.0,-15.24,0.00230154196664,0.0,-0.00383606751517,0.0,-0.0,50.0,-0.0,0.0,253628.8,0.0,0.0,0.0,0.0,0.0,0.0
1402752344204670172,3,-10.599827788,-0.00591572024346,-4.72552239346,-0.122189614607,17.6395061943,0.10862951003,0.0210520713037,0.0,-0.0446456653146,0.0,0.135979022044,0.0,-2.4437498193,0.0,-0.0068818031955,0.0,-0.000420701078736,0.0,0.0171992030797,0.0,0.0745944243693,0.0,-0.02346747792,0.0,0.0,0.0,0.0,50.0,-0.0,-15.24,0.00230154196664,0.0,-0.00383606751517,0.0,-0.0,50.0,-0.0,0.0,253628.8,0.0,0.0,0.0,0.0,0.0,0.0
1402752344224687252,3,-10.587181748,-0.00591572024346,-4.72108368163,-0.122189614607,17.6314984052,0.10862951003,0.0323252378628,0.0,-0.0488801863144,0.0,0.139836029063,0.0,-2.44410139253,0.0,-0.00424436906302,0.0,-0.00141450091722,0.0,0.0220149804658,0.0,0.07522796537,0.0,-0.0153903556821,0.0,0.0,0.0,0.0,50.0,-0.0,-15.24,0.00230154196664,0.0,-0.00383606751517,0.0,-0.0,50.0,-0.0,0.0,253628.8,0.0,0.0,0.0,0.0,0.0,0.0
1402752344245377393,3,-10.587181748,-0.00591572024346,-4.72108368163,-0.122189614607,17.6314984052,0.10862951003,0.0323252378628,0.0,-0.0488801863144,0.0,0.139836029063,0.0,-2.44410139253,0.0,-0.00424436906302,0.0,-0.00141450091722,0.0,0.0220149804658,0.0,0.07522796537,0.0,-0.0153903556821,0.0,0.0,0.0,0.0,50.0,-0.0,-15.24,0.00230154196664,0.0,-0.00383606751517,0.0,-0.0,50.0,-0.0,0.0,253628.8,0.0,0.0,0.0,0.0,0.0,0.0
1402752344264585549,3,-10.5783039104,-0.00591572024346,-4.7138016245,-0.122189614607,17.6137784603,0.10862951003,0.033926305557,0.0,-0.0569195462517,0.0,0.14273217125,0.0,-2.44405128668,0.0,0.0110961921651,0.0,-0.00213701626024,0.0,0.0136885971861,0.0,0.0761836715862,0.0,-0.0046813821843,0.0,0.0,0.0,0.0,50.0,-0.0,-15.24,0.00230154196664,0.0,-0.00383606751517,0.0,-0.0,50.0,-0.0,0.0,253628.8,0.0,0.0,0.0,0.0,0.0,0.0
1402752344284523078,3,-10.5783039104,-0.00591572024346,-4.7138016245,-0.122189614607,17.6137784603,0.10862951003,0.033926305557,0.0,-0.0569195462517,0.0,0.14273217125,0.0,-2.44405128668,0.0,0.0110961921651,0.0,-0.00213701626024,0.0,0.0136885971861,0.0,0.0761836715862,0.0,-0.0046813821843,0.0,0.0,0.0,0.0,50.0,-0.0,-15.24,0.00230154196664,0.0,-0.00383606751517,0.0,-0.0,50.0,-0.0,0.0,253628.8,0.0,0.0,0.0,0.0,0.0,0.0
1402752344304509518,3,-10.5709296549,-0.00591572024346,-4.70613512081,-0.122189614607,17.6026087933,0.10862951003,0.0307749772668,0.0,-0.0612579458333,0.0,0.145223424202,0.0,-2.44337692735,0.0,0.0201441550544,0.0,-0.00218113805338,0.0,0.00458701704077,0.0,0.0760719403241,0.0,0.024575451105,0.0,0.0,0.0,0.0,50.0,-0.0,-15.24,0.00230154196664,0.0,-0.00383606751517,0.0,-0.0,50.0,-0.0,0.0,253628.8,0.0,0.0,0.0,0.0,0.0,0.0
1402752344325113185,3,-10.5709296549,-0.00591572024346,-4.70613512081,-0.122189614607,17.6026087933,0.10862951003,0.0307749772668,0.0,-0.0612579458333,0.0,0.145223424202,0.0,-2.44337692735,0.0,0.0201441550544,0.0,-0.00218113805338,0.0,0.00458701704077,0.0,0.0760719403241,0.0,0.024575451105,0.0,0.0,0.0,0.0,50.0,-0.0,-15.24,0.00230154196664,0.0,-0.00383606751517,0.0,-0.0,50.0,-0.0,0.0,253628.8,0.0,0.0,0.0,0.0,0.0,0.0
1402752344344606787,3,-10.5703437607,-0.00591572024346,-4.70743496083,-0.122189614607,17.6057603287,0.10862951003,0.0286784999765,0.0,-0.0632838642599,0.0,0.147659482852,0.0,-2.44304159611,0.0,0.0202177114931,0.0,-0.00237712712447,0.0,0.000460918871512,0.0,0.0757465458931,0.0,0.0241417796374,0.0,0.0,0.0,0.0,50.0,-0.0,-15.24,0.00230154196664,0.0,-0.00383606751517,0.0,-0.0,50.0,-0.0,0.0,253628.8,0.0,0.0,0.0,0.0,0.0,0.0
1402752344364521661,3,-10.5703437607,-0.00591572024346,-4.70743496083,-0.122189614607,17.6057603287,0.10862951003,0.0286784999765,0.0,-0.0632838642599,0.0,0.147659482852,0.0,-2.44304159611,0.0,0.0202177114931,0.0,-0.00237712712447,0.0,0.000460918871512,0.0,0.0757465458931,0.0,0.0241417796374,0.0,0.0,0.0,0.0,50.0,-0.0,-15.24,0.00230154196664,0.0,-0.00383606751517,0.0,-0.0,50.0,-0.0,0.0,253628.8,0.0,0.0,0.0,0.0,0.0,0.0
1402752344384520268,3,-10.5665135579,-0.00591572024346,-4.70010883114,-0.122189614607,17.5860764937,0.10862951003,0.0174337972708,0.0,-0.0676733711273,0.0,0.147965111424,0.0,-2.44226770047,0.0,0.0148552121183,0.0,-0.00263206748544,0.0,-0.0111924527844,0.0,0.0755539695552,0.0,0.0251885654021,0.0,0.0,0.0,0.0,50.0,-0.0,-15.24,0.00230154196664,0.0,-0.00383606751517,0.0,-0.0,50.0,-0.0,0.0,253628.8,0.0,0.0,0.0,0.0,0.0,0.0
1402752344404668008,3,-10.5665135579,-0.00591572024346,-4.70010883114,-0.122189614607,17.5860764937,0.10862951003,0.0174337972708,0.0,-0.0676733711273,0.0,0.147965111424,0.0,-2.44226770047,0.0,0.0148552121183,0.0,-0.00263206748544,0.0,-0.0111924527844,0.0,0.0755539695552,0.0,0.0251885654021,0.0,0.0,0.0,0.0,50.0,-0.0,-15.24,0.00230154196664,0.0,-0.00383606751517,0.0,-0.0,50.0,-0.0,0.0,253628.8,0.0,0.0,0.0,0.0,0.0,0.0
1402752344424518392,3,-10.5519252696,-0.00591572024346,-4.69711742056,-0.122189614607,17.5741791627,0.10862951003,0.0298311816321,0.0,-0.0758472430264,0.0,0.149581570926,0.0,-2.44165411523,0.0,0.016038057114,0.0,-0.00471519279171,0.0,-0.0105429642753,0.0,0.0739827516884,0.0,0.029452142711,0.0,0.0,0.0,0.0,50.0,-0.0,-15.24,0.00230154196664,0.0,-0.00383606751517,0.0,-0.0,50.0,-0.0,0.0,253628.8,0.0,0.0,0.0,0.0,0.0,0.0
1402752344444730373,3,-10.5519252696,-0.00591572024346,-4.69711742056,-0.122189614607,17.5741791627,0.10862951003,0.0298311816321,0.0,-0.0758472430264,0.0,0.149581570926,0.0,-2.44165411523,0.0,0.016038057114,0.0,-0.00471519279171,0.0,-0.0105429642753,0.0,0.0739827516884,0.0,0.029452142711,0.0,0.0,0.0,0.0,50.0,-0.0,-15.24,0.00230154196664,0.0,-0.00383606751517,0.0,-0.0,50.0,-0.0,0.0,253628.8,0.0,0.0,0.0,0.0,0.0,0.0
1402752344464607051,3,-10.5507181631,-0.00591572024346,-4.70014003378,-0.122189614607,17.5802727604,0.10862951003,0.0292346557788,0.0,-0.0747267118512,0.0,0.152197010379,0.0,-2.44113655833,0.0,0.0168078650717,0.0,-0.00493250996417,0.0,-0.0205712272271,0.0,0.0726809012193,0.0,0.024602217425,0.0,0.0,0.0,0.0,50.0,-0.0,-15.24,0.00230154196664,0.0,-0.00383606751517,0.0,-0.0,50.0,-0.0,0.0,253628.8,0.0,0.0,0.0,0.0,0.0,0.0
1402752344484525816,3,-10.5507181631,-0.00591572024346,-4.70014003378,-0.122189614607,17.5802727604,0.10862951003,0.0292346557788,0.0,-0.0747267118512,0.0,0.152197010379,0.0,-2.44113655833,0.0,0.0168078650717,0.0,-0.00493250996417,0.0,-0.0205712272271,0.0,0.0726809012193,0.0,0.024602217425,0.0,0.0,0.0,0.0,50.0,-0.0,-15.24,0.00230154196664,0.0,-0.00383606751517,0.0,-0.0,50.0,-0.0,0.0,253628.8,0.0,0.0,0.0,0.0,0.0,0.0
1402752344504572382,3,-10.5494986008,-0.00591572024346,-4.69066225151,-0.122189614607,17.5643742008,0.10862951003,0.0139397079252,0.0,-0.070912401949,0.0,0.152396566778,0.0,-2.44078951472,0.0,0.0132130500896,0.0,-0.00357566243375,0.0,-0.0127286344006,0.0,0.0723715644427,0.0,0.0227394356741,0.0,0.0,0.0,0.0,50.0,-0.0,-15.24,0.00230154196664,0.0,-0.00383606751517,0.0,-0.0,50.0,-0.0,0.0,253628.8,0.0,0.0,0.0,0.0,0.0,0.0
1402752344525776338,3,-10.5494986008,-0.00591572024346,-4.69066225151,-0.122189614607,17.5643742008,0.10862951003,0.0139397079252,0.0,-0.070912401949,0.0,0.152396566778,0.0,-2.44078951472,0.0,0.0132130500896,0.0,-0.00357566243375,0.0,-0.0127286344006,0.0,0.0723715644427,0.0,0.0227394356741,0.0,0.0,0.0,0.0,50.0,-0.0,-15.24,0.00230154196664,0.0,-0.00383606751517,0.0,-0.0,50.0,-0.0,0.0,253628.8,0.0,0.0,0.0,0.0,0.0,0.0
1402752344544610941,3,-10.5489706676,-0.00591572024346,-4.69342671341,-0.122189614607,17.5703598652,0.10862951003,0.0131478172836,0.0,-0.0715951354771,0.0,0.153515503782,0.0,-2.44037856016,0.0,0.00640478256724,0.0,-0.00368152795068,0.0,-0.0153766224842,0.0,0.0715572461824,0.0,0.0154754248981,0.0,0.0,0.0,0.0,50.0,-0.0,-15.24,0.00230154196664,0.0,-0.00383606751517,0.0,-0.0,50.0,-0.0,0.0,253628.8,0.0,0.0,0.0,0.0,0.0,0.0
1402752344564535292,3,-10.5489706676,-0.00591572024346,-4.69342671341,-0.122189614607,17.5703598652,0.10862951003,0.0131478172836,0.0,-0.0715951354771,0.0,0.153515503782,0.0,-2.44037856016,0.0,0.00640478256724,0.0,-0.00368152795068,0.0,-0.0153766224842,0.0,0.0715572461824,0.0,0.0154754248981,0.0,0.0,0.0,0.0,50.0,-0.0,-15.24,0.00230154196664,0.0,-0.00383606751517,0.0,-0.0,50.0,-0.0,0.0,253628.8,0.0,0.0,0.0,0.0,0.0,0.0
1402752344584609049,3,-10.5345940095,-0.00591572024346,-4.68130811027,-0.122189614607,17.5558601989,0.10862951003,0.021703704941,0.0,-0.0627072869225,0.0,0.154007512907,0.0,-2.43987465766,0.0,0.0144440952021,0.0,-0.0035530662026,0.0,-0.00985977923214,0.0,0.0697626054396,0.0,0.00636406646753,0.0,0.0,0.0,0.0,50.0,-0.0,-15.24,0.00230154196664,0.0,-0.00383606751517,0.0,-0.0,50.0,-0.0,0.0,253628.8,0.0,0.0,0.0,0.0,0.0,0.0
1402752344605572214,3,-10.5345940095,-0.00591572024346,-4.68130811027,-0.122189614607,17.5558601989,0.10862951003,0.021703704941,0.0,-0.0627072869225,0.0,0.154007512907,0.0,-2.43987465766,0.0,0.0144440952021,0.0,-0.0035530662026,0.0,-0.00985977923214,0.0,0.0697626054396,0.0,0.00636406646753,0.0,0.0,0.0,0.0,50.0,-0.0,-15.24,0.00230154196664,0.0,-0.00383606751517,0.0,-0.0,50.0,-0.0,0.0,253628.8,0.0,0.0,0.0,0.0,0.0,0.0
1402752344624484756,3,-10.5280313719,-0.00591572024346,-4.6736054958,-0.122189614607,17.5317141738,0.10862951003,0.0185788000005,0.0,-0.0708172197891,0.0,0.150944872031,0.0,-2.43919424358,0.0,0.0171862471901,0.0,-0.00404500344101,0.0,-0.00890183904468,0.0,0.0703029620091,0.0,-0.00211609450919,0.0,0.0,0.0,0.0,50.0,-0.0,-15.24,0.00230154196664,0.0,-0.00383606751517,0.0,-0.0,50.0,-0.0,0.0,253628.8,0.0,0.0,0.0,0.0,0.0,0.0
1402752344644484724,3,-10.5280313719,-0.00591572024346,-4.6736054958,-0.122189614607,17.5317141738,0.10862951003,0.0185788000005,0.0,-0.0708172197891,0.0,0.150944872031,0.0,-2.43919424358,0.0,0.0171862471901,0.0,-0.00404500344101,0.0,-0.00890183904468,0.0,0.0703029620091,0.0,-0.00211609450919,0.0,0.0,0.0,0.0,50.0,-0.0,-15.24,0.000767318410122,0.0,-0.00383606751517,0.0,-0.0,50.0,-0.0,0.0,253628.8,0.0,0.0,0.0,0.0,0.0,0.0
1402752344665239817,3,-10.5144849553,-0.00591572024346,-4.66640929433,-0.122189614607,17.5252066824,0.10862951003,0.0294425016774,0.0,-0.0661966875457,0.0,0.150640032155,0.0,-2.43852526949,0.0,0.0155311308861,0.0,-0.00380044094584,0.0,-0.00168062545015,0.0,0.0693729591446,0.0,-0.0143751577988,0.0,0.0,0.0,0.0,50.0,-0.0,-15.24,0.000767318410122,0.0,-0.00383606751517,0.0,-0.0,50.0,-0.0,0.0,253628.8,0.0,0.0,0.0,0.0,0.0,0.0
1402752344684380863,3,-10.5144849553,-0.00591572024346,-4.66640929433,-0.122189614607,17.5252066824,0.10862951003,0.0294425016774,0.0,-0.0661966875457,0.0,0.150640032155,0.0,-2.43852526949,0.0,0.0155311308861,0.0,-0.00380044094584,0.0,-0.00168062545015,0.0,0.0693729591446,0.0,-0.0143751577988,0.0,0.0,0.0,0.0,50.0,-0.0,-15.24,0.00230154196664,0.0,-0.00383606751517,0.0,-0.0,50.0,-0.0,0.0,253628.8,0.0,0.0,0.0,0.0,0.0,0.0
1402752344704793520,3,-10.4979003481,-0.00591572024346,-4.6531660766,-0.122189614607,17.5083948209,0.10862951003,0.0302947215048,0.0,-0.0629093579368,0.0,0.149329669233,0.0,-2.437601085,0.0,0.0197436870773,0.0,-0.00287863904645,0.0,-0.00247048839525,0.0,0.0696002139577,0.0,-0.0205618958481,0.0,0.0,0.0,0.0,50.0,-0.0,-15.24,0.00230154196664,0.0,-0.00383606751517,0.0,-0.0,50.0,-0.0,0.0,253628.8,0.0,0.0,0.0,0.0,0.0,0.0
1402752344725114031,3,-10.4979003481,-0.00591572024346,-4.6531660766,-0.122189614607,17.5083948209,0.10862951003,0.0302947215048,0.0,-0.0629093579368,0.0,0.149329669233,0.0,-2.437601085,0.0,0.0197436870773,0.0,-0.00287863904645,0.0,-0.00247048839525,0.0,0.0696002139577,0.0,-0.0205618958481,0.0,0.0,0.0,0.0,50.0,-0.0,-15.24,0.00230154196664,0.0,-0.00383606751517,0.0,-0.0,50.0,-0.0,0.0,253628.8,0.0,0.0,0.0,0.0,0.0,0.0
1402752344744560806,3,-10.4972202584,-0.00591572024346,-4.65441454968,-0.122189614607,17.511410416,0.10862951003,0.0306584797211,0.0,-0.0632792121777,0.0,0.149016758912,0.0,-2.43714239439,0.0,0.0210023399058,0.0,-0.00260692893191,0.0,-0.00306664634796,0.0,0.0699247814905,0.0,-0.0213647679591,0.0,0.0,0.0,0.0,50.0,-0.0,-15.24,0.00230154196664,0.0,-0.00383606751517,0.0,-0.0,50.0,-0.0,0.0,253628.8,0.0,0.0,0.0,0.0,0.0,0.0
1402752344764482865,3,-10.4972202584,-0.00591572024346,-4.65441454968,-0.122189614607,17.511410416,0.10862951003,0.0306584797211,0.0,-0.0632792121777,0.0,0.149016758912,0.0,-2.43714239439,0.0,0.0210023399058,0.0,-0.00260692893191,0.0,-0.00306664634796,0.0,0.0699247814905,0.0,-0.0213647679591,0.0,0.0,0.0,0.0,50.0,-0.0,-15.24,0.00230154196664,50.0,-0.00383606751517,0.0,-0.0,50.0,-0.0,0.0,253628.8,0.0,0.0,0.0,0.0,0.0,0.0
1402752344785044466,3,-10.4975637074,-0.00591572024346,-4.6444772273,-0.122189614607,17.4959101485,0.10862951003,0.0128413606358,0.0,-0.0600080899619,0.0,0.147018059046,0.0,-2.43619200837,0.0,0.0213698371042,0.0,-0.000401696698712,0.0,-0.00286547581269,0.0,0.0717083107561,0.0,-0.0162195621317,0.0,0.0,0.0,0.0,50.0,-0.0,-15.24,0.00230154196664,50.0,-0.00383606751517,0.0,-0.0,50.0,-0.0,0.0,253628.8,0.0,0.0,0.0,0.0,0.0,0.0
1402752344804542568,3,-10.4975637074,-0.00591572024346,-4.6444772273,-0.122189614607,17.4959101485,0.10862951003,0.0128413606358,0.0,-0.0600080899619,0.0,0.147018059046,0.0,-2.43619200837,0.0,0.0213698371042,0.0,-0.000401696698712,0.0,-0.00286547581269,0.0,0.0717083107561,0.0,-0.0162195621317,0.0,0.0,0.0,0.0,50.0,-0.0,-15.24,0.00230154196664,50.0,-0.00383606751517,0.0,-0.0,50.0,-0.0,0.0,253628.8,0.0,0.0,0.0,0.0,0.0,0.0
1402752344824270745,3,-10.4837111545,-0.00591572024346,-4.63559763919,-0.122189614607,17.4771198265,0.10862951003,0.0251350138543,0.0,-0.0624647903371,0.0,0.144972440197,0.0,-2.43535987092,0.0,0.0287663625835,0.0,-0.000873074500079,0.0,0.00198859964689,0.0,0.0716067120855,0.0,-0.019807901942,0.0,0.0,0.0,0.0,50.0,-0.0,-15.24,0.00230154196664,50.0,-0.00383606751517,0.0,-0.0,50.0,-0.0,0.0,253628.8,0.0,0.0,0.0,0.0,0.0,0.0
1402752344844424364,3,-10.4837111545,-0.00591572024346,-4.63559763919,-0.122189614607,17.4771198265,0.10862951003,0.0251350138543,0.0,-0.0624647903371,0.0,0.144972440197,0.0,-2.43535987092,0.0,0.0287663625835,0.0,-0.000873074500079,0.0,0.00198859964689,0.0,0.0716067120855,0.0,-0.019807901942,0.0,0.0,0.0,0.0,50.0,-0.0,-15.24,0.00230154196664,50.0,-0.00383606751517,0.0,-0.0,50.0,-0.0,0.0,253628.8,0.0,0.0,0.0,0.0,0.0,0.0
1402752344864436541,3,-10.4826328285,-0.00591572024346,-4.6380137723,-0.122189614607,17.4826828334,0.10862951003,0.0271025935215,0.0,-0.0642978399482,0.0,0.144755885843,0.0,-2.43465600445,0.0,0.0169050880938,0.0,-0.000395953915862,0.0,-0.000475831454058,0.0,0.0720906708934,0.0,-0.0149264487394,0.0,0.0,0.0,0.0,50.0,-0.0,-15.24,0.00230154196664,50.0,-0.00383606751517,0.0,-0.0,50.0,-0.0,0.0,253628.8,0.0,0.0,0.0,0.0,0.0,0.0
1402752344885205601,3,-10.4826328285,-0.00591572024346,-4.6380137723,-0.122189614607,17.4826828334,0.10862951003,0.0271025935215,0.0,-0.0642978399482,0.0,0.144755885843,0.0,-2.43465600445,0.0,0.0169050880938,0.0,-0.000395953915862,0.0,-0.000475831454058,0.0,0.0720906708934,0.0,-0.0149264487394,0.0,0.0,0.0,0.0,50.0,-0.0,-15.24,0.00230154196664,50.0,-0.00383606751517,0.0,-0.0,50.0,-0.0,0.0,253628.8,0.0,0.0,0.0,0.0,0.0,0.0
1402752344904487078,3,-10.4770872578,-0.00591572024346,-4.63589336855,-0.122189614607,17.4802393572,0.10862951003,0.0203611612945,0.0,-0.0671459758856,0.0,0.144750267903,0.0,-2.43383633474,0.0,0.0180671801065,0.0,0.000267727907895,0.0,-0.00123550111129,0.0,0.0729909368496,0.0,-0.00583373494479,0.0,0.0,0.0,0.0,50.0,-0.0,-15.24,0.00230154196664,50.0,-0.00383606751517,0.0,-0.0,50.0,-0.0,0.0,253628.8,0.0,0.0,0.0,0.0,0.0,0.0
1402752344924212735,3,-10.4770872578,-0.00591572024346,-4.63589336855,-0.122189614607,17.4802393572,0.10862951003,0.0203611612945,0.0,-0.0671459758856,0.0,0.144750267903,0.0,-2.43383633474,0.0,0.0180671801065,0.0,0.000267727907895,0.0,-0.00123550111129,0.0,0.0729909368496,0.0,-0.00583373494479,0.0,0.0,0.0,0.0,50.0,-0.0,-15.24,0.00230154196664,50.0,-0.00383606751517,0.0,-0.0,50.0,-0.0,0.0,253628.8,0.0,0.0,0.0,0.0,0.0,0.0
