rosbagTimestamp,control_method,x_current,x_desired,y_current,y_desired,z_current,z_desired,x_velocity_current,x_velocity_desired,y_velocity_current,y_velocity_desired,z_velocity_current,z_velocity_desired,yaw_current,yaw_desired,yaw_velocity_current,yaw_velocity_desired,roll_current,roll_desired,roll_velocity_current,roll_velocity_desired,pitch_current,pitch_desired,pitch_velocity_current,pitch_velocity_desired,required_force_x,required_force_y,required_moment_z,resultant_force_x,resultant_force_y,resultant_moment_z,current_port_servo_angle,current_port_thruster_force,current_starboard_servo_angle,current_starboard_thruster_force,estimated_port_servo_angle,estimated_port_thruster_force,estimated_starboard_servo_angle,estimated_starboard_thruster_force,cost_value,step,user_defined_1,user_defined_2,user_defined_3,user_defined_4,user_defined_5
1402754184971759698,3,-19.7400858651,-0.00591572024346,-20.8776634047,-0.122189614607,70.6805895876,0.10862951003,0.0114725626172,0.0,-0.0213045963346,0.0,0.112953454587,0.0,1.23554362713,0.0,0.000730099163007,0.0,-0.000423636851096,0.0,0.00109193761533,0.0,0.0701653365871,0.0,-0.000481639202384,0.0,0.0,0.0,0.0,-25.0,0.0,7.62,0.00230154196664,0.0,-0.00383606751517,0.0,-0.0,-25.0,-0.0,0.0,63407.2000001,0.0,0.0,0.0,0.0,0.0,0.0
1402754184991350607,3,-19.7428479121,-0.00591572024346,-20.88346027,-0.122189614607,70.681449437,0.10862951003,0.0173244000582,0.0,-0.0223504500872,0.0,0.10594785355,0.0,1.23549762534,0.0,0.000338041119026,0.0,0.000537385247723,0.0,-0.00123248847842,0.0,0.0701098396721,0.0,0.00123737662416,0.0,0.0,0.0,0.0,-25.0,0.0,7.62,0.00230154196664,0.0,-0.00383606751517,0.0,-0.0,-25.0,-0.0,0.0,63407.2000001,0.0,0.0,0.0,0.0,0.0,0.0
1402754185011669535,3,-19.7428479121,-0.00591572024346,-20.88346027,-0.122189614607,70.681449437,0.10862951003,0.0173244000582,0.0,-0.0223504500872,0.0,0.10594785355,0.0,1.23549762534,0.0,0.000338041119026,0.0,0.000537385247723,0.0,-0.00123248847842,0.0,0.0701098396721,0.0,0.00123737662416,0.0,0.0,0.0,0.0,-25.0,0.0,7.62,0.00230154196664,0.0,-0.00383606751517,0.0,-0.0,-25.0,-0.0,0.0,63407.2000001,0.0,0.0,0.0,0.0,0.0,0.0
1402754185031899240,3,-19.742131084,-0.00591572024346,-20.8843279529,-0.122189614607,70.6857696722,0.10862951003,0.0184174647588,0.0,-0.0222649843821,0.0,0.105004659653,0.0,1.23555841706,0.0,0.00251641146929,0.0,0.000535996928117,0.0,-0.00480356717191,0.0,0.0702368206344,0.0,-0.000287455810455,0.0,0.0,0.0,0.0,-25.0,0.0,7.62,0.00230154196664,0.0,-0.00383606751517,0.0,-0.0,-25.0,-0.0,0.0,63407.2000001,0.0,0.0,0.0,0.0,0.0,0.0
1402754185051098126,3,-19.742131084,-0.00591572024346,-20.8843279529,-0.122189614607,70.6857696722,0.10862951003,0.0184174647588,0.0,-0.0222649843821,0.0,0.105004659653,0.0,1.23555841706,0.0,0.00251641146929,0.0,0.000535996928117,0.0,-0.00480356717191,0.0,0.0702368206344,0.0,-0.000287455810455,0.0,0.0,0.0,0.0,-25.0,0.0,7.62,0.00230154196664,0.0,-0.00383606751517,0.0,-0.0,-25.0,-0.0,0.0,63407.2000001,0.0,0.0,0.0,0.0,0.0,0.0
1402754185071211445,3,-19.7394714324,-0.00591572024346,-20.8984777677,-0.122189614607,70.7230461783,0.10862951003,0.0264501671125,0.0,-0.0238841176723,0.0,0.109624197751,0.0,1.23556834022,0.0,0.00513380055181,0.0,0.00121937957095,0.0,-0.00762367180671,0.0,0.0706007642759,0.0,0.013086124146,0.0,0.0,0.0,0.0,-25.0,0.0,7.62,0.00230154196664,0.0,-0.00383606751517,0.0,-0.0,-25.0,-0.0,0.0,63407.2000001,0.0,0.0,0.0,0.0,0.0,0.0
1402754185091303759,3,-19.7394714324,-0.00591572024346,-20.8984777677,-0.122189614607,70.7230461783,0.10862951003,0.0264501671125,0.0,-0.0238841176723,0.0,0.109624197751,0.0,1.23556834022,0.0,0.00513380055181,0.0,0.00121937957095,0.0,-0.00762367180671,0.0,0.0706007642759,0.0,0.013086124146,0.0,0.0,0.0,0.0,-25.0,0.0,7.62,0.00230154196664,0.0,-0.00383606751517,0.0,-0.0,-25.0,-0.0,0.0,63407.2000001,0.0,0.0,0.0,0.0,0.0,0.0
1402754185111118955,3,-19.7493661774,-0.00591572024346,-20.9170435528,-0.122189614607,70.7513974114,0.10862951003,0.0177924007092,0.0,-0.0258401021228,0.0,0.104927535256,0.0,1.23551831704,0.0,-0.000240956497676,0.0,0.000627596377365,0.0,-0.0079725133461,0.0,0.0706080190109,0.0,0.00237005771291,0.0,0.0,0.0,0.0,-25.0,0.0,7.62,0.00230154196664,0.0,-0.00383606751517,0.0,-0.0,-25.0,-0.0,0.0,63407.2000001,0.0,0.0,0.0,0.0,0.0,0.0
1402754185131983697,3,-19.7493661774,-0.00591572024346,-20.9170435528,-0.122189614607,70.7513974114,0.10862951003,0.0177924007092,0.0,-0.0258401021228,0.0,0.104927535256,0.0,1.23551831704,0.0,-0.000240956497676,0.0,0.000627596377365,0.0,-0.0079725133461,0.0,0.0706080190109,0.0,0.00237005771291,0.0,0.0,0.0,0.0,-25.0,0.0,7.62,0.00230154196664,0.0,-0.00383606751517,0.0,-0.0,-25.0,-0.0,0.0,63407.2000001,0.0,0.0,0.0,0.0,0.0,0.0
1402754185151071677,3,-19.7489793521,-0.00591572024346,-20.917530969,-0.122189614607,70.7534673454,0.10862951003,0.0177162911996,0.0,-0.025830735332,0.0,0.105270970146,0.0,1.23548001435,0.0,-0.00359153693414,0.0,0.000686634246554,0.0,-0.00742829527252,0.0,0.070796884773,0.0,0.00427418319522,0.0,0.0,0.0,0.0,-25.0,0.0,7.62,0.00230154196664,0.0,-0.00383606751517,0.0,-0.0,-25.0,-0.0,0.0,63407.2000001,0.0,0.0,0.0,0.0,0.0,0.0
1402754185171202800,3,-19.7489793521,-0.00591572024346,-20.917530969,-0.122189614607,70.7534673454,0.10862951003,0.0177162911996,0.0,-0.025830735332,0.0,0.105270970146,0.0,1.23548001435,0.0,-0.00359153693414,0.0,0.000686634246554,0.0,-0.00742829527252,0.0,0.070796884773,0.0,0.00427418319522,0.0,0.0,0.0,0.0,-25.0,0.0,7.62,0.00230154196664,0.0,-0.00383606751517,0.0,-0.0,-25.0,-0.0,0.0,63407.2000001,0.0,0.0,0.0,0.0,0.0,0.0
1402754185191883697,3,-19.74990941,-0.00591572024346,-20.922981904,-0.122189614607,70.7734181308,0.10862951003,0.0236938797763,0.0,-0.0121473969064,0.0,0.103684741181,0.0,1.23526398021,0.0,-0.000365393361817,0.0,0.000873279952258,0.0,-0.00434628196799,0.0,0.072986719583,0.0,-0.000309926640039,0.0,0.0,0.0,0.0,-25.0,0.0,7.62,0.00230154196664,0.0,-0.00383606751517,0.0,-0.0,-25.0,-0.0,0.0,63407.2000001,0.0,0.0,0.0,0.0,0.0,0.0
1402754185211133338,3,-19.74990941,-0.00591572024346,-20.922981904,-0.122189614607,70.7734181308,0.10862951003,0.0236938797763,0.0,-0.0121473969064,0.0,0.103684741181,0.0,1.23526398021,0.0,-0.000365393361817,0.0,0.000873279952258,0.0,-0.00434628196799,0.0,0.072986719583,0.0,-0.000309926640039,0.0,0.0,0.0,0.0,-25.0,0.0,7.62,0.00230154196664,0.0,-0.00383606751517,0.0,-0.0,-25.0,-0.0,0.0,63407.2000001,0.0,0.0,0.0,0.0,0.0,0.0
1402754185231125524,3,-19.7560197164,-0.00591572024346,-20.938418814,-0.122189614607,70.8049349532,0.10862951003,0.0157494147584,0.0,-0.0168322327034,0.0,0.107415529853,0.0,1.23523802764,0.0,0.00116421131239,0.0,0.000123424104644,0.0,-0.00591441348622,0.0,0.0724438044959,0.0,0.0166563528824,0.0,0.0,0.0,0.0,-25.0,0.0,7.62,0.00230154196664,0.0,-0.00383606751517,0.0,-0.0,-25.0,-0.0,0.0,63407.2000001,0.0,0.0,0.0,0.0,0.0,0.0
1402754185251202751,3,-19.7560197164,-0.00591572024346,-20.938418814,-0.122189614607,70.8049349532,0.10862951003,0.0157494147584,0.0,-0.0168322327034,0.0,0.107415529853,0.0,1.23523802764,0.0,0.00116421131239,0.0,0.000123424104644,0.0,-0.00591441348622,0.0,0.0724438044959,0.0,0.0166563528824,0.0,0.0,0.0,0.0,-25.0,0.0,7.62,0.00230154196664,0.0,-0.00383606751517,0.0,-0.0,-25.0,-0.0,0.0,63407.2000001,0.0,0.0,0.0,0.0,0.0,0.0
1402754185271422578,3,-19.7553592908,-0.00591572024346,-20.939169145,-0.122189614607,70.8094654666,0.10862951003,0.0140267640273,0.0,-0.0161908197579,0.0,0.109849875522,0.0,1.2352308867,0.0,-0.00118114387706,0.0,0.000148737100865,0.0,-0.0100340494036,0.0,0.0729178680976,0.0,0.00383879232241,0.0,0.0,0.0,0.0,-25.0,0.0,7.62,0.00230154196664,0.0,-0.00383606751517,0.0,-0.0,-25.0,-0.0,0.0,63407.2000001,0.0,0.0,0.0,0.0,0.0,0.0
1402754185291698341,3,-19.7553592908,-0.00591572024346,-20.939169145,-0.122189614607,70.8094654666,0.10862951003,0.0140267640273,0.0,-0.0161908197579,0.0,0.109849875522,0.0,1.2352308867,0.0,-0.00118114387706,0.0,0.000148737100865,0.0,-0.0100340494036,0.0,0.0729178680976,0.0,0.00383879232241,0.0,0.0,0.0,0.0,-25.0,0.0,7.62,0.00230154196664,0.0,-0.00383606751517,0.0,-0.0,-25.0,-0.0,0.0,63407.2000001,0.0,0.0,0.0,0.0,0.0,0.0
1402754185311320408,3,-19.7618435116,-0.00591572024346,-20.9483708485,-0.122189614607,70.8168827201,0.10862951003,0.0121627960339,0.0,-0.0205925757567,0.0,0.106989959154,0.0,1.23519029214,0.0,0.000601247732686,0.0,0.000476512845799,0.0,-0.0044868361719,0.0,0.0725204467783,0.0,0.0147084472356,0.0,0.0,0.0,0.0,-25.0,0.0,7.62,0.00230154196664,0.0,-0.00383606751517,0.0,-0.0,-25.0,-0.0,0.0,63407.2000001,0.0,0.0,0.0,0.0,0.0,0.0
1402754185331370071,3,-19.7618435116,-0.00591572024346,-20.9483708485,-0.122189614607,70.8168827201,0.10862951003,0.0121627960339,0.0,-0.0205925757567,0.0,0.106989959154,0.0,1.23519029214,0.0,0.000601247732686,0.0,0.000476512845799,0.0,-0.0044868361719,0.0,0.0725204467783,0.0,0.0147084472356,0.0,0.0,0.0,0.0,-25.0,0.0,7.62,0.00230154196664,0.0,-0.00383606751517,0.0,-0.0,-25.0,-0.0,0.0,63407.2000001,0.0,0.0,0.0,0.0,0.0,0.0
1402754185351083892,3,-19.7605813487,-0.00591572024346,-20.960303958,-0.122189614607,70.8429264575,0.10862951003,0.0188003846499,0.0,-0.0229619760441,0.0,0.109282229799,0.0,1.23521307546,0.0,-0.00420446955579,0.0,0.00160842308334,0.0,0.00234394823243,0.0,0.0727129633648,0.0,0.00480154660496,0.0,0.0,0.0,0.0,-25.0,0.0,7.62,0.00230154196664,0.0,-0.00383606751517,0.0,-0.0,-25.0,-0.0,0.0,63407.2000001,0.0,0.0,0.0,0.0,0.0,0.0
1402754185371234930,3,-19.7605813487,-0.00591572024346,-20.960303958,-0.122189614607,70.8429264575,0.10862951003,0.0188003846499,0.0,-0.0229619760441,0.0,0.109282229799,0.0,1.23521307546,0.0,-0.00420446955579,0.0,0.00160842308334,0.0,0.00234394823243,0.0,0.0727129633648,0.0,0.00480154660496,0.0,0.0,0.0,0.0,-25.0,0.0,7.62,0.00230154196664,0.0,-0.00383606751517,0.0,-0.0,-25.0,-0.0,0.0,63407.2000001,0.0,0.0,0.0,0.0,0.0,0.0
1402754185391227481,3,-19.7639702059,-0.00591572024346,-20.9710018903,-0.122189614607,70.8766715944,0.10862951003,0.0133517846111,0.0,-0.0144381786374,0.0,0.113161563888,0.0,1.2351232059,0.0,-0.00398883217821,0.0,0.00077458990511,0.0,0.00195611053255,0.0,0.0734347782788,0.0,-0.00302556839866,0.0,0.0,0.0,0.0,-25.0,0.0,7.62,0.00230154196664,0.0,-0.00383606751517,0.0,-0.0,-25.0,-0.0,0.0,63407.2000001,0.0,0.0,0.0,0.0,0.0,0.0
1402754185411137246,3,-19.7639702059,-0.00591572024346,-20.9710018903,-0.122189614607,70.8766715944,0.10862951003,0.0133517846111,0.0,-0.0144381786374,0.0,0.113161563888,0.0,1.2351232059,0.0,-0.00398883217821,0.0,0.00077458990511,0.0,0.00195611053255,0.0,0.0734347782788,0.0,-0.00302556839866,0.0,0.0,0.0,0.0,-25.0,0.0,7.62,0.00230154196664,0.0,-0.00383606751517,0.0,-0.0,-25.0,-0.0,0.0,63407.2000001,0.0,0.0,0.0,0.0,0.0,0.0
1402754185431167602,3,-19.7633578728,-0.00591572024346,-20.9715665604,-0.122189614607,70.881423481,0.10862951003,0.0146464402938,0.0,-0.0144227896397,0.0,0.116056605971,0.0,1.23515886906,0.0,-0.00411258502253,0.0,0.000905805520496,0.0,0.00444875781161,0.0,0.0733461762693,0.0,0.00747292666237,0.0,0.0,0.0,0.0,-25.0,0.0,7.62,0.00230154196664,0.0,-0.00383606751517,0.0,-0.0,-25.0,-0.0,0.0,63407.2000001,0.0,0.0,0.0,0.0,0.0,0.0
1402754185451245603,3,-19.7633578728,-0.00591572024346,-20.9715665604,-0.122189614607,70.881423481,0.10862951003,0.0146464402938,0.0,-0.0144227896397,0.0,0.116056605971,0.0,1.23515886906,0.0,-0.00411258502253,0.0,0.000905805520496,0.0,0.00444875781161,0.0,0.0733461762693,0.0,0.00747292666237,0.0,0.0,0.0,0.0,-25.0,0.0,7.62,0.00230154196664,0.0,-0.00383606751517,0.0,-0.0,-25.0,-0.0,0.0,63407.2000001,0.0,0.0,0.0,0.0,0.0,0.0
1402754185471106631,3,-19.7700183595,-0.00591572024346,-20.99806384,-0.122189614607,70.927221617,0.10862951003,0.0149878917893,0.0,-0.0245005153405,0.0,0.114853938506,0.0,1.23519533407,0.0,-0.00396695195564,0.0,0.00163669182938,0.0,0.0127059632998,0.0,0.0719801179074,0.0,0.00566479031918,0.0,0.0,0.0,0.0,-25.0,0.0,7.62,0.00230154196664,0.0,-0.00383606751517,0.0,-0.0,-25.0,-0.0,0.0,63407.2000001,0.0,0.0,0.0,0.0,0.0,0.0
1402754185491137813,3,-19.7700183595,-0.00591572024346,-20.99806384,-0.122189614607,70.927221617,0.10862951003,0.0149878917893,0.0,-0.0245005153405,0.0,0.114853938506,0.0,1.23519533407,0.0,-0.00396695195564,0.0,0.00163669182938,0.0,0.0127059632998,0.0,0.0719801179074,0.0,0.00566479031918,0.0,0.0,0.0,0.0,-25.0,0.0,7.62,0.00230154196664,-25.0,-0.00383606751517,0.0,-0.0,-25.0,-0.0,0.0,63407.2000001,0.0,0.0,0.0,0.0,0.0,0.0
1402754185511104584,3,-19.7696000298,-0.00591572024346,-20.9987413723,-0.122189614607,70.9306339348,0.10862951003,0.015876485535,0.0,-0.0245004219009,0.0,0.116268642892,0.0,1.23520481519,0.0,0.00260912316238,0.0,0.00165708302171,0.0,0.0104794466901,0.0,0.0717521522455,0.0,0.00260367497785,0.0,0.0,0.0,0.0,-25.0,0.0,7.62,0.00230154196664,-25.0,-0.00383606751517,0.0,-0.0,-25.0,-0.0,0.0,63407.2000001,0.0,0.0,0.0,0.0,0.0,0.0
1402754185531067013,3,-19.769025453,-0.00591572024346,-20.9998065558,-0.122189614607,70.9354101629,0.10862951003,0.0153983701483,0.0,-0.0246694507796,0.0,0.116854392997,0.0,1.23510640812,0.0,0.000941529439938,0.0,0.00161925137755,0.0,0.0103334887143,0.0,0.071307043751,0.0,-0.00216493024466,0.0,0.0,0.0,0.0,-25.0,0.0,7.62,0.00230154196664,-25.0,-0.00383606751517,0.0,-0.0,-25.0,-0.0,0.0,63407.2000001,0.0,0.0,0.0,0.0,0.0,0.0
1402754185551144870,3,-19.769025453,-0.00591572024346,-20.9998065558,-0.122189614607,70.9354101629,0.10862951003,0.0153983701483,0.0,-0.0246694507796,0.0,0.116854392997,0.0,1.23510640812,0.0,0.000941529439938,0.0,0.00161925137755,0.0,0.0103334887143,0.0,0.071307043751,0.0,-0.00216493024466,0.0,0.0,0.0,0.0,-25.0,0.0,7.62,0.00230154196664,-25.0,-0.00383606751517,0.0,-0.0,-25.0,-0.0,0.0,63407.2000001,0.0,0.0,0.0,0.0,0.0,0.0
1402754185571594712,3,-19.7688754559,-0.00591572024346,-20.9999493411,-0.122189614607,70.9364509785,0.10862951003,0.0156512777695,0.0,-0.0241856320935,0.0,0.117639076582,0.0,1.23505262972,0.0,-0.00585753910513,0.0,0.0017014947732,0.0,0.00812365593004,0.0,0.0712503582161,0.0,0.00594913474812,0.0,0.0,0.0,0.0,-25.0,0.0,7.62,0.00230154196664,-25.0,-0.00383606751517,0.0,-0.0,-25.0,-0.0,0.0,63407.2000001,0.0,0.0,0.0,0.0,0.0,0.0
1402754185591618945,3,-19.7720596269,-0.00591572024346,-21.0130193262,-0.122189614607,70.9606195467,0.10862951003,0.0181110199221,0.0,-0.0247063295763,0.0,0.115516799424,0.0,1.23502465871,0.0,0.00328965180088,0.0,0.0019691042816,0.0,0.000418616839134,0.0,0.0709752637332,0.0,-0.00544835750906,0.0,0.0,0.0,0.0,-25.0,0.0,7.62,0.00230154196664,-25.0,-0.00383606751517,0.0,-0.0,-25.0,-0.0,0.0,63407.2000001,0.0,0.0,0.0,0.0,0.0,0.0
1402754185611423543,3,-19.7720596269,-0.00591572024346,-21.0130193262,-0.122189614607,70.9606195467,0.10862951003,0.0181110199221,0.0,-0.0247063295763,0.0,0.115516799424,0.0,1.23502465871,0.0,0.00328965180088,0.0,0.0019691042816,0.0,0.000418616839134,0.0,0.0709752637332,0.0,-0.00544835750906,0.0,0.0,0.0,0.0,-25.0,0.0,7.62,0.00230154196664,-25.0,-0.00383606751517,0.0,-0.0,-25.0,-0.0,0.0,63407.2000001,0.0,0.0,0.0,0.0,0.0,0.0
1402754185631287587,3,-19.7762487335,-0.00591572024346,-21.0265236563,-0.122189614607,70.9810039823,0.10862951003,0.0196319752778,0.0,-0.0287941675125,0.0,0.110824346912,0.0,1.23495767151,0.0,-0.00138687844232,0.0,0.00212342492052,0.0,0.00361119771094,0.0,0.0703600969683,0.0,-0.00632740195401,0.0,0.0,0.0,0.0,-25.0,0.0,7.62,0.00230154196664,-25.0,-0.00383606751517,0.0,-0.0,-25.0,-0.0,0.0,63407.2000001,0.0,0.0,0.0,0.0,0.0,0.0
1402754185651256451,3,-19.7762487335,-0.00591572024346,-21.0265236563,-0.122189614607,70.9810039823,0.10862951003,0.0196319752778,0.0,-0.0287941675125,0.0,0.110824346912,0.0,1.23495767151,0.0,-0.00138687844232,0.0,0.00212342492052,0.0,0.00361119771094,0.0,0.0703600969683,0.0,-0.00632740195401,0.0,0.0,0.0,0.0,-25.0,0.0,7.62,0.00230154196664,-25.0,-0.00383606751517,0.0,-0.0,-25.0,-0.0,0.0,63407.2000001,0.0,0.0,0.0,0.0,0.0,0.0
1402754185671105286,3,-19.7785821247,-0.00591572024346,-21.0392159894,-0.122189614607,71.0163770391,0.10862951003,0.0192921299551,0.0,-0.0238025886418,0.0,0.110220389204,0.0,1.23501748247,0.0,0.00852860973543,0.0,0.00153279103213,0.0,-0.00508814492283,0.0,0.071126029297,0.0,-0.0105192000882,0.0,0.0,0.0,0.0,-25.0,0.0,7.62,0.00230154196664,-25.0,-0.00383606751517,0.0,-0.0,-25.0,-0.0,0.0,63407.2000001,0.0,0.0,0.0,0.0,0.0,0.0
1402754185691597943,3,-19.7785821247,-0.00591572024346,-21.0392159894,-0.122189614607,71.0163770391,0.10862951003,0.0192921299551,0.0,-0.0238025886418,0.0,0.110220389204,0.0,1.23501748247,0.0,0.00852860973543,0.0,0.00153279103213,0.0,-0.00508814492283,0.0,0.071126029297,0.0,-0.0105192000882,0.0,0.0,0.0,0.0,-25.0,0.0,7.62,0.00230154196664,-25.0,-0.00383606751517,0.0,-0.0,-25.0,-0.0,0.0,63407.2000001,0.0,0.0,0.0,0.0,0.0,0.0
1402754185711176874,3,-19.7788496761,-0.00591572024346,-21.0589602088,-0.122189614607,71.0553486284,0.10862951003,0.0230108905639,0.0,-0.0364115639137,0.0,0.109031300329,0.0,1.23518267782,0.0,0.00569248472783,0.0,0.00229803471986,0.0,0.00149709301383,0.0,0.0702747444517,0.0,-0.000370019857604,0.0,0.0,0.0,0.0,-25.0,0.0,7.62,0.00230154196664,-25.0,-0.00383606751517,0.0,-0.0,-25.0,-0.0,0.0,63407.2000001,0.0,0.0,0.0,0.0,0.0,0.0
1402754185731081105,3,-19.7788496761,-0.00591572024346,-21.0589602088,-0.122189614607,71.0553486284,0.10862951003,0.0230108905639,0.0,-0.0364115639137,0.0,0.109031300329,0.0,1.23518267782,0.0,0.00569248472783,0.0,0.00229803471986,0.0,0.00149709301383,0.0,0.0702747444517,0.0,-0.000370019857604,0.0,0.0,0.0,0.0,-25.0,0.0,7.62,0.00230154196664,-25.0,-0.00383606751517,0.0,-0.0,-25.0,-0.0,0.0,63407.2000001,0.0,0.0,0.0,0.0,0.0,0.0
1402754185751190644,3,-19.78689373,-0.00591572024346,-21.0731764295,-0.122189614607,71.0829113941,0.10862951003,0.0122903108029,0.0,-0.0400463679229,0.0,0.107411086069,0.0,1.23532154093,0.0,0.0147355485969,0.0,0.000908117871436,0.0,-0.00486478346653,0.0,0.0699465608779,0.0,0.00251679503705,0.0,0.0,0.0,0.0,-25.0,0.0,7.62,0.00230154196664,-25.0,-0.00383606751517,0.0,-0.0,-25.0,-0.0,0.0,63407.2000001,0.0,0.0,0.0,0.0,0.0,0.0
1402754185770854244,3,-19.78689373,-0.00591572024346,-21.0731764295,-0.122189614607,71.0829113941,0.10862951003,0.0122903108029,0.0,-0.0400463679229,0.0,0.107411086069,0.0,1.23532154093,0.0,0.0147355485969,0.0,0.000908117871436,0.0,-0.00486478346653,0.0,0.0699465608779,0.0,0.00251679503705,0.0,0.0,0.0,0.0,-25.0,0.0,7.62,0.00230154196664,-25.0,-0.00383606751517,0.0,-0.0,-25.0,-0.0,0.0,63407.2000001,0.0,0.0,0.0,0.0,0.0,0.0
1402754185791026900,3,-19.7886938939,-0.00591572024346,-21.0768832823,-0.122189614607,71.1010783234,0.10862951003,0.0176124653588,0.0,-0.0216239160103,0.0,0.104015808436,0.0,1.23583059536,0.0,0.00870888528616,0.0,0.000678752274292,0.0,-0.011116899514,0.0,0.0726378772209,0.0,-0.00265023012352,0.0,0.0,0.0,0.0,-25.0,0.0,7.62,0.00230154196664,-25.0,-0.00383606751517,0.0,-0.0,-25.0,-0.0,0.0,63407.2000001,0.0,0.0,0.0,0.0,0.0,0.0
1402754185811047291,3,-19.7886938939,-0.00591572024346,-21.0768832823,-0.122189614607,71.1010783234,0.10862951003,0.0176124653588,0.0,-0.0216239160103,0.0,0.104015808436,0.0,1.23583059536,0.0,0.00870888528616,0.0,0.000678752274292,0.0,-0.011116899514,0.0,0.0726378772209,0.0,-0.00265023012352,0.0,0.0,0.0,0.0,-25.0,0.0,7.62,0.00230154196664,-25.0,-0.00383606751517,0.0,-0.0,-25.0,-0.0,0.0,63407.2000001,0.0,0.0,0.0,0.0,0.0,0.0
1402754185831407140,3,-19.7947922882,-0.00591572024346,-21.0962037931,-0.122189614607,71.1351560574,0.10862951003,0.0106076299313,0.0,-0.0345612204636,0.0,0.1050225948,0.0,1.23598400499,0.0,0.0112158142742,0.0,0.000176415879983,0.0,-0.0112912626561,0.0,0.0715676015867,0.0,-0.00381720685021,0.0,0.0,0.0,0.0,-25.0,0.0,7.62,0.00230154196664,-25.0,-0.00383606751517,0.0,-0.0,-25.0,-0.0,0.0,63407.2000001,0.0,0.0,0.0,0.0,0.0,0.0
1402754185851174100,3,-19.7947922882,-0.00591572024346,-21.0962037931,-0.122189614607,71.1351560574,0.10862951003,0.0106076299313,0.0,-0.0345612204636,0.0,0.1050225948,0.0,1.23598400499,0.0,0.0112158142742,0.0,0.000176415879983,0.0,-0.0112912626561,0.0,0.0715676015867,0.0,-0.00381720685021,0.0,0.0,0.0,0.0,-25.0,0.0,7.62,0.00230154196664,-25.0,-0.00383606751517,0.0,-0.0,-25.0,-0.0,0.0,63407.2000001,0.0,0.0,0.0,0.0,0.0,0.0
1402754185871166139,3,-19.7953840168,-0.00591572024346,-21.115145101,-0.122189614607,71.1739802443,0.10862951003,0.0182801874897,0.0,-0.0420051127962,0.0,0.107442799106,0.0,1.23648323636,0.0,0.0167297470887,0.0,0.00104833914542,0.0,-0.0148766018361,0.0,0.0717545481626,0.0,-0.00039637689502,0.0,0.0,0.0,0.0,-25.0,0.0,7.62,0.00230154196664,-25.0,-0.00383606751517,0.0,-0.0,-25.0,-0.0,0.0,63407.2000001,0.0,0.0,0.0,0.0,0.0,0.0
1402754185891570548,3,-19.7953840168,-0.00591572024346,-21.115145101,-0.122189614607,71.1739802443,0.10862951003,0.0182801874897,0.0,-0.0420051127962,0.0,0.107442799106,0.0,1.23648323636,0.0,0.0167297470887,0.0,0.00104833914542,0.0,-0.0148766018361,0.0,0.0717545481626,0.0,-0.00039637689502,0.0,0.0,0.0,0.0,-25.0,0.0,7.62,0.00230154196664,-25.0,-0.00383606751517,0.0,-0.0,-25.0,-0.0,0.0,63407.2000001,0.0,0.0,0.0,0.0,0.0,0.0
1402754185911048912,3,-19.7945055308,-0.00591572024346,-21.1173483463,-0.122189614607,71.1795274731,0.10862951003,0.0170271506065,0.0,-0.0448920589021,0.0,0.110310031797,0.0,1.2372232793,0.0,0.011243038246,0.0,0.000962394531867,0.0,-0.0136994237868,0.0,0.0724174356379,0.0,0.00334574760359,0.0,0.0,0.0,0.0,-25.0,0.0,7.62,0.00230154196664,-25.0,-0.00383606751517,0.0,-0.0,-25.0,-0.0,0.0,63407.2000001,0.0,0.0,0.0,0.0,0.0,0.0
1402754185931051224,3,-19.7945055308,-0.00591572024346,-21.1173483463,-0.122189614607,71.1795274731,0.10862951003,0.0170271506065,0.0,-0.0448920589021,0.0,0.110310031797,0.0,1.2372232793,0.0,0.011243038246,0.0,0.000962394531867,0.0,-0.0136994237868,0.0,0.0724174356379,0.0,0.00334574760359,0.0,0.0,0.0,0.0,-25.0,0.0,7.62,0.00230154196664,-25.0,-0.00383606751517,0.0,-0.0,-25.0,-0.0,0.0,63407.2000001,0.0,0.0,0.0,0.0,0.0,0.0
1402754185951019025,3,-19.7993293734,-0.00591572024346,-21.1260636324,-0.122189614607,71.2069216297,0.10862951003,0.0169666889057,0.0,-0.0312744047324,0.0,0.109612971386,0.0,1.23755475918,0.0,0.014452276906,0.0,0.000254313009755,0.0,-0.00982999396515,0.0,0.074483572687,0.0,0.00509181782124,0.0,0.0,0.0,0.0,-25.0,0.0,7.62,0.00230154196664,-25.0,-0.00383606751517,0.0,-0.0,-25.0,-0.0,0.0,63407.2000001,0.0,0.0,0.0,0.0,0.0,0.0
1402754185971149368,3,-19.8056904423,-0.00591572024346,-21.1440894805,-0.122189614607,71.2405817893,0.10862951003,0.0110620316648,0.0,-0.038848518004,0.0,0.109218072933,0.0,1.23767964717,0.0,0.0161398238202,0.0,-3.14343749716e-05,0.0,0.00127965232576,0.0,0.07374584028,0.0,0.00242146254657,0.0,0.0,0.0,0.0,-25.0,0.0,7.62,0.00230154196664,-25.0,-0.00383606751517,0.0,-0.0,-25.0,-0.0,0.0,63407.2000001,0.0,0.0,0.0,0.0,0.0,0.0
1402754185991205679,3,-19.8056904423,-0.00591572024346,-21.1440894805,-0.122189614607,71.2405817893,0.10862951003,0.0110620316648,0.0,-0.038848518004,0.0,0.109218072933,0.0,1.23767964717,0.0,0.0161398238202,0.0,-3.14343749716e-05,0.0,0.00127965232576,0.0,0.07374584028,0.0,0.00242146254657,0.0,0.0,0.0,0.0,-25.0,0.0,7.62,0.00230154196664,-25.0,-0.00383606751517,0.0,-0.0,-25.0,-0.0,0.0,63407.2000001,0.0,0.0,0.0,0.0,0.0,0.0
1402754186011648069,3,-19.8055440647,-0.00591572024346,-21.1448993162,-0.122189614607,71.2428328709,0.10862951003,0.0111092396563,0.0,-0.0386492520457,0.0,0.112126014258,0.0,1.23803141281,0.0,0.0204961086724,0.0,-5.68895220684e-08,0.0,-0.0107898684124,0.0,0.0739113834594,0.0,0.00131264780923,0.0,0.0,0.0,0.0,-25.0,0.0,7.62,0.00230154196664,-25.0,-0.00383606751517,0.0,-0.0,-25.0,-0.0,0.0,63407.2000001,0.0,0.0,0.0,0.0,0.0,0.0
1402754186030966844,3,-19.8055440647,-0.00591572024346,-21.1448993162,-0.122189614607,71.2428328709,0.10862951003,0.0111092396563,0.0,-0.0386492520457,0.0,0.112126014258,0.0,1.23803141281,0.0,0.0204961086724,0.0,-5.68895220684e-08,0.0,-0.0107898684124,0.0,0.0739113834594,0.0,0.00131264780923,0.0,0.0,0.0,0.0,-25.0,0.0,7.62,0.00230154196664,-25.0,-0.00383606751517,0.0,-0.0,-25.0,-0.0,0.0,63407.2000001,0.0,0.0,0.0,0.0,0.0,0.0
1402754186050830834,3,-19.8150809477,-0.00591572024346,-21.1564986455,-0.122189614607,71.2633236024,0.10862951003,0.00340587435042,0.0,-0.0361367764178,0.0,0.109360637655,0.0,1.23862915721,0.0,0.0173762012778,0.0,-0.000722541945448,0.0,0.00489757587458,0.0,0.0742365085188,0.0,0.0119405343211,0.0,0.0,0.0,0.0,-25.0,0.0,7.62,0.00230154196664,-25.0,-0.00383606751517,0.0,-0.0,-25.0,-0.0,0.0,63407.2000001,0.0,0.0,0.0,0.0,0.0,0.0
1402754186071178673,3,-19.8150809477,-0.00591572024346,-21.1564986455,-0.122189614607,71.2633236024,0.10862951003,0.00340587435042,0.0,-0.0361367764178,0.0,0.109360637655,0.0,1.23862915721,0.0,0.0173762012778,0.0,-0.000722541945448,0.0,0.00489757587458,0.0,0.0742365085188,0.0,0.0119405343211,0.0,0.0,0.0,0.0,-25.0,0.0,7.62,0.00230154196664,-25.0,-0.00383606751517,0.0,-0.0,-25.0,-0.0,0.0,63407.2000001,0.0,0.0,0.0,0.0,0.0,0.0
1402754186092569974,3,-19.8173243233,-0.00591572024346,-21.1809897811,-0.122189614607,71.3088652921,0.10862951003,0.00433905613743,0.0,-0.0541039142038,0.0,0.114770099395,0.0,1.23934453744,0.0,0.0222118623641,0.0,0.000298524184371,0.0,0.00745456916674,0.0,0.0725092024236,0.0,0.011867875939,0.0,0.0,0.0,0.0,-25.0,0.0,7.62,0.00230154196664,-25.0,-0.00383606751517,0.0,-0.0,-25.0,-0.0,0.0,63407.2000001,0.0,0.0,0.0,0.0,0.0,0.0
1402754186111333851,3,-19.8173243233,-0.00591572024346,-21.1809897811,-0.122189614607,71.3088652921,0.10862951003,0.00433905613743,0.0,-0.0541039142038,0.0,0.114770099395,0.0,1.23934453744,0.0,0.0222118623641,0.0,0.000298524184371,0.0,0.00745456916674,0.0,0.0725092024236,0.0,0.011867875939,0.0,0.0,0.0,0.0,-25.0,0.0,7.62,0.00230154196664,-25.0,-0.00383606751517,0.0,-0.0,-25.0,-0.0,0.0,63407.2000001,0.0,0.0,0.0,0.0,0.0,0.0
1402754186131757943,3,-19.8172035453,-0.00591572024346,-21.1833150773,-0.122189614607,71.3135793102,0.10862951003,0.00256499865896,0.0,-0.0564961629643,0.0,0.117413128286,0.0,1.24025052215,0.0,0.0272059332235,0.0,0.000440293489715,0.0,0.00740034097405,0.0,0.0722187237779,0.0,-0.00119914297357,0.0,0.0,0.0,0.0,-25.0,0.0,7.62,0.00230154196664,-25.0,-0.00383606751517,0.0,-0.0,-25.0,-0.0,0.0,63407.2000001,0.0,0.0,0.0,0.0,0.0,0.0
1402754186151048734,3,-19.8172035453,-0.00591572024346,-21.1833150773,-0.122189614607,71.3135793102,0.10862951003,0.00256499865896,0.0,-0.0564961629643,0.0,0.117413128286,0.0,1.24025052215,0.0,0.0272059332235,0.0,0.000440293489715,0.0,0.00740034097405,0.0,0.0722187237779,0.0,-0.00119914297357,0.0,0.0,0.0,0.0,-25.0,0.0,7.62,0.00230154196664,-25.0,-0.00383606751517,0.0,-0.0,-25.0,-0.0,0.0,63407.2000001,0.0,0.0,0.0,0.0,0.0,0.0
1402754186171008804,3,-19.8135606751,-0.00591572024346,-21.1922433264,-0.122189614607,71.3450213553,0.10862951003,0.0214740521447,0.0,-0.042041556264,0.0,0.118090899456,0.0,1.24184006993,0.0,0.0275933482746,0.0,0.00198696648603,0.0,0.0130177381404,0.0,0.0744048956303,0.0,0.00213911387181,0.0,0.0,0.0,0.0,-25.0,0.0,7.62,0.00230154196664,-25.0,-0.00383606751517,0.0,-0.0,-25.0,-0.0,0.0,63407.2000001,0.0,0.0,0.0,0.0,0.0,0.0
1402754186191298409,3,-19.8135606751,-0.00591572024346,-21.1922433264,-0.122189614607,71.3450213553,0.10862951003,0.0214740521447,0.0,-0.042041556264,0.0,0.118090899456,0.0,1.24184006993,0.0,0.0275933482746,0.0,0.00198696648603,0.0,0.0130177381404,0.0,0.0744048956303,0.0,0.00213911387181,0.0,0.0,0.0,0.0,-25.0,0.0,7.62,0.00230154196664,-25.0,-0.00383606751517,0.0,-0.0,-25.0,-0.0,0.0,63407.2000001,0.0,0.0,0.0,0.0,0.0,0.0
1402754186211202535,3,-19.8235167258,-0.00591572024346,-21.2092304965,-0.122189614607,71.3668181772,0.10862951003,0.0078529181533,0.0,-0.0536307789547,0.0,0.115090312497,0.0,1.24250695582,0.0,0.0279508115908,0.0,0.00116710550944,0.0,0.0133090507138,0.0,0.0724481436667,0.0,-0.00617184087537,0.0,0.0,0.0,0.0,-25.0,0.0,7.62,0.00230154196664,-25.0,-0.00383606751517,0.0,-0.0,-25.0,-0.0,0.0,63407.2000001,0.0,0.0,0.0,0.0,0.0,0.0
1402754186231026350,3,-19.8235167258,-0.00591572024346,-21.2092304965,-0.122189614607,71.3668181772,0.10862951003,0.0078529181533,0.0,-0.0536307789547,0.0,0.115090312497,0.0,1.24250695582,0.0,0.0279508115908,0.0,0.00116710550944,0.0,0.0133090507138,0.0,0.0724481436667,0.0,-0.00617184087537,0.0,0.0,0.0,0.0,-25.0,0.0,7.62,0.00230154196664,-25.0,-0.00383606751517,0.0,-0.0,-25.0,-0.0,0.0,63407.2000001,0.0,0.0,0.0,0.0,0.0,0.0
1402754186250964427,3,-19.8250679822,-0.00591572024346,-21.2292448084,-0.122189614607,71.4116963126,0.10862951003,0.0100047786669,0.0,-0.0603785347284,0.0,0.1198002627,0.0,1.24368070122,0.0,0.0340670800817,0.0,0.00144443798321,0.0,0.00943243533035,0.0,0.0716116754451,0.0,0.00296712361108,0.0,0.0,0.0,0.0,-25.0,0.0,7.62,0.00230154196664,-25.0,-0.00383606751517,0.0,-0.0,-25.0,-0.0,0.0,63407.2000001,0.0,0.0,0.0,0.0,0.0,0.0
1402754186271075638,3,-19.8250679822,-0.00591572024346,-21.2292448084,-0.122189614607,71.4116963126,0.10862951003,0.0100047786669,0.0,-0.0603785347284,0.0,0.1198002627,0.0,1.24368070122,0.0,0.0340670800817,0.0,0.00144443798321,0.0,0.00943243533035,0.0,0.0716116754451,0.0,0.00296712361108,0.0,0.0,0.0,0.0,-25.0,0.0,7.62,0.00230154196664,-25.0,-0.00383606751517,0.0,-0.0,-25.0,-0.0,0.0,63407.2000001,0.0,0.0,0.0,0.0,0.0,0.0
1402754186290968273,3,-19.8305994398,-0.00591572024346,-21.2439030204,-0.122189614607,71.4416270083,0.10862951003,0.00475512857998,0.0,-0.0603729725775,0.0,0.118559334351,0.0,1.24467009197,0.0,0.027350570681,0.0,0.000931625095652,0.0,0.00945926072506,0.0,0.0712291762865,0.0,-0.00409941164475,0.0,0.0,0.0,0.0,-25.0,0.0,7.62,0.00230154196664,-25.0,-0.00383606751517,0.0,-0.0,-25.0,-0.0,0.0,63407.2000001,0.0,0.0,0.0,0.0,0.0,0.0
1402754186311002334,3,-19.8305994398,-0.00591572024346,-21.2439030204,-0.122189614607,71.4416270083,0.10862951003,0.00475512857998,0.0,-0.0603729725775,0.0,0.118559334351,0.0,1.24467009197,0.0,0.027350570681,0.0,0.000931625095652,0.0,0.00945926072506,0.0,0.0712291762865,0.0,-0.00409941164475,0.0,0.0,0.0,0.0,-25.0,0.0,7.62,0.00230154196664,-25.0,-0.00383606751517,0.0,-0.0,-25.0,-0.0,0.0,63407.2000001,0.0,0.0,0.0,0.0,0.0,0.0
1402754186332140054,3,-19.8367044504,-0.00591572024346,-21.2553058925,-0.122189614607,71.4619536638,0.10862951003,0.00329780098772,0.0,-0.0567933039449,0.0,0.113978491849,0.0,1.24590189268,0.0,0.0281556158008,0.0,0.00076289494531,0.0,0.00842499855955,0.0,0.0713708506153,0.0,-0.00577613054287,0.0,0.0,0.0,0.0,-25.0,0.0,7.62,0.00230154196664,-25.0,-0.00383606751517,0.0,-0.0,-25.0,-0.0,0.0,63407.2000001,0.0,0.0,0.0,0.0,0.0,0.0
1402754186351094101,3,-19.8367044504,-0.00591572024346,-21.2553058925,-0.122189614607,71.4619536638,0.10862951003,0.00329780098772,0.0,-0.0567933039449,0.0,0.113978491849,0.0,1.24590189268,0.0,0.0281556158008,0.0,0.00076289494531,0.0,0.00842499855955,0.0,0.0713708506153,0.0,-0.00577613054287,0.0,0.0,0.0,0.0,-25.0,0.0,7.62,0.00230154196664,-25.0,-0.00383606751517,0.0,-0.0,-25.0,-0.0,0.0,63407.2000001,0.0,0.0,0.0,0.0,0.0,0.0
1402754186371071479,3,-19.8365612672,-0.00591572024346,-21.257607171,-0.122189614607,71.4664286599,0.10862951003,0.00258809554842,0.0,-0.0580314903224,0.0,0.113203306202,0.0,1.24706204624,0.0,0.0284810921814,0.0,0.00055411346905,0.0,0.00493691529196,0.0,0.0711187380835,0.0,-0.00609502644524,0.0,0.0,0.0,0.0,-25.0,0.0,7.62,0.00230154196664,-25.0,-0.00383606751517,0.0,-0.0,-25.0,-0.0,0.0,63407.2000001,0.0,0.0,0.0,0.0,0.0,0.0
1402754186391072021,3,-19.8365612672,-0.00591572024346,-21.257607171,-0.122189614607,71.4664286599,0.10862951003,0.00258809554842,0.0,-0.0580314903224,0.0,0.113203306202,0.0,1.24706204624,0.0,0.0284810921814,0.0,0.00055411346905,0.0,0.00493691529196,0.0,0.0711187380835,0.0,-0.00609502644524,0.0,0.0,0.0,0.0,-25.0,0.0,7.62,0.00230154196664,-25.0,-0.00383606751517,0.0,-0.0,-25.0,-0.0,0.0,63407.2000001,0.0,0.0,0.0,0.0,0.0,0.0
1402754186411240433,3,-19.8361774376,-0.00591572024346,-21.26955429,-0.122189614607,71.497599882,0.10862951003,0.0124243990985,0.0,-0.0508513797071,0.0,0.112105115849,0.0,1.24875641896,0.0,0.0341962173626,0.0,0.00107332501462,0.0,0.00172412941822,0.0,0.0720863294024,0.0,0.000589216005123,0.0,0.0,0.0,0.0,-25.0,0.0,7.62,0.00230154196664,-25.0,-0.00383606751517,0.0,-0.0,-25.0,-0.0,0.0,63407.2000001,0.0,0.0,0.0,0.0,0.0,0.0
1402754186431014725,3,-19.8361774376,-0.00591572024346,-21.26955429,-0.122189614607,71.497599882,0.10862951003,0.0124243990985,0.0,-0.0508513797071,0.0,0.112105115849,0.0,1.24875641896,0.0,0.0341962173626,0.0,0.00107332501462,0.0,0.00172412941822,0.0,0.0720863294024,0.0,0.000589216005123,0.0,0.0,0.0,0.0,-25.0,0.0,7.62,0.00230154196664,-25.0,-0.00383606751517,0.0,-0.0,-25.0,-0.0,0.0,63407.2000001,0.0,0.0,0.0,0.0,0.0,0.0
1402754186450974566,3,-19.8435103717,-0.00591572024346,-21.289965962,-0.122189614607,71.525276806,0.10862951003,0.00285232054424,0.0,-0.0669139739099,0.0,0.110812492711,0.0,1.25019026463,0.0,0.0361440224078,0.0,0.000683075014287,0.0,-0.00378727474428,0.0,0.0701374907149,0.0,0.00646178685256,0.0,0.0,0.0,0.0,-25.0,0.0,7.62,0.00230154196664,-25.0,-0.00383606751517,0.0,-0.0,-25.0,-0.0,0.0,63407.2000001,0.0,0.0,0.0,0.0,0.0,0.0
1402754186471187029,3,-19.8435103717,-0.00591572024346,-21.289965962,-0.122189614607,71.525276806,0.10862951003,0.00285232054424,0.0,-0.0669139739099,0.0,0.110812492711,0.0,1.25019026463,0.0,0.0361440224078,0.0,0.000683075014287,0.0,-0.00378727474428,0.0,0.0701374907149,0.0,0.00646178685256,0.0,0.0,0.0,0.0,-25.0,0.0,7.62,0.00230154196664,-25.0,-0.00383606751517,0.0,-0.0,-25.0,-0.0,0.0,63407.2000001,0.0,0.0,0.0,0.0,0.0,0.0
1402754186491140573,3,-19.8437527867,-0.00591572024346,-21.2988880398,-0.122189614607,71.5433883129,0.10862951003,0.01220639894,0.0,-0.0609231625114,0.0,0.108107999186,0.0,1.25099512962,0.0,0.0299665049572,0.0,0.00159950770432,0.0,-0.00347836734672,0.0,0.0712944231799,0.0,0.00768445409889,0.0,0.0,0.0,0.0,-25.0,0.0,7.62,0.00230154196664,-25.0,-0.00383606751517,0.0,-0.0,-25.0,-0.0,0.0,63407.2000001,0.0,0.0,0.0,0.0,0.0,0.0
1402754186511333730,3,-19.8437527867,-0.00591572024346,-21.2988880398,-0.122189614607,71.5433883129,0.10862951003,0.01220639894,0.0,-0.0609231625114,0.0,0.108107999186,0.0,1.25099512962,0.0,0.0299665049572,0.0,0.00159950770432,0.0,-0.00347836734672,0.0,0.0712944231799,0.0,0.00768445409889,0.0,0.0,0.0,0.0,-25.0,0.0,7.62,0.00230154196664,-25.0,-0.00383606751517,0.0,-0.0,-25.0,-0.0,0.0,63407.2000001,0.0,0.0,0.0,0.0,0.0,0.0
1402754186531028656,3,-19.8432227637,-0.00591572024346,-21.3014436725,-0.122189614607,71.5478836208,0.10862951003,0.0122433792639,0.0,-0.0630966960837,0.0,0.107696678061,0.0,1.25250236819,0.0,0.0361990450777,0.0,0.0017273870228,0.0,-4.03869266363e-05,0.0,0.0715154235893,0.0,0.00433825739976,0.0,0.0,0.0,0.0,-25.0,0.0,7.62,0.00230154196664,-25.0,-0.00383606751517,0.0,-0.0,-25.0,-0.0,0.0,63407.2000001,0.0,0.0,0.0,0.0,0.0,0.0
1402754186551026662,3,-19.8432227637,-0.00591572024346,-21.3014436725,-0.122189614607,71.5478836208,0.10862951003,0.0122433792639,0.0,-0.0630966960837,0.0,0.107696678061,0.0,1.25250236819,0.0,0.0361990450777,0.0,0.0017273870228,0.0,-4.03869266363e-05,0.0,0.0715154235893,0.0,0.00433825739976,0.0,0.0,0.0,0.0,-25.0,0.0,7.62,0.00230154196664,-25.0,-0.00383606751517,0.0,-0.0,-25.0,-0.0,0.0,63407.2000001,0.0,0.0,0.0,0.0,0.0,0.0
1402754186571117145,3,-19.8428196108,-0.00591572024346,-21.3040015548,-0.122189614607,71.5522429889,0.10862951003,0.013005947668,0.0,-0.064164747385,0.0,0.108960981546,0.0,1.25408407106,0.0,0.0407512547476,0.0,0.00194785428813,0.0,-0.00615830474838,0.0,0.0718230653747,0.0,0.00797934432752,0.0,0.0,0.0,0.0,-25.0,0.0,7.62,0.00230154196664,-25.0,-0.00383606751517,0.0,-0.0,-25.0,-0.0,0.0,63407.2000001,0.0,0.0,0.0,0.0,0.0,0.0
1402754186591690588,3,-19.8428196108,-0.00591572024346,-21.3040015548,-0.122189614607,71.5522429889,0.10862951003,0.013005947668,0.0,-0.064164747385,0.0,0.108960981546,0.0,1.25408407106,0.0,0.0407512547476,0.0,0.00194785428813,0.0,-0.00615830474838,0.0,0.0718230653747,0.0,0.00797934432752,0.0,0.0,0.0,0.0,-25.0,0.0,7.62,0.00230154196664,-25.0,-0.00383606751517,0.0,-0.0,-25.0,-0.0,0.0,63407.2000001,0.0,0.0,0.0,0.0,0.0,0.0
1402754186611105303,3,-19.8504231065,-0.00591572024346,-21.315379543,-0.122189614607,71.5813395567,0.10862951003,0.00199132034101,0.0,-0.0572513442246,0.0,0.109357562291,0.0,1.25544782696,0.0,0.0378451936644,0.0,0.000663855239399,0.0,-0.00323231658729,0.0,0.0727410346996,0.0,0.00717870232868,0.0,0.0,0.0,0.0,-25.0,0.0,7.62,0.00230154196664,-25.0,-0.00383606751517,0.0,-0.0,-25.0,-0.0,0.0,63407.2000001,0.0,0.0,0.0,0.0,0.0,0.0
1402754186631724500,3,-19.8504231065,-0.00591572024346,-21.315379543,-0.122189614607,71.5813395567,0.10862951003,0.00199132034101,0.0,-0.0572513442246,0.0,0.109357562291,0.0,1.25544782696,0.0,0.0378451936644,0.0,0.000663855239399,0.0,-0.00323231658729,0.0,0.0727410346996,0.0,0.00717870232868,0.0,0.0,0.0,0.0,-25.0,0.0,7.62,0.00230154196664,-25.0,-0.00383606751517,0.0,-0.0,-25.0,-0.0,0.0,63407.2000001,0.0,0.0,0.0,0.0,0.0,0.0
1402754186651036396,3,-19.8554889696,-0.00591572024346,-21.335348211,-0.122189614607,71.6060469843,0.10862951003,-0.000476415937143,0.0,-0.0751321161917,0.0,0.11038160312,0.0,1.25704773919,0.0,0.0422592303566,0.0,0.00123033107893,0.0,-0.00579044346215,0.0,0.0710816535902,0.0,0.00675032399118,0.0,0.0,0.0,0.0,-25.0,0.0,7.62,0.00230154196664,-25.0,-0.00383606751517,0.0,-0.0,-25.0,-0.0,0.0,63407.2000001,0.0,0.0,0.0,0.0,0.0,0.0
1402754186671229930,3,-19.8554889696,-0.00591572024346,-21.335348211,-0.122189614607,71.6060469843,0.10862951003,-0.000476415937143,0.0,-0.0751321161917,0.0,0.11038160312,0.0,1.25704773919,0.0,0.0422592303566,0.0,0.00123033107893,0.0,-0.00579044346215,0.0,0.0710816535902,0.0,0.00675032399118,0.0,0.0,0.0,0.0,-25.0,0.0,7.62,0.00230154196664,-25.0,-0.00383606751517,0.0,-0.0,-25.0,-0.0,0.0,63407.2000001,0.0,0.0,0.0,0.0,0.0,0.0
1402754186691042314,3,-19.8558902726,-0.00591572024346,-21.3451716623,-0.122189614607,71.6323880242,0.10862951003,0.00539212462504,0.0,-0.0675729452229,0.0,0.112897470852,0.0,1.25876512689,0.0,0.0437190763701,0.0,0.00166015003178,0.0,-0.00742110138753,0.0,0.0726256778534,0.0,0.000578290209227,0.0,0.0,0.0,0.0,-25.0,0.0,7.62,0.00230154196664,-25.0,-0.00383606751517,0.0,-0.0,-25.0,-0.0,0.0,63407.2000001,0.0,0.0,0.0,0.0,0.0,0.0
1402754186711295974,3,-19.8558902726,-0.00591572024346,-21.3451716623,-0.122189614607,71.6323880242,0.10862951003,0.00539212462504,0.0,-0.0675729452229,0.0,0.112897470852,0.0,1.25876512689,0.0,0.0437190763701,0.0,0.00166015003178,0.0,-0.00742110138753,0.0,0.0726256778534,0.0,0.000578290209227,0.0,0.0,0.0,0.0,-25.0,0.0,7.62,0.00230154196664,-25.0,-0.00383606751517,0.0,-0.0,-25.0,-0.0,0.0,63407.2000001,0.0,0.0,0.0,0.0,0.0,0.0
1402754186731892615,3,-19.8611737372,-0.00591572024346,-21.3609481546,-0.122189614607,71.6537616356,0.10862951003,0.00289539246687,0.0,-0.0758487469724,0.0,0.113412117031,0.0,1.26043066134,0.0,0.045231519922,0.0,0.00175352838,0.0,-0.00423883668036,0.0,0.0720041338578,0.0,-2.00342897065e-05,0.0,0.0,0.0,0.0,-25.0,0.0,7.62,0.00230154196664,-25.0,-0.00383606751517,0.0,-0.0,-25.0,-0.0,0.0,63407.2000001,0.0,0.0,0.0,0.0,0.0,0.0
1402754186751651047,3,-19.8611737372,-0.00591572024346,-21.3609481546,-0.122189614607,71.6537616356,0.10862951003,0.00289539246687,0.0,-0.0758487469724,0.0,0.113412117031,0.0,1.26043066134,0.0,0.045231519922,0.0,0.00175352838,0.0,-0.00423883668036,0.0,0.0720041338578,0.0,-2.00342897065e-05,0.0,0.0,0.0,0.0,-25.0,0.0,7.62,0.00230154196664,-25.0,-0.00383606751517,0.0,-0.0,-25.0,-0.0,0.0,63407.2000001,0.0,0.0,0.0,0.0,0.0,0.0
1402754186771356206,3,-19.865180138,-0.00591572024346,-21.3681215172,-0.122189614607,71.6739743147,0.10862951003,0.000982254541887,0.0,-0.0638585718445,0.0,0.11561934688,0.0,1.26212978493,0.0,0.0366683809816,0.0,0.0011939164719,0.0,-0.00791116743146,0.0,0.0736098791659,0.0,0.000208032923505,0.0,0.0,0.0,0.0,-25.0,0.0,7.62,0.00230154196664,-25.0,-0.00383606751517,0.0,-0.0,-25.0,-0.0,0.0,63407.2000001,0.0,0.0,0.0,0.0,0.0,0.0
1402754186790885086,3,-19.865180138,-0.00591572024346,-21.3681215172,-0.122189614607,71.6739743147,0.10862951003,0.000982254541887,0.0,-0.0638585718445,0.0,0.11561934688,0.0,1.26212978493,0.0,0.0366683809816,0.0,0.0011939164719,0.0,-0.00791116743146,0.0,0.0736098791659,0.0,0.000208032923505,0.0,0.0,0.0,0.0,-25.0,0.0,7.62,0.00230154196664,-25.0,-0.00383606751517,0.0,-0.0,-25.0,-0.0,0.0,63407.2000001,0.0,0.0,0.0,0.0,0.0,0.0
1402754186810942952,3,-19.8732970999,-0.00591572024346,-21.3789332383,-0.122189614607,71.6780639437,0.10862951003,-0.00345554192623,0.0,-0.0721215531288,0.0,0.112538108279,0.0,1.26431823358,0.0,0.0474254255073,0.0,0.000773057481254,0.0,-0.00470325231916,0.0,0.0727468593457,0.0,-0.00758539190972,0.0,0.0,0.0,0.0,-25.0,0.0,7.62,0.00230154196664,-25.0,-0.00383606751517,0.0,-0.0,-25.0,-0.0,0.0,63407.2000001,0.0,0.0,0.0,0.0,0.0,0.0
1402754186832495574,3,-19.8732970999,-0.00591572024346,-21.3789332383,-0.122189614607,71.6780639437,0.10862951003,-0.00345554192623,0.0,-0.0721215531288,0.0,0.112538108279,0.0,1.26431823358,0.0,0.0474254255073,0.0,0.000773057481254,0.0,-0.00470325231916,0.0,0.0727468593457,0.0,-0.00758539190972,0.0,0.0,0.0,0.0,-25.0,0.0,7.62,0.00230154196664,-25.0,-0.00383606751517,0.0,-0.0,-25.0,-0.0,0.0,63407.2000001,0.0,0.0,0.0,0.0,0.0,0.0
1402754186851876570,3,-19.8743267596,-0.00591572024346,-21.3897589104,-0.122189614607,71.6900503193,0.10862951003,0.00370350899404,0.0,-0.0785401396638,0.0,0.111535785674,0.0,1.26565036234,0.0,0.0460849295757,0.0,0.00175847664005,0.0,0.00393615294611,0.0,0.0723546051457,0.0,-0.00717957453334,0.0,0.0,0.0,0.0,-25.0,0.0,7.62,0.00230154196664,-25.0,-0.00383606751517,0.0,-0.0,-25.0,-0.0,0.0,63407.2000001,0.0,0.0,0.0,0.0,0.0,0.0
1402754186870946565,3,-19.8763977641,-0.00591572024346,-21.4031053984,-0.122189614607,71.722243124,0.10862951003,0.00223297438442,0.0,-0.0803059949697,0.0,0.117157699299,0.0,1.26651079272,0.0,0.0443770012827,0.0,0.00145092746853,0.0,0.00426897363267,0.0,0.0722483496214,0.0,-0.00497606895007,0.0,0.0,0.0,0.0,-25.0,0.0,7.62,0.00230154196664,-25.0,-0.00383606751517,0.0,-0.0,-25.0,-0.0,0.0,63407.2000001,0.0,0.0,0.0,0.0,0.0,0.0
1402754186891089199,3,-19.8763977641,-0.00591572024346,-21.4031053984,-0.122189614607,71.722243124,0.10862951003,0.00223297438442,0.0,-0.0803059949697,0.0,0.117157699299,0.0,1.26651079272,0.0,0.0443770012827,0.0,0.00145092746853,0.0,0.00426897363267,0.0,0.0722483496214,0.0,-0.00497606895007,0.0,0.0,0.0,0.0,-25.0,0.0,7.62,0.00230154196664,-25.0,-0.00383606751517,0.0,-0.0,-25.0,-0.0,0.0,63407.2000001,0.0,0.0,0.0,0.0,0.0,0.0
1402754186911365254,3,-19.876423239,-0.00591572024346,-21.4048010594,-0.122189614607,71.724793222,0.10862951003,0.0017635132838,0.0,-0.0807809514916,0.0,0.118595687548,0.0,1.26742194383,0.0,0.0476297202174,0.0,0.00124953818173,0.0,-0.00034768527954,0.0,0.0722349552891,0.0,-0.0104737555908,0.0,0.0,0.0,0.0,-25.0,0.0,7.62,0.00230154196664,-25.0,-0.00383606751517,0.0,-0.0,-25.0,-0.0,0.0,63407.2000001,0.0,0.0,0.0,0.0,0.0,0.0
1402754186930998923,3,-19.876423239,-0.00591572024346,-21.4048010594,-0.122189614607,71.724793222,0.10862951003,0.0017635132838,0.0,-0.0807809514916,0.0,0.118595687548,0.0,1.26742194383,0.0,0.0476297202174,0.0,0.00124953818173,0.0,-0.00034768527954,0.0,0.0722349552891,0.0,-0.0104737555908,0.0,0.0,0.0,0.0,-25.0,0.0,7.62,0.00230154196664,-25.0,-0.00383606751517,0.0,-0.0,-25.0,-0.0,0.0,63407.2000001,0.0,0.0,0.0,0.0,0.0,0.0
1402754186951912460,3,-19.8821543309,-0.00591572024346,-21.4135742869,-0.122189614607,71.7349767428,0.10862951003,-0.00148184279611,0.0,-0.0825865519209,0.0,0.117746308926,0.0,1.26923988365,0.0,0.0478926393631,0.0,0.000624007890888,0.0,0.000973056251238,0.0,0.0719142630621,0.0,-0.00507695460048,0.0,0.0,0.0,0.0,-25.0,0.0,7.62,0.00230154196664,-25.0,-0.00383606751517,0.0,-0.0,-25.0,-0.0,0.0,63407.2000001,0.0,0.0,0.0,0.0,0.0,0.0
1402754186971205608,3,-19.8821543309,-0.00591572024346,-21.4135742869,-0.122189614607,71.7349767428,0.10862951003,-0.00148184279611,0.0,-0.0825865519209,0.0,0.117746308926,0.0,1.26923988365,0.0,0.0478926393631,0.0,0.000624007890888,0.0,0.000973056251238,0.0,0.0719142630621,0.0,-0.00507695460048,0.0,0.0,0.0,0.0,-25.0,0.0,7.62,0.00230154196664,-25.0,-0.00383606751517,0.0,-0.0,-25.0,-0.0,0.0,63407.2000001,0.0,0.0,0.0,0.0,0.0,0.0
1402754186991105528,3,-19.886858222,-0.00591572024346,-21.4162768096,-0.122189614607,71.73385819,0.10862951003,-0.00102608639468,0.0,-0.0763981827144,0.0,0.112671931747,0.0,1.27107151975,0.0,0.0432695030342,0.0,0.000376502997079,0.0,0.00506386276572,0.0,0.07252635457,0.0,-0.00828024671975,0.0,0.0,0.0,0.0,-25.0,0.0,7.62,0.00230154196664,-25.0,-0.00383606751517,0.0,-0.0,-25.0,-0.0,0.0,63407.2000001,0.0,0.0,0.0,0.0,0.0,0.0
1402754187011282032,3,-19.886858222,-0.00591572024346,-21.4162768096,-0.122189614607,71.73385819,0.10862951003,-0.00102608639468,0.0,-0.0763981827144,0.0,0.112671931747,0.0,1.27107151975,0.0,0.0432695030342,0.0,0.000376502997079,0.0,0.00506386276572,0.0,0.07252635457,0.0,-0.00828024671975,0.0,0.0,0.0,0.0,-25.0,0.0,7.62,0.00230154196664,-25.0,-0.00383606751517,0.0,-0.0,-25.0,-0.0,0.0,63407.2000001,0.0,0.0,0.0,0.0,0.0,0.0
1402754187031102010,3,-19.8869554219,-0.00591572024346,-21.4193708289,-0.122189614607,71.7384515391,0.10862951003,-0.00113834607648,0.0,-0.0777744927469,0.0,0.113534710003,0.0,1.27290914694,0.0,0.044503054674,0.0,6.0032484296e-05,0.0,0.0041071853034,0.0,0.0722964914879,0.0,-0.00499340816306,0.0,0.0,0.0,0.0,-25.0,0.0,7.62,0.00230154196664,-25.0,-0.00383606751517,0.0,-0.0,-25.0,-0.0,0.0,63407.2000001,0.0,0.0,0.0,0.0,0.0,0.0
1402754187051529124,3,-19.8869554219,-0.00591572024346,-21.4193708289,-0.122189614607,71.7384515391,0.10862951003,-0.00113834607648,0.0,-0.0777744927469,0.0,0.113534710003,0.0,1.27290914694,0.0,0.044503054674,0.0,6.0032484296e-05,0.0,0.0041071853034,0.0,0.0722964914879,0.0,-0.00499340816306,0.0,0.0,0.0,0.0,-25.0,0.0,7.62,0.00230154196664,-25.0,-0.00383606751517,0.0,-0.0,-25.0,-0.0,0.0,63407.2000001,0.0,0.0,0.0,0.0,0.0,0.0
1402754187071245473,3,-19.8945688385,-0.00591572024346,-21.4332889534,-0.122189614607,71.7571948219,0.10862951003,-0.0119084794903,0.0,-0.0888900978472,0.0,0.114666714748,0.0,1.27468960635,0.0,0.049716786095,0.0,-0.000914461652302,0.0,0.00145940285348,0.0,0.0705850263218,0.0,-0.00444849713727,0.0,0.0,0.0,0.0,-25.0,0.0,7.62,0.00230154196664,-25.0,-0.00383606751517,0.0,-0.0,-25.0,-0.0,0.0,63407.2000001,0.0,0.0,0.0,0.0,0.0,0.0
1402754187090904577,3,-19.8945688385,-0.00591572024346,-21.4332889534,-0.122189614607,71.7571948219,0.10862951003,-0.0119084794903,0.0,-0.0888900978472,0.0,0.114666714748,0.0,1.27468960635,0.0,0.049716786095,0.0,-0.000914461652302,0.0,0.00145940285348,0.0,0.0705850263218,0.0,-0.00444849713727,0.0,0.0,0.0,0.0,-25.0,0.0,7.62,0.00230154196664,-25.0,-0.00383606751517,0.0,-0.0,-25.0,-0.0,0.0,63407.2000001,0.0,0.0,0.0,0.0,0.0,0.0
1402754187111777279,3,-19.8960085628,-0.00591572024346,-21.4393026557,-0.122189614607,71.7665631767,0.10862951003,-0.00754901490619,0.0,-0.0877831298874,0.0,0.113238406236,0.0,1.27669399938,0.0,0.0523650016729,0.0,-0.000661772513474,0.0,0.00661161526962,0.0,0.0709188835709,0.0,-0.00578940915781,0.0,0.0,0.0,0.0,-25.0,0.0,7.62,0.00230154196664,-25.0,-0.00383606751517,0.0,-0.0,-25.0,-0.0,0.0,63407.2000001,0.0,0.0,0.0,0.0,0.0,0.0
1402754187131053195,3,-19.8960085628,-0.00591572024346,-21.4393026557,-0.122189614607,71.7665631767,0.10862951003,-0.00754901490619,0.0,-0.0877831298874,0.0,0.113238406236,0.0,1.27669399938,0.0,0.0523650016729,0.0,-0.000661772513474,0.0,0.00661161526962,0.0,0.0709188835709,0.0,-0.00578940915781,0.0,0.0,0.0,0.0,-25.0,0.0,7.62,0.00230154196664,-25.0,-0.00383606751517,0.0,-0.0,-25.0,-0.0,0.0,63407.2000001,0.0,0.0,0.0,0.0,0.0,0.0
1402754187151555840,3,-19.8982129567,-0.00591572024346,-21.4396208615,-0.122189614607,71.7697309988,0.10862951003,-0.00269658531363,0.0,-0.0741999039742,0.0,0.110331255164,0.0,1.27867595558,0.0,0.0507362844117,0.0,-0.000537477998806,0.0,0.00498388359304,0.0,0.0725166159245,0.0,-0.00242898964081,0.0,0.0,0.0,0.0,-25.0,0.0,7.62,0.00230154196664,-25.0,-0.00383606751517,0.0,-0.0,-25.0,-0.0,0.0,63407.2000001,0.0,0.0,0.0,0.0,0.0,0.0
1402754187171222749,3,-19.8982129567,-0.00591572024346,-21.4396208615,-0.122189614607,71.7697309988,0.10862951003,-0.00269658531363,0.0,-0.0741999039742,0.0,0.110331255164,0.0,1.27867595558,0.0,0.0507362844117,0.0,-0.000537477998806,0.0,0.00498388359304,0.0,0.0725166159245,0.0,-0.00242898964081,0.0,0.0,0.0,0.0,-25.0,0.0,7.62,0.00230154196664,-25.0,-0.00383606751517,0.0,-0.0,-25.0,-0.0,0.0,63407.2000001,0.0,0.0,0.0,0.0,0.0,0.0
1402754187191107464,3,-19.9068501131,-0.00591572024346,-21.4577223771,-0.122189614607,71.7953659653,0.10862951003,-0.0182244044287,0.0,-0.0933732520374,0.0,0.113224035879,0.0,1.28071368701,0.0,0.0462928657397,0.0,-0.0015159502125,0.0,0.00279838136782,0.0,0.0699759499005,0.0,0.00158829013708,0.0,0.0,0.0,0.0,-25.0,0.0,7.62,0.00230154196664,-25.0,-0.00383606751517,0.0,-0.0,-25.0,-0.0,0.0,63407.2000001,0.0,0.0,0.0,0.0,0.0,0.0
1402754187211907289,3,-19.9068501131,-0.00591572024346,-21.4577223771,-0.122189614607,71.7953659653,0.10862951003,-0.0182244044287,0.0,-0.0933732520374,0.0,0.113224035879,0.0,1.28071368701,0.0,0.0462928657397,0.0,-0.0015159502125,0.0,0.00279838136782,0.0,0.0699759499005,0.0,0.00158829013708,0.0,0.0,0.0,0.0,-25.0,0.0,7.62,0.00230154196664,-25.0,-0.00383606751517,0.0,-0.0,-25.0,-0.0,0.0,63407.2000001,0.0,0.0,0.0,0.0,0.0,0.0
1402754187231013366,3,-19.9076672184,-0.00591572024346,-21.4615248697,-0.122189614607,71.799961419,0.10862951003,-0.0182456067022,0.0,-0.0953050902804,0.0,0.113315926975,0.0,1.2827161608,0.0,0.0536942079593,0.0,-0.00131308227063,0.0,0.0015610377334,0.0,0.0700120137393,0.0,0.000539565175472,0.0,0.0,0.0,0.0,-25.0,0.0,7.62,0.00230154196664,-25.0,-0.00383606751517,0.0,-0.0,-25.0,-0.0,0.0,63407.2000001,0.0,0.0,0.0,0.0,0.0,0.0
1402754187251012818,3,-19.9076672184,-0.00591572024346,-21.4615248697,-0.122189614607,71.799961419,0.10862951003,-0.0182456067022,0.0,-0.0953050902804,0.0,0.113315926975,0.0,1.2827161608,0.0,0.0536942079593,0.0,-0.00131308227063,0.0,0.0015610377334,0.0,0.0700120137393,0.0,0.000539565175472,0.0,0.0,0.0,0.0,-25.0,0.0,7.62,0.00230154196664,-25.0,-0.00383606751517,0.0,-0.0,-25.0,-0.0,0.0,63407.2000001,0.0,0.0,0.0,0.0,0.0,0.0
1402754187271722026,3,-19.9083584795,-0.00591572024346,-21.4644960687,-0.122189614607,71.8010084798,0.10862951003,-0.00476221091523,0.0,-0.0872276498288,0.0,0.109470771611,0.0,1.28533162319,0.0,0.0513277552246,0.0,0.000125348471064,0.0,0.000836708662686,0.0,0.0715272874675,0.0,0.0142817717928,0.0,0.0,0.0,0.0,-25.0,0.0,7.62,0.00230154196664,-25.0,-0.00383606751517,0.0,-0.0,-25.0,-0.0,0.0,63407.2000001,0.0,0.0,0.0,0.0,0.0,0.0
1402754187291113804,3,-19.9083584795,-0.00591572024346,-21.4644960687,-0.122189614607,71.8010084798,0.10862951003,-0.00476221091523,0.0,-0.0872276498288,0.0,0.109470771611,0.0,1.28533162319,0.0,0.0513277552246,0.0,0.000125348471064,0.0,0.000836708662686,0.0,0.0715272874675,0.0,0.0142817717928,0.0,0.0,0.0,0.0,-25.0,0.0,7.62,0.00230154196664,-25.0,-0.00383606751517,0.0,-0.0,-25.0,-0.0,0.0,63407.2000001,0.0,0.0,0.0,0.0,0.0,0.0
1402754187311667314,3,-19.9159339943,-0.00591572024346,-21.4762076289,-0.122189614607,71.8163507621,0.10862951003,-0.00559306230418,0.0,-0.0828214269663,0.0,0.108093177485,0.0,1.28898812445,0.0,0.0563078865984,0.0,5.34906318074e-05,0.0,-0.00857542387024,0.0,0.072571446221,0.0,-0.000556462656482,0.0,0.0,0.0,0.0,-25.0,0.0,7.62,0.00230154196664,-25.0,-0.00383606751517,0.0,-0.0,-25.0,-0.0,0.0,63407.2000001,0.0,0.0,0.0,0.0,0.0,0.0
1402754187331452225,3,-19.9159339943,-0.00591572024346,-21.4762076289,-0.122189614607,71.8163507621,0.10862951003,-0.00559306230418,0.0,-0.0828214269663,0.0,0.108093177485,0.0,1.28898812445,0.0,0.0563078865984,0.0,5.34906318074e-05,0.0,-0.00857542387024,0.0,0.072571446221,0.0,-0.000556462656482,0.0,0.0,0.0,0.0,-25.0,0.0,7.62,0.00230154196664,-25.0,-0.00383606751517,0.0,-0.0,-25.0,-0.0,0.0,63407.2000001,0.0,0.0,0.0,0.0,0.0,0.0
1402754187351446011,3,-19.9160055083,-0.00591572024346,-21.4770321906,-0.122189614607,71.8173996401,0.10862951003,-0.00536872930572,0.0,-0.0839809905161,0.0,0.107704918365,0.0,1.28953203253,0.0,0.0543007165828,0.0,8.62484062992e-05,0.0,0.00197559470066,0.0,0.0725609648009,0.0,0.00292362340908,0.0,0.0,0.0,0.0,-25.0,0.0,7.62,0.00230154196664,-25.0,-0.00383606751517,0.0,-0.0,-25.0,-0.0,0.0,63407.2000001,0.0,0.0,0.0,0.0,0.0,0.0
1402754187371162968,3,-19.9160055083,-0.00591572024346,-21.4770321906,-0.122189614607,71.8173996401,0.10862951003,-0.00536872930572,0.0,-0.0839809905161,0.0,0.107704918365,0.0,1.28953203253,0.0,0.0543007165828,0.0,8.62484062992e-05,0.0,0.00197559470066,0.0,0.0725609648009,0.0,0.00292362340908,0.0,0.0,0.0,0.0,-25.0,0.0,7.62,0.00230154196664,-25.0,-0.00383606751517,0.0,-0.0,-25.0,-0.0,0.0,63407.2000001,0.0,0.0,0.0,0.0,0.0,0.0
1402754187391543339,3,-19.9188052351,-0.00591572024346,-21.4907027285,-0.122189614607,71.8331968091,0.10862951003,-0.00451825341936,0.0,-0.0976318338507,0.0,0.108819779354,0.0,1.29118037989,0.0,0.0538446290109,0.0,0.000674207841849,0.0,-0.00217643321762,0.0,0.0711517115555,0.0,0.00757540952512,0.0,0.0,0.0,0.0,-25.0,0.0,7.62,0.00230154196664,-25.0,-0.00383606751517,0.0,-0.0,-25.0,-0.0,0.0,63407.2000001,0.0,0.0,0.0,0.0,0.0,0.0
1402754187411208102,3,-19.9188052351,-0.00591572024346,-21.4907027285,-0.122189614607,71.8331968091,0.10862951003,-0.00451825341936,0.0,-0.0976318338507,0.0,0.108819779354,0.0,1.29118037989,0.0,0.0538446290109,0.0,0.000674207841849,0.0,-0.00217643321762,0.0,0.0711517115555,0.0,0.00757540952512,0.0,0.0,0.0,0.0,-25.0,0.0,7.62,0.00230154196664,-25.0,-0.00383606751517,0.0,-0.0,-25.0,-0.0,0.0,63407.2000001,0.0,0.0,0.0,0.0,0.0,0.0
1402754187431306317,3,-19.9189550966,-0.00591572024346,-21.4948378554,-0.122189614607,71.837811154,0.10862951003,-0.00457246932567,0.0,-0.0996280278641,0.0,0.110749646151,0.0,1.29348029885,0.0,0.0527797238723,0.0,0.000705146818281,0.0,0.00124697704228,0.0,0.0712202014201,0.0,0.00755197233455,0.0,0.0,0.0,0.0,-25.0,0.0,7.62,0.00230154196664,-25.0,-0.00383606751517,0.0,-0.0,-25.0,-0.0,0.0,63407.2000001,0.0,0.0,0.0,0.0,0.0,0.0
1402754187450824982,3,-19.9189550966,-0.00591572024346,-21.4948378554,-0.122189614607,71.837811154,0.10862951003,-0.00457246932567,0.0,-0.0996280278641,0.0,0.110749646151,0.0,1.29348029885,0.0,0.0527797238723,0.0,0.000705146818281,0.0,0.00124697704228,0.0,0.0712202014201,0.0,0.00755197233455,0.0,0.0,0.0,0.0,-25.0,0.0,7.62,0.00230154196664,-25.0,-0.00383606751517,0.0,-0.0,-25.0,-0.0,0.0,63407.2000001,0.0,0.0,0.0,0.0,0.0,0.0
1402754187471463856,3,-19.9234299595,-0.00591572024346,-21.5053922612,-0.122189614607,71.861278433,0.10862951003,-0.0118714327395,0.0,-0.0994689229168,0.0,0.115482343133,0.0,1.29560209398,0.0,0.0547764143758,0.0,-0.000190705290793,0.0,-0.00233028440802,0.0,0.0713748006915,0.0,0.00365413208127,0.0,0.0,0.0,0.0,-25.0,0.0,7.62,0.00230154196664,-25.0,-0.00383606751517,0.0,-0.0,-25.0,-0.0,0.0,63407.2000001,0.0,0.0,0.0,0.0,0.0,0.0
1402754187491156091,3,-19.9234299595,-0.00591572024346,-21.5053922612,-0.122189614607,71.861278433,0.10862951003,-0.0118714327395,0.0,-0.0994689229168,0.0,0.115482343133,0.0,1.29560209398,0.0,0.0547764143758,0.0,-0.000190705290793,0.0,-0.00233028440802,0.0,0.0713748006915,0.0,0.00365413208127,0.0,0.0,0.0,0.0,-25.0,0.0,7.62,0.00230154196664,-25.0,-0.00383606751517,0.0,-0.0,-25.0,-0.0,0.0,63407.2000001,0.0,0.0,0.0,0.0,0.0,0.0
1402754187511336423,3,-19.9338549247,-0.00591572024346,-21.5110343251,-0.122189614607,71.8574327852,0.10862951003,-0.0232652749112,0.0,-0.101489739992,0.0,0.111304314489,0.0,1.29780518341,0.0,0.0582159056488,0.0,-0.00117099272402,0.0,-9.07921235977e-05,0.0,0.0709991285375,0.0,0.00451672143357,0.0,0.0,0.0,0.0,-25.0,0.0,7.62,0.00230154196664,-25.0,-0.00383606751517,0.0,-0.0,-25.0,-0.0,0.0,63407.2000001,0.0,0.0,0.0,0.0,0.0,0.0
1402754187531240852,3,-19.9338549247,-0.00591572024346,-21.5110343251,-0.122189614607,71.8574327852,0.10862951003,-0.0232652749112,0.0,-0.101489739992,0.0,0.111304314489,0.0,1.29780518341,0.0,0.0582159056488,0.0,-0.00117099272402,0.0,-9.07921235977e-05,0.0,0.0709991285375,0.0,0.00451672143357,0.0,0.0,0.0,0.0,-25.0,0.0,7.62,0.00230154196664,-25.0,-0.00383606751517,0.0,-0.0,-25.0,-0.0,0.0,63407.2000001,0.0,0.0,0.0,0.0,0.0,0.0
1402754187551495598,3,-19.9347905517,-0.00591572024346,-21.5151555894,-0.122189614607,71.8619796416,0.10862951003,-0.0250588700959,0.0,-0.103389247778,0.0,0.112602325952,0.0,1.30010577103,0.0,0.0577557363893,0.0,-0.00121932645818,0.0,0.00309769310499,0.0,0.0710436948226,0.0,-0.000884016216511,0.0,0.0,0.0,0.0,-25.0,0.0,7.62,0.00230154196664,-25.0,-0.00383606751517,0.0,-0.0,-25.0,-0.0,0.0,63407.2000001,0.0,0.0,0.0,0.0,0.0,0.0
1402754187571805593,3,-19.9347905517,-0.00591572024346,-21.5151555894,-0.122189614607,71.8619796416,0.10862951003,-0.0250588700959,0.0,-0.103389247778,0.0,0.112602325952,0.0,1.30010577103,0.0,0.0577557363893,0.0,-0.00121932645818,0.0,0.00309769310499,0.0,0.0710436948226,0.0,-0.000884016216511,0.0,0.0,0.0,0.0,-25.0,0.0,7.62,0.00230154196664,-25.0,-0.00383606751517,0.0,-0.0,-25.0,-0.0,0.0,63407.2000001,0.0,0.0,0.0,0.0,0.0,0.0
1402754187591123846,3,-19.9286499587,-0.00591572024346,-21.5218396851,-0.122189614607,71.8688677148,0.10862951003,-0.00199789808441,0.0,-0.102289583041,0.0,0.112704401556,0.0,1.30311635122,0.0,0.0603679187482,0.0,0.00139556489366,0.0,0.00263900967861,0.0,0.071945420702,0.0,0.00145404018433,0.0,0.0,0.0,0.0,-25.0,0.0,7.62,0.00230154196664,-25.0,-0.00383606751517,0.0,-0.0,-25.0,-0.0,0.0,63407.2000001,0.0,0.0,0.0,0.0,0.0,0.0
1402754187612292476,3,-19.9286499587,-0.00591572024346,-21.5218396851,-0.122189614607,71.8688677148,0.10862951003,-0.00199789808441,0.0,-0.102289583041,0.0,0.112704401556,0.0,1.30311635122,0.0,0.0603679187482,0.0,0.00139556489366,0.0,0.00263900967861,0.0,0.071945420702,0.0,0.00145404018433,0.0,0.0,0.0,0.0,-25.0,0.0,7.62,0.00230154196664,-25.0,-0.00383606751517,0.0,-0.0,-25.0,-0.0,0.0,63407.2000001,0.0,0.0,0.0,0.0,0.0,0.0
1402754187631019410,3,-19.933094539,-0.00591572024346,-21.5324401953,-0.122189614607,71.8858824374,0.10862951003,-0.0107055728766,0.0,-0.106127900627,0.0,0.116267321862,0.0,1.30609795293,0.0,0.0618661065165,0.0,0.000325711061591,0.0,0.00376852878573,0.0,0.0714874193856,0.0,-0.00128730546981,0.0,0.0,0.0,0.0,-25.0,0.0,7.62,0.00230154196664,-25.0,-0.00383606751517,0.0,-0.0,-25.0,-0.0,0.0,63407.2000001,0.0,0.0,0.0,0.0,0.0,0.0
1402754187651085409,3,-19.933094539,-0.00591572024346,-21.5324401953,-0.122189614607,71.8858824374,0.10862951003,-0.0107055728766,0.0,-0.106127900627,0.0,0.116267321862,0.0,1.30609795293,0.0,0.0618661065165,0.0,0.000325711061591,0.0,0.00376852878573,0.0,0.0714874193856,0.0,-0.00128730546981,0.0,0.0,0.0,0.0,-25.0,0.0,7.62,0.00230154196664,-25.0,-0.00383606751517,0.0,-0.0,-25.0,-0.0,0.0,63407.2000001,0.0,0.0,0.0,0.0,0.0,0.0
1402754187672127462,3,-19.9359645546,-0.00591572024346,-21.5400109571,-0.122189614607,71.8931731161,0.10862951003,-0.0144648208806,0.0,-0.111422548423,0.0,0.116755332156,0.0,1.30724156908,0.0,0.0598202289064,0.0,0.000184504205769,0.0,0.00300636526068,0.0,0.0708031961827,0.0,-0.00195922154778,0.0,0.0,0.0,0.0,-25.0,0.0,7.62,0.00230154196664,-25.0,-0.00383606751517,0.0,-0.0,-25.0,-0.0,0.0,63407.2000001,0.0,0.0,0.0,0.0,0.0,0.0
1402754187690988157,3,-19.9359645546,-0.00591572024346,-21.5400109571,-0.122189614607,71.8931731161,0.10862951003,-0.0144648208806,0.0,-0.111422548423,0.0,0.116755332156,0.0,1.30724156908,0.0,0.0598202289064,0.0,0.000184504205769,0.0,0.00300636526068,0.0,0.0708031961827,0.0,-0.00195922154778,0.0,0.0,0.0,0.0,-25.0,0.0,7.62,0.00230154196664,-25.0,-0.00383606751517,0.0,-0.0,-25.0,-0.0,0.0,63407.2000001,0.0,0.0,0.0,0.0,0.0,0.0
1402754187711396427,3,-19.9370317706,-0.00591572024346,-21.5447392689,-0.122189614607,71.8904127346,0.10862951003,-0.00925832657743,0.0,-0.11268204898,0.0,0.114690347992,0.0,1.3095741187,0.0,0.0588596066575,0.0,0.000795113322465,0.0,0.00213961013026,0.0,0.0707724306781,0.0,-0.000645259125573,0.0,0.0,0.0,0.0,-25.0,0.0,7.62,0.00230154196664,-25.0,-0.00383606751517,0.0,-0.0,-25.0,-0.0,0.0,63407.2000001,0.0,0.0,0.0,0.0,0.0,0.0
