rosbagTimestamp,control_method,x_current,x_desired,y_current,y_desired,x_velocity_current,x_velocity_desired,y_velocity_current,y_velocity_desired,yaw_current,yaw_desired,required_force_x,required_force_y,required_moment_z,resultant_force_x,resultant_force_y,resultant_moment_z,current_port_servo_angle,current_port_thruster_force,current_starboard_servo_angle,current_starboard_thruster_force,estimated_port_servo_angle,estimated_port_thruster_force,estimated_starboard_servo_angle,estimated_starboard_thruster_force,cost_value,step,user_defined_1,user_defined_2,user_defined_3,user_defined_4,user_defined_5
1402603657150322319,0,5.70902222959,9.88567784727,-15.9340465121,10.0438151857,-0.0538095747147,0.0,-0.252526286801,0.0,0.282996711849,0.0,1011.10499914,2203.10023144,-1.34130416972,-0.0,0.0,0.0,-0.230920704203,-0.0,0.00230154196664,-0.0,-0.217572034908,-0.0,0.0,-0.0,2477942880.39,0.0,0.0,0.0,0.0,0.0,0.0
1402603657170278602,0,5.70213996529,9.88567784727,-15.9465386209,10.0438151857,-0.0666643620623,0.0,-0.254078613049,0.0,0.276122481902,0.0,1011.10499914,2203.10023144,-1.34130416972,-0.0,0.0,0.0,-0.230920704203,-0.0,0.00230154196664,-0.0,-0.217572034908,-0.0,0.0,-0.0,2477942880.39,0.0,0.0,0.0,0.0,0.0,0.0
1402603657190594506,0,5.70213996529,9.88567784727,-15.9465386209,10.0438151857,-0.0666643620623,0.0,-0.254078613049,0.0,0.276122481902,0.0,1011.10499914,2203.10023144,-1.34130416972,-0.0,0.0,0.0,-0.230920704203,-0.0,0.00230154196664,-0.0,-0.217572034908,-0.0,0.0,-0.0,2477942880.39,0.0,0.0,0.0,0.0,0.0,0.0
1402603657210343509,0,5.70229872586,9.88567784727,-15.9604416592,10.0438151857,-0.05972707238,0.0,-0.258989729784,0.0,0.270041708854,0.0,1011.10499914,2203.10023144,-1.34130416972,-0.0,0.0,0.0,-0.230920704203,-0.0,0.00230154196664,-0.0,-0.217572034908,-0.0,0.0,-0.0,2477942880.39,0.0,0.0,0.0,0.0,0.0,0.0
1402603657230330049,0,5.70229872586,9.88567784727,-15.9604416592,10.0438151857,-0.05972707238,0.0,-0.258989729784,0.0,0.270041708854,0.0,1011.10499914,2203.10023144,-1.34130416972,-0.0,0.0,0.0,-0.230920704203,-0.0,0.00230154196664,-0.0,-0.217572034908,-0.0,0.0,-0.0,2477942880.39,0.0,0.0,0.0,0.0,0.0,0.0
1402603657251132172,0,5.69975973984,9.88567784727,-15.9664427933,10.0438151857,-0.0601669589823,0.0,-0.243722873517,0.0,0.263430043543,0.0,1011.10499914,2203.10023144,-1.34130416972,-0.0,0.0,0.0,-0.230920704203,-0.0,0.00230154196664,-0.0,-0.217572034908,-0.0,0.0,-0.0,2477942880.39,0.0,0.0,0.0,0.0,0.0,0.0
1402603657270304582,0,5.69975973984,9.88567784727,-15.9664427933,10.0438151857,-0.0601669589823,0.0,-0.243722873517,0.0,0.263430043543,0.0,1011.10499914,2203.10023144,-1.34130416972,-0.0,0.0,0.0,-0.230920704203,-0.0,0.00230154196664,-0.0,-0.217572034908,-0.0,0.0,-0.0,2477942880.39,0.0,0.0,0.0,0.0,0.0,0.0
1402603657290366749,0,5.697273749,9.88567784727,-15.9761921858,10.0438151857,-0.0611889546623,0.0,-0.241157226644,0.0,0.257313348803,0.0,1011.10499914,2203.10023144,-1.34130416972,-0.0,0.0,0.0,-0.230920704203,-0.0,0.00230154196664,-0.0,-0.217572034908,-0.0,0.0,-0.0,2477942880.39,0.0,0.0,0.0,0.0,0.0,0.0
1402603657310227497,0,5.697273749,9.88567784727,-15.9761921858,10.0438151857,-0.0611889546623,0.0,-0.241157226644,0.0,0.257313348803,0.0,1011.10499914,2203.10023144,-1.34130416972,-0.0,0.0,0.0,-0.230920704203,-0.0,0.00230154196664,-0.0,-0.217572034908,-0.0,0.0,-0.0,2477942880.39,0.0,0.0,0.0,0.0,0.0,0.0
1402603657330272867,0,5.69351133838,9.88567784727,-15.988556068,10.0438151857,-0.0647269599704,0.0,-0.245217731646,0.0,0.250946701303,0.0,1011.10499914,2203.10023144,-1.34130416972,-0.0,0.0,0.0,-0.230920704203,-0.0,0.00230154196664,-0.0,-0.217572034908,-0.0,0.0,-0.0,2477942880.39,0.0,0.0,0.0,0.0,0.0,0.0
1402603657350238305,0,5.69351133838,9.88567784727,-15.988556068,10.0438151857,-0.0647269599704,0.0,-0.245217731646,0.0,0.250946701303,0.0,1011.10499914,2203.10023144,-1.34130416972,-0.0,0.0,0.0,-0.230920704203,-0.0,0.00230154196664,-0.0,-0.217572034908,-0.0,0.0,-0.0,2477942880.39,0.0,0.0,0.0,0.0,0.0,0.0
1402603657370867109,0,5.68551783367,9.88567784727,-16.001700929,10.0438151857,-0.076969586852,0.0,-0.24292839051,0.0,0.242745106775,0.0,1011.10499914,2203.10023144,-1.34130416972,-0.0,0.0,0.0,-0.230920704203,-0.0,0.00230154196664,-0.0,-0.217572034908,-0.0,0.0,-0.0,2477942880.39,0.0,0.0,0.0,0.0,0.0,0.0
1402603657390842826,0,5.68551783367,9.88567784727,-16.001700929,10.0438151857,-0.076969586852,0.0,-0.24292839051,0.0,0.242745106775,0.0,1011.10499914,2203.10023144,-1.34130416972,-0.0,0.0,0.0,-0.230920704203,-0.0,0.00230154196664,-0.0,-0.217572034908,-0.0,0.0,-0.0,2477942880.39,0.0,0.0,0.0,0.0,0.0,0.0
1402603657410376329,0,5.68373381869,9.88567784727,-16.0081646377,10.0438151857,-0.0739944671406,0.0,-0.226752718342,0.0,0.234248395996,0.0,1011.10499914,2203.10023144,-1.34130416972,-0.0,0.0,0.0,-0.230920704203,-0.0,0.00230154196664,-0.0,-0.217572034908,-0.0,0.0,-0.0,2477942880.39,0.0,0.0,0.0,0.0,0.0,0.0
1402603657430163640,0,5.68373381869,9.88567784727,-16.0081646377,10.0438151857,-0.0739944671406,0.0,-0.226752718342,0.0,0.234248395996,0.0,1011.10499914,2203.10023144,-1.34130416972,-0.0,0.0,0.0,-0.230920704203,-0.0,0.00230154196664,-0.0,-0.217572034908,-0.0,0.0,-0.0,2477942880.39,0.0,0.0,0.0,0.0,0.0,0.0
1402603657450469742,0,5.69106513992,9.88567784727,-16.0070880336,10.0438151857,-0.0512687958746,0.0,-0.215278553986,0.0,0.231212230864,0.0,1011.10499914,2203.10023144,-1.34130416972,-0.0,0.0,0.0,-0.230920704203,-0.0,0.00230154196664,-0.0,-0.217572034908,-0.0,0.0,-0.0,2477942880.39,0.0,0.0,0.0,0.0,0.0,0.0
1402603657470233795,0,5.69106513992,9.88567784727,-16.0070880336,10.0438151857,-0.0512687958746,0.0,-0.215278553986,0.0,0.231212230864,0.0,1011.10499914,2203.10023144,-1.34130416972,-0.0,0.0,0.0,-0.230920704203,-0.0,0.00230154196664,-0.0,-0.217572034908,-0.0,0.0,-0.0,2477942880.39,0.0,0.0,0.0,0.0,0.0,0.0
1402603657491221936,0,5.68908371927,9.88567784727,-16.0158593561,10.0438151857,-0.0510870149797,0.0,-0.211389242939,0.0,0.224634682751,0.0,1011.10499914,2203.10023144,-1.34130416972,-0.0,0.0,0.0,-0.230920704203,-0.0,0.00230154196664,-0.0,-0.217572034908,-0.0,0.0,-0.0,2477942880.39,0.0,0.0,0.0,0.0,0.0,0.0
1402603657510891635,0,5.68908371927,9.88567784727,-16.0158593561,10.0438151857,-0.0510870149797,0.0,-0.211389242939,0.0,0.224634682751,0.0,1011.10499914,2203.10023144,-1.34130416972,-0.0,0.0,0.0,-0.230920704203,-0.0,0.00230154196664,-0.0,-0.217572034908,-0.0,0.0,-0.0,2477942880.39,0.0,0.0,0.0,0.0,0.0,0.0
1402603657530579515,0,5.69096367234,9.88567784727,-16.0279305116,10.0438151857,-0.0376034220433,0.0,-0.196869246234,0.0,0.217919570287,0.0,1011.10499914,2203.10023144,-1.34130416972,-0.0,0.0,0.0,-0.230920704203,-0.0,0.00230154196664,-0.0,-0.217572034908,-0.0,0.0,-0.0,2477942880.39,0.0,0.0,0.0,0.0,0.0,0.0
1402603657550706378,0,5.69096367234,9.88567784727,-16.0279305116,10.0438151857,-0.0376034220433,0.0,-0.196869246234,0.0,0.217919570287,0.0,1011.10499914,2203.10023144,-1.34130416972,-0.0,0.0,0.0,-0.230920704203,-0.0,0.00230154196664,-0.0,-0.217572034908,-0.0,0.0,-0.0,2477942880.39,0.0,0.0,0.0,0.0,0.0,0.0
1402603657570568117,0,5.68943543057,9.88567784727,-16.0358830853,10.0438151857,-0.037457771485,0.0,-0.193264762333,0.0,0.211197945642,0.0,1011.10499914,2203.10023144,-1.34130416972,-0.0,0.0,0.0,-0.230920704203,-0.0,0.00230154196664,-0.0,-0.217572034908,-0.0,0.0,-0.0,2477942880.39,0.0,0.0,0.0,0.0,0.0,0.0
1402603657590532510,0,5.68943543057,9.88567784727,-16.0358830853,10.0438151857,-0.037457771485,0.0,-0.193264762333,0.0,0.211197945642,0.0,1011.10499914,2203.10023144,-1.34130416972,-0.0,0.0,0.0,-0.230920704203,-0.0,0.00230154196664,-0.0,-0.217572034908,-0.0,0.0,-0.0,2477942880.39,0.0,0.0,0.0,0.0,0.0,0.0
1402603657611064796,0,5.68240670113,9.88567784727,-16.0487276957,10.0438151857,-0.049488405701,0.0,-0.197023851502,0.0,0.204796611452,0.0,1011.10499914,2203.10023144,-1.34130416972,-0.0,0.0,0.0,-0.230920704203,-0.0,0.00230154196664,-0.0,-0.217572034908,-0.0,0.0,-0.0,2477942880.39,0.0,0.0,0.0,0.0,0.0,0.0
1402603657630351727,0,5.68240670113,9.88567784727,-16.0487276957,10.0438151857,-0.049488405701,0.0,-0.197023851502,0.0,0.204796611452,0.0,1011.10499914,2203.10023144,-1.34130416972,-0.0,0.0,0.0,-0.230920704203,-0.0,0.00230154196664,-0.0,-0.217572034908,-0.0,0.0,-0.0,2477942880.39,0.0,0.0,0.0,0.0,0.0,0.0
1402603657650953762,0,5.67515531028,9.88567784727,-16.0613854081,10.0438151857,-0.064858261368,0.0,-0.215245295026,0.0,0.198603317226,0.0,1011.10499914,2203.10023144,-1.34130416972,-0.0,0.0,0.0,-0.230920704203,-0.0,0.00230154196664,-0.0,-0.217572034908,-0.0,0.0,-0.0,2477942880.39,0.0,0.0,0.0,0.0,0.0,0.0
1402603657670414071,0,5.67515531028,9.88567784727,-16.0613854081,10.0438151857,-0.064858261368,0.0,-0.215245295026,0.0,0.198603317226,0.0,1011.10499914,2203.10023144,-1.34130416972,-0.0,0.0,0.0,-0.230920704203,-0.0,0.00230154196664,-0.0,-0.217572034908,-0.0,0.0,-0.0,2477942880.39,0.0,0.0,0.0,0.0,0.0,0.0
1402603657691005574,0,5.67397951053,9.88567784727,-16.0632625093,10.0438151857,-0.0621337690672,0.0,-0.186867945781,0.0,0.19040625294,0.0,1011.10499914,2203.10023144,-1.34130416972,-0.0,0.0,0.0,-0.230920704203,-0.0,0.00230154196664,-0.0,-0.217572034908,-0.0,0.0,-0.0,2477942880.39,0.0,0.0,0.0,0.0,0.0,0.0
1402603657710172026,0,5.67397951053,9.88567784727,-16.0632625093,10.0438151857,-0.0621337690672,0.0,-0.186867945781,0.0,0.19040625294,0.0,1011.10499914,2203.10023144,-1.34130416972,-0.0,0.0,0.0,-0.230920704203,-0.0,0.00230154196664,-0.0,-0.217572034908,-0.0,0.0,-0.0,2477942880.39,0.0,0.0,0.0,0.0,0.0,0.0
1402603657730749929,0,5.67039168569,9.88567784727,-16.0759964112,10.0438151857,-0.0680862672276,0.0,-0.194815152495,0.0,0.182774359111,0.0,1011.10499914,2203.10023144,-1.34130416972,-0.0,0.0,0.0,-0.230920704203,-0.0,0.00230154196664,-0.0,-0.217572034908,-0.0,0.0,-0.0,2477942880.39,0.0,0.0,0.0,0.0,0.0,0.0
1402603657750222969,0,5.67039168569,9.88567784727,-16.0759964112,10.0438151857,-0.0680862672276,0.0,-0.194815152495,0.0,0.182774359111,0.0,1011.10499914,2203.10023144,-1.34130416972,-0.0,0.0,0.0,-0.230920704203,-0.0,0.00230154196664,-0.0,-0.217572034908,-0.0,0.0,-0.0,2477942880.39,0.0,0.0,0.0,0.0,0.0,0.0
1402603657770295743,0,5.66911302114,9.88567784727,-16.0803423501,10.0438151857,-0.0681383424522,0.0,-0.19420190195,0.0,0.179380916544,0.0,1011.10499914,2203.10023144,-1.34130416972,-0.0,0.0,0.0,-0.230920704203,-0.0,0.00230154196664,-0.0,-0.217572034908,-0.0,0.0,-0.0,2477942880.39,0.0,0.0,0.0,0.0,0.0,0.0
1402603657790907964,0,5.66911302114,9.88567784727,-16.0803423501,10.0438151857,-0.0681383424522,0.0,-0.19420190195,0.0,0.179380916544,0.0,1011.10499914,2203.10023144,-1.34130416972,-0.0,0.0,0.0,-0.230920704203,-0.0,0.00230154196664,-0.0,-0.217572034908,-0.0,0.0,-0.0,2477942880.39,0.0,0.0,0.0,0.0,0.0,0.0
1402603657810278119,0,5.67567787311,9.88567784727,-16.0894822816,10.0438151857,-0.0466377973779,0.0,-0.194757736749,0.0,0.173818772453,0.0,1011.10499914,2203.10023144,-1.34130416972,-0.0,0.0,0.0,-0.230920704203,-0.0,0.00230154196664,-0.0,-0.217572034908,-0.0,0.0,-0.0,2477942880.39,0.0,0.0,0.0,0.0,0.0,0.0
1402603657830925145,0,5.67567787311,9.88567784727,-16.0894822816,10.0438151857,-0.0466377973779,0.0,-0.194757736749,0.0,0.173818772453,0.0,1011.10499914,2203.10023144,-1.34130416972,-0.0,0.0,0.0,-0.230920704203,-0.0,0.00230154196664,-0.0,-0.217572034908,-0.0,0.0,-0.0,2477942880.39,0.0,0.0,0.0,0.0,0.0,0.0
1402603657850446890,0,5.67512406785,9.88567784727,-16.0953918855,10.0438151857,-0.0442117797784,0.0,-0.181247975255,0.0,0.167628423139,0.0,1011.10499914,2203.10023144,-1.34130416972,-0.0,0.0,0.0,-0.230920704203,-0.0,0.00230154196664,-0.0,-0.217572034908,-0.0,0.0,-0.0,2477942880.39,0.0,0.0,0.0,0.0,0.0,0.0
1402603657870717251,0,5.67512406785,9.88567784727,-16.0953918855,10.0438151857,-0.0442117797784,0.0,-0.181247975255,0.0,0.167628423139,0.0,1011.10499914,2203.10023144,-1.34130416972,-0.0,0.0,0.0,-0.230920704203,-0.0,0.00230154196664,-0.0,-0.217572034908,-0.0,0.0,-0.0,2477942880.39,0.0,0.0,0.0,0.0,0.0,0.0
1402603657890803924,0,5.66820557915,9.88567784727,-16.1170593734,10.0438151857,-0.0527782603346,0.0,-0.191290969137,0.0,0.161809202679,0.0,1011.10499914,2203.10023144,-1.34130416972,-0.0,0.0,0.0,-0.230920704203,-0.0,0.00230154196664,-0.0,-0.217572034908,-0.0,0.0,-0.0,2477942880.39,0.0,0.0,0.0,0.0,0.0,0.0
1402603657911043850,0,5.66820557915,9.88567784727,-16.1170593734,10.0438151857,-0.0527782603346,0.0,-0.191290969137,0.0,0.161809202679,0.0,1011.10499914,2203.10023144,-1.34130416972,-0.0,0.0,0.0,-0.230920704203,-0.0,0.00230154196664,-0.0,-0.217572034908,-0.0,0.0,-0.0,2477942880.39,0.0,0.0,0.0,0.0,0.0,0.0
1402603657930357745,0,5.66597350621,9.88567784727,-16.124840731,10.0438151857,-0.0516203846323,0.0,-0.190720110252,0.0,0.155981061708,0.0,1011.10499914,2203.10023144,-1.34130416972,-0.0,0.0,0.0,-0.230920704203,-0.0,0.00230154196664,-0.0,-0.217572034908,-0.0,0.0,-0.0,2477942880.39,0.0,0.0,0.0,0.0,0.0,0.0
1402603657950800467,0,5.66597350621,9.88567784727,-16.124840731,10.0438151857,-0.0516203846323,0.0,-0.190720110252,0.0,0.155981061708,0.0,1011.10499914,2203.10023144,-1.34130416972,-0.0,0.0,0.0,-0.230920704203,-0.0,0.00230154196664,-0.0,-0.217572034908,-0.0,0.0,-0.0,2477942880.39,0.0,0.0,0.0,0.0,0.0,0.0
1402603657970184911,0,5.69651992987,9.88567784727,-16.1240559348,10.0438151857,0.0345076456282,0.0,-0.15193236446,0.0,0.150427283934,0.0,1011.10499914,2203.10023144,-1.34130416972,-0.0,0.0,0.0,-0.230920704203,-0.0,0.00230154196664,-0.0,-0.217572034908,-0.0,0.0,-0.0,2477942880.39,0.0,0.0,0.0,0.0,0.0,0.0
1402603657990943666,0,5.69651992987,9.88567784727,-16.1240559348,10.0438151857,0.0345076456282,0.0,-0.15193236446,0.0,0.150427283934,0.0,1011.10499914,2203.10023144,-1.34130416972,-0.0,0.0,0.0,-0.230920704203,-0.0,0.00230154196664,-0.0,-0.217572034908,-0.0,0.0,-0.0,2477942880.39,0.0,0.0,0.0,0.0,0.0,0.0
1402603658010280766,0,5.67705757897,9.88567784727,-16.1407669547,10.0438151857,-0.0202448541538,0.0,-0.183455602967,0.0,0.144341130499,0.0,1011.10499914,2203.10023144,-1.34130416972,-0.0,0.0,0.0,-0.230920704203,-0.0,0.00230154196664,-0.0,-0.217572034908,-0.0,0.0,-0.0,2477942880.39,0.0,0.0,0.0,0.0,0.0,0.0
1402603658030902451,0,5.67705757897,9.88567784727,-16.1407669547,10.0438151857,-0.0202448541538,0.0,-0.183455602967,0.0,0.144341130499,0.0,1011.10499914,2203.10023144,-1.34130416972,-0.0,0.0,0.0,-0.230920704203,-0.0,0.00230154196664,-0.0,-0.217572034908,-0.0,0.0,-0.0,2477942880.39,0.0,0.0,0.0,0.0,0.0,0.0
1402603658050308635,0,5.68455289862,9.88567784727,-16.1407883727,10.0438151857,-0.000617174593801,0.0,-0.17557047231,0.0,0.138611058832,0.0,1011.10499914,2203.10023144,-1.34130416972,-0.0,0.0,0.0,-0.230920704203,-0.0,0.00230154196664,-0.0,-0.217572034908,-0.0,0.0,-0.0,2477942880.39,0.0,0.0,0.0,0.0,0.0,0.0
1402603658070875993,0,5.68455289862,9.88567784727,-16.1407883727,10.0438151857,-0.000617174593801,0.0,-0.17557047231,0.0,0.138611058832,0.0,1011.10499914,2203.10023144,-1.34130416972,-0.0,0.0,0.0,-0.230920704203,-0.0,0.00230154196664,-0.0,-0.217572034908,-0.0,0.0,-0.0,2477942880.39,0.0,0.0,0.0,0.0,0.0,0.0
1402603658090274774,0,5.67635301316,9.88567784727,-16.1518563996,10.0438151857,-0.0231286272223,0.0,-0.185182449781,0.0,0.132657481661,0.0,1011.10499914,2203.10023144,-1.34130416972,-0.0,0.0,0.0,-0.230920704203,-0.0,0.00230154196664,-0.0,-0.217572034908,-0.0,0.0,-0.0,2477942880.39,0.0,0.0,0.0,0.0,0.0,0.0
1402603658110185828,0,5.67635301316,9.88567784727,-16.1518563996,10.0438151857,-0.0231286272223,0.0,-0.185182449781,0.0,0.132657481661,0.0,1011.10499914,2203.10023144,-1.34130416972,-0.0,0.0,0.0,-0.230920704203,-0.0,0.00230154196664,-0.0,-0.217572034908,-0.0,0.0,-0.0,2477942880.39,0.0,0.0,0.0,0.0,0.0,0.0
1402603658130265850,0,5.67495326446,9.88567784727,-16.1592240083,10.0438151857,-0.0221088522879,0.0,-0.181606782836,0.0,0.127138425236,0.0,1011.10499914,2203.10023144,-1.34130416972,-0.0,0.0,0.0,-0.230920704203,-0.0,0.00230154196664,-0.0,-0.217572034908,-0.0,0.0,-0.0,2477942880.39,0.0,0.0,0.0,0.0,0.0,0.0
1402603658150232611,0,5.67495326446,9.88567784727,-16.1592240083,10.0438151857,-0.0221088522879,0.0,-0.181606782836,0.0,0.127138425236,0.0,1011.10499914,2203.10023144,-1.34130416972,-0.0,0.0,0.0,-0.230920704203,-0.0,0.00230154196664,-0.0,-0.217572034908,-0.0,0.0,-0.0,2477942880.39,0.0,0.0,0.0,0.0,0.0,0.0
1402603658170242218,0,5.67417550821,9.88567784727,-16.1683781785,10.0438151857,-0.0218945135083,0.0,-0.174552793416,0.0,0.119799435639,0.0,1011.10499914,2203.10023144,-1.34130416972,-0.0,0.0,0.0,-0.230920704203,-0.0,0.00230154196664,-0.0,-0.217572034908,-0.0,0.0,-0.0,2477942880.39,0.0,0.0,0.0,0.0,0.0,0.0
1402603658190839340,0,5.67417550821,9.88567784727,-16.1683781785,10.0438151857,-0.0218945135083,0.0,-0.174552793416,0.0,0.119799435639,0.0,1011.10499914,2203.10023144,-1.34130416972,-0.0,0.0,0.0,-0.230920704203,-0.0,0.00230154196664,-0.0,-0.217572034908,-0.0,0.0,-0.0,2477942880.39,0.0,0.0,0.0,0.0,0.0,0.0
1402603658210361249,0,5.66973700709,9.88567784727,-16.1714033014,10.0438151857,-0.0341408182994,0.0,-0.174224767886,0.0,0.115712854724,0.0,1011.10499914,2203.10023144,-1.34130416972,-0.0,0.0,0.0,-0.230920704203,-0.0,0.00230154196664,-0.0,-0.217572034908,-0.0,0.0,-0.0,2477942880.39,0.0,0.0,0.0,0.0,0.0,0.0
1402603658230257184,0,5.66906184869,9.88567784727,-16.1747576632,10.0438151857,-0.0342774494093,0.0,-0.171080762123,0.0,0.11292174338,0.0,1011.10499914,2203.10023144,-1.34130416972,-0.0,0.0,0.0,-0.230920704203,-0.0,0.00230154196664,-0.0,-0.217572034908,-0.0,0.0,-0.0,2477942880.39,0.0,0.0,0.0,0.0,0.0,0.0
1402603658250294197,0,5.66906184869,9.88567784727,-16.1747576632,10.0438151857,-0.0342774494093,0.0,-0.171080762123,0.0,0.11292174338,0.0,1011.10499914,2203.10023144,-1.34130416972,-0.0,0.0,0.0,-0.230920704203,-0.0,0.00230154196664,-0.0,-0.217572034908,-0.0,0.0,-0.0,2477942880.39,0.0,0.0,0.0,0.0,0.0,0.0
1402603658270256922,0,5.66322518145,9.88567784727,-16.1840552432,10.0438151857,-0.050793662687,0.0,-0.194958079316,0.0,0.10993472636,0.0,1011.10499914,2203.10023144,-1.34130416972,-0.0,0.0,0.0,-0.230920704203,-0.0,0.00230154196664,-0.0,-0.217572034908,-0.0,0.0,-0.0,2477942880.39,0.0,0.0,0.0,0.0,0.0,0.0
1402603658290173842,0,5.66322518145,9.88567784727,-16.1840552432,10.0438151857,-0.050793662687,0.0,-0.194958079316,0.0,0.10993472636,0.0,1011.10499914,2203.10023144,-1.34130416972,-0.0,0.0,0.0,-0.230920704203,-0.0,0.00230154196664,-0.0,-0.217572034908,-0.0,0.0,-0.0,2477942880.39,0.0,0.0,0.0,0.0,0.0,0.0
1402603658310275099,0,5.65669255677,9.88567784727,-16.1882512468,10.0438151857,-0.0689797936078,0.0,-0.195074802436,0.0,0.104335554157,0.0,1011.10499914,2203.10023144,-1.34130416972,-0.0,0.0,0.0,-0.230920704203,-0.0,0.00230154196664,-0.0,-0.217572034908,-0.0,0.0,-0.0,2477942880.39,0.0,0.0,0.0,0.0,0.0,0.0
1402603658330183505,0,5.65669255677,9.88567784727,-16.1882512468,10.0438151857,-0.0689797936078,0.0,-0.195074802436,0.0,0.104335554157,0.0,1011.10499914,2203.10023144,-1.34130416972,-0.0,0.0,0.0,-0.230920704203,-0.0,0.00230154196664,-0.0,-0.217572034908,-0.0,0.0,-0.0,2477942880.39,0.0,0.0,0.0,0.0,0.0,0.0
1402603658350263651,0,5.65489424037,9.88567784727,-16.1948330236,10.0438151857,-0.0667647474505,0.0,-0.190402613368,0.0,0.098326365274,0.0,1011.10499914,2203.10023144,-1.34130416972,-0.0,0.0,0.0,-0.230920704203,-0.0,0.00230154196664,-0.0,-0.217572034908,-0.0,0.0,-0.0,2477942880.39,0.0,0.0,0.0,0.0,0.0,0.0
1402603658370460019,0,5.65489424037,9.88567784727,-16.1948330236,10.0438151857,-0.0667647474505,0.0,-0.190402613368,0.0,0.098326365274,0.0,1011.10499914,2203.10023144,-1.34130416972,-0.0,0.0,0.0,-0.230920704203,-0.0,0.00230154196664,-0.0,-0.217572034908,-0.0,0.0,-0.0,2477942880.39,0.0,0.0,0.0,0.0,0.0,0.0
1402603658390864784,0,5.65231079126,9.88567784727,-16.2025727714,10.0438151857,-0.0673626770293,0.0,-0.187595564891,0.0,0.0924800453539,0.0,1011.10499914,2203.10023144,-1.34130416972,-0.0,0.0,0.0,-0.230920704203,-0.0,0.00230154196664,-0.0,-0.217572034908,-0.0,0.0,-0.0,2477942880.39,0.0,0.0,0.0,0.0,0.0,0.0
1402603658410235183,0,5.65231079126,9.88567784727,-16.2025727714,10.0438151857,-0.0673626770293,0.0,-0.187595564891,0.0,0.0924800453539,0.0,1011.10499914,2203.10023144,-1.34130416972,-0.0,0.0,0.0,-0.230920704203,-0.0,0.00230154196664,-0.0,-0.217572034908,-0.0,0.0,-0.0,2477942880.39,0.0,0.0,0.0,0.0,0.0,0.0
1402603658430282909,0,5.66430993462,9.88567784727,-16.2021030822,10.0438151857,-0.0303264236114,0.0,-0.164135482632,0.0,0.0863657865152,0.0,1011.10499914,2203.10023144,-1.34130416972,-0.0,0.0,0.0,-0.230920704203,-0.0,0.00230154196664,-0.0,-0.217572034908,-0.0,0.0,-0.0,2477942880.39,0.0,0.0,0.0,0.0,0.0,0.0
1402603658450807978,0,5.66430993462,9.88567784727,-16.2021030822,10.0438151857,-0.0303264236114,0.0,-0.164135482632,0.0,0.0863657865152,0.0,1011.10499914,2203.10023144,-1.34130416972,-0.0,0.0,0.0,-0.230920704203,-0.0,0.00230154196664,-0.0,-0.217572034908,-0.0,0.0,-0.0,2477942880.39,0.0,0.0,0.0,0.0,0.0,0.0
1402603658470123815,0,5.65422425718,9.88567784727,-16.2118121659,10.0438151857,-0.055034038518,0.0,-0.172612073141,0.0,0.0807912098918,0.0,1011.10499914,2203.10023144,-1.34130416972,-0.0,0.0,0.0,-0.230920704203,-0.0,0.00230154196664,-0.0,-0.217572034908,-0.0,0.0,-0.0,2477942880.39,0.0,0.0,0.0,0.0,0.0,0.0
1402603658490224298,0,5.65422425718,9.88567784727,-16.2118121659,10.0438151857,-0.055034038518,0.0,-0.172612073141,0.0,0.0807912098918,0.0,1011.10499914,2203.10023144,-1.34130416972,-0.0,0.0,0.0,-0.230920704203,-0.0,0.00230154196664,-0.0,-0.217572034908,-0.0,0.0,-0.0,2477942880.39,0.0,0.0,0.0,0.0,0.0,0.0
1402603658510151010,0,5.65798503489,9.88567784727,-16.2125714771,10.0438151857,-0.0409691643412,0.0,-0.156508401278,0.0,0.0747882811605,0.0,1011.10499914,2203.10023144,-1.34130416972,-0.0,0.0,0.0,-0.230920704203,-0.0,0.00230154196664,-0.0,-0.217572034908,-0.0,0.0,-0.0,2477942880.39,0.0,0.0,0.0,0.0,0.0,0.0
1402603658530873799,0,5.65798503489,9.88567784727,-16.2125714771,10.0438151857,-0.0409691643412,0.0,-0.156508401278,0.0,0.0747882811605,0.0,1011.10499914,2203.10023144,-1.34130416972,-0.0,0.0,0.0,-0.230920704203,-0.0,0.00230154196664,-0.0,-0.217572034908,-0.0,0.0,-0.0,2477942880.39,0.0,0.0,0.0,0.0,0.0,0.0
1402603658550287025,0,5.65621992757,9.88567784727,-16.2190937854,10.0438151857,-0.0394482239104,0.0,-0.156378779633,0.0,0.069043456904,0.0,1011.10499914,2203.10023144,-1.34130416972,-0.0,0.0,0.0,-0.230920704203,-0.0,0.00230154196664,-0.0,-0.217572034908,-0.0,0.0,-0.0,2477942880.39,0.0,0.0,0.0,0.0,0.0,0.0
1402603658570218445,0,5.65621992757,9.88567784727,-16.2190937854,10.0438151857,-0.0394482239104,0.0,-0.156378779633,0.0,0.069043456904,0.0,1011.10499914,2203.10023144,-1.34130416972,-0.0,0.0,0.0,-0.230920704203,-0.0,0.00230154196664,-0.0,-0.217572034908,-0.0,0.0,-0.0,2477942880.39,0.0,0.0,0.0,0.0,0.0,0.0
1402603658590841551,0,5.6534357483,9.88567784727,-16.226899258,10.0438151857,-0.0449356847525,0.0,-0.163944496359,0.0,0.0618858692406,0.0,1011.10499914,2203.10023144,-1.34130416972,-0.0,0.0,0.0,-0.230920704203,-0.0,0.00230154196664,-0.0,-0.217572034908,-0.0,0.0,-0.0,2477942880.39,0.0,0.0,0.0,0.0,0.0,0.0
1402603658610144528,0,5.6534357483,9.88567784727,-16.226899258,10.0438151857,-0.0449356847525,0.0,-0.163944496359,0.0,0.0618858692406,0.0,1011.10499914,2203.10023144,-1.34130416972,-0.0,0.0,0.0,-0.230920704203,-0.0,0.00230154196664,-0.0,-0.217572034908,-0.0,0.0,-0.0,2477942880.39,0.0,0.0,0.0,0.0,0.0,0.0
1402603658630587919,0,5.64709539372,9.88567784727,-16.2330859776,10.0438151857,-0.0571520818895,0.0,-0.161715903269,0.0,0.0543877100493,0.0,1011.10499914,2203.10023144,-1.34130416972,-0.0,0.0,0.0,-0.230920704203,-0.0,0.00230154196664,-0.0,-0.217572034908,-0.0,0.0,-0.0,2477942880.39,0.0,0.0,0.0,0.0,0.0,0.0
1402603658650284767,0,5.64709539372,9.88567784727,-16.2330859776,10.0438151857,-0.0571520818895,0.0,-0.161715903269,0.0,0.0543877100493,0.0,1011.10499914,2203.10023144,-1.34130416972,-0.0,0.0,0.0,-0.230920704203,-0.0,0.00230154196664,-0.0,-0.217572034908,-0.0,0.0,-0.0,2477942880.39,0.0,0.0,0.0,0.0,0.0,0.0
1402603658670865686,0,5.64472559578,9.88567784727,-16.2335867504,10.0438151857,-0.0634753040276,0.0,-0.155955453661,0.0,0.0455889275311,0.0,1011.10499914,2203.10023144,-1.34130416972,-0.0,0.0,0.0,-0.230920704203,-0.0,0.00230154196664,-0.0,-0.217572034908,-0.0,0.0,-0.0,2477942880.39,0.0,0.0,0.0,0.0,0.0,0.0
1402603658690299737,0,5.64472559578,9.88567784727,-16.2335867504,10.0438151857,-0.0634753040276,0.0,-0.155955453661,0.0,0.0455889275311,0.0,1011.10499914,2203.10023144,-1.34130416972,-0.0,0.0,0.0,-0.230920704203,-0.0,0.00230154196664,-0.0,-0.217572034908,-0.0,0.0,-0.0,2477942880.39,0.0,0.0,0.0,0.0,0.0,0.0
1402603658711076380,0,5.64327632138,9.88567784727,-16.2368867086,10.0438151857,-0.0650095793014,0.0,-0.155424045945,0.0,0.0426596641236,0.0,1011.10499914,2203.10023144,-1.34130416972,-0.0,0.0,0.0,-0.230920704203,-0.0,0.00230154196664,-0.0,-0.217572034908,-0.0,0.0,-0.0,2477942880.39,0.0,0.0,0.0,0.0,0.0,0.0
1402603658730278640,0,5.64327632138,9.88567784727,-16.2368867086,10.0438151857,-0.0650095793014,0.0,-0.155424045945,0.0,0.0426596641236,0.0,1011.10499914,2203.10023144,-1.34130416972,-0.0,0.0,0.0,-0.230920704203,-0.0,0.00230154196664,-0.0,-0.217572034908,-0.0,0.0,-0.0,2477942880.39,0.0,0.0,0.0,0.0,0.0,0.0
1402603658750266106,0,5.64476477317,9.88567784727,-16.2401142069,10.0438151857,-0.0563950479425,0.0,-0.153512707848,0.0,0.0400304159779,0.0,1011.10499914,2203.10023144,-1.34130416972,-0.0,0.0,0.0,-0.230920704203,-0.0,0.00230154196664,-0.0,-0.217572034908,-0.0,0.0,-0.0,2477942880.39,0.0,0.0,0.0,0.0,0.0,0.0
1402603658770835649,0,5.64476477317,9.88567784727,-16.2401142069,10.0438151857,-0.0563950479425,0.0,-0.153512707848,0.0,0.0400304159779,0.0,1011.10499914,2203.10023144,-1.34130416972,-0.0,0.0,0.0,-0.230920704203,-0.0,0.00230154196664,-0.0,-0.217572034908,-0.0,0.0,-0.0,2477942880.39,0.0,0.0,0.0,0.0,0.0,0.0
1402603658790242294,0,5.64134541325,9.88567784727,-16.2483383623,10.0438151857,-0.0606571410266,0.0,-0.160014357688,0.0,0.0345837413564,0.0,1011.10499914,2203.10023144,-1.34130416972,-0.0,0.0,0.0,-0.230920704203,-0.0,0.00230154196664,-0.0,-0.217572034908,-0.0,0.0,-0.0,2477942880.39,0.0,0.0,0.0,0.0,0.0,0.0
1402603658810837308,0,5.64134541325,9.88567784727,-16.2483383623,10.0438151857,-0.0606571410266,0.0,-0.160014357688,0.0,0.0345837413564,0.0,1011.10499914,2203.10023144,-1.34130416972,-0.0,0.0,0.0,-0.230920704203,-0.0,0.00230154196664,-0.0,-0.217572034908,-0.0,0.0,-0.0,2477942880.39,0.0,0.0,0.0,0.0,0.0,0.0
1402603658830216950,0,5.63890086552,9.88567784727,-16.2546769624,10.0438151857,-0.060494036235,0.0,-0.159805763386,0.0,0.0293189995555,0.0,1011.10499914,2203.10023144,-1.34130416972,-0.0,0.0,0.0,-0.230920704203,-0.0,0.00230154196664,-0.0,-0.217572034908,-0.0,0.0,-0.0,2477942880.39,0.0,0.0,0.0,0.0,0.0,0.0
1402603658850806151,0,5.63890086552,9.88567784727,-16.2546769624,10.0438151857,-0.060494036235,0.0,-0.159805763386,0.0,0.0293189995555,0.0,1011.10499914,2203.10023144,-1.34130416972,-0.0,0.0,0.0,-0.230920704203,-0.0,0.00230154196664,-0.0,-0.217572034908,-0.0,0.0,-0.0,2477942880.39,0.0,0.0,0.0,0.0,0.0,0.0
1402603658870309318,0,5.63733438589,9.88567784727,-16.2538900428,10.0438151857,-0.062274510582,0.0,-0.14599543016,0.0,0.0238117080729,0.0,1011.10499914,2203.10023144,-1.34130416972,-0.0,0.0,0.0,-0.230920704203,-0.0,0.00230154196664,-0.0,-0.217572034908,-0.0,0.0,-0.0,2477942880.39,0.0,0.0,0.0,0.0,0.0,0.0
1402603658890839330,0,5.63733438589,9.88567784727,-16.2538900428,10.0438151857,-0.062274510582,0.0,-0.14599543016,0.0,0.0238117080729,0.0,1011.10499914,2203.10023144,-1.34130416972,-0.0,0.0,0.0,-0.230920704203,-0.0,0.00230154196664,-0.0,-0.217572034908,-0.0,0.0,-0.0,2477942880.39,0.0,0.0,0.0,0.0,0.0,0.0
1402603658910305463,0,5.63505982188,9.88567784727,-16.260820869,10.0438151857,-0.0677363123223,0.0,-0.151953893072,0.0,0.0187432237561,0.0,1011.10499914,2203.10023144,-1.34130416972,-0.0,0.0,0.0,-0.230920704203,-0.0,0.00230154196664,-0.0,-0.217572034908,-0.0,0.0,-0.0,2477942880.39,0.0,0.0,0.0,0.0,0.0,0.0
1402603658930871635,0,5.63505982188,9.88567784727,-16.260820869,10.0438151857,-0.0677363123223,0.0,-0.151953893072,0.0,0.0187432237561,0.0,1011.10499914,2203.10023144,-1.34130416972,-0.0,0.0,0.0,-0.230920704203,-0.0,0.00230154196664,-0.0,-0.217572034908,-0.0,0.0,-0.0,2477942880.39,0.0,0.0,0.0,0.0,0.0,0.0
1402603658950274746,0,5.63524449597,9.88567784727,-16.2676154854,10.0438151857,-0.0634046020132,0.0,-0.15559217161,0.0,0.0137526023174,0.0,1011.10499914,2203.10023144,-1.34130416972,-0.0,0.0,0.0,-0.230920704203,-0.0,0.00230154196664,-0.0,-0.217572034908,-0.0,0.0,-0.0,2477942880.39,0.0,0.0,0.0,0.0,0.0,0.0
1402603658970897206,0,5.63524449597,9.88567784727,-16.2676154854,10.0438151857,-0.0634046020132,0.0,-0.15559217161,0.0,0.0137526023174,0.0,1011.10499914,2203.10023144,-1.34130416972,-0.0,0.0,0.0,-0.230920704203,-0.0,0.00230154196664,-0.0,-0.217572034908,-0.0,0.0,-0.0,2477942880.39,0.0,0.0,0.0,0.0,0.0,0.0
1402603658990121114,0,5.63178385348,9.88567784727,-16.2725090782,10.0438151857,-0.0691419923322,0.0,-0.155155082294,0.0,0.00887529226258,0.0,1011.10499914,2203.10023144,-1.34130416972,-0.0,0.0,0.0,-0.230920704203,-0.0,0.00230154196664,-0.0,-0.217572034908,-0.0,0.0,-0.0,2477942880.39,0.0,0.0,0.0,0.0,0.0,0.0
1402603659010802639,0,5.63178385348,9.88567784727,-16.2725090782,10.0438151857,-0.0691419923322,0.0,-0.155155082294,0.0,0.00887529226258,0.0,1011.10499914,2203.10023144,-1.34130416972,-0.0,0.0,0.0,-0.230920704203,-0.0,0.00230154196664,-0.0,-0.217572034908,-0.0,0.0,-0.0,2477942880.39,0.0,0.0,0.0,0.0,0.0,0.0
1402603659030207485,0,5.62897606124,9.88567784727,-16.2788555596,10.0438151857,-0.0697198139504,0.0,-0.153591258532,0.0,0.00375496224797,0.0,1011.10499914,2203.10023144,-1.34130416972,-0.0,0.0,0.0,-0.230920704203,-0.0,0.00230154196664,-0.0,-0.217572034908,-0.0,0.0,-0.0,2477942880.39,0.0,0.0,0.0,0.0,0.0,0.0
1402603659050806629,0,5.62897606124,9.88567784727,-16.2788555596,10.0438151857,-0.0697198139504,0.0,-0.153591258532,0.0,0.00375496224797,0.0,1011.10499914,2203.10023144,-1.34130416972,-0.0,0.0,0.0,-0.230920704203,-0.0,0.00230154196664,-0.0,-0.217572034908,-0.0,0.0,-0.0,2477942880.39,0.0,0.0,0.0,0.0,0.0,0.0
1402603659070292387,0,5.63141097321,9.88567784727,-16.2835397811,10.0438151857,-0.0638764906119,0.0,-0.158280668459,0.0,-0.00122564142725,0.0,1011.10499914,2203.10023144,-1.34130416972,-0.0,0.0,0.0,-0.230920704203,-0.0,0.00230154196664,-0.0,-0.217572034908,-0.0,0.0,-0.0,2477942880.39,0.0,0.0,0.0,0.0,0.0,0.0
1402603659090779759,0,5.63141097321,9.88567784727,-16.2835397811,10.0438151857,-0.0638764906119,0.0,-0.158280668459,0.0,-0.00122564142725,0.0,1011.10499914,2203.10023144,-1.34130416972,-0.0,0.0,0.0,-0.230920704203,-0.0,0.00230154196664,-0.0,-0.217572034908,-0.0,0.0,-0.0,2477942880.39,0.0,0.0,0.0,0.0,0.0,0.0
1402603659110506259,0,5.62669199001,9.88567784727,-16.2856106073,10.0438151857,-0.0737988904285,0.0,-0.150132739115,0.0,-0.0064069428682,0.0,1011.10499914,2203.10023144,-1.34130416972,-0.0,0.0,0.0,-0.230920704203,-0.0,0.00230154196664,-0.0,-0.217572034908,-0.0,0.0,-0.0,2477942880.39,0.0,0.0,0.0,0.0,0.0,0.0
1402603659130838154,0,5.62669199001,9.88567784727,-16.2856106073,10.0438151857,-0.0737988904285,0.0,-0.150132739115,0.0,-0.0064069428682,0.0,1011.10499914,2203.10023144,-1.34130416972,-0.0,0.0,0.0,-0.230920704203,-0.0,0.00230154196664,-0.0,-0.217572034908,-0.0,0.0,-0.0,2477942880.39,0.0,0.0,0.0,0.0,0.0,0.0
1402603659150279524,0,5.62457828566,9.88567784727,-16.2904502794,10.0438151857,-0.0773401189356,0.0,-0.150323701239,0.0,-0.0114247735082,0.0,1011.10499914,2203.10023144,-1.34130416972,-0.0,0.0,0.0,-0.230920704203,-0.0,0.00230154196664,-0.0,-0.217572034908,-0.0,0.0,-0.0,2477942880.39,0.0,0.0,0.0,0.0,0.0,0.0
1402603659170839351,0,5.62457828566,9.88567784727,-16.2904502794,10.0438151857,-0.0773401189356,0.0,-0.150323701239,0.0,-0.0114247735082,0.0,1011.10499914,2203.10023144,-1.34130416972,-0.0,0.0,0.0,-0.230920704203,-0.0,0.00230154196664,-0.0,-0.217572034908,-0.0,0.0,-0.0,2477942880.39,0.0,0.0,0.0,0.0,0.0,0.0
1402603659190310613,0,5.62957103483,9.88567784727,-16.2937104902,10.0438151857,-0.0587579196537,0.0,-0.148815257991,0.0,-0.0167988007907,0.0,1011.10499914,2203.10023144,-1.34130416972,-0.0,0.0,0.0,-0.230920704203,-0.0,0.00230154196664,-0.0,-0.217572034908,-0.0,0.0,-0.0,2477942880.39,0.0,0.0,0.0,0.0,0.0,0.0
1402603659210774959,0,5.62957103483,9.88567784727,-16.2937104902,10.0438151857,-0.0587579196537,0.0,-0.148815257991,0.0,-0.0167988007907,0.0,1011.10499914,2203.10023144,-1.34130416972,-0.0,0.0,0.0,-0.230920704203,-0.0,0.00230154196664,-0.0,-0.217572034908,-0.0,0.0,-0.0,2477942880.39,0.0,0.0,0.0,0.0,0.0,0.0
1402603659230275076,0,5.62761007371,9.88567784727,-16.2996249235,10.0438151857,-0.0592805714675,0.0,-0.146627298151,0.0,-0.0218251839678,0.0,1011.10499914,2203.10023144,-1.34130416972,-0.0,0.0,0.0,-0.230920704203,-0.0,0.00230154196664,-0.0,-0.217572034908,-0.0,0.0,-0.0,2477942880.39,0.0,0.0,0.0,0.0,0.0,0.0
1402603659250777151,0,5.62761007371,9.88567784727,-16.2996249235,10.0438151857,-0.0592805714675,0.0,-0.146627298151,0.0,-0.0218251839678,0.0,1011.10499914,2203.10023144,-1.34130416972,-0.0,0.0,0.0,-0.230920704203,-0.0,0.00230154196664,-0.0,-0.217572034908,-0.0,0.0,-0.0,2477942880.39,0.0,0.0,0.0,0.0,0.0,0.0
1402603659271138078,0,5.62274053303,9.88567784727,-16.3025214181,10.0438151857,-0.0674193349895,0.0,-0.140765509774,0.0,-0.0282088053703,0.0,1011.10499914,2203.10023144,-1.34130416972,-0.0,0.0,0.0,-0.230920704203,-0.0,0.00230154196664,-0.0,-0.217572034908,-0.0,0.0,-0.0,2477942880.39,0.0,0.0,0.0,0.0,0.0,0.0
1402603659290942313,0,5.62274053303,9.88567784727,-16.3025214181,10.0438151857,-0.0674193349895,0.0,-0.140765509774,0.0,-0.0282088053703,0.0,1011.10499914,2203.10023144,-1.34130416972,-0.0,0.0,0.0,-0.230920704203,-0.0,0.00230154196664,-0.0,-0.217572034908,-0.0,0.0,-0.0,2477942880.39,0.0,0.0,0.0,0.0,0.0,0.0
1402603659310306060,0,5.6184152289,9.88567784727,-16.3090870036,10.0438151857,-0.0771355220226,0.0,-0.149058045677,0.0,-0.0319133188044,0.0,1011.10499914,2203.10023144,-1.34130416972,-0.0,0.0,0.0,-0.230920704203,-0.0,0.00230154196664,-0.0,-0.217572034908,-0.0,0.0,-0.0,2477942880.39,0.0,0.0,0.0,0.0,0.0,0.0
1402603659330821240,0,5.61679613273,9.88567784727,-16.3121484843,10.0438151857,-0.0778267757576,0.0,-0.14956111358,0.0,-0.0343259699593,0.0,1011.10499914,2203.10023144,-1.34130416972,-0.0,0.0,0.0,-0.230920704203,-0.0,0.00230154196664,-0.0,-0.217572034908,-0.0,0.0,-0.0,2477942880.39,0.0,0.0,0.0,0.0,0.0,0.0
1402603659350316522,0,5.61679613273,9.88567784727,-16.3121484843,10.0438151857,-0.0778267757576,0.0,-0.14956111358,0.0,-0.0343259699593,0.0,1011.10499914,2203.10023144,-1.34130416972,-0.0,0.0,0.0,-0.230920704203,-0.0,0.00230154196664,-0.0,-0.217572034908,-0.0,0.0,-0.0,2477942880.39,0.0,0.0,0.0,0.0,0.0,0.0
1402603659370845891,0,5.62044345716,9.88567784727,-16.3054903182,10.0438151857,-0.0692220290635,0.0,-0.127489551429,0.0,-0.037356836151,0.0,1011.10499914,2203.10023144,-1.34130416972,-0.0,0.0,0.0,-0.230920704203,-0.0,0.00230154196664,-0.0,-0.217572034908,-0.0,0.0,-0.0,2477942880.39,0.0,0.0,0.0,0.0,0.0,0.0
1402603659390252307,0,5.62044345716,9.88567784727,-16.3054903182,10.0438151857,-0.0692220290635,0.0,-0.127489551429,0.0,-0.037356836151,0.0,1011.10499914,2203.10023144,-1.34130416972,-0.0,0.0,0.0,-0.230920704203,-0.0,0.00230154196664,-0.0,-0.217572034908,-0.0,0.0,-0.0,2477942880.39,0.0,0.0,0.0,0.0,0.0,0.0
1402603659410893364,0,5.62047300808,9.88567784727,-16.3148452943,10.0438151857,-0.06329374027,0.0,-0.142122364002,0.0,-0.0420016656441,0.0,1011.10499914,2203.10023144,-1.34130416972,-0.0,0.0,0.0,-0.230920704203,-0.0,0.00230154196664,-0.0,-0.217572034908,-0.0,0.0,-0.0,2477942880.39,0.0,0.0,0.0,0.0,0.0,0.0
1402603659430251101,0,5.62047300808,9.88567784727,-16.3148452943,10.0438151857,-0.06329374027,0.0,-0.142122364002,0.0,-0.0420016656441,0.0,1011.10499914,2203.10023144,-1.34130416972,-0.0,0.0,0.0,-0.230920704203,-0.0,0.00230154196664,-0.0,-0.217572034908,-0.0,0.0,-0.0,2477942880.39,0.0,0.0,0.0,0.0,0.0,0.0
1402603659450801272,0,5.62010983646,9.88567784727,-16.3182818041,10.0438151857,-0.0627860764187,0.0,-0.141067126307,0.0,-0.0484136005006,0.0,1011.10499914,2203.10023144,-1.34130416972,-0.0,0.0,0.0,-0.230920704203,-0.0,0.00230154196664,-0.0,-0.217572034908,-0.0,0.0,-0.0,2477942880.39,0.0,0.0,0.0,0.0,0.0,0.0
1402603659470308745,0,5.62010983646,9.88567784727,-16.3182818041,10.0438151857,-0.0627860764187,0.0,-0.141067126307,0.0,-0.0484136005006,0.0,1011.10499914,2203.10023144,-1.34130416972,-0.0,0.0,0.0,-0.230920704203,-0.0,0.00230154196664,-0.0,-0.217572034908,-0.0,0.0,-0.0,2477942880.39,0.0,0.0,0.0,0.0,0.0,0.0
1402603659506312339,3,5.6173060241,9.88567784727,-16.3235891624,10.0438151857,-0.0679869397527,0.0,-0.141167114961,0.0,-0.054754847066,0.0,1011.10499914,2203.10023144,-1.34130416972,1.22464679915e-14,-200.0,144.78,-0.230920704203,-0.0,0.00230154196664,-0.0,-1.57079632679,100.0,-1.57079632679,100.0,2949337744.91,0.0,0.0,0.0,0.0,0.0,0.0
1402603659510790606,3,5.6173060241,9.88567784727,-16.3235891624,10.0438151857,-0.0679869397527,0.0,-0.141167114961,0.0,-0.054754847066,0.0,1011.10499914,2203.10023144,-1.34130416972,1.22464679915e-14,-200.0,144.78,-0.230920704203,100.0,0.00230154196664,-0.0,-1.57079632679,100.0,-1.57079632679,100.0,2949337744.91,0.0,0.0,0.0,0.0,0.0,0.0
1402603659530472490,3,5.61582503404,9.88567784727,-16.3266213778,10.0438151857,-0.0683515780786,0.0,-0.14211929204,0.0,-0.0573561544666,0.0,1011.10499914,2203.10023144,-1.34130416972,1.22464679915e-14,-200.0,144.78,-0.230920704203,100.0,0.00230154196664,100.0,-1.57079632679,100.0,-1.57079632679,100.0,2949337744.91,0.0,0.0,0.0,0.0,0.0,0.0
1402603659550759368,3,5.61582503404,9.88567784727,-16.3266213778,10.0438151857,-0.0683515780786,0.0,-0.14211929204,0.0,-0.0573561544666,0.0,1011.10499914,2203.10023144,-1.34130416972,1.22464679915e-14,-200.0,144.78,-0.23245492776,100.0,-0.000767381983555,100.0,-1.57079632679,100.0,-1.57079632679,100.0,2949337744.91,0.0,0.0,0.0,0.0,0.0,0.0
1402603659571022801,3,5.61309676818,9.88567784727,-16.3323938504,10.0438151857,-0.0694082252467,0.0,-0.143106288997,0.0,-0.0624932344353,0.0,1011.10499914,2203.10023144,-1.34130416972,1.22464679915e-14,-200.0,144.78,-0.24319544633,100.0,-0.0161108096416,100.0,-1.57079632679,100.0,-1.57079632679,100.0,2949337744.91,0.0,0.0,0.0,0.0,0.0,0.0
1402603659590171938,3,5.61309676818,9.88567784727,-16.3323938504,10.0438151857,-0.0694082252467,0.0,-0.143106288997,0.0,-0.0624932344353,0.0,1011.10499914,2203.10023144,-1.34130416972,1.22464679915e-14,-200.0,144.78,-0.267744930583,100.0,-0.0437292178448,100.0,-1.57079632679,100.0,-1.57079632679,100.0,2949337744.91,0.0,0.0,0.0,0.0,0.0,0.0
1402603659610602213,3,5.61048632425,9.88567784727,-16.3336755448,10.0438151857,-0.0739285621442,0.0,-0.13792866867,0.0,-0.0676831350339,0.0,1011.10499914,2203.10023144,-1.34130416972,1.22464679915e-14,-200.0,144.78,-0.303035171824,100.0,-0.0759507735546,100.0,-1.57079632679,100.0,-1.57079632679,100.0,2949337744.91,0.0,0.0,0.0,0.0,0.0,0.0
1402603659630269416,3,5.61048632425,9.88567784727,-16.3336755448,10.0438151857,-0.0739285621442,0.0,-0.13792866867,0.0,-0.0676831350339,0.0,1011.10499914,2203.10023144,-1.34130416972,1.22464679915e-14,-200.0,144.78,-0.335256489116,100.0,-0.105103166896,100.0,-1.57079632679,100.0,-1.57079632679,100.0,2949337744.91,0.0,0.0,0.0,0.0,0.0,0.0
1402603659650199432,3,5.61254727785,9.88567784727,-16.3381288309,10.0438151857,-0.0650212035982,0.0,-0.141246731709,0.0,-0.0725446311491,0.0,1011.10499914,2203.10023144,-1.34130416972,1.22464679915e-14,-200.0,144.78,-0.359806450206,100.0,-0.141927870112,100.0,-1.57079632679,100.0,-1.57079632679,100.0,2949337744.91,0.0,0.0,0.0,0.0,0.0,0.0
1402603659670845101,3,5.61254727785,9.88567784727,-16.3381288309,10.0438151857,-0.0650212035982,0.0,-0.141246731709,0.0,-0.0725446311491,0.0,1011.10499914,2203.10023144,-1.34130416972,1.22464679915e-14,-200.0,144.78,-0.388959320384,100.0,-0.180286796885,100.0,-1.57079632679,100.0,-1.57079632679,100.0,2949337744.91,0.0,0.0,0.0,0.0,0.0,0.0
1402603659690282549,3,5.60808599258,9.88567784727,-16.3425747091,10.0438151857,-0.0712186074161,0.0,-0.143142678286,0.0,-0.0776427049215,0.0,1011.10499914,2203.10023144,-1.34130416972,1.22464679915e-14,-200.0,144.78,-0.427318008738,100.0,-0.21864548524,100.0,-1.57079632679,100.0,-1.57079632679,100.0,2949337744.91,0.0,0.0,0.0,0.0,0.0,0.0
1402603659710241836,3,5.60808599258,9.88567784727,-16.3425747091,10.0438151857,-0.0712186074161,0.0,-0.143142678286,0.0,-0.0776427049215,0.0,1011.10499914,2203.10023144,-1.34130416972,1.22464679915e-14,-200.0,144.78,-0.465676935511,100.0,-0.2539359649,100.0,-1.57079632679,100.0,-1.57079632679,100.0,2949337744.91,0.0,0.0,0.0,0.0,0.0,0.0
1402603659730887382,3,5.61113531894,9.88567784727,-16.3415834171,10.0438151857,-0.00501453716425,0.0,-0.137207789191,0.0,-0.084512980677,0.0,1011.10499914,2203.10023144,-1.34130416972,1.22464679915e-14,-200.0,144.78,-0.502501400309,100.0,-0.286157282191,100.0,-1.57079632679,100.0,-1.57079632679,100.0,2949337744.91,0.0,0.0,0.0,0.0,0.0,0.0
1402603659750241484,3,5.61113531894,9.88567784727,-16.3415834171,10.0438151857,-0.00501453716425,0.0,-0.137207789191,0.0,-0.084512980677,0.0,1011.10499914,2203.10023144,-1.34130416972,1.22464679915e-14,-200.0,144.78,-0.539325865107,100.0,-0.319913061457,100.0,-1.57079632679,100.0,-1.57079632679,100.0,2949337744.91,0.0,0.0,0.0,0.0,0.0,0.0
1402603659770414660,3,5.61632641377,9.88567784727,-16.3443343359,10.0438151857,0.0775543836444,0.0,-0.135806244292,0.0,-0.0916744704287,0.0,1011.10499914,2203.10023144,-1.34130416972,1.22464679915e-14,-200.0,144.78,-0.565409811335,100.0,-0.353668840724,100.0,-1.57079632679,100.0,-1.57079632679,100.0,2949337744.91,0.0,0.0,0.0,0.0,0.0,0.0
1402603659790935334,3,5.61632641377,9.88567784727,-16.3443343359,10.0438151857,0.0775543836444,0.0,-0.135806244292,0.0,-0.0916744704287,0.0,1011.10499914,2203.10023144,-1.34130416972,1.22464679915e-14,-200.0,144.78,-0.59916582902,100.0,-0.384355934459,100.0,-1.57079632679,100.0,-1.57079632679,100.0,2949337744.9,0.0,0.0,0.0,0.0,0.0,0.0
1402603659810152132,3,5.61814307562,9.88567784727,-16.3471847269,10.0438151857,0.107968497096,0.0,-0.136437983268,0.0,-0.0956012064254,0.0,1011.10499914,2203.10023144,-1.34130416972,1.22464679915e-14,-200.0,144.78,-0.63138738473,100.0,-0.416577490168,100.0,-1.57079632679,100.0,-1.57079632679,100.0,2949337744.9,0.0,0.0,0.0,0.0,0.0,0.0
1402603659830247145,3,5.61814307562,9.88567784727,-16.3471847269,10.0438151857,0.107968497096,0.0,-0.136437983268,0.0,-0.0956012064254,0.0,1011.10499914,2203.10023144,-1.34130416972,1.22464679915e-14,-200.0,144.78,-0.666677387553,100.0,-0.444195898371,100.0,-1.57079632679,100.0,-1.57079632679,100.0,2949337744.9,0.0,0.0,0.0,0.0,0.0,0.0
1402603659850322619,3,5.62399375749,9.88567784727,-16.3525858971,10.0438151857,0.170348039072,0.0,-0.135584497036,0.0,-0.105119175979,0.0,1011.10499914,2203.10023144,-1.34130416972,1.22464679915e-14,-200.0,144.78,-0.700433166819,100.0,-0.476417454081,100.0,-1.57079632679,100.0,-1.57079632679,100.0,2949337744.9,0.0,0.0,0.0,0.0,0.0,0.0
1402603659870266607,3,5.62399375749,9.88567784727,-16.3525858971,10.0438151857,0.170348039072,0.0,-0.135584497036,0.0,-0.105119175979,0.0,1011.10499914,2203.10023144,-1.34130416972,1.22464679915e-14,-200.0,144.78,-0.732654722529,100.0,-0.510173233348,100.0,-1.57079632679,100.0,-1.57079632679,100.0,2949337744.9,0.0,0.0,0.0,0.0,0.0,0.0
1402603659890865438,3,5.63034569472,9.88567784727,-16.3562258654,10.0438151857,0.216677968916,0.0,-0.136236130475,0.0,-0.113618477908,0.0,1011.10499914,2203.10023144,-1.34130416972,1.22464679915e-14,-200.0,144.78,-0.769479187327,100.0,-0.546997698146,100.0,-1.57079632679,100.0,-1.57079632679,100.0,2949337744.9,0.0,0.0,0.0,0.0,0.0,0.0
1402603659910134488,3,5.63034569472,9.88567784727,-16.3562258654,10.0438151857,0.216677968916,0.0,-0.136236130475,0.0,-0.113618477908,0.0,1011.10499914,2203.10023144,-1.34130416972,1.22464679915e-14,-200.0,144.78,-0.803234966594,100.0,-0.582287939387,100.0,-1.57079632679,100.0,-1.57079632679,100.0,2949337744.9,0.0,0.0,0.0,0.0,0.0,0.0
1402603659930278383,3,5.65293728946,9.88567784727,-16.3563668368,10.0438151857,0.303754427677,0.0,-0.129838356709,0.0,-0.130772185822,0.0,1011.10499914,2203.10023144,-1.34130416972,1.22464679915e-14,-200.0,144.78,-0.838525207835,100.0,-0.616043718653,100.0,-1.57079632679,100.0,-1.57079632679,100.0,2949337744.9,0.0,0.0,0.0,0.0,0.0,0.0
1402603659950786814,3,5.65293728946,9.88567784727,-16.3563668368,10.0438151857,0.303754427677,0.0,-0.129838356709,0.0,-0.130772185822,0.0,1011.10499914,2203.10023144,-1.34130416972,1.22464679915e-14,-200.0,144.78,-0.87228122552,100.0,-0.64979949792,100.0,-1.57079632679,100.0,-1.57079632679,100.0,2949337744.9,0.0,0.0,0.0,0.0,0.0,0.0
1402603659970338944,3,5.66287961295,9.88567784727,-16.360444064,10.0438151857,0.3445839101,0.0,-0.132453579158,0.0,-0.141945463527,0.0,1011.10499914,2203.10023144,-1.34130416972,1.22464679915e-14,-200.0,144.78,-0.904502542811,100.0,-0.683555515605,100.0,-1.57079632679,100.0,-1.57079632679,100.0,2949337744.9,0.0,0.0,0.0,0.0,0.0,0.0
1402603659990853411,3,5.67200329321,9.88567784727,-16.3436046001,10.0438151857,0.346594179348,0.0,-0.111613258157,0.0,-0.134839372067,0.0,1011.10499914,2203.10023144,-1.34130416972,1.22464679915e-14,-200.0,144.78,-0.939792784053,100.0,-0.718845518428,100.0,-1.57079632679,100.0,-1.57079632679,100.0,2949337744.9,0.0,0.0,0.0,0.0,0.0,0.0
1402603660010288660,3,5.67200329321,9.88567784727,-16.3436046001,10.0438151857,0.346594179348,0.0,-0.111613258157,0.0,-0.134839372067,0.0,1011.10499914,2203.10023144,-1.34130416972,1.22464679915e-14,-200.0,144.78,-0.975082786876,100.0,-0.752601297694,100.0,-1.57079632679,100.0,-1.57079632679,100.0,2949337744.9,0.0,0.0,0.0,0.0,0.0,0.0
1402603660030835515,3,5.67932229095,9.88567784727,-16.3457841645,10.0438151857,0.36942783388,0.0,-0.109265222259,0.0,-0.143383603514,0.0,1011.10499914,2203.10023144,-1.34130416972,1.22464679915e-14,-200.0,144.78,-1.00730434259,100.0,-0.78635707696,100.0,-1.57079632679,100.0,-1.57079632679,100.0,2949337744.9,0.0,0.0,0.0,0.0,0.0,0.0
1402603660050158891,3,5.67932229095,9.88567784727,-16.3457841645,10.0438151857,0.36942783388,0.0,-0.109265222259,0.0,-0.143383603514,0.0,1011.10499914,2203.10023144,-1.34130416972,1.22464679915e-14,-200.0,144.78,-1.04106012185,100.0,-0.818578394252,100.0,-1.57079632679,100.0,-1.57079632679,100.0,2949337744.9,0.0,0.0,0.0,0.0,0.0,0.0
1402603660070307986,3,5.69256111272,9.88567784727,-16.3579209536,10.0438151857,0.410703684362,0.0,-0.113208223573,0.0,-0.16660461694,0.0,1011.10499914,2203.10023144,-1.34130416972,1.22464679915e-14,-200.0,144.78,-1.07481590112,100.0,-0.852334411937,100.0,-1.57079632679,100.0,-1.57079632679,100.0,2949337744.9,0.0,0.0,0.0,0.0,0.0,0.0
1402603660090929290,3,5.69256111272,9.88567784727,-16.3579209536,10.0438151857,0.410703684362,0.0,-0.113208223573,0.0,-0.16660461694,0.0,1011.10499914,2203.10023144,-1.34130416972,1.22464679915e-14,-200.0,144.78,-1.09169402917,100.0,-0.870746525126,100.0,-1.57079632679,100.0,-1.57079632679,100.0,2949337744.9,0.0,0.0,0.0,0.0,0.0,0.0
1402603660110232658,3,5.71003512139,9.88567784727,-16.36656814,10.0438151857,0.449476703149,0.0,-0.113122706485,0.0,-0.190326865585,0.0,1011.10499914,2203.10023144,-1.34130416972,1.22464679915e-14,-200.0,144.78,-1.14386192163,100.0,-0.921380432444,100.0,-1.57079632679,100.0,-1.57079632679,100.0,2949337744.9,0.0,0.0,0.0,0.0,0.0,0.0
1402603660130679771,3,5.71003512139,9.88567784727,-16.36656814,10.0438151857,0.449476703149,0.0,-0.113122706485,0.0,-0.190326865585,0.0,1011.10499914,2203.10023144,-1.34130416972,1.22464679915e-14,-200.0,144.78,-1.17761770089,100.0,-0.953601749736,100.0,-1.57079632679,100.0,-1.57079632679,100.0,2949337744.9,0.0,0.0,0.0,0.0,0.0,0.0
1402603660150324948,3,5.74488985331,9.88567784727,-16.3591598328,10.0438151857,0.499144729226,0.0,-0.0868941446756,0.0,-0.215818313355,0.0,1011.10499914,2203.10023144,-1.34130416972,1.22464679915e-14,-200.0,144.78,-1.21137359937,100.0,-0.987357767421,100.0,-1.57079632679,100.0,-1.57079632679,100.0,2949337744.9,0.0,0.0,0.0,0.0,0.0,0.0
1402603660170899015,3,5.74488985331,9.88567784727,-16.3591598328,10.0438151857,0.499144729226,0.0,-0.0868941446756,0.0,-0.215818313355,0.0,1011.10499914,2203.10023144,-1.34130416972,1.22464679915e-14,-200.0,144.78,-1.24666384061,100.0,-1.02264777024,100.0,-1.57079632679,100.0,-1.57079632679,100.0,2949337744.89,0.0,0.0,0.0,0.0,0.0,0.0
1402603660190537475,3,5.77569885609,9.88567784727,-16.3581855246,10.0438151857,0.520378363484,0.0,-0.0703621211327,0.0,-0.246475756886,0.0,1011.10499914,2203.10023144,-1.34130416972,1.22464679915e-14,-200.0,144.78,-1.28041961988,100.0,-1.05640378793,100.0,-1.57079632679,100.0,-1.57079632679,100.0,2949337744.89,0.0,0.0,0.0,0.0,0.0,0.0
1402603660211035182,3,5.77569885609,9.88567784727,-16.3581855246,10.0438151857,0.520378363484,0.0,-0.0703621211327,0.0,-0.246475756886,0.0,1011.10499914,2203.10023144,-1.34130416972,1.22464679915e-14,-200.0,144.78,-1.31417527993,100.0,-1.09015956719,100.0,-1.57079632679,100.0,-1.57079632679,100.0,2949337744.89,0.0,0.0,0.0,0.0,0.0,0.0
1402603660230431656,3,5.78616010663,9.88567784727,-16.3595244498,10.0438151857,0.525911833133,0.0,-0.0647496340219,0.0,-0.25964401982,0.0,1011.10499914,2203.10023144,-1.34130416972,1.22464679915e-14,-200.0,144.78,-1.34946552117,100.0,-1.12238088449,100.0,-1.57079632679,100.0,-1.57079632679,100.0,2949337744.89,0.0,0.0,0.0,0.0,0.0,0.0
1402603660250976811,3,5.78616010663,9.88567784727,-16.3595244498,10.0438151857,0.525911833133,0.0,-0.0647496340219,0.0,-0.25964401982,0.0,1011.10499914,2203.10023144,-1.34130416972,1.22464679915e-14,-200.0,144.78,-1.38322141965,100.0,-1.15613678296,100.0,-1.57079632679,100.0,-1.57079632679,100.0,2949337744.89,0.0,0.0,0.0,0.0,0.0,0.0
1402603660270432355,3,5.81007721988,9.88567784727,-16.3559084938,10.0438151857,0.527461369032,0.0,-0.0452976487939,0.0,-0.284237362198,0.0,1011.10499914,2203.10023144,-1.34130416972,1.22464679915e-14,-200.0,144.78,-1.41851154168,100.0,-1.19142690499,100.0,-1.57079632679,100.0,-1.57079632679,100.0,2949337744.89,0.0,0.0,0.0,0.0,0.0,0.0
1402603660290285341,3,5.81007721988,9.88567784727,-16.3559084938,10.0438151857,0.527461369032,0.0,-0.0452976487939,0.0,-0.284237362198,0.0,1011.10499914,2203.10023144,-1.34130416972,1.22464679915e-14,-200.0,144.78,-1.45073309739,100.0,-1.22671714624,100.0,-1.57079632679,100.0,-1.57079632679,100.0,2949337744.89,0.0,0.0,0.0,0.0,0.0,0.0
1402603660310847159,3,5.83342237501,9.88567784727,-16.352887477,10.0438151857,0.515584932715,0.0,-0.0296802800873,0.0,-0.311956983189,0.0,1011.10499914,2203.10023144,-1.34130416972,1.22464679915e-14,-200.0,144.78,-1.48448887666,100.0,-1.25893858274,100.0,-1.57079632679,100.0,-1.57079632679,100.0,2949337744.89,0.0,0.0,0.0,0.0,0.0,0.0
1402603660330368101,3,5.83342237501,9.88567784727,-16.352887477,10.0438151857,0.515584932715,0.0,-0.0296802800873,0.0,-0.311956983189,0.0,1011.10499914,2203.10023144,-1.34130416972,1.22464679915e-14,-200.0,144.78,-1.51977899869,100.0,-1.29422882398,100.0,-1.57079632679,100.0,-1.57079632679,100.0,2949337744.89,0.0,0.0,0.0,0.0,0.0,0.0
1402603660350863099,3,5.86420736428,9.88567784727,-16.3419502322,10.0438151857,0.517816645392,0.0,0.00587826402787,0.0,-0.342094422034,0.0,1011.10499914,2203.10023144,-1.34130416972,1.22464679915e-14,-200.0,144.78,-1.54586306413,100.0,-1.32645026048,100.0,-1.57079632679,100.0,-1.57079632679,100.0,2949337744.89,0.0,0.0,0.0,0.0,0.0,0.0
1402603660370449553,3,5.86420736428,9.88567784727,-16.3419502322,10.0438151857,0.517816645392,0.0,0.00587826402787,0.0,-0.342094422034,0.0,1011.10499914,2203.10023144,-1.34130416972,1.22464679915e-14,-200.0,144.78,-1.561206611,100.0,-1.36020603974,100.0,-1.57079632679,100.0,-1.57079632679,100.0,2949337744.89,0.0,0.0,0.0,0.0,0.0,0.0
1402603660390986423,3,5.89644237037,9.88567784727,-16.3296469649,10.0438151857,0.489291129959,0.0,0.0348360871377,0.0,-0.380679066846,0.0,1011.10499914,2203.10023144,-1.34130416972,1.22464679915e-14,-200.0,144.78,-1.56734410127,100.0,-1.39549628099,100.0,-1.57079632679,100.0,-1.57079632679,100.0,2949337744.89,0.0,0.0,0.0,0.0,0.0,0.0
1402603660410543973,3,5.89644237037,9.88567784727,-16.3296469649,10.0438151857,0.489291129959,0.0,0.0348360871377,0.0,-0.380679066846,0.0,1011.10499914,2203.10023144,-1.34130416972,1.22464679915e-14,-200.0,144.78,-1.56887832482,100.0,-1.42771771749,100.0,-1.57079632679,100.0,-1.57079632679,100.0,2949337744.89,0.0,0.0,0.0,0.0,0.0,0.0
1402603660430830580,3,5.91978277033,9.88567784727,-16.3323290348,10.0438151857,0.445309744388,0.0,0.0419175460015,0.0,-0.426354298499,0.0,1011.10499914,2203.10023144,-1.34130416972,1.22464679915e-14,-200.0,144.78,-1.56887832482,100.0,-1.46147361596,100.0,-1.57079632679,100.0,-1.57079632679,100.0,2949337744.89,0.0,0.0,0.0,0.0,0.0,0.0
1402603660450295471,3,5.91978277033,9.88567784727,-16.3323290348,10.0438151857,0.445309744388,0.0,0.0419175460015,0.0,-0.426354298499,0.0,1011.10499914,2203.10023144,-1.34130416972,1.22464679915e-14,-200.0,144.78,-1.57655027707,100.0,-1.49676361878,100.0,-1.57079632679,100.0,-1.57079632679,100.0,2949337744.89,0.0,0.0,0.0,0.0,0.0,0.0
1402603660470720091,3,5.92886927737,9.88567784727,-16.3313432256,10.0438151857,0.420615706115,0.0,0.0452301330104,0.0,-0.444090699942,0.0,1011.10499914,2203.10023144,-1.34130416972,1.22464679915e-14,-200.0,144.78,-1.57655027707,100.0,-1.53051951726,100.0,-1.57079632679,100.0,-1.57079632679,100.0,2949337744.89,0.0,0.0,0.0,0.0,0.0,0.0
1402603660490263173,3,5.92886927737,9.88567784727,-16.3313432256,10.0438151857,0.420615706115,0.0,0.0452301330104,0.0,-0.444090699942,0.0,1011.10499914,2203.10023144,-1.34130416972,1.22464679915e-14,-200.0,144.78,-1.57808450063,100.0,-1.55506912072,100.0,-1.57079632679,100.0,-1.57079632679,100.0,2949337744.89,0.0,0.0,0.0,0.0,0.0,0.0
1402603660510825812,3,5.95171942407,9.88567784727,-16.323910322,10.0438151857,0.394616717733,0.0,0.0612415458086,0.0,-0.481048699265,0.0,1011.10499914,2203.10023144,-1.34130416972,1.22464679915e-14,-200.0,144.78,-1.57808450063,100.0,-1.56427529653,100.0,-1.57079632679,100.0,-1.57079632679,100.0,2949337744.89,0.0,0.0,0.0,0.0,0.0,0.0
1402603660530209828,3,5.95171942407,9.88567784727,-16.323910322,10.0438151857,0.394616717733,0.0,0.0612415458086,0.0,-0.481048699265,0.0,1011.10499914,2203.10023144,-1.34130416972,1.22464679915e-14,-200.0,144.78,-1.57655027707,100.0,-1.57041266759,100.0,-1.57079632679,100.0,-1.57079632679,100.0,2949337744.89,0.0,0.0,0.0,0.0,0.0,0.0
1402603660550864051,3,5.96753828363,9.88567784727,-16.3209810812,10.0438151857,0.352958503598,0.0,0.0739091208745,0.0,-0.517100417679,0.0,1011.10499914,2203.10023144,-1.34130416972,1.22464679915e-14,-200.0,144.78,-1.57655027707,100.0,-1.57348147233,100.0,-1.57079632679,100.0,-1.57079632679,100.0,2949337744.89,0.0,0.0,0.0,0.0,0.0,0.0
1402603660570277552,3,5.96753828363,9.88567784727,-16.3209810812,10.0438151857,0.352958503598,0.0,0.0739091208745,0.0,-0.517100417679,0.0,1011.10499914,2203.10023144,-1.34130416972,1.22464679915e-14,-200.0,144.78,-1.57655027707,100.0,-1.57348147233,100.0,-1.57079632679,100.0,-1.57079632679,100.0,2949337744.89,0.0,0.0,0.0,0.0,0.0,0.0
1402603660590880459,3,5.98641693673,9.88567784727,-16.3150161644,10.0438151857,0.308018783759,0.0,0.0941212966717,0.0,-0.563409985374,0.0,1011.10499914,2203.10023144,-1.34130416972,1.22464679915e-14,-200.0,144.78,-1.57808450063,100.0,-1.5750158151,100.0,-1.57079632679,100.0,-1.57079632679,100.0,2949337744.89,0.0,0.0,0.0,0.0,0.0,0.0
1402603660610240109,3,5.98641693673,9.88567784727,-16.3150161644,10.0438151857,0.308018783759,0.0,0.0941212966717,0.0,-0.563409985374,0.0,1011.10499914,2203.10023144,-1.34130416972,1.22464679915e-14,-200.0,144.78,-1.57655027707,100.0,-1.5750158151,100.0,-1.57079632679,100.0,-1.57079632679,100.0,2949337744.89,0.0,0.0,0.0,0.0,0.0,0.0
1402603660630970780,3,6.0002422591,9.88567784727,-16.3083748849,10.0438151857,0.287259989113,0.0,0.112392684495,0.0,-0.592645137693,0.0,1011.10499914,2203.10023144,-1.34130416972,1.22464679915e-14,-200.0,144.78,-1.57808450063,100.0,-1.5750158151,100.0,-1.57079632679,100.0,-1.57079632679,100.0,2949337744.89,0.0,0.0,0.0,0.0,0.0,0.0
1402603660650306826,3,6.00604139913,9.88567784727,-16.3059954735,10.0438151857,0.275352908809,0.0,0.124311191779,0.0,-0.610562046786,0.0,1011.10499914,2203.10023144,-1.34130416972,1.22464679915e-14,-200.0,144.78,-1.57655027707,100.0,-1.5750158151,100.0,-1.57079632679,100.0,-1.57079632679,100.0,2949337744.89,0.0,0.0,0.0,0.0,0.0,0.0
1402603660670806028,3,6.00604139913,9.88567784727,-16.3059954735,10.0438151857,0.275352908809,0.0,0.124311191779,0.0,-0.610562046786,0.0,1011.10499914,2203.10023144,-1.34130416972,1.22464679915e-14,-200.0,144.78,-1.57655027707,100.0,-1.5750158151,100.0,-1.57079632679,100.0,-1.57079632679,100.0,2949337744.89,0.0,0.0,0.0,0.0,0.0,0.0
1402603660690204320,3,6.01840261951,9.88567784727,-16.3033245087,10.0438151857,0.27646570725,0.0,0.132224010196,0.0,-0.629845518004,0.0,1011.10499914,2203.10023144,-1.34130416972,1.22464679915e-14,-200.0,144.78,-1.57808450063,100.0,-1.5750158151,100.0,-1.57079632679,100.0,-1.57079632679,100.0,2949337744.89,0.0,0.0,0.0,0.0,0.0,0.0
1402603660710833649,3,6.01840261951,9.88567784727,-16.3033245087,10.0438151857,0.27646570725,0.0,0.132224010196,0.0,-0.629845518004,0.0,1011.10499914,2203.10023144,-1.34130416972,1.22464679915e-14,-200.0,144.78,-1.57808450063,100.0,-1.57348147233,100.0,-1.57079632679,100.0,-1.57079632679,100.0,2949337744.89,0.0,0.0,0.0,0.0,0.0,0.0
1402603660730357036,3,6.02672551244,9.88567784727,-16.2957301418,10.0438151857,0.237415415474,0.0,0.153343449889,0.0,-0.668027379137,0.0,1011.10499914,2203.10023144,-1.34130416972,1.22464679915e-14,-200.0,144.78,-1.57655027707,100.0,-1.5750158151,100.0,-1.57079632679,100.0,-1.57079632679,100.0,2949337744.89,0.0,0.0,0.0,0.0,0.0,0.0
1402603660750777285,3,6.02672551244,9.88567784727,-16.2957301418,10.0438151857,0.237415415474,0.0,0.153343449889,0.0,-0.668027379137,0.0,1011.10499914,2203.10023144,-1.34130416972,1.22464679915e-14,-200.0,144.78,-1.57655027707,100.0,-1.57194712957,100.0,-1.57079632679,100.0,-1.57079632679,100.0,2949337744.89,0.0,0.0,0.0,0.0,0.0,0.0
1402603660770332352,3,6.04233033762,9.88567784727,-16.2876861684,10.0438151857,0.225011107011,0.0,0.179232459495,0.0,-0.706417994207,0.0,1011.10499914,2203.10023144,-1.34130416972,1.22464679915e-14,-200.0,144.78,-1.57808450063,100.0,-1.56887832482,100.0,-1.57079632679,100.0,-1.57079632679,100.0,2949337744.89,0.0,0.0,0.0,0.0,0.0,0.0
1402603660790770692,3,6.04233033762,9.88567784727,-16.2876861684,10.0438151857,0.225011107011,0.0,0.179232459495,0.0,-0.706417994207,0.0,1011.10499914,2203.10023144,-1.34130416972,1.22464679915e-14,-200.0,144.78,-1.57808450063,100.0,-1.56734410127,100.0,-1.57079632679,100.0,-1.57079632679,100.0,2949337744.89,0.0,0.0,0.0,0.0,0.0,0.0
1402603660811054698,3,6.04264561687,9.88567784727,-16.2850933156,10.0438151857,0.181777630588,0.0,0.190714239658,0.0,-0.744120339129,0.0,1011.10499914,2203.10023144,-1.34130416972,1.22464679915e-14,-200.0,144.78,-1.57808450063,100.0,-1.56274095376,100.0,-1.57079632679,100.0,-1.57079632679,100.0,2949337744.89,0.0,0.0,0.0,0.0,0.0,0.0
1402603660830922004,3,6.04264561687,9.88567784727,-16.2850933156,10.0438151857,0.181777630588,0.0,0.190714239658,0.0,-0.744120339129,0.0,1011.10499914,2203.10023144,-1.34130416972,1.22464679915e-14,-200.0,144.78,-1.57808450063,100.0,-1.561206611,100.0,-1.57079632679,100.0,-1.57079632679,100.0,2949337744.89,0.0,0.0,0.0,0.0,0.0,0.0
1402603660850307514,3,6.05221522521,9.88567784727,-16.269748234,10.0438151857,0.169029174657,0.0,0.233585940444,0.0,-0.79354005871,0.0,1011.10499914,2203.10023144,-1.34130416972,1.22464679915e-14,-200.0,144.78,-1.57808450063,100.0,-1.55813792546,100.0,-1.57079632679,100.0,-1.57079632679,100.0,2949337744.89,0.0,0.0,0.0,0.0,0.0,0.0
