rosbagTimestamp,control_method,x_current,x_desired,y_current,y_desired,z_current,z_desired,x_velocity_current,x_velocity_desired,y_velocity_current,y_velocity_desired,z_velocity_current,z_velocity_desired,yaw_current,yaw_desired,yaw_velocity_current,yaw_velocity_desired,roll_current,roll_desired,roll_velocity_current,roll_velocity_desired,pitch_current,pitch_desired,pitch_velocity_current,pitch_velocity_desired,required_force_x,required_force_y,required_moment_z,resultant_force_x,resultant_force_y,resultant_moment_z,current_port_servo_angle,current_port_thruster_force,current_starboard_servo_angle,current_starboard_thruster_force,estimated_port_servo_angle,estimated_port_thruster_force,estimated_starboard_servo_angle,estimated_starboard_thruster_force,cost_value,step,user_defined_1,user_defined_2,user_defined_3,user_defined_4,user_defined_5
1402757018782494070,3,-15.6364975181,-7.1377884924,21.7049903274,2.38304939926,53.7353807651,-3.84635974695,-0.255279896674,0.0,0.40942224429,0.0,1.40020399606,0.0,-2.76571416842,0.0,0.00296524969346,0.0,0.00457529173359,0.0,-0.024468089568,0.0,0.0724983030629,0.0,-0.0086435309863,0.0,0.0,0.0,0.0,-11.471528727,-147.447367972,138.205847279,0.955136148137,0.0,-0.964342268306,0.0,0.959931088597,-100.0,-0.959931088597,80.0,20509371.0705,0.0,0.0,0.0,0.0,0.0,0.0
1402757018802526435,3,-15.6364975181,-7.1377884924,21.7049903274,2.38304939926,53.7353807651,-3.84635974695,-0.255279896674,0.0,0.40942224429,0.0,1.40020399606,0.0,-2.76571416842,0.0,0.00296524969346,0.0,0.00457529173359,0.0,-0.024468089568,0.0,0.0724983030629,0.0,-0.0086435309863,0.0,0.0,0.0,0.0,-11.471528727,-147.447367972,138.205847279,0.955136148137,0.0,-0.964342268306,0.0,0.959931088597,-100.0,-0.959931088597,80.0,20509371.0705,0.0,0.0,0.0,0.0,0.0,0.0
1402757018822882209,3,-15.6585704272,-7.1377884924,21.7441774947,2.38304939926,53.864094929,-3.84635974695,-0.257187308444,0.0,0.416878601175,0.0,1.40389809666,0.0,-2.76533065405,0.0,0.0031740601542,0.0,0.00613089867838,0.0,-0.0149788992646,0.0,0.0721266091264,0.0,-0.00406941409383,0.0,0.0,0.0,0.0,-11.471528727,-147.447367972,138.205847279,0.955136148137,0.0,-0.964342268306,0.0,0.959931088597,-100.0,-0.959931088597,80.0,20509371.0705,0.0,0.0,0.0,0.0,0.0,0.0
1402757018841949904,3,-15.6585704272,-7.1377884924,21.7441774947,2.38304939926,53.864094929,-3.84635974695,-0.257187308444,0.0,0.416878601175,0.0,1.40389809666,0.0,-2.76533065405,0.0,0.0031740601542,0.0,0.00613089867838,0.0,-0.0149788992646,0.0,0.0721266091264,0.0,-0.00406941409383,0.0,0.0,0.0,0.0,-11.471528727,-147.447367972,138.205847279,0.955136148137,0.0,-0.964342268306,0.0,0.959931088597,-100.0,-0.959931088597,80.0,20509371.0705,0.0,0.0,0.0,0.0,0.0,0.0
1402757018861578743,3,-15.6782238408,-7.1377884924,21.7722390438,2.38304939926,53.9871900592,-3.84635974695,-0.256952937911,0.0,0.400495314434,0.0,1.40523120215,0.0,-2.76509276295,0.0,0.00515760951035,0.0,0.00470419356037,0.0,-0.0124941927577,0.0,0.0727442757039,0.0,-0.00201989466138,0.0,0.0,0.0,0.0,-11.471528727,-147.447367972,138.205847279,0.955136148137,0.0,-0.964342268306,0.0,0.959931088597,-100.0,-0.959931088597,80.0,20509371.0705,0.0,0.0,0.0,0.0,0.0,0.0
1402757018882170779,3,-15.6782238408,-7.1377884924,21.7722390438,2.38304939926,53.9871900592,-3.84635974695,-0.256952937911,0.0,0.400495314434,0.0,1.40523120215,0.0,-2.76509276295,0.0,0.00515760951035,0.0,0.00470419356037,0.0,-0.0124941927577,0.0,0.0727442757039,0.0,-0.00201989466138,0.0,0.0,0.0,0.0,-11.471528727,-147.447367972,138.205847279,0.955136148137,0.0,-0.964342268306,0.0,0.959931088597,-100.0,-0.959931088597,80.0,20509371.0705,0.0,0.0,0.0,0.0,0.0,0.0
1402757018903170261,3,-15.7038685582,-7.1377884924,21.8183920869,2.38304939926,54.112938062,-3.84635974695,-0.265145508487,0.0,0.425097070305,0.0,1.4063733321,0.0,-2.76461749598,0.0,0.00195471994641,0.0,0.00750426436185,0.0,0.00335918462757,0.0,0.0720974280565,0.0,0.0039953593601,0.0,0.0,0.0,0.0,-11.471528727,-147.447367972,138.205847279,0.955136148137,0.0,-0.964342268306,0.0,0.959931088597,-100.0,-0.959931088597,80.0,20509371.0705,0.0,0.0,0.0,0.0,0.0,0.0
1402757018921816076,3,-15.7038685582,-7.1377884924,21.8183920869,2.38304939926,54.112938062,-3.84635974695,-0.265145508487,0.0,0.425097070305,0.0,1.4063733321,0.0,-2.76461749598,0.0,0.00195471994641,0.0,0.00750426436185,0.0,0.00335918462757,0.0,0.0720974280565,0.0,0.0039953593601,0.0,0.0,0.0,0.0,-11.471528727,-147.447367972,138.205847279,0.955136148137,0.0,-0.964342268306,0.0,0.959931088597,-100.0,-0.959931088597,80.0,20509371.0705,0.0,0.0,0.0,0.0,0.0,0.0
1402757018942158480,3,-15.7224781083,-7.1377884924,21.8555476486,2.38304939926,54.2599799688,-3.84635974695,-0.251495975814,0.0,0.413050296273,0.0,1.40897919482,0.0,-2.76446711612,0.0,0.00639817501583,0.0,0.00514719053245,0.0,0.00968456744593,0.0,0.0710237615869,0.0,0.00521284866972,0.0,0.0,0.0,0.0,-11.471528727,-147.447367972,138.205847279,0.955136148137,0.0,-0.964342268306,0.0,0.959931088597,-100.0,-0.959931088597,80.0,20509371.0705,0.0,0.0,0.0,0.0,0.0,0.0
1402757018961991871,3,-15.7224781083,-7.1377884924,21.8555476486,2.38304939926,54.2599799688,-3.84635974695,-0.251495975814,0.0,0.413050296273,0.0,1.40897919482,0.0,-2.76446711612,0.0,0.00639817501583,0.0,0.00514719053245,0.0,0.00968456744593,0.0,0.0710237615869,0.0,0.00521284866972,0.0,0.0,0.0,0.0,-11.471528727,-147.447367972,138.205847279,0.955136148137,0.0,-0.964342268306,0.0,0.959931088597,-100.0,-0.959931088597,80.0,20509371.0705,0.0,0.0,0.0,0.0,0.0,0.0
1402757018981796277,3,-15.7323994517,-7.1377884924,21.8720227667,2.38304939926,54.316283102,-3.84635974695,-0.251228445437,0.0,0.412286472388,0.0,1.41012845348,0.0,-2.76424213555,0.0,0.001599278942,0.0,0.0043809054756,0.0,0.0191343525092,0.0,0.0709381749004,0.0,0.00964304467874,0.0,0.0,0.0,0.0,-11.471528727,-147.447367972,138.205847279,0.955136148137,0.0,-0.964342268306,0.0,0.959931088597,-100.0,-0.959931088597,80.0,20509371.0705,0.0,0.0,0.0,0.0,0.0,0.0
1402757019002248568,3,-15.7323994517,-7.1377884924,21.8720227667,2.38304939926,54.316283102,-3.84635974695,-0.251228445437,0.0,0.412286472388,0.0,1.41012845348,0.0,-2.76424213555,0.0,0.001599278942,0.0,0.0043809054756,0.0,0.0191343525092,0.0,0.0709381749004,0.0,0.00964304467874,0.0,0.0,0.0,0.0,-11.471528727,-147.447367972,138.205847279,0.955136148137,0.0,-0.964342268306,0.0,0.959931088597,-100.0,-0.959931088597,80.0,20509371.0705,0.0,0.0,0.0,0.0,0.0,0.0
1402757019021576563,3,-15.7662034104,-7.1377884924,21.9243454527,2.38304939926,54.5101001943,-3.84635974695,-0.255428344633,0.0,0.405731407724,0.0,1.41529537873,0.0,-2.76401569286,0.0,0.00661340921238,0.0,0.00232109626518,0.0,0.0230208376883,0.0,0.0716613884399,0.0,0.0129831625535,0.0,0.0,0.0,0.0,-11.471528727,-147.447367972,138.205847279,0.955136148137,0.0,-0.964342268306,0.0,0.959931088597,-100.0,-0.959931088597,80.0,20509371.0705,0.0,0.0,0.0,0.0,0.0,0.0
1402757019041539290,3,-15.7662034104,-7.1377884924,21.9243454527,2.38304939926,54.5101001943,-3.84635974695,-0.255428344633,0.0,0.405731407724,0.0,1.41529537873,0.0,-2.76401569286,0.0,0.00661340921238,0.0,0.00232109626518,0.0,0.0230208376883,0.0,0.0716613884399,0.0,0.0129831625535,0.0,0.0,0.0,0.0,-11.471528727,-147.447367972,138.205847279,0.955136148137,0.0,-0.964342268306,0.0,0.959931088597,-100.0,-0.959931088597,80.0,20509371.0705,0.0,0.0,0.0,0.0,0.0,0.0
1402757019062271146,3,-15.7940305554,-7.1377884924,21.972466933,2.38304939926,54.6676588299,-3.84635974695,-0.258143705503,0.0,0.411258338281,0.0,1.4177981548,0.0,-2.76362211737,0.0,0.00411225522952,0.0,0.00183905479204,0.0,0.021739336764,0.0,0.0714815446841,0.0,0.00499199767163,0.0,0.0,0.0,0.0,-11.471528727,-147.447367972,138.205847279,0.955136148137,0.0,-0.964342268306,0.0,0.959931088597,-100.0,-0.959931088597,80.0,20509371.0705,0.0,0.0,0.0,0.0,0.0,0.0
1402757019081397099,3,-15.7965965296,-7.1377884924,21.9763609969,2.38304939926,54.6821299277,-3.84635974695,-0.25771041223,0.0,0.410864203307,0.0,1.41777552669,0.0,-2.76353420089,0.0,0.00829352667783,0.0,0.00151206938715,0.0,0.0301582376663,0.0,0.0714769852075,0.0,0.0123829938986,0.0,0.0,0.0,0.0,-11.471528727,-147.447367972,138.205847279,0.955136148137,0.0,-0.964342268306,0.0,0.959931088597,-100.0,-0.959931088597,80.0,20509371.0705,0.0,0.0,0.0,0.0,0.0,0.0
1402757019101801824,3,-15.8199967351,-7.1377884924,22.0176702818,2.38304939926,54.8335286591,-3.84635974695,-0.254542078255,0.0,0.405756441848,0.0,1.42214801347,0.0,-2.76349666937,0.0,-0.000428655339763,0.0,0.000279165289335,0.0,0.0214699240114,0.0,0.0713543889025,0.0,0.00595197730702,0.0,0.0,0.0,0.0,-11.471528727,-147.447367972,138.205847279,0.955136148137,0.0,-0.964342268306,0.0,0.959931088597,-100.0,-0.959931088597,80.0,20509371.0705,0.0,0.0,0.0,0.0,0.0,0.0
1402757019122070814,3,-15.8199967351,-7.1377884924,22.0176702818,2.38304939926,54.8335286591,-3.84635974695,-0.254542078255,0.0,0.405756441848,0.0,1.42214801347,0.0,-2.76349666937,0.0,-0.000428655339763,0.0,0.000279165289335,0.0,0.0214699240114,0.0,0.0713543889025,0.0,0.00595197730702,0.0,0.0,0.0,0.0,-11.471528727,-147.447367972,138.205847279,0.955136148137,-100.0,-0.964342268306,80.0,0.959931088597,-100.0,-0.959931088597,80.0,20509371.0705,0.0,0.0,0.0,0.0,0.0,0.0
1402757019141474382,3,-15.8501227909,-7.1377884924,22.0714850782,2.38304939926,55.0075131413,-3.84635974695,-0.25673572501,0.0,0.418055335147,0.0,1.42708390079,0.0,-2.76309284063,0.0,0.0080838781324,0.0,0.000266093406646,0.0,0.0180592775187,0.0,0.0709544478094,0.0,0.0101943079943,0.0,0.0,0.0,0.0,-11.471528727,-147.447367972,138.205847279,0.955136148137,-100.0,-0.964342268306,80.0,0.959931088597,-100.0,-0.959931088597,80.0,20509371.0705,0.0,0.0,0.0,0.0,0.0,0.0
1402757019161778955,3,-15.8501227909,-7.1377884924,22.0714850782,2.38304939926,55.0075131413,-3.84635974695,-0.25673572501,0.0,0.418055335147,0.0,1.42708390079,0.0,-2.76309284063,0.0,0.0080838781324,0.0,0.000266093406646,0.0,0.0180592775187,0.0,0.0709544478094,0.0,0.0101943079943,0.0,0.0,0.0,0.0,-11.471528727,-147.447367972,138.205847279,0.955136148137,-100.0,-0.964342268306,80.0,0.959931088597,-100.0,-0.959931088597,80.0,20509371.0705,0.0,0.0,0.0,0.0,0.0,0.0
1402757019182424373,3,-15.8602905722,-7.1377884924,22.0886695849,2.38304939926,55.0658892347,-3.84635974695,-0.256401890975,0.0,0.4177646166,0.0,1.42896988756,0.0,-2.76284494383,0.0,0.00491840443471,0.0,-0.000672968254164,0.0,0.0218975289301,0.0,0.0707661921696,0.0,0.0149327049421,0.0,0.0,0.0,0.0,-11.471528727,-147.447367972,138.205847279,0.955136148137,-100.0,-0.962808044749,80.0,0.959931088597,-100.0,-0.959931088597,80.0,20509371.0705,0.0,0.0,0.0,0.0,0.0,0.0
1402757019201847194,3,-15.8602905722,-7.1377884924,22.0886695849,2.38304939926,55.0658892347,-3.84635974695,-0.256401890975,0.0,0.4177646166,0.0,1.42896988756,0.0,-2.76284494383,0.0,0.00491840443471,0.0,-0.000672968254164,0.0,0.0218975289301,0.0,0.0707661921696,0.0,0.0149327049421,0.0,0.0,0.0,0.0,-11.471528727,-147.447367972,138.205847279,0.955136148137,-100.0,-0.955136211711,80.0,0.959931088597,-100.0,-0.959931088597,80.0,20509371.0705,0.0,0.0,0.0,0.0,0.0,0.0
1402757019221372291,3,-15.8799592458,-7.1377884924,22.1219352257,2.38304939926,55.1744568119,-3.84635974695,-0.258986702655,0.0,0.42301443833,0.0,1.42904213218,0.0,-2.76234803205,0.0,0.00689229934612,0.0,-0.00096102178453,0.0,0.00995482187544,0.0,0.0705999981652,0.0,0.0104208047547,0.0,0.0,0.0,0.0,-11.471528727,-147.447367972,138.205847279,0.955136148137,-100.0,-0.955136211711,80.0,0.959931088597,-100.0,-0.959931088597,80.0,20509371.0705,0.0,0.0,0.0,0.0,0.0,0.0
1402757019242211233,3,-15.8799592458,-7.1377884924,22.1219352257,2.38304939926,55.1744568119,-3.84635974695,-0.258986702655,0.0,0.42301443833,0.0,1.42904213218,0.0,-2.76234803205,0.0,0.00689229934612,0.0,-0.00096102178453,0.0,0.00995482187544,0.0,0.0705999981652,0.0,0.0104208047547,0.0,0.0,0.0,0.0,-11.471528727,-147.447367972,138.205847279,0.955136148137,-100.0,-0.956670673686,80.0,0.959931088597,-100.0,-0.959931088597,80.0,20509371.0705,0.0,0.0,0.0,0.0,0.0,0.0
1402757019262528067,3,-15.9047993494,-7.1377884924,22.1666522664,2.38304939926,55.3366294703,-3.84635974695,-0.255062040725,0.0,0.421151800646,0.0,1.43551563164,0.0,-2.76212925178,0.0,0.00260808041775,0.0,-0.00201090948643,0.0,0.00931399731805,0.0,0.0700731459902,0.0,0.013143649323,0.0,0.0,0.0,0.0,-11.471528727,-147.447367972,138.205847279,0.955136148137,-100.0,-0.958204897242,80.0,0.959931088597,-100.0,-0.959931088597,80.0,20509371.0705,0.0,0.0,0.0,0.0,0.0,0.0
1402757019281454310,3,-15.9047993494,-7.1377884924,22.1666522664,2.38304939926,55.3366294703,-3.84635974695,-0.255062040725,0.0,0.421151800646,0.0,1.43551563164,0.0,-2.76212925178,0.0,0.00260808041775,0.0,-0.00201090948643,0.0,0.00931399731805,0.0,0.0700731459902,0.0,0.013143649323,0.0,0.0,0.0,0.0,-11.471528727,-147.447367972,138.205847279,0.953601686162,-100.0,-0.955136211711,80.0,0.959931088597,-100.0,-0.959931088597,80.0,20509371.0705,0.0,0.0,0.0,0.0,0.0,0.0
1402757019301816766,3,-15.9207219283,-7.1377884924,22.1926884669,2.38304939926,55.4315369318,-3.84635974695,-0.253068295079,0.0,0.407964224238,0.0,1.43972772696,0.0,-2.76209512278,0.0,-0.00698561452134,0.0,-0.00337736915515,0.0,0.058142793022,0.0,0.0702457104442,0.0,0.0243399453578,0.0,0.0,0.0,0.0,-11.471528727,-147.447367972,138.205847279,0.953601686162,-100.0,-0.955136211711,80.0,0.959931088597,-100.0,-0.959931088597,80.0,20509371.0705,0.0,0.0,0.0,0.0,0.0,0.0
1402757019321518494,3,-15.9207219283,-7.1377884924,22.1926884669,2.38304939926,55.4315369318,-3.84635974695,-0.253068295079,0.0,0.407964224238,0.0,1.43972772696,0.0,-2.76209512278,0.0,-0.00698561452134,0.0,-0.00337736915515,0.0,0.058142793022,0.0,0.0702457104442,0.0,0.0243399453578,0.0,0.0,0.0,0.0,-11.471528727,-147.447367972,138.205847279,0.953601686162,-100.0,-0.953601749736,80.0,0.959931088597,-100.0,-0.959931088597,80.0,20509371.0705,0.0,0.0,0.0,0.0,0.0,0.0
1402757019341475844,3,-15.9410539738,-7.1377884924,22.2240034017,2.38304939926,55.5302793892,-3.84635974695,-0.261723097334,0.0,0.423144059964,0.0,1.445264271,0.0,-2.76358342995,0.0,-0.0568732171968,0.0,0.0023285653291,0.0,-0.176271176029,0.0,0.070610371008,0.0,-0.0714938226094,0.0,0.0,0.0,0.0,-11.471528727,-147.447367972,138.205847279,0.952067701024,-100.0,-0.955136211711,80.0,0.959931088597,-100.0,-0.959931088597,80.0,20509371.0705,0.0,0.0,0.0,0.0,0.0,0.0
1402757019362565897,3,-15.9410539738,-7.1377884924,22.2240034017,2.38304939926,55.5302793892,-3.84635974695,-0.261723097334,0.0,0.423144059964,0.0,1.445264271,0.0,-2.76358342995,0.0,-0.0568732171968,0.0,0.0023285653291,0.0,-0.176271176029,0.0,0.070610371008,0.0,-0.0714938226094,0.0,0.0,0.0,0.0,-11.471528727,-147.447367972,138.205847279,0.952067701024,-100.0,-0.955136211711,80.0,0.959931088597,-100.0,-0.959931088597,80.0,20509371.0705,0.0,0.0,0.0,0.0,0.0,0.0
1402757019381268593,3,-15.9509573101,-7.1377884924,22.2442534993,2.38304939926,55.6068044294,-3.84635974695,-0.242249376802,0.0,0.403230534107,0.0,1.42882785518,0.0,-2.7659165752,0.0,-0.0847928536469,0.0,0.00405382742794,0.0,-0.101214698001,0.0,0.0697714430194,0.0,-0.0145735925479,0.0,0.0,0.0,0.0,-11.471528727,-147.447367972,138.205847279,0.950533239049,-100.0,-0.955136211711,80.0,0.959931088597,-100.0,-0.959931088597,80.0,20509371.0705,0.0,0.0,0.0,0.0,0.0,0.0
1402757019401487947,3,-15.9509573101,-7.1377884924,22.2442534993,2.38304939926,55.6068044294,-3.84635974695,-0.242249376802,0.0,0.403230534107,0.0,1.42882785518,0.0,-2.7659165752,0.0,-0.0847928536469,0.0,0.00405382742794,0.0,-0.101214698001,0.0,0.0697714430194,0.0,-0.0145735925479,0.0,0.0,0.0,0.0,-11.471528727,-147.447367972,138.205847279,0.950533239049,-100.0,-0.955136211711,80.0,0.959931088597,-100.0,-0.959931088597,80.0,20509371.0705,0.0,0.0,0.0,0.0,0.0,0.0
1402757019421697561,3,-15.9687396741,-7.1377884924,22.2715865455,2.38304939926,55.717123317,-3.84635974695,-0.235332793948,0.0,0.381880396111,0.0,1.44040756365,0.0,-2.77138954197,0.0,-0.116825486448,0.0,0.0104637459841,0.0,-0.12178594436,0.0,0.0697012093315,0.0,-0.0370604781721,0.0,0.0,0.0,0.0,-11.471528727,-147.447367972,138.205847279,0.948998777074,-100.0,-0.953601749736,80.0,0.959931088597,-100.0,-0.959931088597,80.0,20509371.0705,0.0,0.0,0.0,0.0,0.0,0.0
1402757019441445245,3,-15.9687396741,-7.1377884924,22.2715865455,2.38304939926,55.717123317,-3.84635974695,-0.235332793948,0.0,0.381880396111,0.0,1.44040756365,0.0,-2.77138954197,0.0,-0.116825486448,0.0,0.0104637459841,0.0,-0.12178594436,0.0,0.0697012093315,0.0,-0.0370604781721,0.0,0.0,0.0,0.0,-11.471528727,-147.447367972,138.205847279,0.947464315099,-100.0,-0.955136211711,80.0,0.959931088597,-100.0,-0.959931088597,80.0,20509371.0705,0.0,0.0,0.0,0.0,0.0,0.0
1402757019461582484,3,-15.9756739108,-7.1377884924,22.2829800327,2.38304939926,55.7600700495,-3.84635974695,-0.23364694566,0.0,0.375945573511,0.0,1.43709741506,0.0,-2.77504760966,0.0,-0.143194910538,0.0,0.0155991329444,0.0,-0.166952351879,0.0,0.069125424203,0.0,-0.0450620958529,0.0,0.0,0.0,0.0,-11.471528727,-147.447367972,138.205847279,0.947464315099,-100.0,-0.955136211711,80.0,0.959931088597,-100.0,-0.959931088597,80.0,20509371.0705,0.0,0.0,0.0,0.0,0.0,0.0
1402757019481959242,3,-15.9867710373,-7.1377884924,22.2977810907,2.38304939926,55.8237817618,-3.84635974695,-0.229703913982,0.0,0.35883615966,0.0,1.44210324922,0.0,-2.77872409601,0.0,-0.151877047102,0.0,0.0177421546982,0.0,-0.111998723856,0.0,0.0694357543553,0.0,-0.0309110609002,0.0,0.0,0.0,0.0,-11.471528727,-147.447367972,138.205847279,0.947464315099,-100.0,-0.955136211711,80.0,0.959931088597,-100.0,-0.959931088597,80.0,20509371.0705,0.0,0.0,0.0,0.0,0.0,0.0
1402757019501563946,3,-15.9867710373,-7.1377884924,22.2977810907,2.38304939926,55.8237817618,-3.84635974695,-0.229703913982,0.0,0.35883615966,0.0,1.44210324922,0.0,-2.77872409601,0.0,-0.151877047102,0.0,0.0177421546982,0.0,-0.111998723856,0.0,0.0694357543553,0.0,-0.0309110609002,0.0,0.0,0.0,0.0,-11.471528727,-147.447367972,138.205847279,0.947464315099,-100.0,-0.955136211711,80.0,0.959931088597,-100.0,-0.959931088597,80.0,20509371.0705,0.0,0.0,0.0,0.0,0.0,0.0
1402757019521463830,3,-15.9913328528,-7.1377884924,22.3048380504,2.38304939926,55.8527168033,-3.84635974695,-0.228930990957,0.0,0.355739067643,0.0,1.44305056249,0.0,-2.78165892132,0.0,-0.164810440068,0.0,0.0204198304234,0.0,-0.136680006538,0.0,0.0691407281262,0.0,-0.0476851188887,0.0,0.0,0.0,0.0,-11.471528727,-147.447367972,138.205847279,0.947464315099,-100.0,-0.955136211711,80.0,0.959931088597,-100.0,-0.959931088597,80.0,20509371.0705,0.0,0.0,0.0,0.0,0.0,0.0
1402757019541690419,3,-15.9913328528,-7.1377884924,22.3048380504,2.38304939926,55.8527168033,-3.84635974695,-0.228930990957,0.0,0.355739067643,0.0,1.44305056249,0.0,-2.78165892132,0.0,-0.164810440068,0.0,0.0204198304234,0.0,-0.136680006538,0.0,0.0691407281262,0.0,-0.0476851188887,0.0,0.0,0.0,0.0,-11.471528727,-147.447367972,138.205847279,0.947464315099,-100.0,-0.953601749736,80.0,0.959931088597,-100.0,-0.959931088597,80.0,20509371.0705,0.0,0.0,0.0,0.0,0.0,0.0
1402757019562181574,3,-16.0001573804,-7.1377884924,22.3187416291,2.38304939926,55.9103217684,-3.84635974695,-0.215720233071,0.0,0.342989433856,0.0,1.43783076014,0.0,-2.78804665741,0.0,-0.182596230756,0.0,0.0248491163706,0.0,-0.111965757091,0.0,0.0683452865424,0.0,-0.0142308039616,0.0,0.0,0.0,0.0,-11.471528727,-147.447367972,138.205847279,0.945929853124,-100.0,-0.955136211711,80.0,0.959931088597,-100.0,-0.959931088597,80.0,20509371.0705,0.0,0.0,0.0,0.0,0.0,0.0
1402757019581359214,3,-16.0001573804,-7.1377884924,22.3187416291,2.38304939926,55.9103217684,-3.84635974695,-0.215720233071,0.0,0.342989433856,0.0,1.43783076014,0.0,-2.78804665741,0.0,-0.182596230756,0.0,0.0248491163706,0.0,-0.111965757091,0.0,0.0683452865424,0.0,-0.0142308039616,0.0,0.0,0.0,0.0,-11.471528727,-147.447367972,138.205847279,0.945929853124,-100.0,-0.955136211711,80.0,0.959931088597,-100.0,-0.959931088597,80.0,20509371.0705,0.0,0.0,0.0,0.0,0.0,0.0
1402757019601567327,3,-16.0137869533,-7.1377884924,22.3343951462,2.38304939926,55.9930989363,-3.84635974695,-0.212887682494,0.0,0.311582957514,0.0,1.43881426391,0.0,-2.7970996509,0.0,-0.193603629839,0.0,0.0268425570185,0.0,-0.0658966470463,0.0,0.0688175323127,0.0,-0.00375303913199,0.0,0.0,0.0,0.0,-11.471528727,-147.447367972,138.205847279,0.947464315099,-100.0,-0.955136211711,80.0,0.959931088597,-100.0,-0.959931088597,80.0,20509371.0705,0.0,0.0,0.0,0.0,0.0,0.0
1402757019621297453,3,-16.0137869533,-7.1377884924,22.3343951462,2.38304939926,55.9930989363,-3.84635974695,-0.212887682494,0.0,0.311582957514,0.0,1.43881426391,0.0,-2.7970996509,0.0,-0.193603629839,0.0,0.0268425570185,0.0,-0.0658966470463,0.0,0.0688175323127,0.0,-0.00375303913199,0.0,0.0,0.0,0.0,-11.471528727,-147.447367972,138.205847279,0.945929853124,-100.0,-0.955136211711,80.0,0.959931088597,-100.0,-0.959931088597,80.0,20509371.0705,0.0,0.0,0.0,0.0,0.0,0.0
1402757019642645596,3,-16.0194264451,-7.1377884924,22.3559770394,2.38304939926,56.0463883137,-3.84635974695,-0.199722644632,0.0,0.324425306026,0.0,1.43788591383,0.0,-2.80054967061,0.0,-0.199239856307,0.0,0.0308492965853,0.0,-0.0120150731371,0.0,0.066682113807,0.0,0.0153086538883,0.0,0.0,0.0,0.0,-11.471528727,-147.447367972,138.205847279,0.945929853124,-100.0,-0.955136211711,80.0,0.959931088597,-100.0,-0.959931088597,80.0,20509371.0705,0.0,0.0,0.0,0.0,0.0,0.0
1402757019661504160,3,-16.0194264451,-7.1377884924,22.3559770394,2.38304939926,56.0463883137,-3.84635974695,-0.199722644632,0.0,0.324425306026,0.0,1.43788591383,0.0,-2.80054967061,0.0,-0.199239856307,0.0,0.0308492965853,0.0,-0.0120150731371,0.0,0.066682113807,0.0,0.0153086538883,0.0,0.0,0.0,0.0,-11.471528727,-147.447367972,138.205847279,0.945929853124,-100.0,-0.955136211711,80.0,0.959931088597,-100.0,-0.959931088597,80.0,20509371.0705,0.0,0.0,0.0,0.0,0.0,0.0
1402757019681503923,3,-16.0260952639,-7.1377884924,22.36406706,2.38304939926,56.1082792156,-3.84635974695,-0.189869438787,0.0,0.296844939745,0.0,1.43620972864,0.0,-2.80977159176,0.0,-0.211231915424,0.0,0.029378173984,0.0,0.0186035041773,0.0,0.0665013934933,0.0,0.0264899104158,0.0,0.0,0.0,0.0,-11.471528727,-147.447367972,138.205847279,0.945929853124,-100.0,-0.955136211711,80.0,0.959931088597,-100.0,-0.959931088597,80.0,20509371.0705,0.0,0.0,0.0,0.0,0.0,0.0
1402757019701490010,3,-16.0260952639,-7.1377884924,22.36406706,2.38304939926,56.1082792156,-3.84635974695,-0.189869438787,0.0,0.296844939745,0.0,1.43620972864,0.0,-2.80977159176,0.0,-0.211231915424,0.0,0.029378173984,0.0,0.0186035041773,0.0,0.0665013934933,0.0,0.0264899104158,0.0,0.0,0.0,0.0,-11.471528727,-147.447367972,138.205847279,0.945929853124,-100.0,-0.955136211711,80.0,0.959931088597,-100.0,-0.959931088597,80.0,20509371.0705,0.0,0.0,0.0,0.0,0.0,0.0
1402757019721991706,3,-16.0416131184,-7.1377884924,22.387182134,2.38304939926,56.2113912398,-3.84635974695,-0.190198101224,0.0,0.285202959584,0.0,1.44658767893,0.0,-2.81919220836,0.0,-0.206769402831,0.0,0.028108392699,0.0,0.0298205868859,0.0,0.0668347051644,0.0,0.0102291800467,0.0,0.0,0.0,0.0,-11.471528727,-147.447367972,138.205847279,0.944395867986,-100.0,-0.955136211711,80.0,0.959931088597,-100.0,-0.959931088597,80.0,20509371.0705,0.0,0.0,0.0,0.0,0.0,0.0
1402757019741433219,3,-16.0416131184,-7.1377884924,22.387182134,2.38304939926,56.2113912398,-3.84635974695,-0.190198101224,0.0,0.285202959584,0.0,1.44658767893,0.0,-2.81919220836,0.0,-0.206769402831,0.0,0.028108392699,0.0,0.0298205868859,0.0,0.0668347051644,0.0,0.0102291800467,0.0,0.0,0.0,0.0,-11.471528727,-147.447367972,138.205847279,0.944395867986,-100.0,-0.955136211711,80.0,0.959931088597,-100.0,-0.959931088597,80.0,20509371.0705,0.0,0.0,0.0,0.0,0.0,0.0
1402757019761586687,3,-16.0543806014,-7.1377884924,22.4066633869,2.38304939926,56.2957668319,-3.84635974695,-0.184774544352,0.0,0.271084010225,0.0,1.43662892018,0.0,-2.82855136179,0.0,-0.221341235346,0.0,0.0268170680953,0.0,0.0588702373987,0.0,0.0668860544004,0.0,0.021110693101,0.0,0.0,0.0,0.0,-11.471528727,-147.447367972,138.205847279,0.944395867986,-100.0,-0.955136211711,80.0,0.959931088597,-100.0,-0.959931088597,80.0,20509371.0705,0.0,0.0,0.0,0.0,0.0,0.0
1402757019781410427,3,-16.0543806014,-7.1377884924,22.4066633869,2.38304939926,56.2957668319,-3.84635974695,-0.184774544352,0.0,0.271084010225,0.0,1.43662892018,0.0,-2.82855136179,0.0,-0.221341235346,0.0,0.0268170680953,0.0,0.0588702373987,0.0,0.0668860544004,0.0,0.021110693101,0.0,0.0,0.0,0.0,-11.471528727,-147.447367972,138.205847279,0.944395867986,-100.0,-0.955136211711,80.0,0.959931088597,-100.0,-0.959931088597,80.0,20509371.0705,0.0,0.0,0.0,0.0,0.0,0.0
1402757019801982859,3,-16.0480667421,-7.1377884924,22.4017483555,2.38304939926,56.3332062421,-3.84635974695,-0.155123707662,0.0,0.237265245482,0.0,1.42449241832,0.0,-2.83647400002,0.0,-0.220479724756,0.0,0.0220142497263,0.0,0.0592298244378,0.0,0.0654081218692,0.0,0.0227846140732,0.0,0.0,0.0,0.0,-11.471528727,-147.447367972,138.205847279,0.944395867986,-100.0,-0.955136211711,80.0,0.959931088597,-100.0,-0.959931088597,80.0,20509371.0705,0.0,0.0,0.0,0.0,0.0,0.0
1402757019821507013,3,-16.0480667421,-7.1377884924,22.4017483555,2.38304939926,56.3332062421,-3.84635974695,-0.155123707662,0.0,0.237265245482,0.0,1.42449241832,0.0,-2.83647400002,0.0,-0.220479724756,0.0,0.0220142497263,0.0,0.0592298244378,0.0,0.0654081218692,0.0,0.0227846140732,0.0,0.0,0.0,0.0,-11.471528727,-147.447367972,138.205847279,0.944395867986,-100.0,-0.955136211711,80.0,0.959931088597,-100.0,-0.959931088597,80.0,20509371.0705,0.0,0.0,0.0,0.0,0.0,0.0
1402757019841435847,3,-16.0572203162,-7.1377884924,22.4114048784,2.38304939926,56.3814654549,-3.84635974695,-0.16082895541,0.0,0.229613851639,0.0,1.43210483072,0.0,-2.84675442931,0.0,-0.224405787173,0.0,0.0206610249066,0.0,0.054702074184,0.0,0.0662657465611,0.0,0.013119953839,0.0,0.0,0.0,0.0,-11.471528727,-147.447367972,138.205847279,0.944395867986,-100.0,-0.955136211711,80.0,0.959931088597,-100.0,-0.959931088597,80.0,20509371.0705,0.0,0.0,0.0,0.0,0.0,0.0
1402757019861447097,3,-16.0572203162,-7.1377884924,22.4114048784,2.38304939926,56.3814654549,-3.84635974695,-0.16082895541,0.0,0.229613851639,0.0,1.43210483072,0.0,-2.84675442931,0.0,-0.224405787173,0.0,0.0206610249066,0.0,0.054702074184,0.0,0.0662657465611,0.0,0.013119953839,0.0,0.0,0.0,0.0,-11.471528727,-147.447367972,138.205847279,0.944395867986,-100.0,-0.955136211711,80.0,0.959931088597,-100.0,-0.959931088597,80.0,20509371.0705,0.0,0.0,0.0,0.0,0.0,0.0
1402757019882067187,3,-16.0634944804,-7.1377884924,22.4207597088,2.38304939926,56.4398210868,-3.84635974695,-0.153250554114,0.0,0.220029178101,0.0,1.43269003855,0.0,-2.85615835485,0.0,-0.229756271954,0.0,0.0182954941755,0.0,0.0509335953421,0.0,0.0663882324171,0.0,0.0150352566138,0.0,0.0,0.0,0.0,-11.471528727,-147.447367972,138.205847279,0.944395867986,-100.0,-0.955136211711,80.0,0.959931088597,-100.0,-0.959931088597,80.0,20509371.0705,0.0,0.0,0.0,0.0,0.0,0.0
1402757019901594170,3,-16.0634944804,-7.1377884924,22.4207597088,2.38304939926,56.4398210868,-3.84635974695,-0.153250554114,0.0,0.220029178101,0.0,1.43269003855,0.0,-2.85615835485,0.0,-0.229756271954,0.0,0.0182954941755,0.0,0.0509335953421,0.0,0.0663882324171,0.0,0.0150352566138,0.0,0.0,0.0,0.0,-11.471528727,-147.447367972,138.205847279,0.944395867986,-100.0,-0.955136211711,80.0,0.959931088597,-100.0,-0.959931088597,80.0,20509371.0705,0.0,0.0,0.0,0.0,0.0,0.0
1402757019921456536,3,-16.0663263801,-7.1377884924,22.4308399324,2.38304939926,56.4987142935,-3.84635974695,-0.142034303844,0.0,0.217469606866,0.0,1.44382374653,0.0,-2.86449795406,0.0,-0.23662861005,0.0,0.016920890609,0.0,0.0238745667271,0.0,0.0655194241658,0.0,0.00103932606742,0.0,0.0,0.0,0.0,-11.471528727,-147.447367972,138.205847279,0.942861406011,-100.0,-0.955136211711,80.0,0.959931088597,-100.0,-0.959931088597,80.0,20509371.0705,0.0,0.0,0.0,0.0,0.0,0.0
1402757019942292963,3,-16.0663263801,-7.1377884924,22.4308399324,2.38304939926,56.4987142935,-3.84635974695,-0.142034303844,0.0,0.217469606866,0.0,1.44382374653,0.0,-2.86449795406,0.0,-0.23662861005,0.0,0.016920890609,0.0,0.0238745667271,0.0,0.0655194241658,0.0,0.00103932606742,0.0,0.0,0.0,0.0,-11.471528727,-147.447367972,138.205847279,0.942861406011,-100.0,-0.955136211711,80.0,0.959931088597,-100.0,-0.959931088597,80.0,20509371.0705,0.0,0.0,0.0,0.0,0.0,0.0
1402757019961928185,3,-16.0705332623,-7.1377884924,22.4347820729,2.38304939926,56.5349893961,-3.84635974695,-0.146244525259,0.0,0.2181104892,0.0,1.44518307665,0.0,-2.87405994163,0.0,-0.230577769602,0.0,0.0157694107627,0.0,0.0235576343903,0.0,0.0660125592703,0.0,-0.00702535956831,0.0,0.0,0.0,0.0,-11.471528727,-147.447367972,138.205847279,0.944395867986,-100.0,-0.955136211711,80.0,0.959931088597,-100.0,-0.959931088597,80.0,20509371.0705,0.0,0.0,0.0,0.0,0.0,0.0
1402757019981455051,3,-16.0705332623,-7.1377884924,22.4347820729,2.38304939926,56.5349893961,-3.84635974695,-0.146244525259,0.0,0.2181104892,0.0,1.44518307665,0.0,-2.87405994163,0.0,-0.230577769602,0.0,0.0157694107627,0.0,0.0235576343903,0.0,0.0660125592703,0.0,-0.00702535956831,0.0,0.0,0.0,0.0,-11.471528727,-147.447367972,138.205847279,0.944395867986,-100.0,-0.953601749736,80.0,0.959931088597,-100.0,-0.959931088597,80.0,20509371.0705,0.0,0.0,0.0,0.0,0.0,0.0
1402757020001466603,3,-16.074634969,-7.1377884924,22.4420912814,2.38304939926,56.628851966,-3.84635974695,-0.122347738635,0.0,0.18890566378,0.0,1.4436711365,0.0,-2.88391814865,0.0,-0.226249039495,0.0,0.0112050103658,0.0,0.0265172118027,0.0,0.0654150552,0.0,0.0256312651076,0.0,0.0,0.0,0.0,-11.471528727,-147.447367972,138.205847279,0.942861406011,-100.0,-0.955136211711,80.0,0.959931088597,-100.0,-0.959931088597,80.0,20509371.0705,0.0,0.0,0.0,0.0,0.0,0.0
1402757020021985365,3,-16.074634969,-7.1377884924,22.4420912814,2.38304939926,56.628851966,-3.84635974695,-0.122347738635,0.0,0.18890566378,0.0,1.4436711365,0.0,-2.88391814865,0.0,-0.226249039495,0.0,0.0112050103658,0.0,0.0265172118027,0.0,0.0654150552,0.0,0.0256312651076,0.0,0.0,0.0,0.0,-11.471528727,-147.447367972,138.205847279,0.942861406011,-100.0,-0.955136211711,80.0,0.959931088597,-100.0,-0.959931088597,80.0,20509371.0705,0.0,0.0,0.0,0.0,0.0,0.0
1402757020041714747,3,-16.0797618678,-7.1377884924,22.4589334075,2.38304939926,56.7277345475,-3.84635974695,-0.104512819825,0.0,0.17723584261,0.0,1.43751737177,0.0,-2.89225511912,0.0,-0.229770111701,0.0,0.00981495598148,0.0,0.0130991215062,0.0,0.0635903805815,0.0,0.0274810923014,0.0,0.0,0.0,0.0,-11.471528727,-147.447367972,138.205847279,0.942861406011,-100.0,-0.955136211711,80.0,0.959931088597,-100.0,-0.959931088597,80.0,20509371.0705,0.0,0.0,0.0,0.0,0.0,0.0
1402757020061654084,3,-16.0797618678,-7.1377884924,22.4589334075,2.38304939926,56.7277345475,-3.84635974695,-0.104512819825,0.0,0.17723584261,0.0,1.43751737177,0.0,-2.89225511912,0.0,-0.229770111701,0.0,0.00981495598148,0.0,0.0130991215062,0.0,0.0635903805815,0.0,0.0274810923014,0.0,0.0,0.0,0.0,-11.471528727,-147.447367972,138.205847279,0.942861406011,-100.0,-0.955136211711,80.0,0.959931088597,-100.0,-0.959931088597,80.0,20509371.0705,0.0,0.0,0.0,0.0,0.0,0.0
1402757020082669649,3,-16.0841609279,-7.1377884924,22.4661114044,2.38304939926,56.7868708536,-3.84635974695,-0.102131688439,0.0,0.172447516568,0.0,1.44819300895,0.0,-2.90166674048,0.0,-0.23453611564,0.0,0.00944103969607,0.0,-0.00192109284786,0.0,0.0632852609288,0.0,0.00229672159515,0.0,0.0,0.0,0.0,-11.471528727,-147.447367972,138.205847279,0.941326944036,-100.0,-0.955136211711,80.0,0.959931088597,-100.0,-0.959931088597,80.0,20509371.0705,0.0,0.0,0.0,0.0,0.0,0.0
1402757020101793142,3,-16.0841609279,-7.1377884924,22.4661114044,2.38304939926,56.7868708536,-3.84635974695,-0.102131688439,0.0,0.172447516568,0.0,1.44819300895,0.0,-2.90166674048,0.0,-0.23453611564,0.0,0.00944103969607,0.0,-0.00192109284786,0.0,0.0632852609288,0.0,0.00229672159515,0.0,0.0,0.0,0.0,-11.471528727,-147.447367972,138.205847279,0.941326944036,-100.0,-0.955136211711,80.0,0.959931088597,-100.0,-0.959931088597,80.0,20509371.0705,0.0,0.0,0.0,0.0,0.0,0.0
1402757020121369228,3,-16.0829812811,-7.1377884924,22.4565559231,2.38304939926,56.801367799,-3.84635974695,-0.100296894886,0.0,0.150157887763,0.0,1.43387039241,0.0,-2.91180780231,0.0,-0.236473669008,0.0,0.00846848709537,0.0,-0.00630808597548,0.0,0.0637920136679,0.0,0.00377199945251,0.0,0.0,0.0,0.0,-11.471528727,-147.447367972,138.205847279,0.941326944036,-100.0,-0.953601749736,80.0,0.959931088597,-100.0,-0.959931088597,80.0,20509371.0705,0.0,0.0,0.0,0.0,0.0,0.0
1402757020141482153,3,-16.0829812811,-7.1377884924,22.4565559231,2.38304939926,56.801367799,-3.84635974695,-0.100296894886,0.0,0.150157887763,0.0,1.43387039241,0.0,-2.91180780231,0.0,-0.236473669008,0.0,0.00846848709537,0.0,-0.00630808597548,0.0,0.0637920136679,0.0,0.00377199945251,0.0,0.0,0.0,0.0,-11.471528727,-147.447367972,138.205847279,0.941326944036,-100.0,-0.953601749736,80.0,0.959931088597,-100.0,-0.959931088597,80.0,20509371.0705,0.0,0.0,0.0,0.0,0.0,0.0
1402757020162129420,3,-16.0739217797,-7.1377884924,22.4446689972,2.38304939926,56.7748552689,-3.84635974695,-0.0933245211742,0.0,0.149389519648,0.0,1.41258713232,0.0,-2.92061696307,0.0,-0.233258728136,0.0,0.0103169088302,0.0,-0.0131759859074,0.0,0.0630866705446,0.0,0.00458591289991,0.0,0.0,0.0,0.0,-11.471528727,-147.447367972,138.205847279,0.941326944036,-100.0,-0.955136211711,80.0,0.959931088597,-100.0,-0.959931088597,80.0,20509371.0705,0.0,0.0,0.0,0.0,0.0,0.0
1402757020181477982,3,-16.0739217797,-7.1377884924,22.4446689972,2.38304939926,56.7748552689,-3.84635974695,-0.0933245211742,0.0,0.149389519648,0.0,1.41258713232,0.0,-2.92061696307,0.0,-0.233258728136,0.0,0.0103169088302,0.0,-0.0131759859074,0.0,0.0630866705446,0.0,0.00458591289991,0.0,0.0,0.0,0.0,-11.471528727,-147.447367972,138.205847279,0.941326944036,-100.0,-0.953601749736,80.0,0.959931088597,-100.0,-0.959931088597,80.0,20509371.0705,0.0,0.0,0.0,0.0,0.0,0.0
1402757020201726424,3,-16.0766033359,-7.1377884924,22.445439449,2.38304939926,56.8302633967,-3.84635974695,-0.0863973843533,0.0,0.129629481218,0.0,1.39960102218,0.0,-2.93277373345,0.0,-0.230191492857,0.0,0.0105726661421,0.0,-0.00486950094699,0.0,0.0630708893769,0.0,0.00329957462474,0.0,0.0,0.0,0.0,-11.471528727,-147.447367972,138.205847279,0.941326944036,-100.0,-0.955136211711,80.0,0.959931088597,-100.0,-0.959931088597,80.0,20509371.0705,0.0,0.0,0.0,0.0,0.0,0.0
1402757020222129929,3,-16.0766033359,-7.1377884924,22.445439449,2.38304939926,56.8302633967,-3.84635974695,-0.0863973843533,0.0,0.129629481218,0.0,1.39960102218,0.0,-2.93277373345,0.0,-0.230191492857,0.0,0.0105726661421,0.0,-0.00486950094699,0.0,0.0630708893769,0.0,0.00329957462474,0.0,0.0,0.0,0.0,-11.471528727,-147.447367972,138.205847279,0.941326944036,-100.0,-0.955136211711,80.0,0.959931088597,-100.0,-0.959931088597,80.0,20509371.0705,0.0,0.0,0.0,0.0,0.0,0.0
1402757020241424268,3,-16.0655529615,-7.1377884924,22.4343173399,2.38304939926,56.8275374932,-3.84635974695,-0.0720366678948,0.0,0.119357464745,0.0,1.3908339368,0.0,-2.94349786873,0.0,-0.226173174959,0.0,0.0123847097837,0.0,-0.00970972782439,0.0,0.0618562403116,0.0,0.0103389241952,0.0,0.0,0.0,0.0,-11.471528727,-147.447367972,138.205847279,0.941326944036,-100.0,-0.955136211711,80.0,0.959931088597,-100.0,-0.959931088597,80.0,20509371.0705,0.0,0.0,0.0,0.0,0.0,0.0
1402757020261603102,3,-16.0655529615,-7.1377884924,22.4343173399,2.38304939926,56.8275374932,-3.84635974695,-0.0720366678948,0.0,0.119357464745,0.0,1.3908339368,0.0,-2.94349786873,0.0,-0.226173174959,0.0,0.0123847097837,0.0,-0.00970972782439,0.0,0.0618562403116,0.0,0.0103389241952,0.0,0.0,0.0,0.0,-11.471528727,-147.447367972,138.205847279,0.941326944036,-100.0,-0.955136211711,80.0,0.959931088597,-100.0,-0.959931088597,80.0,20509371.0705,0.0,0.0,0.0,0.0,0.0,0.0
1402757020282003965,3,-16.0668931722,-7.1377884924,22.4364003873,2.38304939926,56.8554838535,-3.84635974695,-0.0655542693906,0.0,0.106189632697,0.0,1.37563333349,0.0,-2.94798612383,0.0,-0.229734054393,0.0,0.0124530981018,0.0,-0.00295835926334,0.0,0.0614516336353,0.0,0.0240104197263,0.0,0.0,0.0,0.0,-11.471528727,-147.447367972,138.205847279,0.941326944036,-100.0,-0.955136211711,80.0,0.959931088597,-100.0,-0.959931088597,80.0,20509371.0705,0.0,0.0,0.0,0.0,0.0,0.0
1402757020301842908,3,-16.0668931722,-7.1377884924,22.4364003873,2.38304939926,56.8554838535,-3.84635974695,-0.0655542693906,0.0,0.106189632697,0.0,1.37563333349,0.0,-2.94798612383,0.0,-0.229734054393,0.0,0.0124530981018,0.0,-0.00295835926334,0.0,0.0614516336353,0.0,0.0240104197263,0.0,0.0,0.0,0.0,-11.471528727,-147.447367972,138.205847279,0.941326944036,-100.0,-0.953601749736,80.0,0.959931088597,-100.0,-0.959931088597,80.0,20509371.0705,0.0,0.0,0.0,0.0,0.0,0.0
1402757020321452682,3,-16.0651446583,-7.1377884924,22.431909994,2.38304939926,56.8769319532,-3.84635974695,-0.0697669636508,0.0,0.104179813283,0.0,1.3882053246,0.0,-2.95693496732,0.0,-0.211883590929,0.0,0.0133072800019,0.0,-0.0165728059254,0.0,0.0619241174365,0.0,-0.0068056351913,0.0,0.0,0.0,0.0,-11.471528727,-147.447367972,138.205847279,0.941326944036,-100.0,-0.955136211711,80.0,0.959931088597,-100.0,-0.959931088597,80.0,20509371.0705,0.0,0.0,0.0,0.0,0.0,0.0
1402757020342020118,3,-16.0651446583,-7.1377884924,22.431909994,2.38304939926,56.8769319532,-3.84635974695,-0.0697669636508,0.0,0.104179813283,0.0,1.3882053246,0.0,-2.95693496732,0.0,-0.211883590929,0.0,0.0133072800019,0.0,-0.0165728059254,0.0,0.0619241174365,0.0,-0.0068056351913,0.0,0.0,0.0,0.0,-11.471528727,-147.447367972,138.205847279,0.941326944036,-100.0,-0.953601749736,80.0,0.959931088597,-100.0,-0.959931088597,80.0,20509371.0705,0.0,0.0,0.0,0.0,0.0,0.0
1402757020361531071,3,-16.036715632,-7.1377884924,22.3906810317,2.38304939926,56.789513262,-3.84635974695,-0.0465833876452,0.0,0.0763761355677,0.0,1.3691529448,0.0,-2.96483715532,0.0,-0.205778482931,0.0,0.0123773690119,0.0,-0.00276773135797,0.0,0.0603053058275,0.0,-0.00774917660373,0.0,0.0,0.0,0.0,-11.471528727,-147.447367972,138.205847279,0.941326944036,-100.0,-0.953601749736,80.0,0.959931088597,-100.0,-0.959931088597,80.0,20509371.0705,0.0,0.0,0.0,0.0,0.0,0.0
1402757020381432246,3,-16.036715632,-7.1377884924,22.3906810317,2.38304939926,56.789513262,-3.84635974695,-0.0465833876452,0.0,0.0763761355677,0.0,1.3691529448,0.0,-2.96483715532,0.0,-0.205778482931,0.0,0.0123773690119,0.0,-0.00276773135797,0.0,0.0603053058275,0.0,-0.00774917660373,0.0,0.0,0.0,0.0,-11.471528727,-147.447367972,138.205847279,0.941326944036,-100.0,-0.955136211711,80.0,0.959931088597,-100.0,-0.959931088597,80.0,20509371.0705,0.0,0.0,0.0,0.0,0.0,0.0
1402757020401948590,3,-16.0281883524,-7.1377884924,22.3759959739,2.38304939926,56.7731818764,-3.84635974695,-0.0468986258099,0.0,0.0767271744503,0.0,1.37415925935,0.0,-2.97298519164,0.0,-0.197236145571,0.0,0.0136702969452,0.0,-0.0130602709783,0.0,0.0606513668308,0.0,-0.0056887390882,0.0,0.0,0.0,0.0,-11.471528727,-147.447367972,138.205847279,0.941326944036,-100.0,-0.955136211711,80.0,0.959931088597,-100.0,-0.959931088597,80.0,20509371.0705,0.0,0.0,0.0,0.0,0.0,0.0
1402757020421514977,3,-16.0281883524,-7.1377884924,22.3759959739,2.38304939926,56.7731818764,-3.84635974695,-0.0468986258099,0.0,0.0767271744503,0.0,1.37415925935,0.0,-2.97298519164,0.0,-0.197236145571,0.0,0.0136702969452,0.0,-0.0130602709783,0.0,0.0606513668308,0.0,-0.0056887390882,0.0,0.0,0.0,0.0,-11.471528727,-147.447367972,138.205847279,0.941326944036,-100.0,-0.955136211711,80.0,0.959931088597,-100.0,-0.959931088597,80.0,20509371.0705,0.0,0.0,0.0,0.0,0.0,0.0
1402757020442144537,3,-16.0181921676,-7.1377884924,22.3605963174,2.38304939926,56.7492524109,-3.84635974695,-0.0439419127842,0.0,0.0754769091351,0.0,1.36814378358,0.0,-2.98078986311,0.0,-0.185647645483,0.0,0.0147811457677,0.0,0.0147626551564,0.0,0.0607311920607,0.0,0.0166505013138,0.0,0.0,0.0,0.0,-11.471528727,-147.447367972,138.205847279,0.941326944036,-100.0,-0.955136211711,80.0,0.959931088597,-100.0,-0.959931088597,80.0,20509371.0705,0.0,0.0,0.0,0.0,0.0,0.0
1402757020462185000,3,-16.0181921676,-7.1377884924,22.3605963174,2.38304939926,56.7492524109,-3.84635974695,-0.0439419127842,0.0,0.0754769091351,0.0,1.36814378358,0.0,-2.98078986311,0.0,-0.185647645483,0.0,0.0147811457677,0.0,0.0147626551564,0.0,0.0607311920607,0.0,0.0166505013138,0.0,0.0,0.0,0.0,-11.471528727,-147.447367972,138.205847279,0.941326944036,-100.0,-0.955136211711,80.0,0.959931088597,-100.0,-0.959931088597,80.0,20509371.0705,0.0,0.0,0.0,0.0,0.0,0.0
1402757020481457779,3,-16.0200879493,-7.1377884924,22.3636430525,2.38304939926,56.805386679,-3.84635974695,-0.0378713184615,0.0,0.0659943411887,0.0,1.36390348821,0.0,-2.98835114498,0.0,-0.182650991463,0.0,0.0140777515693,0.0,0.0317271108249,0.0,0.060657586584,0.0,0.0280163847434,0.0,0.0,0.0,0.0,-11.471528727,-147.447367972,138.205847279,0.941326944036,-100.0,-0.955136211711,80.0,0.959931088597,-100.0,-0.959931088597,80.0,20509371.0705,0.0,0.0,0.0,0.0,0.0,0.0
1402757020501964629,3,-16.0200879493,-7.1377884924,22.3636430525,2.38304939926,56.805386679,-3.84635974695,-0.0378713184615,0.0,0.0659943411887,0.0,1.36390348821,0.0,-2.98835114498,0.0,-0.182650991463,0.0,0.0140777515693,0.0,0.0317271108249,0.0,0.060657586584,0.0,0.0280163847434,0.0,0.0,0.0,0.0,-11.471528727,-147.447367972,138.205847279,0.941326944036,-100.0,-0.955136211711,80.0,0.959931088597,-100.0,-0.959931088597,80.0,20509371.0705,0.0,0.0,0.0,0.0,0.0,0.0
1402757020522130828,3,-16.0002303608,-7.1377884924,22.3244969435,2.38304939926,56.7308938573,-3.84635974695,-0.0466792469918,0.0,0.0519077870159,0.0,1.38495660169,0.0,-2.99560026205,0.0,-0.186468547153,0.0,0.012689397158,0.0,0.00733339234271,0.0,0.0617414037613,0.0,-0.0324225733936,0.0,0.0,0.0,0.0,-11.471528727,-147.447367972,138.205847279,0.941326944036,-100.0,-0.955136211711,80.0,0.959931088597,-100.0,-0.959931088597,80.0,20509371.0705,0.0,0.0,0.0,0.0,0.0,0.0
1402757020541500183,3,-16.0002303608,-7.1377884924,22.3244969435,2.38304939926,56.7308938573,-3.84635974695,-0.0466792469918,0.0,0.0519077870159,0.0,1.38495660169,0.0,-2.99560026205,0.0,-0.186468547153,0.0,0.012689397158,0.0,0.00733339234271,0.0,0.0617414037613,0.0,-0.0324225733936,0.0,0.0,0.0,0.0,-11.471528727,-147.447367972,138.205847279,0.941326944036,-100.0,-0.953601749736,80.0,0.959931088597,-100.0,-0.959931088597,80.0,20509371.0705,0.0,0.0,0.0,0.0,0.0,0.0
1402757020561448420,3,-16.0017319619,-7.1377884924,22.326302444,2.38304939926,56.787017487,-3.84635974695,-0.0416788580595,0.0,0.0415821945125,0.0,1.37265781526,0.0,-3.00276951951,0.0,-0.170708206923,0.0,0.011870817414,0.0,0.0211928523109,0.0,0.0620445625316,0.0,-0.0192444036329,0.0,0.0,0.0,0.0,-11.471528727,-147.447367972,138.205847279,0.941326944036,-100.0,-0.955136211711,80.0,0.959931088597,-100.0,-0.959931088597,80.0,20509371.0705,0.0,0.0,0.0,0.0,0.0,0.0
1402757020581994724,3,-16.0017319619,-7.1377884924,22.326302444,2.38304939926,56.787017487,-3.84635974695,-0.0416788580595,0.0,0.0415821945125,0.0,1.37265781526,0.0,-3.00276951951,0.0,-0.170708206923,0.0,0.011870817414,0.0,0.0211928523109,0.0,0.0620445625316,0.0,-0.0192444036329,0.0,0.0,0.0,0.0,-11.471528727,-147.447367972,138.205847279,0.941326944036,-100.0,-0.955136211711,80.0,0.959931088597,-100.0,-0.959931088597,80.0,20509371.0705,0.0,0.0,0.0,0.0,0.0,0.0
1402757020601731881,3,-15.981102919,-7.1377884924,22.291600118,2.38304939926,56.7258943166,-3.84635974695,-0.0354576207611,0.0,0.0244380132579,0.0,1.36909878813,0.0,-3.00988219816,0.0,-0.170270116937,0.0,0.0104386800649,0.0,0.0202228003167,0.0,0.0617111674241,0.0,-0.00532545920967,0.0,0.0,0.0,0.0,-11.471528727,-147.447367972,138.205847279,0.941326944036,-100.0,-0.955136211711,80.0,0.959931088597,-100.0,-0.959931088597,80.0,20509371.0705,0.0,0.0,0.0,0.0,0.0,0.0
1402757020621414283,3,-15.981102919,-7.1377884924,22.291600118,2.38304939926,56.7258943166,-3.84635974695,-0.0354576207611,0.0,0.0244380132579,0.0,1.36909878813,0.0,-3.00988219816,0.0,-0.170270116937,0.0,0.0104386800649,0.0,0.0202228003167,0.0,0.0617111674241,0.0,-0.00532545920967,0.0,0.0,0.0,0.0,-11.471528727,-147.447367972,138.205847279,0.941326944036,-100.0,-0.955136211711,80.0,0.959931088597,-100.0,-0.959931088597,80.0,20509371.0705,0.0,0.0,0.0,0.0,0.0,0.0
1402757020641997181,3,-15.9564497205,-7.1377884924,22.2394095611,2.38304939926,56.6021401915,-3.84635974695,-0.0455035356629,0.0,0.0148995362931,0.0,1.3655645374,0.0,-3.01616076754,0.0,-0.159331779526,0.0,0.00957646421779,0.0,0.0180123942594,0.0,0.063306828335,0.0,-0.00658482916327,0.0,0.0,0.0,0.0,-11.471528727,-147.447367972,138.205847279,0.941326944036,-100.0,-0.955136211711,80.0,0.959931088597,-100.0,-0.959931088597,80.0,20509371.0705,0.0,0.0,0.0,0.0,0.0,0.0
1402757020661653718,3,-15.9564497205,-7.1377884924,22.2394095611,2.38304939926,56.6021401915,-3.84635974695,-0.0455035356629,0.0,0.0148995362931,0.0,1.3655645374,0.0,-3.01616076754,0.0,-0.159331779526,0.0,0.00957646421779,0.0,0.0180123942594,0.0,0.063306828335,0.0,-0.00658482916327,0.0,0.0,0.0,0.0,-11.471528727,-147.447367972,138.205847279,0.941326944036,-100.0,-0.955136211711,80.0,0.959931088597,-100.0,-0.959931088597,80.0,20509371.0705,0.0,0.0,0.0,0.0,0.0,0.0
1402757020681492376,3,-15.9405463983,-7.1377884924,22.1976180858,2.38304939926,56.5305397286,-3.84635974695,-0.0525653326339,0.0,-0.0105328805925,0.0,1.36539290429,0.0,-3.02171380389,0.0,-0.157093035323,0.0,0.0073004062163,0.0,0.0333919248931,0.0,0.065165436127,0.0,0.017462807414,0.0,0.0,0.0,0.0,-11.471528727,-147.447367972,138.205847279,0.942861406011,-100.0,-0.953601749736,80.0,0.959931088597,-100.0,-0.959931088597,80.0,20509371.0705,0.0,0.0,0.0,0.0,0.0,0.0
1402757020702188888,3,-15.9405463983,-7.1377884924,22.1976180858,2.38304939926,56.5305397286,-3.84635974695,-0.0525653326339,0.0,-0.0105328805925,0.0,1.36539290429,0.0,-3.02171380389,0.0,-0.157093035323,0.0,0.0073004062163,0.0,0.0333919248931,0.0,0.065165436127,0.0,0.017462807414,0.0,0.0,0.0,0.0,-11.471528727,-147.447367972,138.205847279,0.941326944036,-100.0,-0.953601749736,80.0,0.959931088597,-100.0,-0.959931088597,80.0,20509371.0705,0.0,0.0,0.0,0.0,0.0,0.0
1402757020721689896,3,-15.915018685,-7.1377884924,22.1561448762,2.38304939926,56.4380287177,-3.84635974695,-0.0430736236307,0.0,-0.0225494939879,0.0,1.34119834571,0.0,-3.02837324958,0.0,-0.149036079372,0.0,0.00745683443634,0.0,0.0249905333224,0.0,0.0643162885182,0.0,0.0187568605531,0.0,0.0,0.0,0.0,-11.471528727,-147.447367972,138.205847279,0.941326944036,-100.0,-0.953601749736,80.0,0.959931088597,-100.0,-0.959931088597,80.0,20509371.0705,0.0,0.0,0.0,0.0,0.0,0.0
1402757020741445663,3,-15.915018685,-7.1377884924,22.1561448762,2.38304939926,56.4380287177,-3.84635974695,-0.0430736236307,0.0,-0.0225494939879,0.0,1.34119834571,0.0,-3.02837324958,0.0,-0.149036079372,0.0,0.00745683443634,0.0,0.0249905333224,0.0,0.0643162885182,0.0,0.0187568605531,0.0,0.0,0.0,0.0,-11.471528727,-147.447367972,138.205847279,0.942861406011,-100.0,-0.955136211711,80.0,0.959931088597,-100.0,-0.959931088597,80.0,20509371.0705,0.0,0.0,0.0,0.0,0.0,0.0
1402757020762279927,3,-15.8899156678,-7.1377884924,22.1135045613,2.38304939926,56.3542347923,-3.84635974695,-0.044495015055,0.0,-0.0341409459078,0.0,1.35185894354,0.0,-3.0344152064,0.0,-0.151397791932,0.0,0.0073672991388,0.0,-0.011872350952,0.0,0.0641093413057,0.0,-0.0442325524446,0.0,0.0,0.0,0.0,-11.471528727,-147.447367972,138.205847279,0.941326944036,-100.0,-0.953601749736,80.0,0.959931088597,-100.0,-0.959931088597,80.0,20509371.0705,0.0,0.0,0.0,0.0,0.0,0.0
1402757020781662946,3,-15.8899156678,-7.1377884924,22.1135045613,2.38304939926,56.3542347923,-3.84635974695,-0.044495015055,0.0,-0.0341409459078,0.0,1.35185894354,0.0,-3.0344152064,0.0,-0.151397791932,0.0,0.0073672991388,0.0,-0.011872350952,0.0,0.0641093413057,0.0,-0.0442325524446,0.0,0.0,0.0,0.0,-11.471528727,-147.447367972,138.205847279,0.942861406011,-100.0,-0.953601749736,80.0,0.959931088597,-100.0,-0.959931088597,80.0,20509371.0705,0.0,0.0,0.0,0.0,0.0,0.0
1402757020801340125,3,-15.8634165685,-7.1377884924,22.0718136121,2.38304939926,56.261819004,-3.84635974695,-0.0367556588739,0.0,-0.0433404105289,0.0,1.34186953466,0.0,-3.04073386769,0.0,-0.146166626929,0.0,0.00801021472161,0.0,-0.0143527655072,0.0,0.0632280685518,0.0,-0.0500948703842,0.0,0.0,0.0,0.0,-11.471528727,-147.447367972,138.205847279,0.941326944036,-100.0,-0.953601749736,80.0,0.959931088597,-100.0,-0.959931088597,80.0,20509371.0705,0.0,0.0,0.0,0.0,0.0,0.0
1402757020822170519,3,-15.8634165685,-7.1377884924,22.0718136121,2.38304939926,56.261819004,-3.84635974695,-0.0367556588739,0.0,-0.0433404105289,0.0,1.34186953466,0.0,-3.04073386769,0.0,-0.146166626929,0.0,0.00801021472161,0.0,-0.0143527655072,0.0,0.0632280685518,0.0,-0.0500948703842,0.0,0.0,0.0,0.0,-11.471528727,-147.447367972,138.205847279,0.941326944036,-100.0,-0.955136211711,80.0,0.959931088597,-100.0,-0.959931088597,80.0,20509371.0705,0.0,0.0,0.0,0.0,0.0,0.0
1402757020841484445,3,-15.8415906685,-7.1377884924,22.0265621623,2.38304939926,56.1822511421,-3.84635974695,-0.0373223827358,0.0,-0.0591361892162,0.0,1.32448556696,0.0,-3.04749283405,0.0,-0.14079973114,0.0,0.00807370850329,0.0,-0.00794560580054,0.0,0.0641367761713,0.0,-0.0365715660826,0.0,0.0,0.0,0.0,-11.471528727,-147.447367972,138.205847279,0.941326944036,-100.0,-0.955136211711,80.0,0.959931088597,-100.0,-0.959931088597,80.0,20509371.0705,0.0,0.0,0.0,0.0,0.0,0.0
1402757020862208401,3,-15.8415906685,-7.1377884924,22.0265621623,2.38304939926,56.1822511421,-3.84635974695,-0.0373223827358,0.0,-0.0591361892162,0.0,1.32448556696,0.0,-3.04749283405,0.0,-0.14079973114,0.0,0.00807370850329,0.0,-0.00794560580054,0.0,0.0641367761713,0.0,-0.0365715660826,0.0,0.0,0.0,0.0,-11.471528727,-147.447367972,138.205847279,0.942861406011,-100.0,-0.953601749736,80.0,0.959931088597,-100.0,-0.959931088597,80.0,20509371.0705,0.0,0.0,0.0,0.0,0.0,0.0
1402757020881867366,3,-15.8425430094,-7.1377884924,22.024512752,2.38304939926,56.2218390778,-3.84635974695,-0.0393620095251,0.0,-0.0654600100743,0.0,1.32075283291,0.0,-3.05146711237,0.0,-0.135715728266,0.0,0.00802973173655,0.0,-0.0197178841872,0.0,0.0640258786642,0.0,-0.0223445515913,0.0,0.0,0.0,0.0,-11.471528727,-147.447367972,138.205847279,0.941326944036,-100.0,-0.955136211711,80.0,0.959931088597,-100.0,-0.959931088597,80.0,20509371.0705,0.0,0.0,0.0,0.0,0.0,0.0
1402757020902218487,3,-15.8213845644,-7.1377884924,21.9862505871,2.38304939926,56.1100114362,-3.84635974695,-0.0351892584106,0.0,-0.0672920131736,0.0,1.30740652251,0.0,-3.05439318624,0.0,-0.127276910935,0.0,0.00887966568591,0.0,0.00587120690205,0.0,0.0642468855621,0.0,0.00750796225994,0.0,0.0,0.0,0.0,-11.471528727,-147.447367972,138.205847279,0.941326944036,-100.0,-0.953601749736,80.0,0.959931088597,-100.0,-0.959931088597,80.0,20509371.0705,0.0,0.0,0.0,0.0,0.0,0.0
1402757020921488754,3,-15.8213845644,-7.1377884924,21.9862505871,2.38304939926,56.1100114362,-3.84635974695,-0.0351892584106,0.0,-0.0672920131736,0.0,1.30740652251,0.0,-3.05439318624,0.0,-0.127276910935,0.0,0.00887966568591,0.0,0.00587120690205,0.0,0.0642468855621,0.0,0.00750796225994,0.0,0.0,0.0,0.0,-11.471528727,-147.447367972,138.205847279,0.941326944036,-100.0,-0.953601749736,80.0,0.959931088597,-100.0,-0.959931088597,80.0,20509371.0705,0.0,0.0,0.0,0.0,0.0,0.0
1402757020942044522,3,-15.8222257709,-7.1377884924,21.9849132107,2.38304939926,56.1362999942,-3.84635974695,-0.0362509310261,0.0,-0.0706398505872,0.0,1.30660680887,0.0,-3.05706148952,0.0,-0.132751495287,0.0,0.0090116499349,0.0,0.00683691505551,0.0,0.064601229017,0.0,0.00761641796649,0.0,0.0,0.0,0.0,-11.471528727,-147.447367972,138.205847279,0.941326944036,-100.0,-0.953601749736,80.0,0.959931088597,-100.0,-0.959931088597,80.0,20509371.0705,0.0,0.0,0.0,0.0,0.0,0.0
1402757020961584470,3,-15.8222257709,-7.1377884924,21.9849132107,2.38304939926,56.1362999942,-3.84635974695,-0.0362509310261,0.0,-0.0706398505872,0.0,1.30660680887,0.0,-3.05706148952,0.0,-0.132751495287,0.0,0.0090116499349,0.0,0.00683691505551,0.0,0.064601229017,0.0,0.00761641796649,0.0,0.0,0.0,0.0,-11.471528727,-147.447367972,138.205847279,0.941326944036,-100.0,-0.955136211711,80.0,0.959931088597,-100.0,-0.959931088597,80.0,20509371.0705,0.0,0.0,0.0,0.0,0.0,0.0
1402757020981677406,3,-15.7950977469,-7.1377884924,21.9380961342,2.38304939926,56.035309462,-3.84635974695,-0.0346502294058,0.0,-0.0730006967142,0.0,1.31002941939,0.0,-3.0628566643,0.0,-0.1349193151,0.0,0.00980743023679,0.0,-0.00849824982529,0.0,0.0645427155675,0.0,-0.0519192958047,0.0,0.0,0.0,0.0,-11.471528727,-147.447367972,138.205847279,0.941326944036,-100.0,-0.955136211711,80.0,0.959931088597,-100.0,-0.959931088597,80.0,20509371.0705,0.0,0.0,0.0,0.0,0.0,0.0
1402757021002077643,3,-15.7950977469,-7.1377884924,21.9380961342,2.38304939926,56.035309462,-3.84635974695,-0.0346502294058,0.0,-0.0730006967142,0.0,1.31002941939,0.0,-3.0628566643,0.0,-0.1349193151,0.0,0.00980743023679,0.0,-0.00849824982529,0.0,0.0645427155675,0.0,-0.0519192958047,0.0,0.0,0.0,0.0,-11.471528727,-147.447367972,138.205847279,0.941326944036,-100.0,-0.955136211711,80.0,0.959931088597,-100.0,-0.959931088597,80.0,20509371.0705,0.0,0.0,0.0,0.0,0.0,0.0
1402757021021509792,3,-15.7793496061,-7.1377884924,21.8984994999,2.38304939926,55.9632897736,-3.84635974695,-0.0512072719579,0.0,-0.0758735892331,0.0,1.3236400076,0.0,-3.06733281917,0.0,-0.136090711666,0.0,0.00983026292549,0.0,-0.0155780079368,0.0,0.0669226194583,0.0,-0.0529537517294,0.0,0.0,0.0,0.0,-11.471528727,-147.447367972,138.205847279,0.941326944036,-100.0,-0.955136211711,80.0,0.959931088597,-100.0,-0.959931088597,80.0,20509371.0705,0.0,0.0,0.0,0.0,0.0,0.0
1402757021041514709,3,-15.7793496061,-7.1377884924,21.8984994999,2.38304939926,55.9632897736,-3.84635974695,-0.0512072719579,0.0,-0.0758735892331,0.0,1.3236400076,0.0,-3.06733281917,0.0,-0.136090711666,0.0,0.00983026292549,0.0,-0.0155780079368,0.0,0.0669226194583,0.0,-0.0529537517294,0.0,0.0,0.0,0.0,-11.471528727,-147.447367972,138.205847279,0.941326944036,-100.0,-0.955136211711,80.0,0.959931088597,-100.0,-0.959931088597,80.0,20509371.0705,0.0,0.0,0.0,0.0,0.0,0.0
1402757021062736568,3,-15.7482056268,-7.1377884924,21.8415376642,2.38304939926,55.8266808769,-3.84635974695,-0.038209469952,0.0,-0.0831385684535,0.0,1.29093849625,0.0,-3.07313440093,0.0,-0.130892462021,0.0,0.0103481944776,0.0,-0.00893657672773,0.0,0.0664946083884,0.0,-0.00314218435416,0.0,0.0,0.0,0.0,-11.471528727,-147.447367972,138.205847279,0.941326944036,-100.0,-0.955136211711,80.0,0.959931088597,-100.0,-0.959931088597,80.0,20509371.0705,0.0,0.0,0.0,0.0,0.0,0.0
1402757021081603376,3,-15.7482056268,-7.1377884924,21.8415376642,2.38304939926,55.8266808769,-3.84635974695,-0.038209469952,0.0,-0.0831385684535,0.0,1.29093849625,0.0,-3.07313440093,0.0,-0.130892462021,0.0,0.0103481944776,0.0,-0.00893657672773,0.0,0.0664946083884,0.0,-0.00314218435416,0.0,0.0,0.0,0.0,-11.471528727,-147.447367972,138.205847279,0.941326944036,-100.0,-0.953601749736,80.0,0.959931088597,-100.0,-0.959931088597,80.0,20509371.0705,0.0,0.0,0.0,0.0,0.0,0.0
1402757021101532022,3,-15.7497883639,-7.1377884924,21.8382409961,2.38304939926,55.8794461945,-3.84635974695,-0.0456392241688,0.0,-0.0785695491018,0.0,1.32446465141,0.0,-3.07830168469,0.0,-0.128974755612,0.0,0.0110199000876,0.0,-0.0259069269096,0.0,0.0676292092888,0.0,-0.0188324812525,0.0,0.0,0.0,0.0,-11.471528727,-147.447367972,138.205847279,0.941326944036,-100.0,-0.953601749736,80.0,0.959931088597,-100.0,-0.959931088597,80.0,20509371.0705,0.0,0.0,0.0,0.0,0.0,0.0
1402757021122046865,3,-15.7497883639,-7.1377884924,21.8382409961,2.38304939926,55.8794461945,-3.84635974695,-0.0456392241688,0.0,-0.0785695491018,0.0,1.32446465141,0.0,-3.07830168469,0.0,-0.128974755612,0.0,0.0110199000876,0.0,-0.0259069269096,0.0,0.0676292092888,0.0,-0.0188324812525,0.0,0.0,0.0,0.0,-11.471528727,-147.447367972,138.205847279,0.941326944036,-100.0,-0.953601749736,80.0,0.959931088597,-100.0,-0.959931088597,80.0,20509371.0705,0.0,0.0,0.0,0.0,0.0,0.0
1402757021141938184,3,-15.7307911316,-7.1377884924,21.7988695108,2.38304939926,55.7892881948,-3.84635974695,-0.045287585364,0.0,-0.0733444539621,0.0,1.31478481035,0.0,-3.08404968605,0.0,-0.117092279184,0.0,0.0129611676457,0.0,0.0146602597522,0.0,0.0684441842233,0.0,0.0193765141027,0.0,0.0,0.0,0.0,-11.471528727,-147.447367972,138.205847279,0.941326944036,-100.0,-0.953601749736,80.0,0.959931088597,-100.0,-0.959931088597,80.0,20509371.0705,0.0,0.0,0.0,0.0,0.0,0.0
1402757021161572879,3,-15.7307911316,-7.1377884924,21.7988695108,2.38304939926,55.7892881948,-3.84635974695,-0.045287585364,0.0,-0.0733444539621,0.0,1.31478481035,0.0,-3.08404968605,0.0,-0.117092279184,0.0,0.0129611676457,0.0,0.0146602597522,0.0,0.0684441842233,0.0,0.0193765141027,0.0,0.0,0.0,0.0,-11.471528727,-147.447367972,138.205847279,0.941326944036,-100.0,-0.953601749736,80.0,0.959931088597,-100.0,-0.959931088597,80.0,20509371.0705,0.0,0.0,0.0,0.0,0.0,0.0
1402757021182102673,3,-15.7058346488,-7.1377884924,21.7536677537,2.38304939926,55.6855311548,-3.84635974695,-0.0405238559021,0.0,-0.0753727279802,0.0,1.30869297117,0.0,-3.0901321956,0.0,-0.128141774738,0.0,0.0146969396726,0.0,0.011686693174,0.0,0.0682349669607,0.0,0.0246261782458,0.0,0.0,0.0,0.0,-11.471528727,-147.447367972,138.205847279,0.941326944036,-100.0,-0.953601749736,80.0,0.959931088597,-100.0,-0.959931088597,80.0,20509371.0705,0.0,0.0,0.0,0.0,0.0,0.0
1402757021201467737,3,-15.7058346488,-7.1377884924,21.7536677537,2.38304939926,55.6855311548,-3.84635974695,-0.0405238559021,0.0,-0.0753727279802,0.0,1.30869297117,0.0,-3.0901321956,0.0,-0.128141774738,0.0,0.0146969396726,0.0,0.011686693174,0.0,0.0682349669607,0.0,0.0246261782458,0.0,0.0,0.0,0.0,-11.471528727,-147.447367972,138.205847279,0.941326944036,-100.0,-0.953601749736,80.0,0.959931088597,-100.0,-0.959931088597,80.0,20509371.0705,0.0,0.0,0.0,0.0,0.0,0.0
1402757021221605535,3,-15.6820644689,-7.1377884924,21.704795874,2.38304939926,55.5877609379,-3.84635974695,-0.0512192883435,0.0,-0.0805898914118,0.0,1.32780504963,0.0,-3.09424629239,0.0,-0.122897368215,0.0,0.0147238978276,0.0,-0.0240317318102,0.0,0.068940502548,0.0,-0.0321879593133,0.0,0.0,0.0,0.0,-11.471528727,-147.447367972,138.205847279,0.941326944036,-100.0,-0.955136211711,80.0,0.959931088597,-100.0,-0.959931088597,80.0,20509371.0705,0.0,0.0,0.0,0.0,0.0,0.0
1402757021242125036,3,-15.6820644689,-7.1377884924,21.704795874,2.38304939926,55.5877609379,-3.84635974695,-0.0512192883435,0.0,-0.0805898914118,0.0,1.32780504963,0.0,-3.09424629239,0.0,-0.122897368215,0.0,0.0147238978276,0.0,-0.0240317318102,0.0,0.068940502548,0.0,-0.0321879593133,0.0,0.0,0.0,0.0,-11.471528727,-147.447367972,138.205847279,0.941326944036,-100.0,-0.955136211711,80.0,0.959931088597,-100.0,-0.959931088597,80.0,20509371.0705,0.0,0.0,0.0,0.0,0.0,0.0
1402757021261752470,3,-15.6694198647,-7.1377884924,21.6733322506,2.38304939926,55.5272935251,-3.84635974695,-0.0522880700451,0.0,-0.0790747967556,0.0,1.31199599836,0.0,-3.09874364613,0.0,-0.116288204815,0.0,0.016712889978,0.0,-0.00867724775607,0.0,0.0694177438381,0.0,0.0364297432403,0.0,0.0,0.0,0.0,-11.471528727,-147.447367972,138.205847279,0.941326944036,-100.0,-0.953601749736,80.0,0.959931088597,-100.0,-0.959931088597,80.0,20509371.0705,0.0,0.0,0.0,0.0,0.0,0.0
1402757021281661898,3,-15.6694198647,-7.1377884924,21.6733322506,2.38304939926,55.5272935251,-3.84635974695,-0.0522880700451,0.0,-0.0790747967556,0.0,1.31199599836,0.0,-3.09874364613,0.0,-0.116288204815,0.0,0.016712889978,0.0,-0.00867724775607,0.0,0.0694177438381,0.0,0.0364297432403,0.0,0.0,0.0,0.0,-11.471528727,-147.447367972,138.205847279,0.941326944036,-100.0,-0.955136211711,80.0,0.959931088597,-100.0,-0.959931088597,80.0,20509371.0705,0.0,0.0,0.0,0.0,0.0,0.0
1402757021302136276,3,-15.6718929392,-7.1377884924,21.6705451449,2.38304939926,55.5804279326,-3.84635974695,-0.0633446139112,0.0,-0.0780523004644,0.0,1.33746742166,0.0,-3.10292801058,0.0,-0.105548675131,0.0,0.0175368242586,0.0,-0.0199735894135,0.0,0.0694412043356,0.0,0.0324822244135,0.0,0.0,0.0,0.0,-11.471528727,-147.447367972,138.205847279,0.941326944036,-100.0,-0.953601749736,80.0,0.959931088597,-100.0,-0.959931088597,80.0,20509371.0705,0.0,0.0,0.0,0.0,0.0,0.0
