rosbagTimestamp,control_method,x_current,x_desired,y_current,y_desired,z_current,z_desired,x_velocity_current,x_velocity_desired,y_velocity_current,y_velocity_desired,z_velocity_current,z_velocity_desired,yaw_current,yaw_desired,yaw_velocity_current,yaw_velocity_desired,roll_current,roll_desired,roll_velocity_current,roll_velocity_desired,pitch_current,pitch_desired,pitch_velocity_current,pitch_velocity_desired,required_force_x,required_force_y,required_moment_z,resultant_force_x,resultant_force_y,resultant_moment_z,current_port_servo_angle,current_port_thruster_force,current_starboard_servo_angle,current_starboard_thruster_force,estimated_port_servo_angle,estimated_port_thruster_force,estimated_starboard_servo_angle,estimated_starboard_thruster_force,cost_value,step,user_defined_1,user_defined_2,user_defined_3,user_defined_4,user_defined_5
1402753731550073559,3,-8.66503448952,-0.00591572024346,-3.37974822141,-0.122189614607,12.3370570441,0.10862951003,0.00597418852582,0.0,-0.0195215954124,0.0,0.106719203744,0.0,1.45378012256,0.0,-0.0038363323263,0.0,-0.00067271767121,0.0,0.00492245246926,0.0,0.0722908249219,0.0,-0.000899727834097,0.0,0.0,0.0,0.0,-100.0,0.0,0.0,0.00383600394174,0.0,-0.00383606751517,0.0,-0.0,-50.0,-0.0,-50.0,525000.0,0.0,0.0,0.0,0.0,0.0,0.0
1402753731569788170,3,-8.66782143236,-0.00591572024346,-3.38165610701,-0.122189614607,12.3402384254,0.10862951003,0.00379279416272,0.0,-0.0180944770918,0.0,0.109515400062,0.0,1.45343332823,0.0,-0.00504933729717,0.0,-0.000953143994384,0.0,0.00377919467473,0.0,0.0721963297581,0.0,0.000706237263342,0.0,0.0,0.0,0.0,-100.0,0.0,0.0,0.00230154196664,0.0,-0.00383606751517,0.0,-0.0,-50.0,-0.0,-50.0,525000.0,0.0,0.0,0.0,0.0,0.0,0.0
1402753731590007675,3,-8.66782143236,-0.00591572024346,-3.38165610701,-0.122189614607,12.3402384254,0.10862951003,0.00379279416272,0.0,-0.0180944770918,0.0,0.109515400062,0.0,1.45343332823,0.0,-0.00504933729717,0.0,-0.000953143994384,0.0,0.00377919467473,0.0,0.0721963297581,0.0,0.000706237263342,0.0,0.0,0.0,0.0,-100.0,0.0,0.0,0.00230154196664,0.0,-0.00383606751517,0.0,-0.0,-50.0,-0.0,-50.0,525000.0,0.0,0.0,0.0,0.0,0.0,0.0
1402753731609805214,3,-8.67154991761,-0.00591572024346,-3.37897922474,-0.122189614607,12.3248052199,0.10862951003,0.003617610599,0.0,-0.0171267783814,0.0,0.105210421136,0.0,1.45319189177,0.0,-0.00466221979019,0.0,-0.000957397612268,0.0,0.0151461808162,0.0,0.0719457310638,0.0,0.00184476713965,0.0,0.0,0.0,0.0,-100.0,0.0,0.0,0.00383600394174,0.0,-0.00383606751517,0.0,-0.0,-50.0,-0.0,-50.0,525000.0,0.0,0.0,0.0,0.0,0.0,0.0
1402753731629569017,3,-8.67154991761,-0.00591572024346,-3.37897922474,-0.122189614607,12.3248052199,0.10862951003,0.003617610599,0.0,-0.0171267783814,0.0,0.105210421136,0.0,1.45319189177,0.0,-0.00466221979019,0.0,-0.000957397612268,0.0,0.0151461808162,0.0,0.0719457310638,0.0,0.00184476713965,0.0,0.0,0.0,0.0,-100.0,0.0,0.0,0.00230154196664,0.0,-0.00383606751517,0.0,-0.0,-50.0,-0.0,-50.0,525000.0,0.0,0.0,0.0,0.0,0.0,0.0
1402753731649582281,3,-8.67493467545,-0.00591572024346,-3.37586487998,-0.122189614607,12.3227084526,0.10862951003,0.00229791902674,0.0,-0.00645209327509,0.0,0.104999303584,0.0,1.45300231304,0.0,-0.00533829533075,0.0,-0.0011472100788,0.0,0.0127088536955,0.0,0.072653048153,0.0,0.0160165207937,0.0,0.0,0.0,0.0,-100.0,0.0,0.0,0.00383600394174,0.0,-0.00383606751517,0.0,-0.0,-50.0,-0.0,-50.0,525000.0,0.0,0.0,0.0,0.0,0.0,0.0
1402753731670041534,3,-8.67493467545,-0.00591572024346,-3.37586487998,-0.122189614607,12.3227084526,0.10862951003,0.00229791902674,0.0,-0.00645209327509,0.0,0.104999303584,0.0,1.45300231304,0.0,-0.00533829533075,0.0,-0.0011472100788,0.0,0.0127088536955,0.0,0.072653048153,0.0,0.0160165207937,0.0,0.0,0.0,0.0,-100.0,0.0,0.0,0.00383600394174,0.0,-0.00383606751517,0.0,-0.0,-50.0,-0.0,-50.0,525000.0,0.0,0.0,0.0,0.0,0.0,0.0
1402753731690637007,3,-8.67573983023,-0.00591572024346,-3.37874247008,-0.122189614607,12.3218893481,0.10862951003,0.00358652712951,0.0,-0.0103365925386,0.0,0.104461340829,0.0,1.45271560782,0.0,-0.0047038583802,0.0,-0.000366571237325,0.0,0.00733606897405,0.0,0.0716877372739,0.0,0.00164718272183,0.0,0.0,0.0,0.0,-100.0,0.0,0.0,0.00383600394174,0.0,-0.00383606751517,0.0,-0.0,-50.0,-0.0,-50.0,525000.0,0.0,0.0,0.0,0.0,0.0,0.0
1402753731710057946,3,-8.67573983023,-0.00591572024346,-3.37874247008,-0.122189614607,12.3218893481,0.10862951003,0.00358652712951,0.0,-0.0103365925386,0.0,0.104461340829,0.0,1.45271560782,0.0,-0.0047038583802,0.0,-0.000366571237325,0.0,0.00733606897405,0.0,0.0716877372739,0.0,0.00164718272183,0.0,0.0,0.0,0.0,-100.0,0.0,0.0,0.00383600394174,0.0,-0.00383606751517,0.0,-0.0,-50.0,-0.0,-50.0,525000.0,0.0,0.0,0.0,0.0,0.0,0.0
1402753731729513631,3,-8.67799413864,-0.00591572024346,-3.37887798848,-0.122189614607,12.3057360017,0.10862951003,0.00675449890038,0.0,-0.0168601440807,0.0,0.0996206730529,0.0,1.45264129586,0.0,0.000301138426603,0.0,0.000302472597728,0.0,0.00865165607966,0.0,0.0704850267873,0.0,0.00430501673391,0.0,0.0,0.0,0.0,-100.0,0.0,0.0,0.00383600394174,0.0,-0.00383606751517,0.0,-0.0,-50.0,-0.0,-50.0,525000.0,0.0,0.0,0.0,0.0,0.0,0.0
1402753731750155796,3,-8.67799413864,-0.00591572024346,-3.37887798848,-0.122189614607,12.3057360017,0.10862951003,0.00675449890038,0.0,-0.0168601440807,0.0,0.0996206730529,0.0,1.45264129586,0.0,0.000301138426603,0.0,0.000302472597728,0.0,0.00865165607966,0.0,0.0704850267873,0.0,0.00430501673391,0.0,0.0,0.0,0.0,-100.0,0.0,0.0,0.00230154196664,0.0,-0.00383606751517,0.0,-0.0,-50.0,-0.0,-50.0,525000.0,0.0,0.0,0.0,0.0,0.0,0.0
1402753731769461895,3,-8.67784791424,-0.00591572024346,-3.37958406477,-0.122189614607,12.3096506899,0.10862951003,0.00582235340419,0.0,-0.0165767111912,0.0,0.0995500102671,0.0,1.45241664196,0.0,-0.00694859549681,0.0,0.000560594591964,0.0,0.00683071603569,0.0,0.0701813406784,0.0,0.00211082050959,0.0,0.0,0.0,0.0,-100.0,0.0,0.0,0.00230154196664,0.0,-0.00383606751517,0.0,-0.0,-50.0,-0.0,-50.0,525000.0,0.0,0.0,0.0,0.0,0.0,0.0
1402753731789450915,3,-8.67784791424,-0.00591572024346,-3.37958406477,-0.122189614607,12.3096506899,0.10862951003,0.00582235340419,0.0,-0.0165767111912,0.0,0.0995500102671,0.0,1.45241664196,0.0,-0.00694859549681,0.0,0.000560594591964,0.0,0.00683071603569,0.0,0.0701813406784,0.0,0.00211082050959,0.0,0.0,0.0,0.0,-100.0,0.0,0.0,0.00383600394174,0.0,-0.00383606751517,0.0,-0.0,-50.0,-0.0,-50.0,525000.0,0.0,0.0,0.0,0.0,0.0,0.0
1402753731809566363,3,-8.67905744139,-0.00591572024346,-3.38098980834,-0.122189614607,12.3270549938,0.10862951003,0.00146613367069,0.0,-0.00884001240294,0.0,0.104131751665,0.0,1.4521301209,0.0,-0.00625875426936,0.0,4.27392027115e-05,0.0,0.00512170733924,0.0,0.0707401464219,0.0,0.0082677217592,0.0,0.0,0.0,0.0,-100.0,0.0,0.0,0.00383600394174,0.0,-0.00383606751517,0.0,-0.0,-50.0,-0.0,-50.0,525000.0,0.0,0.0,0.0,0.0,0.0,0.0
1402753731829410065,3,-8.67905744139,-0.00591572024346,-3.38098980834,-0.122189614607,12.3270549938,0.10862951003,0.00146613367069,0.0,-0.00884001240294,0.0,0.104131751665,0.0,1.4521301209,0.0,-0.00625875426936,0.0,4.27392027115e-05,0.0,0.00512170733924,0.0,0.0707401464219,0.0,0.0082677217592,0.0,0.0,0.0,0.0,-100.0,0.0,0.0,0.00383600394174,-50.0,-0.00383606751517,-50.0,-0.0,-50.0,-0.0,-50.0,525000.0,0.0,0.0,0.0,0.0,0.0,0.0
1402753731849507298,3,-8.67791194318,-0.00591572024346,-3.38400621633,-0.122189614607,12.3246708174,0.10862951003,0.00921955293721,0.0,-0.0133133014959,0.0,0.102556184453,0.0,1.45184067946,0.0,-0.00759832506951,0.0,0.00134470663767,0.0,0.00119603158443,0.0,0.0700869664604,0.0,0.00897976317465,0.0,0.0,0.0,0.0,-100.0,0.0,0.0,0.00230154196664,-50.0,-0.00383606751517,-50.0,-0.0,-50.0,-0.0,-50.0,525000.0,0.0,0.0,0.0,0.0,0.0,0.0
1402753731869419799,3,-8.67791194318,-0.00591572024346,-3.38400621633,-0.122189614607,12.3246708174,0.10862951003,0.00921955293721,0.0,-0.0133133014959,0.0,0.102556184453,0.0,1.45184067946,0.0,-0.00759832506951,0.0,0.00134470663767,0.0,0.00119603158443,0.0,0.0700869664604,0.0,0.00897976317465,0.0,0.0,0.0,0.0,-100.0,0.0,0.0,0.00383600394174,-50.0,-0.00383606751517,-50.0,-0.0,-50.0,-0.0,-50.0,525000.0,0.0,0.0,0.0,0.0,0.0,0.0
1402753731889456228,3,-8.6818641901,-0.00591572024346,-3.37901919126,-0.122189614607,12.3097710998,0.10862951003,0.00621253860208,0.0,-0.00702602195246,0.0,0.0981870591589,0.0,1.45168640323,0.0,-0.0020596197386,0.0,0.00114691043554,0.0,-0.000481698853835,0.0,0.0705734329199,0.0,0.0106863461595,0.0,0.0,0.0,0.0,-100.0,0.0,0.0,0.00230154196664,-50.0,-0.00383606751517,-50.0,-0.0,-50.0,-0.0,-50.0,525000.0,0.0,0.0,0.0,0.0,0.0,0.0
1402753731909407684,3,-8.6818641901,-0.00591572024346,-3.37901919126,-0.122189614607,12.3097710998,0.10862951003,0.00621253860208,0.0,-0.00702602195246,0.0,0.0981870591589,0.0,1.45168640323,0.0,-0.0020596197386,0.0,0.00114691043554,0.0,-0.000481698853835,0.0,0.0705734329199,0.0,0.0106863461595,0.0,0.0,0.0,0.0,-100.0,0.0,0.0,0.00230154196664,-50.0,-0.00383606751517,-50.0,-0.0,-50.0,-0.0,-50.0,525000.0,0.0,0.0,0.0,0.0,0.0,0.0
1402753731929448095,3,-8.68536831342,-0.00591572024346,-3.37825806366,-0.122189614607,12.3009767599,0.10862951003,0.000686713268137,0.0,-0.00862340881722,0.0,0.0957188278283,0.0,1.45150681271,0.0,-0.00476047909491,0.0,0.000909884180965,0.0,-0.0017922229758,0.0,0.0703001741984,0.0,-0.00116807593352,0.0,0.0,0.0,0.0,-100.0,0.0,0.0,0.00230154196664,-50.0,-0.00383606751517,-50.0,-0.0,-50.0,-0.0,-50.0,525000.0,0.0,0.0,0.0,0.0,0.0,0.0
1402753731949467232,3,-8.68536831342,-0.00591572024346,-3.37825806366,-0.122189614607,12.3009767599,0.10862951003,0.000686713268137,0.0,-0.00862340881722,0.0,0.0957188278283,0.0,1.45150681271,0.0,-0.00476047909491,0.0,0.000909884180965,0.0,-0.0017922229758,0.0,0.0703001741984,0.0,-0.00116807593352,0.0,0.0,0.0,0.0,-100.0,0.0,0.0,0.00383600394174,-50.0,-0.00383606751517,-50.0,-0.0,-50.0,-0.0,-50.0,525000.0,0.0,0.0,0.0,0.0,0.0,0.0
1402753731969583094,3,-8.68539619742,-0.00591572024346,-3.37858653047,-0.122189614607,12.3049134257,0.10862951003,0.000977585690668,0.0,-0.00775731744346,0.0,0.0971632781789,0.0,1.4512562095,0.0,-0.00347577772043,0.0,0.000874714563619,0.0,-0.0120092843251,0.0,0.0705552807938,0.0,0.000818850401268,0.0,0.0,0.0,0.0,-100.0,0.0,0.0,0.00383600394174,-50.0,-0.00383606751517,-50.0,-0.0,-50.0,-0.0,-50.0,525000.0,0.0,0.0,0.0,0.0,0.0,0.0
1402753731989441223,3,-8.68539619742,-0.00591572024346,-3.37858653047,-0.122189614607,12.3049134257,0.10862951003,0.000977585690668,0.0,-0.00775731744346,0.0,0.0971632781789,0.0,1.4512562095,0.0,-0.00347577772043,0.0,0.000874714563619,0.0,-0.0120092843251,0.0,0.0705552807938,0.0,0.000818850401268,0.0,0.0,0.0,0.0,-100.0,0.0,0.0,0.00230154196664,-50.0,-0.00383606751517,-50.0,-0.0,-50.0,-0.0,-50.0,525000.0,0.0,0.0,0.0,0.0,0.0,0.0
1402753732009428811,3,-8.68712077406,-0.00591572024346,-3.38246328806,-0.122189614607,12.3037780474,0.10862951003,-0.00108272179488,0.0,-0.0340853611834,0.0,0.0930175225242,0.0,1.45097056565,0.0,-0.00385966337706,0.0,0.00108694357407,0.0,-0.0143744762869,0.0,0.0701004614147,0.0,-0.00126033834009,0.0,0.0,0.0,0.0,-100.0,0.0,0.0,0.00230154196664,-50.0,-0.00383606751517,-50.0,-0.0,-50.0,-0.0,-50.0,525000.0,0.0,0.0,0.0,0.0,0.0,0.0
1402753732029539919,3,-8.68712077406,-0.00591572024346,-3.38246328806,-0.122189614607,12.3037780474,0.10862951003,-0.00108272179488,0.0,-0.0340853611834,0.0,0.0930175225242,0.0,1.45097056565,0.0,-0.00385966337706,0.0,0.00108694357407,0.0,-0.0143744762869,0.0,0.0701004614147,0.0,-0.00126033834009,0.0,0.0,0.0,0.0,-100.0,0.0,0.0,0.00230154196664,-50.0,-0.00383606751517,-50.0,-0.0,-50.0,-0.0,-50.0,525000.0,0.0,0.0,0.0,0.0,0.0,0.0
1402753732049576836,3,-8.68380496288,-0.00591572024346,-3.38205977129,-0.122189614607,12.308261025,0.10862951003,0.00530378303324,0.0,-0.0487284234238,0.0,0.0922105657788,0.0,1.4509931054,0.0,-0.00726802068762,0.0,0.00148496708143,0.0,-0.0356496465619,0.0,0.0718904594909,0.0,0.0124227250488,0.0,0.0,0.0,0.0,-100.0,0.0,0.0,0.00230154196664,-50.0,-0.00383606751517,-50.0,-0.0,-50.0,-0.0,-50.0,525000.0,0.0,0.0,0.0,0.0,0.0,0.0
1402753732069932957,3,-8.68380496288,-0.00591572024346,-3.38205977129,-0.122189614607,12.308261025,0.10862951003,0.00530378303324,0.0,-0.0487284234238,0.0,0.0922105657788,0.0,1.4509931054,0.0,-0.00726802068762,0.0,0.00148496708143,0.0,-0.0356496465619,0.0,0.0718904594909,0.0,0.0124227250488,0.0,0.0,0.0,0.0,-100.0,0.0,0.0,0.00230154196664,-50.0,-0.00383606751517,-50.0,-0.0,-50.0,-0.0,-50.0,525000.0,0.0,0.0,0.0,0.0,0.0,0.0
1402753732089690547,3,-8.68754165307,-0.00591572024346,-3.37690999329,-0.122189614607,12.291455697,0.10862951003,-0.00283091038994,0.0,-0.0585530935979,0.0,0.0879496117623,0.0,1.45080771946,0.0,0.00239654831639,0.0,9.07825553207e-05,0.0,-0.0477343614048,0.0,0.0740229565621,0.0,-0.0205453056996,0.0,0.0,0.0,0.0,-100.0,0.0,0.0,0.00383600394174,-50.0,-0.00383606751517,-50.0,-0.0,-50.0,-0.0,-50.0,525000.0,0.0,0.0,0.0,0.0,0.0,0.0
1402753732109435733,3,-8.68754165307,-0.00591572024346,-3.37690999329,-0.122189614607,12.291455697,0.10862951003,-0.00283091038994,0.0,-0.0585530935979,0.0,0.0879496117623,0.0,1.45080771946,0.0,0.00239654831639,0.0,9.07825553207e-05,0.0,-0.0477343614048,0.0,0.0740229565621,0.0,-0.0205453056996,0.0,0.0,0.0,0.0,-100.0,0.0,0.0,0.00383600394174,-50.0,-0.00383606751517,-50.0,-0.0,-50.0,-0.0,-50.0,525000.0,0.0,0.0,0.0,0.0,0.0,0.0
1402753732129412987,3,-8.68951085994,-0.00591572024346,-3.38190818861,-0.122189614607,12.2870869441,0.10862951003,-0.00387576096712,0.0,-0.0854244832762,0.0,0.0862943860706,0.0,1.45107261018,0.0,0.0107466052399,0.0,-0.000650783937574,0.0,-0.0419408614003,0.0,0.0754123742794,0.0,-0.00845802893122,0.0,0.0,0.0,0.0,-100.0,0.0,0.0,0.00230154196664,-50.0,-0.00383606751517,-50.0,-0.0,-50.0,-0.0,-50.0,525000.0,0.0,0.0,0.0,0.0,0.0,0.0
1402753732149472153,3,-8.68951085994,-0.00591572024346,-3.38190818861,-0.122189614607,12.2870869441,0.10862951003,-0.00387576096712,0.0,-0.0854244832762,0.0,0.0862943860706,0.0,1.45107261018,0.0,0.0107466052399,0.0,-0.000650783937574,0.0,-0.0419408614003,0.0,0.0754123742794,0.0,-0.00845802893122,0.0,0.0,0.0,0.0,-100.0,0.0,0.0,0.00230154196664,-50.0,-0.00383606751517,-50.0,-0.0,-50.0,-0.0,-50.0,525000.0,0.0,0.0,0.0,0.0,0.0,0.0
1402753732169939050,3,-8.68964624571,-0.00591572024346,-3.38552870655,-0.122189614607,12.2885645908,0.10862951003,-0.0028690345455,0.0,-0.105794300891,0.0,0.0898618570088,0.0,1.45159238345,0.0,0.00798954506089,0.0,-0.000975538202848,0.0,-0.0378359592003,0.0,0.0777834392769,0.0,-0.000238114472843,0.0,0.0,0.0,0.0,-100.0,0.0,0.0,0.00230154196664,-50.0,-0.00383606751517,-50.0,-0.0,-50.0,-0.0,-50.0,525000.0,0.0,0.0,0.0,0.0,0.0,0.0
1402753732189937771,3,-8.68964624571,-0.00591572024346,-3.38552870655,-0.122189614607,12.2885645908,0.10862951003,-0.0028690345455,0.0,-0.105794300891,0.0,0.0898618570088,0.0,1.45159238345,0.0,0.00798954506089,0.0,-0.000975538202848,0.0,-0.0378359592003,0.0,0.0777834392769,0.0,-0.000238114472843,0.0,0.0,0.0,0.0,-100.0,0.0,0.0,0.00230154196664,-50.0,-0.00383606751517,-50.0,-0.0,-50.0,-0.0,-50.0,525000.0,0.0,0.0,0.0,0.0,0.0,0.0
1402753732209382457,3,-8.6896843169,-0.00591572024346,-3.38779476045,-0.122189614607,12.2902803443,0.10862951003,-0.00513878992795,0.0,-0.11446223754,0.0,0.0911194558362,0.0,1.45174673207,0.0,0.00853529652698,0.0,-0.00105600854067,0.0,-0.0313476418694,0.0,0.0784964214444,0.0,-0.00364923472245,0.0,0.0,0.0,0.0,-100.0,0.0,0.0,0.00383600394174,-50.0,-0.00383606751517,-50.0,-0.0,-50.0,-0.0,-50.0,525000.0,0.0,0.0,0.0,0.0,0.0,0.0
1402753732230563313,3,-8.6896843169,-0.00591572024346,-3.38779476045,-0.122189614607,12.2902803443,0.10862951003,-0.00513878992795,0.0,-0.11446223754,0.0,0.0911194558362,0.0,1.45174673207,0.0,0.00853529652698,0.0,-0.00105600854067,0.0,-0.0313476418694,0.0,0.0784964214444,0.0,-0.00364923472245,0.0,0.0,0.0,0.0,-100.0,0.0,0.0,0.00230154196664,-50.0,-0.00383606751517,-50.0,-0.0,-50.0,-0.0,-50.0,525000.0,0.0,0.0,0.0,0.0,0.0,0.0
1402753732249422937,3,-8.69229853299,-0.00591572024346,-3.39047754505,-0.122189614607,12.276878764,0.10862951003,-0.00570254283204,0.0,-0.132791685395,0.0,0.0920685478909,0.0,1.4521791308,0.0,0.0137856683617,0.0,-0.00154866870485,0.0,-0.0303366853902,0.0,0.0793606514717,0.0,0.00958764601191,0.0,0.0,0.0,0.0,-100.0,0.0,0.0,0.00230154196664,-50.0,-0.00383606751517,-50.0,-0.0,-50.0,-0.0,-50.0,525000.0,0.0,0.0,0.0,0.0,0.0,0.0
1402753732269449538,3,-8.69229853299,-0.00591572024346,-3.39047754505,-0.122189614607,12.276878764,0.10862951003,-0.00570254283204,0.0,-0.132791685395,0.0,0.0920685478909,0.0,1.4521791308,0.0,0.0137856683617,0.0,-0.00154866870485,0.0,-0.0303366853902,0.0,0.0793606514717,0.0,0.00958764601191,0.0,0.0,0.0,0.0,-100.0,0.0,0.0,0.00383600394174,-50.0,-0.00383606751517,-50.0,-0.0,-50.0,-0.0,-50.0,525000.0,0.0,0.0,0.0,0.0,0.0,0.0
1402753732289306403,3,-8.69686833084,-0.00591572024346,-3.39117297532,-0.122189614607,12.2694622325,0.10862951003,-0.0159784081344,0.0,-0.143127296083,0.0,0.0972192020664,0.0,1.45169452044,0.0,0.0127619349473,0.0,-0.00293191017393,0.0,-0.018362157812,0.0,0.0807087680998,0.0,7.02853052153e-05,0.0,0.0,0.0,0.0,-100.0,0.0,0.0,0.00230154196664,-50.0,-0.00383606751517,-50.0,-0.0,-50.0,-0.0,-50.0,525000.0,0.0,0.0,0.0,0.0,0.0,0.0
1402753732310009712,3,-8.69686833084,-0.00591572024346,-3.39117297532,-0.122189614607,12.2694622325,0.10862951003,-0.0159784081344,0.0,-0.143127296083,0.0,0.0972192020664,0.0,1.45169452044,0.0,0.0127619349473,0.0,-0.00293191017393,0.0,-0.018362157812,0.0,0.0807087680998,0.0,7.02853052153e-05,0.0,0.0,0.0,0.0,-100.0,0.0,0.0,0.00230154196664,-50.0,-0.00383606751517,-50.0,-0.0,-50.0,-0.0,-50.0,525000.0,0.0,0.0,0.0,0.0,0.0,0.0
1402753732329858831,3,-8.69762316786,-0.00591572024346,-3.39899046785,-0.122189614607,12.25708605,0.10862951003,-0.0124180539852,0.0,-0.171736163172,0.0,0.099316963983,0.0,1.45319082725,0.0,0.0111998768501,0.0,-0.001916844668,0.0,0.00179676849249,0.0,0.0801680994653,0.0,0.00957815874626,0.0,0.0,0.0,0.0,-100.0,0.0,0.0,0.00230154196664,-50.0,-0.00383606751517,-50.0,-0.0,-50.0,-0.0,-50.0,525000.0,0.0,0.0,0.0,0.0,0.0,0.0
1402753732349447389,3,-8.69762316786,-0.00591572024346,-3.39899046785,-0.122189614607,12.25708605,0.10862951003,-0.0124180539852,0.0,-0.171736163172,0.0,0.099316963983,0.0,1.45319082725,0.0,0.0111998768501,0.0,-0.001916844668,0.0,0.00179676849249,0.0,0.0801680994653,0.0,0.00957815874626,0.0,0.0,0.0,0.0,-100.0,0.0,0.0,0.00383600394174,-50.0,-0.00383606751517,-50.0,-0.0,-50.0,-0.0,-50.0,525000.0,0.0,0.0,0.0,0.0,0.0,0.0
1402753732369438589,3,-8.69450179656,-0.00591572024346,-3.40595654245,-0.122189614607,12.2596272109,0.10862951003,-0.00373040557529,0.0,-0.186444350855,0.0,0.104271525393,0.0,1.45507004918,0.0,0.0173028414737,0.0,-0.000666026152236,0.0,0.0032174751511,0.0,0.0799103803976,0.0,0.00655726805427,0.0,0.0,0.0,0.0,-100.0,0.0,0.0,0.00230154196664,-50.0,-0.00383606751517,-50.0,-0.0,-50.0,-0.0,-50.0,525000.0,0.0,0.0,0.0,0.0,0.0,0.0
1402753732389381769,3,-8.69462517274,-0.00591572024346,-3.40972801034,-0.122189614607,12.2616836356,0.10862951003,-0.00429538708331,0.0,-0.194036807403,0.0,0.106543931195,0.0,1.45533601101,0.0,0.012522703717,0.0,-0.000482330628987,0.0,0.00713687104132,0.0,0.0797681745231,0.0,0.00772390379853,0.0,0.0,0.0,0.0,-100.0,0.0,0.0,0.00230154196664,-50.0,-0.00383606751517,-50.0,-0.0,-50.0,-0.0,-50.0,525000.0,0.0,0.0,0.0,0.0,0.0,0.0
1402753732409462418,3,-8.69462517274,-0.00591572024346,-3.40972801034,-0.122189614607,12.2616836356,0.10862951003,-0.00429538708331,0.0,-0.194036807403,0.0,0.106543931195,0.0,1.45533601101,0.0,0.012522703717,0.0,-0.000482330628987,0.0,0.00713687104132,0.0,0.0797681745231,0.0,0.00772390379853,0.0,0.0,0.0,0.0,-100.0,0.0,0.0,0.00230154196664,-50.0,-0.00383606751517,-50.0,-0.0,-50.0,-0.0,-50.0,525000.0,0.0,0.0,0.0,0.0,0.0,0.0
1402753732430092852,3,-8.69771068001,-0.00591572024346,-3.40494504651,-0.122189614607,12.2395060775,0.10862951003,-0.00909891742507,0.0,-0.193529070529,0.0,0.103992220705,0.0,1.45527159104,0.0,0.0158909780307,0.0,-0.000928115165081,0.0,0.0144841505437,0.0,0.0802023659111,0.0,-0.00746367783987,0.0,0.0,0.0,0.0,-100.0,0.0,0.0,0.00230154196664,-50.0,-0.00383606751517,-50.0,-0.0,-50.0,-0.0,-50.0,525000.0,0.0,0.0,0.0,0.0,0.0,0.0
1402753732449403828,3,-8.69771068001,-0.00591572024346,-3.40494504651,-0.122189614607,12.2395060775,0.10862951003,-0.00909891742507,0.0,-0.193529070529,0.0,0.103992220705,0.0,1.45527159104,0.0,0.0158909780307,0.0,-0.000928115165081,0.0,0.0144841505437,0.0,0.0802023659111,0.0,-0.00746367783987,0.0,0.0,0.0,0.0,-100.0,0.0,0.0,0.00230154196664,-50.0,-0.00383606751517,-50.0,-0.0,-50.0,-0.0,-50.0,525000.0,0.0,0.0,0.0,0.0,0.0,0.0
1402753732469913774,3,-8.69795908355,-0.00591572024346,-3.41301898566,-0.122189614607,12.2436613874,0.10862951003,-0.00924459399633,0.0,-0.207453073958,0.0,0.107910507124,0.0,1.45592777539,0.0,0.0161840458215,0.0,-0.000785668552333,0.0,0.0192490730624,0.0,0.0793787820544,0.0,-0.00475827499507,0.0,0.0,0.0,0.0,-100.0,0.0,0.0,0.00383600394174,-50.0,-0.00383606751517,-50.0,-0.0,-50.0,-0.0,-50.0,525000.0,0.0,0.0,0.0,0.0,0.0,0.0
1402753732489403790,3,-8.69795908355,-0.00591572024346,-3.41301898566,-0.122189614607,12.2436613874,0.10862951003,-0.00924459399633,0.0,-0.207453073958,0.0,0.107910507124,0.0,1.45592777539,0.0,0.0161840458215,0.0,-0.000785668552333,0.0,0.0192490730624,0.0,0.0793787820544,0.0,-0.00475827499507,0.0,0.0,0.0,0.0,-100.0,0.0,0.0,0.00230154196664,-50.0,-0.00383606751517,-50.0,-0.0,-50.0,-0.0,-50.0,525000.0,0.0,0.0,0.0,0.0,0.0,0.0
1402753732509518460,3,-8.69725038696,-0.00591572024346,-3.42171192604,-0.122189614607,12.2425365329,0.10862951003,-0.00691067287329,0.0,-0.225123796982,0.0,0.106618571751,0.0,1.45710664945,0.0,0.0166575183104,0.0,-0.000367239855461,0.0,0.0332433780536,0.0,0.0778662708218,0.0,-0.00397824135598,0.0,0.0,0.0,0.0,-100.0,0.0,0.0,0.00230154196664,-50.0,-0.00383606751517,-50.0,-0.0,-50.0,-0.0,-50.0,525000.0,0.0,0.0,0.0,0.0,0.0,0.0
1402753732529723251,3,-8.69725038696,-0.00591572024346,-3.42171192604,-0.122189614607,12.2425365329,0.10862951003,-0.00691067287329,0.0,-0.225123796982,0.0,0.106618571751,0.0,1.45710664945,0.0,0.0166575183104,0.0,-0.000367239855461,0.0,0.0332433780536,0.0,0.0778662708218,0.0,-0.00397824135598,0.0,0.0,0.0,0.0,-100.0,0.0,0.0,0.00230154196664,-50.0,-0.00383606751517,-50.0,-0.0,-50.0,-0.0,-50.0,525000.0,0.0,0.0,0.0,0.0,0.0,0.0
1402753732549593823,3,-8.6975134085,-0.00591572024346,-3.43112114265,-0.122189614607,12.2467735017,0.10862951003,-0.00630893147843,0.0,-0.238958344579,0.0,0.107372502167,0.0,1.45773110187,0.0,0.0173455764025,0.0,-0.000253208177272,0.0,0.0394511077276,0.0,0.0763479855514,0.0,0.00662516639448,0.0,0.0,0.0,0.0,-100.0,0.0,0.0,0.00383600394174,-50.0,-0.00383606751517,-50.0,-0.0,-50.0,-0.0,-50.0,525000.0,0.0,0.0,0.0,0.0,0.0,0.0
1402753732569567432,3,-8.6975134085,-0.00591572024346,-3.43112114265,-0.122189614607,12.2467735017,0.10862951003,-0.00630893147843,0.0,-0.238958344579,0.0,0.107372502167,0.0,1.45773110187,0.0,0.0173455764025,0.0,-0.000253208177272,0.0,0.0394511077276,0.0,0.0763479855514,0.0,0.00662516639448,0.0,0.0,0.0,0.0,-100.0,0.0,0.0,0.00383600394174,-50.0,-0.00383606751517,-50.0,-0.0,-50.0,-0.0,-50.0,525000.0,0.0,0.0,0.0,0.0,0.0,0.0
1402753732589401141,3,-8.69604560879,-0.00591572024346,-3.43736276462,-0.122189614607,12.2450943756,0.10862951003,-0.00399991933085,0.0,-0.24761574741,0.0,0.11011977326,0.0,1.45907894646,0.0,0.0227007445165,0.0,0.000162077720554,0.0,0.0329696785042,0.0,0.0754717733871,0.0,-0.00056328182118,0.0,0.0,0.0,0.0,-100.0,0.0,0.0,0.00230154196664,-50.0,-0.00383606751517,-50.0,-0.0,-50.0,-0.0,-50.0,525000.0,0.0,0.0,0.0,0.0,0.0,0.0
1402753732609390275,3,-8.69604560879,-0.00591572024346,-3.43736276462,-0.122189614607,12.2450943756,0.10862951003,-0.00399991933085,0.0,-0.24761574741,0.0,0.11011977326,0.0,1.45907894646,0.0,0.0227007445165,0.0,0.000162077720554,0.0,0.0329696785042,0.0,0.0754717733871,0.0,-0.00056328182118,0.0,0.0,0.0,0.0,-100.0,0.0,0.0,0.00230154196664,-50.0,-0.00383606751517,-50.0,-0.0,-50.0,-0.0,-50.0,525000.0,0.0,0.0,0.0,0.0,0.0,0.0
1402753732629435753,3,-8.69937580631,-0.00591572024346,-3.44316718131,-0.122189614607,12.2133746498,0.10862951003,-0.00899583170477,0.0,-0.26709037529,0.0,0.101231952372,0.0,1.46027011739,0.0,0.0177496891442,0.0,-5.10865515678e-05,0.0,0.0298309176649,0.0,0.0731564534807,0.0,-0.0217645868989,0.0,0.0,0.0,0.0,-100.0,0.0,0.0,0.00230154196664,-50.0,-0.00383606751517,-50.0,-0.0,-50.0,-0.0,-50.0,525000.0,0.0,0.0,0.0,0.0,0.0,0.0
1402753732649441871,3,-8.69937580631,-0.00591572024346,-3.44316718131,-0.122189614607,12.2133746498,0.10862951003,-0.00899583170477,0.0,-0.26709037529,0.0,0.101231952372,0.0,1.46027011739,0.0,0.0177496891442,0.0,-5.10865515678e-05,0.0,0.0298309176649,0.0,0.0731564534807,0.0,-0.0217645868989,0.0,0.0,0.0,0.0,-100.0,0.0,0.0,0.00230154196664,-50.0,-0.00383606751517,-50.0,-0.0,-50.0,-0.0,-50.0,525000.0,0.0,0.0,0.0,0.0,0.0,0.0
1402753732669844941,3,-8.69305133386,-0.00591572024346,-3.44730586223,-0.122189614607,12.2141216457,0.10862951003,0.00810492158235,0.0,-0.264349659508,0.0,0.101353800055,0.0,1.46321717205,0.0,0.028031697382,0.0,0.00139297290731,0.0,0.0214519589125,0.0,0.0738530371065,0.0,-0.0117443296313,0.0,0.0,0.0,0.0,-100.0,0.0,0.0,0.00230154196664,-50.0,-0.00383606751517,-50.0,-0.0,-50.0,-0.0,-50.0,525000.0,0.0,0.0,0.0,0.0,0.0,0.0
1402753732689689323,3,-8.69305133386,-0.00591572024346,-3.44730586223,-0.122189614607,12.2141216457,0.10862951003,0.00810492158235,0.0,-0.264349659508,0.0,0.101353800055,0.0,1.46321717205,0.0,0.028031697382,0.0,0.00139297290731,0.0,0.0214519589125,0.0,0.0738530371065,0.0,-0.0117443296313,0.0,0.0,0.0,0.0,-100.0,0.0,0.0,0.00383600394174,-50.0,-0.00383606751517,-50.0,-0.0,-50.0,-0.0,-50.0,525000.0,0.0,0.0,0.0,0.0,0.0,0.0
1402753732709508307,3,-8.69293922261,-0.00591572024346,-3.45290524167,-0.122189614607,12.2162425307,0.10862951003,0.00909873024905,0.0,-0.26975024452,0.0,0.0995727275261,0.0,1.4637721119,0.0,0.0288963906831,0.0,0.0013017824377,0.0,0.0223914541655,0.0,0.0733911972712,0.0,-0.000977248052904,0.0,0.0,0.0,0.0,-100.0,0.0,0.0,0.00230154196664,-50.0,-0.00383606751517,-50.0,-0.0,-50.0,-0.0,-50.0,525000.0,0.0,0.0,0.0,0.0,0.0,0.0
1402753732729669038,3,-8.69293922261,-0.00591572024346,-3.45290524167,-0.122189614607,12.2162425307,0.10862951003,0.00909873024905,0.0,-0.26975024452,0.0,0.0995727275261,0.0,1.4637721119,0.0,0.0288963906831,0.0,0.0013017824377,0.0,0.0223914541655,0.0,0.0733911972712,0.0,-0.000977248052904,0.0,0.0,0.0,0.0,-100.0,0.0,0.0,0.00230154196664,-50.0,-0.00383606751517,-50.0,-0.0,-50.0,-0.0,-50.0,525000.0,0.0,0.0,0.0,0.0,0.0,0.0
1402753732749446094,3,-8.69687730269,-0.00591572024346,-3.46701042906,-0.122189614607,12.2019944251,0.10862951003,0.00183916856247,0.0,-0.295063068112,0.0,0.0972929740694,0.0,1.46434651595,0.0,0.0279675318766,0.0,0.000866257900031,0.0,0.00676628813536,0.0,0.0711532326194,0.0,-0.0108965955006,0.0,0.0,0.0,0.0,-100.0,0.0,0.0,0.00230154196664,-50.0,-0.00383606751517,-50.0,-0.0,-50.0,-0.0,-50.0,525000.0,0.0,0.0,0.0,0.0,0.0,0.0
1402753732770077498,3,-8.69687730269,-0.00591572024346,-3.46701042906,-0.122189614607,12.2019944251,0.10862951003,0.00183916856247,0.0,-0.295063068112,0.0,0.0972929740694,0.0,1.46434651595,0.0,0.0279675318766,0.0,0.000866257900031,0.0,0.00676628813536,0.0,0.0711532326194,0.0,-0.0108965955006,0.0,0.0,0.0,0.0,-100.0,0.0,0.0,0.00230154196664,-50.0,-0.00383606751517,-50.0,-0.0,-50.0,-0.0,-50.0,525000.0,0.0,0.0,0.0,0.0,0.0,0.0
1402753732789917594,3,-8.69694170899,-0.00591572024346,-3.47457854773,-0.122189614607,12.1993154712,0.10862951003,0.000385680456992,0.0,-0.30078442602,0.0,0.0948993173132,0.0,1.4651799079,0.0,0.0224249138968,0.0,0.000754066444073,0.0,0.00408316096776,0.0,0.0714112051947,0.0,0.00358962365358,0.0,0.0,0.0,0.0,-100.0,0.0,0.0,0.00230154196664,-50.0,-0.00383606751517,-50.0,-0.0,-50.0,-0.0,-50.0,525000.0,0.0,0.0,0.0,0.0,0.0,0.0
1402753732809339842,3,-8.69694170899,-0.00591572024346,-3.47457854773,-0.122189614607,12.1993154712,0.10862951003,0.000385680456992,0.0,-0.30078442602,0.0,0.0948993173132,0.0,1.4651799079,0.0,0.0224249138968,0.0,0.000754066444073,0.0,0.00408316096776,0.0,0.0714112051947,0.0,0.00358962365358,0.0,0.0,0.0,0.0,-100.0,0.0,0.0,0.00383600394174,-50.0,-0.00383606751517,-50.0,-0.0,-50.0,-0.0,-50.0,525000.0,0.0,0.0,0.0,0.0,0.0,0.0
1402753732829460492,3,-8.69964286701,-0.00591572024346,-3.49252616557,-0.122189614607,12.2041442646,0.10862951003,-0.00752508764589,0.0,-0.323268027552,0.0,0.0931487759283,0.0,1.46556491215,0.0,0.0268303852949,0.0,3.08662277358e-06,0.0,-0.00413480283803,0.0,0.0702517018715,0.0,-0.0109544632074,0.0,0.0,0.0,0.0,-100.0,0.0,0.0,0.00230154196664,-50.0,-0.00383606751517,-50.0,-0.0,-50.0,-0.0,-50.0,525000.0,0.0,0.0,0.0,0.0,0.0,0.0
1402753732849461005,3,-8.69964286701,-0.00591572024346,-3.49252616557,-0.122189614607,12.2041442646,0.10862951003,-0.00752508764589,0.0,-0.323268027552,0.0,0.0931487759283,0.0,1.46556491215,0.0,0.0268303852949,0.0,3.08662277358e-06,0.0,-0.00413480283803,0.0,0.0702517018715,0.0,-0.0109544632074,0.0,0.0,0.0,0.0,-100.0,0.0,0.0,0.00230154196664,-50.0,-0.00383606751517,-50.0,-0.0,-50.0,-0.0,-50.0,525000.0,0.0,0.0,0.0,0.0,0.0,0.0
1402753732869997160,3,-8.69986596857,-0.00591572024346,-3.50586846402,-0.122189614607,12.2078728606,0.10862951003,-0.00561633799669,0.0,-0.334829946461,0.0,0.094999167214,0.0,1.4667540351,0.0,0.0278497996692,0.0,0.000405157271952,0.0,-0.00893383459584,0.0,0.0705637530013,0.0,0.00665648385263,0.0,0.0,0.0,0.0,-100.0,0.0,0.0,0.00230154196664,-50.0,-0.00383606751517,-50.0,-0.0,-50.0,-0.0,-50.0,525000.0,0.0,0.0,0.0,0.0,0.0,0.0
1402753732889686071,3,-8.69986596857,-0.00591572024346,-3.50586846402,-0.122189614607,12.2078728606,0.10862951003,-0.00561633799669,0.0,-0.334829946461,0.0,0.094999167214,0.0,1.4667540351,0.0,0.0278497996692,0.0,0.000405157271952,0.0,-0.00893383459584,0.0,0.0705637530013,0.0,0.00665648385263,0.0,0.0,0.0,0.0,-100.0,0.0,0.0,0.00230154196664,-50.0,-0.00383606751517,-50.0,-0.0,-50.0,-0.0,-50.0,525000.0,0.0,0.0,0.0,0.0,0.0,0.0
1402753732909498655,3,-8.69738104303,-0.00591572024346,-3.51143705877,-0.122189614607,12.204917567,0.10862951003,0.000876662651759,0.0,-0.335293749521,0.0,0.0960387010224,0.0,1.4683607746,0.0,0.030125743576,0.0,0.00102860625331,0.0,-0.00824704031232,0.0,0.0723477017402,0.0,0.0164719872297,0.0,0.0,0.0,0.0,-100.0,0.0,0.0,0.00230154196664,-50.0,-0.00383606751517,-50.0,-0.0,-50.0,-0.0,-50.0,525000.0,0.0,0.0,0.0,0.0,0.0,0.0
1402753732929457065,3,-8.69738104303,-0.00591572024346,-3.51143705877,-0.122189614607,12.204917567,0.10862951003,0.000876662651759,0.0,-0.335293749521,0.0,0.0960387010224,0.0,1.4683607746,0.0,0.030125743576,0.0,0.00102860625331,0.0,-0.00824704031232,0.0,0.0723477017402,0.0,0.0164719872297,0.0,0.0,0.0,0.0,-100.0,0.0,0.0,0.00230154196664,-50.0,-0.00383606751517,-50.0,-0.0,-50.0,-0.0,-50.0,525000.0,0.0,0.0,0.0,0.0,0.0,0.0
1402753732949443923,3,-8.69671001794,-0.00591572024346,-3.51759517409,-0.122189614607,12.1915235388,0.10862951003,0.00288098524216,0.0,-0.342263632153,0.0,0.0955649777987,0.0,1.46985927774,0.0,0.0325990494973,0.0,0.00162935630256,0.0,-0.0124442487357,0.0,0.0733328193618,0.0,0.00574202787928,0.0,0.0,0.0,0.0,-100.0,0.0,0.0,0.00230154196664,-50.0,-0.00383606751517,-50.0,-0.0,-50.0,-0.0,-50.0,525000.0,0.0,0.0,0.0,0.0,0.0,0.0
1402753732970010322,3,-8.69671001794,-0.00591572024346,-3.51759517409,-0.122189614607,12.1915235388,0.10862951003,0.00288098524216,0.0,-0.342263632153,0.0,0.0955649777987,0.0,1.46985927774,0.0,0.0325990494973,0.0,0.00162935630256,0.0,-0.0124442487357,0.0,0.0733328193618,0.0,0.00574202787928,0.0,0.0,0.0,0.0,-100.0,0.0,0.0,0.00230154196664,-50.0,-0.00383606751517,-50.0,-0.0,-50.0,-0.0,-50.0,525000.0,0.0,0.0,0.0,0.0,0.0,0.0
1402753732989724578,3,-8.69583785183,-0.00591572024346,-3.53156874526,-0.122189614607,12.1774542454,0.10862951003,0.00559325959854,0.0,-0.361165991755,0.0,0.0969835242341,0.0,1.47147232751,0.0,0.0269939445613,0.0,0.0023540426474,0.0,-0.0163517582398,0.0,0.0733834250021,0.0,0.00881437583165,0.0,0.0,0.0,0.0,-100.0,0.0,0.0,0.00230154196664,-50.0,-0.00383606751517,-50.0,-0.0,-50.0,-0.0,-50.0,525000.0,0.0,0.0,0.0,0.0,0.0,0.0
1402753733009397667,3,-8.69583785183,-0.00591572024346,-3.53156874526,-0.122189614607,12.1774542454,0.10862951003,0.00559325959854,0.0,-0.361165991755,0.0,0.0969835242341,0.0,1.47147232751,0.0,0.0269939445613,0.0,0.0023540426474,0.0,-0.0163517582398,0.0,0.0733834250021,0.0,0.00881437583165,0.0,0.0,0.0,0.0,-100.0,0.0,0.0,0.00230154196664,-50.0,-0.00383606751517,-50.0,-0.0,-50.0,-0.0,-50.0,525000.0,0.0,0.0,0.0,0.0,0.0,0.0
1402753733029431578,3,-8.6959440449,-0.00591572024346,-3.53811791591,-0.122189614607,12.1744132751,0.10862951003,0.00157211699008,0.0,-0.369266666391,0.0,0.0988701297291,0.0,1.47206192829,0.0,0.0257126983558,0.0,0.00188784605656,0.0,-0.00825268361864,0.0,0.0738989204829,0.0,0.0190497735356,0.0,0.0,0.0,0.0,-100.0,0.0,0.0,0.00230154196664,-50.0,-0.00383606751517,-50.0,-0.0,-50.0,-0.0,-50.0,525000.0,0.0,0.0,0.0,0.0,0.0,0.0
1402753733049487297,3,-8.69585608948,-0.00591572024346,-3.54551964607,-0.122189614607,12.1764595174,0.10862951003,0.00061513373456,0.0,-0.375430776359,0.0,0.0995967364351,0.0,1.47269029601,0.0,0.0290970118394,0.0,0.0019871349039,0.0,-0.0069899246152,0.0,0.0740495407695,0.0,0.00148096104928,0.0,0.0,0.0,0.0,-100.0,0.0,0.0,0.00230154196664,-50.0,-0.00383606751517,-50.0,-0.0,-50.0,-0.0,-50.0,525000.0,0.0,0.0,0.0,0.0,0.0,0.0
1402753733069403627,3,-8.69585608948,-0.00591572024346,-3.54551964607,-0.122189614607,12.1764595174,0.10862951003,0.00061513373456,0.0,-0.375430776359,0.0,0.0995967364351,0.0,1.47269029601,0.0,0.0290970118394,0.0,0.0019871349039,0.0,-0.0069899246152,0.0,0.0740495407695,0.0,0.00148096104928,0.0,0.0,0.0,0.0,-100.0,0.0,0.0,0.00230154196664,-50.0,-0.00383606751517,-50.0,-0.0,-50.0,-0.0,-50.0,525000.0,0.0,0.0,0.0,0.0,0.0,0.0
1402753733089549658,3,-8.69609056138,-0.00591572024346,-3.54754697444,-0.122189614607,12.1643957762,0.10862951003,0.000393990313242,0.0,-0.380455330267,0.0,0.0982519508509,0.0,1.47324124164,0.0,0.032673838147,0.0,0.00178301939097,0.0,-0.000789396950042,0.0,0.0741594487567,0.0,0.00926383292371,0.0,0.0,0.0,0.0,-100.0,0.0,0.0,0.00230154196664,-50.0,-0.00383606751517,-50.0,-0.0,-50.0,-0.0,-50.0,525000.0,0.0,0.0,0.0,0.0,0.0,0.0
1402753733109658054,3,-8.69609056138,-0.00591572024346,-3.54754697444,-0.122189614607,12.1643957762,0.10862951003,0.000393990313242,0.0,-0.380455330267,0.0,0.0982519508509,0.0,1.47324124164,0.0,0.032673838147,0.0,0.00178301939097,0.0,-0.000789396950042,0.0,0.0741594487567,0.0,0.00926383292371,0.0,0.0,0.0,0.0,-100.0,0.0,0.0,0.00230154196664,-50.0,-0.00383606751517,-50.0,-0.0,-50.0,-0.0,-50.0,525000.0,0.0,0.0,0.0,0.0,0.0,0.0
1402753733129419439,3,-8.69619304596,-0.00591572024346,-3.56334683643,-0.122189614607,12.1685984478,0.10862951003,-0.000155065238417,0.0,-0.390598213256,0.0,0.102192261147,0.0,1.4744190463,0.0,0.0272214621612,0.0,0.00204389548719,0.0,-0.00138514528069,0.0,0.0741294971145,0.0,0.00668625633,0.0,0.0,0.0,0.0,-100.0,0.0,0.0,0.00230154196664,-50.0,-0.00383606751517,-50.0,-0.0,-50.0,-0.0,-50.0,525000.0,0.0,0.0,0.0,0.0,0.0,0.0
1402753733149474057,3,-8.69619304596,-0.00591572024346,-3.56334683643,-0.122189614607,12.1685984478,0.10862951003,-0.000155065238417,0.0,-0.390598213256,0.0,0.102192261147,0.0,1.4744190463,0.0,0.0272214621612,0.0,0.00204389548719,0.0,-0.00138514528069,0.0,0.0741294971145,0.0,0.00668625633,0.0,0.0,0.0,0.0,-100.0,0.0,0.0,0.00230154196664,-50.0,-0.00383606751517,-50.0,-0.0,-50.0,-0.0,-50.0,525000.0,0.0,0.0,0.0,0.0,0.0,0.0
1402753733169440496,3,-8.69303921764,-0.00591572024346,-3.56800062807,-0.122189614607,12.1497840034,0.10862951003,0.00735660771997,0.0,-0.39104256133,0.0,0.0995636747607,0.0,1.47618354663,0.0,0.0296759574232,0.0,0.00282071304601,0.0,0.00406284543008,0.0,0.0750003703445,0.0,-0.00619645039457,0.0,0.0,0.0,0.0,-100.0,0.0,0.0,0.00230154196664,-50.0,-0.00383606751517,-50.0,-0.0,-50.0,-0.0,-50.0,525000.0,0.0,0.0,0.0,0.0,0.0,0.0
1402753733189480564,3,-8.69303921764,-0.00591572024346,-3.56800062807,-0.122189614607,12.1497840034,0.10862951003,0.00735660771997,0.0,-0.39104256133,0.0,0.0995636747607,0.0,1.47618354663,0.0,0.0296759574232,0.0,0.00282071304601,0.0,0.00406284543008,0.0,0.0750003703445,0.0,-0.00619645039457,0.0,0.0,0.0,0.0,-100.0,0.0,0.0,0.00383600394174,-50.0,-0.00383606751517,-50.0,-0.0,-50.0,-0.0,-50.0,525000.0,0.0,0.0,0.0,0.0,0.0,0.0
1402753733210154207,3,-8.6954985923,-0.00591572024346,-3.59228774808,-0.122189614607,12.1477419276,0.10862951003,-0.00152676908289,0.0,-0.426108604135,0.0,0.0999724855393,0.0,1.47672923304,0.0,0.0293093362688,0.0,0.00218701046282,0.0,0.00186749479681,0.0,0.0720516573166,0.0,-0.00109513129496,0.0,0.0,0.0,0.0,-100.0,0.0,0.0,0.00230154196664,-50.0,-0.00383606751517,-50.0,-0.0,-50.0,-0.0,-50.0,525000.0,0.0,0.0,0.0,0.0,0.0,0.0
1402753733230013811,3,-8.6954985923,-0.00591572024346,-3.59228774808,-0.122189614607,12.1477419276,0.10862951003,-0.00152676908289,0.0,-0.426108604135,0.0,0.0999724855393,0.0,1.47672923304,0.0,0.0293093362688,0.0,0.00218701046282,0.0,0.00186749479681,0.0,0.0720516573166,0.0,-0.00109513129496,0.0,0.0,0.0,0.0,-100.0,0.0,0.0,0.00230154196664,-50.0,-0.00383606751517,-50.0,-0.0,-50.0,-0.0,-50.0,525000.0,0.0,0.0,0.0,0.0,0.0,0.0
1402753733249521350,3,-8.68969126521,-0.00591572024346,-3.6044282726,-0.122189614607,12.1348384921,0.10862951003,0.0127719249699,0.0,-0.438208899354,0.0,0.0982519091398,0.0,1.47868204106,0.0,0.0309945454138,0.0,0.00394572629456,0.0,0.0127347205624,0.0,0.071630306034,0.0,0.00780053880165,0.0,0.0,0.0,0.0,-100.0,0.0,0.0,0.00230154196664,-50.0,-0.00383606751517,-50.0,-0.0,-50.0,-0.0,-50.0,525000.0,0.0,0.0,0.0,0.0,0.0,0.0
1402753733269898549,3,-8.68969126521,-0.00591572024346,-3.6044282726,-0.122189614607,12.1348384921,0.10862951003,0.0127719249699,0.0,-0.438208899354,0.0,0.0982519091398,0.0,1.47868204106,0.0,0.0309945454138,0.0,0.00394572629456,0.0,0.0127347205624,0.0,0.071630306034,0.0,0.00780053880165,0.0,0.0,0.0,0.0,-100.0,0.0,0.0,0.00230154196664,-50.0,-0.00383606751517,-50.0,-0.0,-50.0,-0.0,-50.0,525000.0,0.0,0.0,0.0,0.0,0.0,0.0
1402753733289878994,3,-8.6901199044,-0.00591572024346,-3.61090869095,-0.122189614607,12.1225253815,0.10862951003,0.00624204640814,0.0,-0.431827591622,0.0,0.100163420746,0.0,1.47960922831,0.0,0.0252214116909,0.0,0.00298298476769,0.0,0.00907357170009,0.0,0.0728824659288,0.0,-0.00369137687558,0.0,0.0,0.0,0.0,-100.0,0.0,0.0,0.00230154196664,-50.0,-0.00383606751517,-50.0,-0.0,-50.0,-0.0,-50.0,525000.0,0.0,0.0,0.0,0.0,0.0,0.0
1402753733309445511,3,-8.6901199044,-0.00591572024346,-3.61090869095,-0.122189614607,12.1225253815,0.10862951003,0.00624204640814,0.0,-0.431827591622,0.0,0.100163420746,0.0,1.47960922831,0.0,0.0252214116909,0.0,0.00298298476769,0.0,0.00907357170009,0.0,0.0728824659288,0.0,-0.00369137687558,0.0,0.0,0.0,0.0,-100.0,0.0,0.0,0.00383600394174,-50.0,-0.00383606751517,-50.0,-0.0,-50.0,-0.0,-50.0,525000.0,0.0,0.0,0.0,0.0,0.0,0.0
1402753733329649848,3,-8.68667771381,-0.00591572024346,-3.63026058673,-0.122189614607,12.1184990013,0.10862951003,0.0123828073568,0.0,-0.445895213129,0.0,0.102027154678,0.0,1.4813301294,0.0,0.033723511695,0.0,0.00359746280448,0.0,0.00347778772169,0.0,0.0721523815896,0.0,-0.0011289722012,0.0,0.0,0.0,0.0,-100.0,0.0,0.0,0.00230154196664,-50.0,-0.00383606751517,-50.0,-0.0,-50.0,-0.0,-50.0,525000.0,0.0,0.0,0.0,0.0,0.0,0.0
1402753733349434044,3,-8.68667771381,-0.00591572024346,-3.63026058673,-0.122189614607,12.1184990013,0.10862951003,0.0123828073568,0.0,-0.445895213129,0.0,0.102027154678,0.0,1.4813301294,0.0,0.033723511695,0.0,0.00359746280448,0.0,0.00347778772169,0.0,0.0721523815896,0.0,-0.0011289722012,0.0,0.0,0.0,0.0,-100.0,0.0,0.0,0.00230154196664,-50.0,-0.00383606751517,-50.0,-0.0,-50.0,-0.0,-50.0,525000.0,0.0,0.0,0.0,0.0,0.0,0.0
1402753733370390497,3,-8.68519074837,-0.00591572024346,-3.64550554346,-0.122189614607,12.1020947303,0.10862951003,0.0159673876334,0.0,-0.455918030686,0.0,0.10157581723,0.0,1.48296159887,0.0,0.0319365004656,0.0,0.00381039205106,0.0,0.0077156087546,0.0,0.0718647853109,0.0,-0.00463638290663,0.0,0.0,0.0,0.0,-100.0,0.0,0.0,0.00230154196664,-50.0,-0.00383606751517,-50.0,-0.0,-50.0,-0.0,-50.0,525000.0,0.0,0.0,0.0,0.0,0.0,0.0
1402753733389825851,3,-8.68519074837,-0.00591572024346,-3.64550554346,-0.122189614607,12.1020947303,0.10862951003,0.0159673876334,0.0,-0.455918030686,0.0,0.10157581723,0.0,1.48296159887,0.0,0.0319365004656,0.0,0.00381039205106,0.0,0.0077156087546,0.0,0.0718647853109,0.0,-0.00463638290663,0.0,0.0,0.0,0.0,-100.0,0.0,0.0,0.00230154196664,-50.0,-0.00383606751517,-50.0,-0.0,-50.0,-0.0,-50.0,525000.0,0.0,0.0,0.0,0.0,0.0,0.0
1402753733409933489,3,-8.68493979383,-0.00591572024346,-3.65461299506,-0.122189614607,12.1040891577,0.10862951003,0.0149429452771,0.0,-0.461039873535,0.0,0.10107128653,0.0,1.48356509941,0.0,0.0339201881821,0.0,0.00360827330018,0.0,0.0101249708927,0.0,0.0716952610026,0.0,-0.0125965603708,0.0,0.0,0.0,0.0,-100.0,0.0,0.0,0.00230154196664,-50.0,-0.00383606751517,-50.0,-0.0,-50.0,-0.0,-50.0,525000.0,0.0,0.0,0.0,0.0,0.0,0.0
1402753733430201244,3,-8.68493979383,-0.00591572024346,-3.65461299506,-0.122189614607,12.1040891577,0.10862951003,0.0149429452771,0.0,-0.461039873535,0.0,0.10107128653,0.0,1.48356509941,0.0,0.0339201881821,0.0,0.00360827330018,0.0,0.0101249708927,0.0,0.0716952610026,0.0,-0.0125965603708,0.0,0.0,0.0,0.0,-100.0,0.0,0.0,0.00230154196664,-50.0,-0.00383606751517,-50.0,-0.0,-50.0,-0.0,-50.0,525000.0,0.0,0.0,0.0,0.0,0.0,0.0
1402753733450100024,3,-8.68644146428,-0.00591572024346,-3.67569884989,-0.122189614607,12.1178774219,0.10862951003,0.00466067492113,0.0,-0.472075129596,0.0,0.108250689609,0.0,1.48449592503,0.0,0.0300927631566,0.0,0.00223763115122,0.0,-0.000793134777439,0.0,0.0711296349621,0.0,-0.00248766301713,0.0,0.0,0.0,0.0,-100.0,0.0,0.0,0.00230154196664,-50.0,-0.00383606751517,-50.0,-0.0,-50.0,-0.0,-50.0,525000.0,0.0,0.0,0.0,0.0,0.0,0.0
1402753733469340675,3,-8.68644146428,-0.00591572024346,-3.67569884989,-0.122189614607,12.1178774219,0.10862951003,0.00466067492113,0.0,-0.472075129596,0.0,0.108250689609,0.0,1.48449592503,0.0,0.0300927631566,0.0,0.00223763115122,0.0,-0.000793134777439,0.0,0.0711296349621,0.0,-0.00248766301713,0.0,0.0,0.0,0.0,-100.0,0.0,0.0,0.00230154196664,-50.0,-0.00383606751517,-50.0,-0.0,-50.0,-0.0,-50.0,525000.0,0.0,0.0,0.0,0.0,0.0,0.0
1402753733489469338,3,-8.68469560397,-0.00591572024346,-3.69386758496,-0.122189614607,12.1100135671,0.10862951003,0.0105319266817,0.0,-0.487718603998,0.0,0.105500342014,0.0,1.48571899263,0.0,0.0292286494955,0.0,0.00272014825989,0.0,-0.000565450101491,0.0,0.0702543436732,0.0,0.0129623906123,0.0,0.0,0.0,0.0,-100.0,0.0,0.0,0.00230154196664,-50.0,-0.00383606751517,-50.0,-0.0,-50.0,-0.0,-50.0,525000.0,0.0,0.0,0.0,0.0,0.0,0.0
1402753733509428114,3,-8.68469560397,-0.00591572024346,-3.69386758496,-0.122189614607,12.1100135671,0.10862951003,0.0105319266817,0.0,-0.487718603998,0.0,0.105500342014,0.0,1.48571899263,0.0,0.0292286494955,0.0,0.00272014825989,0.0,-0.000565450101491,0.0,0.0702543436732,0.0,0.0129623906123,0.0,0.0,0.0,0.0,-100.0,0.0,0.0,0.00230154196664,-50.0,-0.00383606751517,-50.0,-0.0,-50.0,-0.0,-50.0,525000.0,0.0,0.0,0.0,0.0,0.0,0.0
1402753733529486819,3,-8.68429236105,-0.00591572024346,-3.71402982292,-0.122189614607,12.1143176552,0.10862951003,0.0093421955448,0.0,-0.496151323186,0.0,0.106931292307,0.0,1.48690747985,0.0,0.0317842510552,0.0,0.00254502464881,0.0,-0.00463433995831,0.0,0.0702928641487,0.0,-0.00884920859372,0.0,0.0,0.0,0.0,-100.0,0.0,0.0,0.00230154196664,-50.0,-0.00383606751517,-50.0,-0.0,-50.0,-0.0,-50.0,525000.0,0.0,0.0,0.0,0.0,0.0,0.0
1402753733549420312,3,-8.68429236105,-0.00591572024346,-3.71402982292,-0.122189614607,12.1143176552,0.10862951003,0.0093421955448,0.0,-0.496151323186,0.0,0.106931292307,0.0,1.48690747985,0.0,0.0317842510552,0.0,0.00254502464881,0.0,-0.00463433995831,0.0,0.0702928641487,0.0,-0.00884920859372,0.0,0.0,0.0,0.0,-100.0,0.0,0.0,0.00230154196664,-50.0,-0.00383606751517,-50.0,-0.0,-50.0,-0.0,-50.0,525000.0,0.0,0.0,0.0,0.0,0.0,0.0
1402753733570080251,3,-8.6848194483,-0.00591572024346,-3.72178262873,-0.122189614607,12.0939440949,0.10862951003,0.0121396126345,0.0,-0.491438095797,0.0,0.101870648644,0.0,1.48831107713,0.0,0.0284955675218,0.0,0.00240611532724,0.0,-0.00266024552011,0.0,0.0718264622335,0.0,-0.00776297841042,0.0,0.0,0.0,0.0,-100.0,0.0,0.0,0.00230154196664,-50.0,-0.00383606751517,-50.0,-0.0,-50.0,-0.0,-50.0,525000.0,0.0,0.0,0.0,0.0,0.0,0.0
1402753733589568601,3,-8.6848194483,-0.00591572024346,-3.72178262873,-0.122189614607,12.0939440949,0.10862951003,0.0121396126345,0.0,-0.491438095797,0.0,0.101870648644,0.0,1.48831107713,0.0,0.0284955675218,0.0,0.00240611532724,0.0,-0.00266024552011,0.0,0.0718264622335,0.0,-0.00776297841042,0.0,0.0,0.0,0.0,-100.0,0.0,0.0,0.00230154196664,-50.0,-0.00383606751517,-50.0,-0.0,-50.0,-0.0,-50.0,525000.0,0.0,0.0,0.0,0.0,0.0,0.0
1402753733609488995,3,-8.68214202256,-0.00591572024346,-3.73656760596,-0.122189614607,12.0805172829,0.10862951003,0.0223938419617,0.0,-0.499536254088,0.0,0.0998976853089,0.0,1.48949877423,0.0,0.0292066818447,0.0,0.00312708185252,0.0,-0.00662926266055,0.0,0.0719932357454,0.0,0.00294695990451,0.0,0.0,0.0,0.0,-100.0,0.0,0.0,0.00383600394174,-50.0,-0.00383606751517,-50.0,-0.0,-50.0,-0.0,-50.0,525000.0,0.0,0.0,0.0,0.0,0.0,0.0
1402753733629922601,3,-8.68214202256,-0.00591572024346,-3.73656760596,-0.122189614607,12.0805172829,0.10862951003,0.0223938419617,0.0,-0.499536254088,0.0,0.0998976853089,0.0,1.48949877423,0.0,0.0292066818447,0.0,0.00312708185252,0.0,-0.00662926266055,0.0,0.0719932357454,0.0,0.00294695990451,0.0,0.0,0.0,0.0,-100.0,0.0,0.0,0.00230154196664,-50.0,-0.00383606751517,-50.0,-0.0,-50.0,-0.0,-50.0,525000.0,0.0,0.0,0.0,0.0,0.0,0.0
1402753733649478035,3,-8.67968579963,-0.00591572024346,-3.75314534736,-0.122189614607,12.0918131522,0.10862951003,0.0207741196104,0.0,-0.499731034201,0.0,0.103099645937,0.0,1.49068894907,0.0,0.0290045077445,0.0,0.0023991815131,0.0,-0.00863881864522,0.0,0.0732148068179,0.0,-0.00932227514147,0.0,0.0,0.0,0.0,-100.0,0.0,0.0,0.00230154196664,-50.0,-0.00383606751517,-50.0,-0.0,-50.0,-0.0,-50.0,525000.0,0.0,0.0,0.0,0.0,0.0,0.0
1402753733669801116,3,-8.67968579963,-0.00591572024346,-3.75314534736,-0.122189614607,12.0918131522,0.10862951003,0.0207741196104,0.0,-0.499731034201,0.0,0.103099645937,0.0,1.49068894907,0.0,0.0290045077445,0.0,0.0023991815131,0.0,-0.00863881864522,0.0,0.0732148068179,0.0,-0.00932227514147,0.0,0.0,0.0,0.0,-100.0,0.0,0.0,0.00230154196664,-50.0,-0.00383606751517,-50.0,-0.0,-50.0,-0.0,-50.0,525000.0,0.0,0.0,0.0,0.0,0.0,0.0
1402753733689358352,3,-8.68474157706,-0.00591572024346,-3.77555030962,-0.122189614607,12.0741114924,0.10862951003,0.0114007370031,0.0,-0.515114675071,0.0,0.0973723252126,0.0,1.49202394052,0.0,0.0283523698111,0.0,0.000926149983505,0.0,-0.00802367368729,0.0,0.0724519337895,0.0,-0.00678505866479,0.0,0.0,0.0,0.0,-100.0,0.0,0.0,0.00230154196664,-50.0,-0.00383606751517,-50.0,-0.0,-50.0,-0.0,-50.0,525000.0,0.0,0.0,0.0,0.0,0.0,0.0
1402753733709684066,3,-8.68474157706,-0.00591572024346,-3.77555030962,-0.122189614607,12.0741114924,0.10862951003,0.0114007370031,0.0,-0.515114675071,0.0,0.0973723252126,0.0,1.49202394052,0.0,0.0283523698111,0.0,0.000926149983505,0.0,-0.00802367368729,0.0,0.0724519337895,0.0,-0.00678505866479,0.0,0.0,0.0,0.0,-100.0,0.0,0.0,0.00383600394174,-50.0,-0.00383606751517,-50.0,-0.0,-50.0,-0.0,-50.0,525000.0,0.0,0.0,0.0,0.0,0.0,0.0
1402753733729836890,3,-8.6841923704,-0.00591572024346,-3.79224044156,-0.122189614607,12.0494509092,0.10862951003,0.0175365864793,0.0,-0.520146083972,0.0,0.0910828704995,0.0,1.49352121733,0.0,0.0320344155213,0.0,0.00119213090445,0.0,-0.00337595427534,0.0,0.0730571463744,0.0,-0.00142611297132,0.0,0.0,0.0,0.0,-100.0,0.0,0.0,0.00230154196664,-50.0,-0.00383606751517,-50.0,-0.0,-50.0,-0.0,-50.0,525000.0,0.0,0.0,0.0,0.0,0.0,0.0
1402753733749462676,3,-8.6841923704,-0.00591572024346,-3.79224044156,-0.122189614607,12.0494509092,0.10862951003,0.0175365864793,0.0,-0.520146083972,0.0,0.0910828704995,0.0,1.49352121733,0.0,0.0320344155213,0.0,0.00119213090445,0.0,-0.00337595427534,0.0,0.0730571463744,0.0,-0.00142611297132,0.0,0.0,0.0,0.0,-100.0,0.0,0.0,0.00230154196664,-50.0,-0.00383606751517,-50.0,-0.0,-50.0,-0.0,-50.0,525000.0,0.0,0.0,0.0,0.0,0.0,0.0
1402753733769728063,3,-8.68392818593,-0.00591572024346,-3.80274822028,-0.122189614607,12.0513905711,0.10862951003,0.0163599936408,0.0,-0.523679700843,0.0,0.0923836889996,0.0,1.4940224664,0.0,0.0282992455467,0.0,0.00100774506764,0.0,-0.0035697116111,0.0,0.0730869790596,0.0,-0.0124600243966,0.0,0.0,0.0,0.0,-100.0,0.0,0.0,0.00230154196664,-50.0,-0.00383606751517,-50.0,-0.0,-50.0,-0.0,-50.0,525000.0,0.0,0.0,0.0,0.0,0.0,0.0
1402753733789605036,3,-8.68392818593,-0.00591572024346,-3.80274822028,-0.122189614607,12.0513905711,0.10862951003,0.0163599936408,0.0,-0.523679700843,0.0,0.0923836889996,0.0,1.4940224664,0.0,0.0282992455467,0.0,0.00100774506764,0.0,-0.0035697116111,0.0,0.0730869790596,0.0,-0.0124600243966,0.0,0.0,0.0,0.0,-100.0,0.0,0.0,0.00230154196664,-50.0,-0.00383606751517,-50.0,-0.0,-50.0,-0.0,-50.0,525000.0,0.0,0.0,0.0,0.0,0.0,0.0
1402753733809427826,3,-8.68267567084,-0.00591572024346,-3.82256121109,-0.122189614607,12.0626963623,0.10862951003,0.014802422347,0.0,-0.526469016269,0.0,0.0962512004463,0.0,1.49535593265,0.0,0.0281834545932,0.0,0.000553110059795,0.0,-0.00142462245474,0.0,0.0736784054744,0.0,0.00559625057636,0.0,0.0,0.0,0.0,-100.0,0.0,0.0,0.00383600394174,-50.0,-0.00383606751517,-50.0,-0.0,-50.0,-0.0,-50.0,525000.0,0.0,0.0,0.0,0.0,0.0,0.0
1402753733829419919,3,-8.68267567084,-0.00591572024346,-3.82256121109,-0.122189614607,12.0626963623,0.10862951003,0.014802422347,0.0,-0.526469016269,0.0,0.0962512004463,0.0,1.49535593265,0.0,0.0281834545932,0.0,0.000553110059795,0.0,-0.00142462245474,0.0,0.0736784054744,0.0,0.00559625057636,0.0,0.0,0.0,0.0,-100.0,0.0,0.0,0.00230154196664,-50.0,-0.00383606751517,-50.0,-0.0,-50.0,-0.0,-50.0,525000.0,0.0,0.0,0.0,0.0,0.0,0.0
1402753733849475156,3,-8.6849037043,-0.00591572024346,-3.83974615068,-0.122189614607,12.0540165841,0.10862951003,0.00847938758458,0.0,-0.530842781372,0.0,0.0946459493538,0.0,1.49670517747,0.0,0.0267289430106,0.0,-0.000195597017755,0.0,0.000100033797451,0.0,0.0737928006992,0.0,0.0011556534173,0.0,0.0,0.0,0.0,-100.0,0.0,0.0,0.00230154196664,-50.0,-0.00383606751517,-50.0,-0.0,-50.0,-0.0,-50.0,525000.0,0.0,0.0,0.0,0.0,0.0,0.0
1402753733869973986,3,-8.6849037043,-0.00591572024346,-3.83974615068,-0.122189614607,12.0540165841,0.10862951003,0.00847938758458,0.0,-0.530842781372,0.0,0.0946459493538,0.0,1.49670517747,0.0,0.0267289430106,0.0,-0.000195597017755,0.0,0.000100033797451,0.0,0.0737928006992,0.0,0.0011556534173,0.0,0.0,0.0,0.0,-100.0,0.0,0.0,0.00383600394174,-50.0,-0.00383606751517,-50.0,-0.0,-50.0,-0.0,-50.0,525000.0,0.0,0.0,0.0,0.0,0.0,0.0
1402753733889568290,3,-8.68651126388,-0.00591572024346,-3.86493725802,-0.122189614607,12.0467301053,0.10862951003,0.00569957195805,0.0,-0.550289884446,0.0,0.0941297943733,0.0,1.49790033274,0.0,0.0311811043359,0.0,-0.000470781553338,0.0,-0.00390634591352,0.0,0.0722551139627,0.0,-0.00504294785633,0.0,0.0,0.0,0.0,-100.0,0.0,0.0,0.00230154196664,-50.0,-0.00383606751517,-50.0,-0.0,-50.0,-0.0,-50.0,525000.0,0.0,0.0,0.0,0.0,0.0,0.0
1402753733909426789,3,-8.68651126388,-0.00591572024346,-3.86493725802,-0.122189614607,12.0467301053,0.10862951003,0.00569957195805,0.0,-0.550289884446,0.0,0.0941297943733,0.0,1.49790033274,0.0,0.0311811043359,0.0,-0.000470781553338,0.0,-0.00390634591352,0.0,0.0722551139627,0.0,-0.00504294785633,0.0,0.0,0.0,0.0,-100.0,0.0,0.0,0.00230154196664,-50.0,-0.00383606751517,-50.0,-0.0,-50.0,-0.0,-50.0,525000.0,0.0,0.0,0.0,0.0,0.0,0.0
1402753733929594725,3,-8.68489909901,-0.00591572024346,-3.88906629124,-0.122189614607,12.0423765401,0.10862951003,0.0113617613351,0.0,-0.563385678894,0.0,0.0911340363901,0.0,1.49896476909,0.0,0.0328790288118,0.0,0.000211126249779,0.0,-0.00171783819133,0.0,0.0715095894764,0.0,-0.00732524690351,0.0,0.0,0.0,0.0,-100.0,0.0,0.0,0.00230154196664,-50.0,-0.00383606751517,-50.0,-0.0,-50.0,-0.0,-50.0,525000.0,0.0,0.0,0.0,0.0,0.0,0.0
1402753733949548660,3,-8.68489909901,-0.00591572024346,-3.88906629124,-0.122189614607,12.0423765401,0.10862951003,0.0113617613351,0.0,-0.563385678894,0.0,0.0911340363901,0.0,1.49896476909,0.0,0.0328790288118,0.0,0.000211126249779,0.0,-0.00171783819133,0.0,0.0715095894764,0.0,-0.00732524690351,0.0,0.0,0.0,0.0,-100.0,0.0,0.0,0.00383600394174,-50.0,-0.00383606751517,-50.0,-0.0,-50.0,-0.0,-50.0,525000.0,0.0,0.0,0.0,0.0,0.0,0.0
1402753733969548611,3,-8.68440987872,-0.00591572024346,-3.90620439008,-0.122189614607,12.0340841375,0.10862951003,0.0162785441585,0.0,-0.56169184982,0.0,0.0891106208838,0.0,1.50015976676,0.0,0.0323247097222,0.0,0.000594471147388,0.0,0.0015912163013,0.0,0.0722595093166,0.0,0.00940849860012,0.0,0.0,0.0,0.0,-100.0,0.0,0.0,0.00230154196664,-50.0,-0.00383606751517,-50.0,-0.0,-50.0,-0.0,-50.0,525000.0,0.0,0.0,0.0,0.0,0.0,0.0
1402753733990016863,3,-8.68440987872,-0.00591572024346,-3.90620439008,-0.122189614607,12.0340841375,0.10862951003,0.0162785441585,0.0,-0.56169184982,0.0,0.0891106208838,0.0,1.50015976676,0.0,0.0323247097222,0.0,0.000594471147388,0.0,0.0015912163013,0.0,0.0722595093166,0.0,0.00940849860012,0.0,0.0,0.0,0.0,-100.0,0.0,0.0,0.00230154196664,-50.0,-0.00383606751517,-50.0,-0.0,-50.0,-0.0,-50.0,525000.0,0.0,0.0,0.0,0.0,0.0,0.0
1402753734009345115,3,-8.68741317552,-0.00591572024346,-3.92376361896,-0.122189614607,12.033474146,0.10862951003,0.0090669590117,0.0,-0.557498183124,0.0,0.0876956465325,0.0,1.50191110477,0.0,0.0341370204998,0.0,-0.000476817291153,0.0,0.000100187905417,0.0,0.0732411467055,0.0,-0.000201431773198,0.0,0.0,0.0,0.0,-100.0,0.0,0.0,0.00383600394174,-50.0,-0.00383606751517,-50.0,-0.0,-50.0,-0.0,-50.0,525000.0,0.0,0.0,0.0,0.0,0.0,0.0
1402753734029463754,3,-8.68741317552,-0.00591572024346,-3.92376361896,-0.122189614607,12.033474146,0.10862951003,0.0090669590117,0.0,-0.557498183124,0.0,0.0876956465325,0.0,1.50191110477,0.0,0.0341370204998,0.0,-0.000476817291153,0.0,0.000100187905417,0.0,0.0732411467055,0.0,-0.000201431773198,0.0,0.0,0.0,0.0,-100.0,0.0,0.0,0.00230154196664,-50.0,-0.00383606751517,-50.0,-0.0,-50.0,-0.0,-50.0,525000.0,0.0,0.0,0.0,0.0,0.0,0.0
1402753734049744123,3,-8.68681542215,-0.00591572024346,-3.952277071,-0.122189614607,12.0378068423,0.10862951003,0.0101048338106,0.0,-0.56380819325,0.0,0.0886053452566,0.0,1.50361216675,0.0,0.0325871698641,0.0,-0.000382923455261,0.0,-0.00185352103581,0.0,0.0732613180175,0.0,-0.00462290561349,0.0,0.0,0.0,0.0,-100.0,0.0,0.0,0.00230154196664,-50.0,-0.00383606751517,-50.0,-0.0,-50.0,-0.0,-50.0,525000.0,0.0,0.0,0.0,0.0,0.0,0.0
1402753734069418369,3,-8.68681542215,-0.00591572024346,-3.952277071,-0.122189614607,12.0378068423,0.10862951003,0.0101048338106,0.0,-0.56380819325,0.0,0.0886053452566,0.0,1.50361216675,0.0,0.0325871698641,0.0,-0.000382923455261,0.0,-0.00185352103581,0.0,0.0732613180175,0.0,-0.00462290561349,0.0,0.0,0.0,0.0,-100.0,0.0,0.0,0.00230154196664,-50.0,-0.00383606751517,-50.0,-0.0,-50.0,-0.0,-50.0,525000.0,0.0,0.0,0.0,0.0,0.0,0.0
1402753734089429633,3,-8.6843278344,-0.00591572024346,-3.97533591932,-0.122189614607,12.0479914613,0.10862951003,0.0175805050648,0.0,-0.574685512881,0.0,0.0900468708247,0.0,1.50435096584,0.0,0.0335221225345,0.0,0.000406909188422,0.0,-0.000476420957685,0.0,0.0724186722297,0.0,0.000652635877782,0.0,0.0,0.0,0.0,-100.0,0.0,0.0,0.00383600394174,-50.0,-0.00383606751517,-50.0,-0.0,-50.0,-0.0,-50.0,525000.0,0.0,0.0,0.0,0.0,0.0,0.0
1402753734109349626,3,-8.68552363056,-0.00591572024346,-4.0010123768,-0.122189614607,12.0580127396,0.10862951003,0.0178935600538,0.0,-0.577824953843,0.0,0.0927486553252,0.0,1.50589639946,0.0,0.0380985034176,0.0,0.000103048623762,0.0,0.00122130263428,0.0,0.0725335664523,0.0,0.00309788328006,0.0,0.0,0.0,0.0,-100.0,0.0,0.0,0.00230154196664,-50.0,-0.00383606751517,-50.0,-0.0,-50.0,-0.0,-50.0,525000.0,0.0,0.0,0.0,0.0,0.0,0.0
1402753734129540739,3,-8.68552363056,-0.00591572024346,-4.0010123768,-0.122189614607,12.0580127396,0.10862951003,0.0178935600538,0.0,-0.577824953843,0.0,0.0927486553252,0.0,1.50589639946,0.0,0.0380985034176,0.0,0.000103048623762,0.0,0.00122130263428,0.0,0.0725335664523,0.0,0.00309788328006,0.0,0.0,0.0,0.0,-100.0,0.0,0.0,0.00230154196664,-50.0,-0.00383606751517,-50.0,-0.0,-50.0,-0.0,-50.0,525000.0,0.0,0.0,0.0,0.0,0.0,0.0
1402753734149500437,3,-8.68531329429,-0.00591572024346,-4.00674235041,-0.122189614607,12.0588938703,0.10862951003,0.0168753102717,0.0,-0.578936275521,0.0,0.092677772375,0.0,1.50623686523,0.0,0.0346046767931,0.0,6.6088221319e-05,0.0,0.00474841047123,0.0,0.0724835671167,0.0,-0.00393314685349,0.0,0.0,0.0,0.0,-100.0,0.0,0.0,0.00230154196664,-50.0,-0.00383606751517,-50.0,-0.0,-50.0,-0.0,-50.0,525000.0,0.0,0.0,0.0,0.0,0.0,0.0
1402753734169409667,3,-8.68531329429,-0.00591572024346,-4.00674235041,-0.122189614607,12.0588938703,0.10862951003,0.0168753102717,0.0,-0.578936275521,0.0,0.092677772375,0.0,1.50623686523,0.0,0.0346046767931,0.0,6.6088221319e-05,0.0,0.00474841047123,0.0,0.0724835671167,0.0,-0.00393314685349,0.0,0.0,0.0,0.0,-100.0,0.0,0.0,0.00230154196664,-50.0,-0.00383606751517,-50.0,-0.0,-50.0,-0.0,-50.0,525000.0,0.0,0.0,0.0,0.0,0.0,0.0
1402753734190055240,3,-8.68651858213,-0.00591572024346,-4.02733887492,-0.122189614607,12.0621913444,0.10862951003,0.0192894490417,0.0,-0.584866055949,0.0,0.09190367792,0.0,1.50703448776,0.0,0.0316330154636,0.0,0.000343844953381,0.0,0.00515680491058,0.0,0.0721515657958,0.0,-0.00118582339724,0.0,0.0,0.0,0.0,-100.0,0.0,0.0,0.00230154196664,-50.0,-0.00383606751517,-50.0,-0.0,-50.0,-0.0,-50.0,525000.0,0.0,0.0,0.0,0.0,0.0,0.0
1402753734209825972,3,-8.68651858213,-0.00591572024346,-4.02733887492,-0.122189614607,12.0621913444,0.10862951003,0.0192894490417,0.0,-0.584866055949,0.0,0.09190367792,0.0,1.50703448776,0.0,0.0316330154636,0.0,0.000343844953381,0.0,0.00515680491058,0.0,0.0721515657958,0.0,-0.00118582339724,0.0,0.0,0.0,0.0,-100.0,0.0,0.0,0.00383600394174,-50.0,-0.00383606751517,-50.0,-0.0,-50.0,-0.0,-50.0,525000.0,0.0,0.0,0.0,0.0,0.0,0.0
1402753734229536134,3,-8.68849780525,-0.00591572024346,-4.05094884227,-0.122189614607,12.0615809114,0.10862951003,0.0204500836931,0.0,-0.586195531208,0.0,0.095524909155,0.0,1.50847510125,0.0,0.0329757169557,0.0,4.99064906244e-05,0.0,0.00707815272486,0.0,0.0723523346539,0.0,0.00313270844545,0.0,0.0,0.0,0.0,-100.0,0.0,0.0,0.00230154196664,-50.0,-0.00383606751517,-50.0,-0.0,-50.0,-0.0,-50.0,525000.0,0.0,0.0,0.0,0.0,0.0,0.0
1402753734249369221,3,-8.68849780525,-0.00591572024346,-4.05094884227,-0.122189614607,12.0615809114,0.10862951003,0.0204500836931,0.0,-0.586195531208,0.0,0.095524909155,0.0,1.50847510125,0.0,0.0329757169557,0.0,4.99064906244e-05,0.0,0.00707815272486,0.0,0.0723523346539,0.0,0.00313270844545,0.0,0.0,0.0,0.0,-100.0,0.0,0.0,0.00230154196664,-50.0,-0.00383606751517,-50.0,-0.0,-50.0,-0.0,-50.0,525000.0,0.0,0.0,0.0,0.0,0.0,0.0
1402753734269455472,3,-8.68763799117,-0.00591572024346,-4.07519554376,-0.122189614607,12.0657365687,0.10862951003,0.024135114821,0.0,-0.590184330304,0.0,0.0987077239435,0.0,1.50985876129,0.0,0.0328507191842,0.0,0.000215422711403,0.0,0.00491149542546,0.0,0.0721934324054,0.0,0.0111369731584,0.0,0.0,0.0,0.0,-100.0,0.0,0.0,0.00230154196664,-50.0,-0.00383606751517,-50.0,-0.0,-50.0,-0.0,-50.0,525000.0,0.0,0.0,0.0,0.0,0.0,0.0
1402753734289492731,3,-8.68763799117,-0.00591572024346,-4.07519554376,-0.122189614607,12.0657365687,0.10862951003,0.024135114821,0.0,-0.590184330304,0.0,0.0987077239435,0.0,1.50985876129,0.0,0.0328507191842,0.0,0.000215422711403,0.0,0.00491149542546,0.0,0.0721934324054,0.0,0.0111369731584,0.0,0.0,0.0,0.0,-100.0,0.0,0.0,0.00230154196664,-50.0,-0.00383606751517,-50.0,-0.0,-50.0,-0.0,-50.0,525000.0,0.0,0.0,0.0,0.0,0.0,0.0
