rosbagTimestamp,transforms,-,header,seq,stamp,secs,nsecs,frame_id,child_frame_id,transform,translation,x,y,z,rotation,x,y,z,w
1402414567365036796,,errorv,,0,,1402414567,364851122,base_link,/z_drive,,,0.0,0.0,0.0,,0.0,0.0,0.0,1.0
1402414567365172719,,errorv,,0,,1402414567,364883665,/z_drive,port,,,-0.3,0.3048,0.0,,0.0,0.0,0.0,1.0
1402414567365203104,,errorv,,0,,1402414567,364946429,/z_drive,starboard,,,-0.3,-0.3048,0.0,,0.0,0.0,0.0,1.0
1402414567367094798,,errorv,,0,,1402414567,310698986,/enu,/base_link,,,5.8412859076,22.9381850015,-9.04504246047,,-0.00336722963238,-0.0385608769578,0.924544439737,-0.3791032834
1402414567367125926,,errorv,,0,,1402414567,320689916,/enu,/base_link,,,5.82706616863,22.952552887,-9.01237632954,,-0.00489098491119,-0.0360857288128,0.924570186393,-0.379267542608
1402414567385099478,,errorv,,0,,1402414567,384814664,base_link,/z_drive,,,0.0,0.0,0.0,,0.0,0.0,0.0,1.0
1402414567385138916,,errorv,,0,,1402414567,384833245,/z_drive,port,,,-0.3,0.3048,0.0,,0.0,0.0,0.0,1.0
1402414567385224979,,errorv,,0,,1402414567,384843095,/z_drive,starboard,,,-0.3,-0.3048,0.0,,0.0,0.0,0.0,1.0
1402414567395736722,,errorv,,0,,1402414567,495501172,base_link,imu,,,0.13,0.0,-0.1,,1.0,0.0,0.0,0.0
1402414567398732505,,errorv,,0,,1402414567,498546251,/base_link,/gps,,,-0.84,0.0,-0.14,,0.0,0.0,0.0,1.0
1402414567405008159,,errorv,,0,,1402414567,404822546,base_link,/z_drive,,,0.0,0.0,0.0,,0.0,0.0,0.0,1.0
1402414567405039532,,errorv,,0,,1402414567,404842844,/z_drive,port,,,-0.3,0.3048,0.0,,0.0,0.0,0.0,1.0
1402414567405253815,,errorv,,0,,1402414567,404852872,/z_drive,starboard,,,-0.3,-0.3048,0.0,,0.0,0.0,0.0,1.0
1402414567407252441,,errorv,,0,,1402414567,330686092,/enu,/base_link,,,5.83407421447,22.9438898571,-9.01068784402,,-0.0044971990064,-0.0362253520375,0.924679894228,-0.378991546451
1402414567407292414,,errorv,,0,,1402414567,340689897,/enu,/base_link,,,5.84094829163,22.9349553461,-9.00869418675,,-0.00485339738032,-0.0362331768151,0.924808461015,-0.378672565507
1402414567407322593,,errorv,,0,,1402414567,351660013,/enu,/base_link,,,5.82848369784,22.9376559564,-9.03193276103,,-0.00594070432863,-0.0341755957094,0.924973206937,-0.378445905169
1402414567407346441,,errorv,,0,,1402414567,361673116,/enu,/base_link,,,5.8351801974,22.9290221775,-9.03002300954,,-0.00594893095646,-0.0342984665399,0.925065864169,-0.378208107214
1402414567425098046,,errorv,,0,,1402414567,424822318,base_link,/z_drive,,,0.0,0.0,0.0,,0.0,0.0,0.0,1.0
1402414567425120516,,errorv,,0,,1402414567,424836943,/z_drive,port,,,-0.3,0.3048,0.0,,0.0,0.0,0.0,1.0
1402414567425149302,,errorv,,0,,1402414567,424841313,/z_drive,starboard,,,-0.3,-0.3048,0.0,,0.0,0.0,0.0,1.0
1402414567445143672,,errorv,,0,,1402414567,444755806,base_link,/z_drive,,,0.0,0.0,0.0,,0.0,0.0,0.0,1.0
1402414567445174975,,errorv,,0,,1402414567,444780103,/z_drive,port,,,-0.3,0.3048,0.0,,0.0,0.0,0.0,1.0
1402414567445195773,,errorv,,0,,1402414567,444939935,/z_drive,starboard,,,-0.3,-0.3048,0.0,,0.0,0.0,0.0,1.0
1402414567447231632,,errorv,,0,,1402414567,372675895,/enu,/base_link,,,5.84258491962,22.9198477929,-9.02845557332,,-0.0061182391759,-0.0342010633327,0.925173731207,-0.377950289723
1402414567447260977,,errorv,,0,,1402414567,382658958,/enu,/base_link,,,5.84916342492,22.911207795,-9.02670152846,,-0.00572629061277,-0.0343537872408,0.925266173323,-0.377716210139
1402414567447280004,,errorv,,0,,1402414567,392648935,/enu,/base_link,,,5.85642001948,22.8750878507,-9.11693715362,,-0.00679727251811,-0.0355751232848,0.925644505727,-0.376656948307
1402414567447294222,,errorv,,0,,1402414567,403695106,/enu,/base_link,,,5.86368849582,22.8652132356,-9.11524217515,,-0.00687006602179,-0.0357117508401,0.925743536301,-0.376399226941
1402414567465076838,,errorv,,0,,1402414567,464798738,base_link,/z_drive,,,0.0,0.0,0.0,,0.0,0.0,0.0,1.0
1402414567465109265,,errorv,,0,,1402414567,464827994,/z_drive,port,,,-0.3,0.3048,0.0,,0.0,0.0,0.0,1.0
1402414567465149594,,errorv,,0,,1402414567,464837033,/z_drive,starboard,,,-0.3,-0.3048,0.0,,0.0,0.0,0.0,1.0
1402414567485049878,,errorv,,0,,1402414567,484785915,base_link,/z_drive,,,0.0,0.0,0.0,,0.0,0.0,0.0,1.0
1402414567485149144,,errorv,,0,,1402414567,484816749,/z_drive,port,,,-0.3,0.3048,0.0,,0.0,0.0,0.0,1.0
1402414567485173479,,errorv,,0,,1402414567,484828746,/z_drive,starboard,,,-0.3,-0.3048,0.0,,0.0,0.0,0.0,1.0
1402414567487464621,,errorv,,0,,1402414567,415102005,/enu,/base_link,,,5.87132303601,22.8548502685,-9.1130938608,,-0.00702225672131,-0.035615926141,0.925858054052,-0.37612372627
1402414567487493045,,errorv,,0,,1402414567,423655986,/enu,/base_link,,,5.87722084054,22.8472226781,-9.11190496972,,-0.00671333829249,-0.0357989452406,0.925934595037,-0.375923519245
1402414567487514875,,errorv,,0,,1402414567,433670043,/enu,/base_link,,,5.91468439992,22.7596755155,-9.45760547806,,-0.00549382361233,-0.0391414928833,0.926023405003,-0.375391015906
1402414567487539132,,errorv,,0,,1402414567,443638086,/enu,/base_link,,,5.92213290009,22.7500796051,-9.4568825709,,-0.00511079980798,-0.0391593589065,0.926119988295,-0.375156222947
1402414567495843304,,errorv,,0,,1402414567,595617453,base_link,imu,,,0.13,0.0,-0.1,,1.0,0.0,0.0,0.0
1402414567498846869,,errorv,,0,,1402414567,598640768,/base_link,/gps,,,-0.84,0.0,-0.14,,0.0,0.0,0.0,1.0
1402414567505185024,,errorv,,0,,1402414567,504803059,base_link,/z_drive,,,0.0,0.0,0.0,,0.0,0.0,0.0,1.0
1402414567505214249,,errorv,,0,,1402414567,504826190,/z_drive,port,,,-0.3,0.3048,0.0,,0.0,0.0,0.0,1.0
1402414567505232134,,errorv,,0,,1402414567,504834443,/z_drive,starboard,,,-0.3,-0.3048,0.0,,0.0,0.0,0.0,1.0
1402414567525109653,,errorv,,0,,1402414567,524724500,base_link,/z_drive,,,0.0,0.0,0.0,,0.0,0.0,0.0,1.0
1402414567525140591,,errorv,,0,,1402414567,524736921,/z_drive,port,,,-0.3,0.3048,0.0,,0.0,0.0,0.0,1.0
1402414567525163842,,errorv,,0,,1402414567,524741201,/z_drive,starboard,,,-0.3,-0.3048,0.0,,0.0,0.0,0.0,1.0
1402414567527312938,,errorv,,0,,1402414567,454659938,/enu,/base_link,,,5.93029103583,22.7392393575,-9.45557122011,,-0.0052187186589,-0.0393310471081,0.92620986732,-0.374914810841
1402414567527341390,,errorv,,0,,1402414567,464636087,/enu,/base_link,,,5.93774112645,22.7296183709,-9.4547933716,,-0.00526423570822,-0.0392718489477,0.926309749232,-0.374673535468
1402414567527358085,,errorv,,0,,1402414567,474617958,/enu,/base_link,,,5.945100568,22.71969535,-9.45363942662,,-0.00560340716171,-0.0392868464987,0.92640856136,-0.374422652839
1402414567527375578,,errorv,,0,,1402414567,485634088,/enu,/base_link,,,5.93774823715,22.7065294476,-9.53268353042,,-0.00642069337477,-0.0381058290232,0.926706732464,-0.373793194823
1402414567545114690,,errorv,,0,,1402414567,544804556,base_link,/z_drive,,,0.0,0.0,0.0,,0.0,0.0,0.0,1.0
1402414567545146820,,errorv,,0,,1402414567,544821439,/z_drive,port,,,-0.3,0.3048,0.0,,0.0,0.0,0.0,1.0
1402414567545173118,,errorv,,0,,1402414567,544826813,/z_drive,starboard,,,-0.3,-0.3048,0.0,,0.0,0.0,0.0,1.0
1402414567565101887,,errorv,,0,,1402414567,564838498,base_link,/z_drive,,,0.0,0.0,0.0,,0.0,0.0,0.0,1.0
1402414567565129045,,errorv,,0,,1402414567,564865654,/z_drive,port,,,-0.3,0.3048,0.0,,0.0,0.0,0.0,1.0
1402414567565156589,,errorv,,0,,1402414567,564876871,/z_drive,starboard,,,-0.3,-0.3048,0.0,,0.0,0.0,0.0,1.0
1402414567567329815,,errorv,,0,,1402414567,495620012,/enu,/base_link,,,5.94484841511,22.6967692992,-9.53177408584,,-0.00658757436217,-0.0382312815512,0.9267952965,-0.37355782867
1402414567567352600,,errorv,,0,,1402414567,505594015,/enu,/base_link,,,5.95200180299,22.6870926673,-9.53111010233,,-0.0065794107302,-0.038163752906,0.926897863986,-0.373310312015
1402414567567374016,,errorv,,0,,1402414567,515590906,/enu,/base_link,,,5.9594381782,22.6773027795,-9.53044334882,,-0.00632961923127,-0.0383492311132,0.92698297795,-0.373084214332
1402414567567401669,,errorv,,0,,1402414567,526592969,/enu,/base_link,,,5.96750018647,22.6664545916,-9.52959137374,,-0.00664557415303,-0.0384100439504,0.927094001225,-0.372796483032
1402414567567423188,,errorv,,0,,1402414567,536588907,/enu,/base_link,,,5.97489025405,22.6565679376,-9.5289123765,,-0.00627051018561,-0.0384643310252,0.927194282517,-0.372547900824
1402414567585040025,,errorv,,0,,1402414567,584782232,base_link,/z_drive,,,0.0,0.0,0.0,,0.0,0.0,0.0,1.0
1402414567585070015,,errorv,,0,,1402414567,584805756,/z_drive,port,,,-0.3,0.3048,0.0,,0.0,0.0,0.0,1.0
1402414567585092631,,errorv,,0,,1402414567,584815862,/z_drive,starboard,,,-0.3,-0.3048,0.0,,0.0,0.0,0.0,1.0
1402414567595927037,,errorv,,0,,1402414567,695729328,base_link,imu,,,0.13,0.0,-0.1,,1.0,0.0,0.0,0.0
1402414567598961620,,errorv,,0,,1402414567,698740650,/base_link,/gps,,,-0.84,0.0,-0.14,,0.0,0.0,0.0,1.0
1402414567604950465,,errorv,,0,,1402414567,604769839,base_link,/z_drive,,,0.0,0.0,0.0,,0.0,0.0,0.0,1.0
1402414567605148293,,errorv,,0,,1402414567,604798573,/z_drive,port,,,-0.3,0.3048,0.0,,0.0,0.0,0.0,1.0
1402414567605174977,,errorv,,0,,1402414567,604946466,/z_drive,starboard,,,-0.3,-0.3048,0.0,,0.0,0.0,0.0,1.0
1402414567607048546,,errorv,,0,,1402414567,546593904,/enu,/base_link,,,5.98234506304,22.6466868077,-9.52814679723,,-0.0064721596385,-0.0385464990241,0.927273824922,-0.372337927396
1402414567607123079,,errorv,,0,,1402414567,556565999,/enu,/base_link,,,5.98956503566,22.6367297647,-9.52739597924,,-0.00624981053539,-0.0387126849746,0.92734534347,-0.372146317776
1402414567607146560,,errorv,,0,,1402414567,567564964,/enu,/base_link,,,5.99770369017,22.6256682999,-9.52627250398,,-0.00663134516448,-0.038656741085,0.927456400722,-0.371868668202
1402414567615577377,,errorv,,0,,1402414567,577564954,/enu,/base_link,,,6.00521018945,22.615639105,-9.52551404734,,-0.00627914826647,-0.0387326243508,0.927540815746,-0.371656281037
1402414567615601952,,errorv,,0,,1402414567,587560892,/enu,/base_link,,,6.02918358446,22.5131455251,-10.021056414,,-0.0059908733477,-0.0413829135553,0.927769320239,-0.370804061905
1402414567615623884,,errorv,,0,,1402414567,597560882,/enu,/base_link,,,6.03708632917,22.5025420752,-10.0212614247,,-0.0058901582033,-0.041310911276,0.927853130001,-0.370603944654
1402414567615642107,,errorv,,0,,1402414567,608563899,/enu,/base_link,,,6.04588910343,22.4907508909,-10.0214275627,,-0.00571855125454,-0.0414626920494,0.927929141307,-0.370399314325
1402414567625092113,,errorv,,0,,1402414567,624834023,base_link,/z_drive,,,0.0,0.0,0.0,,0.0,0.0,0.0,1.0
1402414567625121920,,errorv,,0,,1402414567,624854827,/z_drive,port,,,-0.3,0.3048,0.0,,0.0,0.0,0.0,1.0
1402414567625145195,,errorv,,0,,1402414567,624865290,/z_drive,starboard,,,-0.3,-0.3048,0.0,,0.0,0.0,0.0,1.0
1402414567645136382,,errorv,,0,,1402414567,644819920,base_link,/z_drive,,,0.0,0.0,0.0,,0.0,0.0,0.0,1.0
1402414567645170582,,errorv,,0,,1402414567,644856693,/z_drive,port,,,-0.3,0.3048,0.0,,0.0,0.0,0.0,1.0
1402414567645224680,,errorv,,0,,1402414567,644868409,/z_drive,starboard,,,-0.3,-0.3048,0.0,,0.0,0.0,0.0,1.0
1402414567655583252,,errorv,,0,,1402414567,618537902,/enu,/base_link,,,6.05369126717,22.4799152725,-10.0213445018,,-0.00602276264864,-0.0413879473403,0.92802220419,-0.370169626896
1402414567665163837,,errorv,,0,,1402414567,664896023,base_link,/z_drive,,,0.0,0.0,0.0,,0.0,0.0,0.0,1.0
1402414567665192474,,errorv,,0,,1402414567,664923185,/z_drive,port,,,-0.3,0.3048,0.0,,0.0,0.0,0.0,1.0
1402414567665215280,,errorv,,0,,1402414567,664931506,/z_drive,starboard,,,-0.3,-0.3048,0.0,,0.0,0.0,0.0,1.0
1402414567685089141,,errorv,,0,,1402414567,684789932,base_link,/z_drive,,,0.0,0.0,0.0,,0.0,0.0,0.0,1.0
1402414567685123246,,errorv,,0,,1402414567,684817481,/z_drive,port,,,-0.3,0.3048,0.0,,0.0,0.0,0.0,1.0
1402414567685205598,,errorv,,0,,1402414567,684863165,/z_drive,starboard,,,-0.3,-0.3048,0.0,,0.0,0.0,0.0,1.0
1402414567695263779,,errorv,,0,,1402414567,628535032,/enu,/base_link,,,6.0615842929,22.4690482985,-10.0212959458,,-0.00630976165645,-0.0414219605982,0.928093790887,-0.369981517654
1402414567695350579,,errorv,,0,,1402414567,638536930,/enu,/base_link,,,6.00460264843,22.5107459979,-10.2969384338,,-0.00862071275326,-0.0313069344162,0.927569549221,-0.372236874217
1402414567695379290,,errorv,,0,,1402414567,649534940,/enu,/base_link,,,6.01178981505,22.5007941365,-10.2978880081,,-0.00852744845628,-0.0314062146001,0.927655348368,-0.372016783157
1402414567696023946,,errorv,,0,,1402414567,795828852,base_link,imu,,,0.13,0.0,-0.1,,1.0,0.0,0.0,0.0
1402414567699051693,,errorv,,0,,1402414567,798846759,/base_link,/gps,,,-0.84,0.0,-0.14,,0.0,0.0,0.0,1.0
1402414567705123127,,errorv,,0,,1402414567,704836901,base_link,/z_drive,,,0.0,0.0,0.0,,0.0,0.0,0.0,1.0
1402414567705263947,,errorv,,0,,1402414567,704861119,/z_drive,port,,,-0.3,0.3048,0.0,,0.0,0.0,0.0,1.0
1402414567705293299,,errorv,,0,,1402414567,704870184,/z_drive,starboard,,,-0.3,-0.3048,0.0,,0.0,0.0,0.0,1.0
1402414567725012248,,errorv,,0,,1402414567,724804991,base_link,/z_drive,,,0.0,0.0,0.0,,0.0,0.0,0.0,1.0
1402414567725337284,,errorv,,0,,1402414567,724828528,/z_drive,port,,,-0.3,0.3048,0.0,,0.0,0.0,0.0,1.0
1402414567725361628,,errorv,,0,,1402414567,724988825,/z_drive,starboard,,,-0.3,-0.3048,0.0,,0.0,0.0,0.0,1.0
1402414567735199748,,errorv,,0,,1402414567,659537076,/enu,/base_link,,,6.01850362737,22.4915913179,-10.2984720973,,-0.00884364986761,-0.0312754171922,0.927749545141,-0.371785448379
1402414567735224704,,errorv,,0,,1402414567,669543027,/enu,/base_link,,,6.02528441946,22.4825761485,-10.2993773564,,-0.00856178936964,-0.031249103015,0.927813981866,-0.371633427422
1402414567735280064,,errorv,,0,,1402414567,679542064,/enu,/base_link,,,6.03200199582,22.4732235286,-10.2998167573,,-0.00889603967673,-0.031311344487,0.927887830178,-0.371435909401
1402414567735351376,,errorv,,0,,1402414567,690536022,/enu,/base_link,,,6.03406594836,22.4442932791,-10.3873385458,,-0.00974603535041,-0.0315684106664,0.928373608276,-0.370176841118
1402414567745083110,,errorv,,0,,1402414567,744815192,base_link,/z_drive,,,0.0,0.0,0.0,,0.0,0.0,0.0,1.0
1402414567745111796,,errorv,,0,,1402414567,744841277,/z_drive,port,,,-0.3,0.3048,0.0,,0.0,0.0,0.0,1.0
1402414567745146256,,errorv,,0,,1402414567,744861666,/z_drive,starboard,,,-0.3,-0.3048,0.0,,0.0,0.0,0.0,1.0
1402414567764967780,,errorv,,0,,1402414567,764753949,base_link,/z_drive,,,0.0,0.0,0.0,,0.0,0.0,0.0,1.0
1402414567765105103,,errorv,,0,,1402414567,764767883,/z_drive,port,,,-0.3,0.3048,0.0,,0.0,0.0,0.0,1.0
1402414567765130728,,errorv,,0,,1402414567,764772135,/z_drive,starboard,,,-0.3,-0.3048,0.0,,0.0,0.0,0.0,1.0
1402414567775169762,,errorv,,0,,1402414567,700537919,/enu,/base_link,,,6.04061413009,22.4349011509,-10.3882878383,,-0.00977609431245,-0.0315641626418,0.928445670596,-0.369995632905
1402414567775197498,,errorv,,0,,1402414567,710540056,/enu,/base_link,,,6.04742126896,22.4253677247,-10.3890386158,,-0.00952510576708,-0.0314882861468,0.928518344242,-0.369826235686
1402414567775225389,,errorv,,0,,1402414567,720541000,/enu,/base_link,,,6.05408573484,22.415920656,-10.3899602265,,-0.00988360202987,-0.0314729572257,0.928604437285,-0.369601902632
1402414567775245188,,errorv,,0,,1402414567,731564044,/enu,/base_link,,,6.03403247621,22.444793613,-10.3200884189,,-0.0112152827066,-0.0277689698101,0.928726660167,-0.369553639468
1402414567785180512,,errorv,,0,,1402414567,784805204,base_link,/z_drive,,,0.0,0.0,0.0,,0.0,0.0,0.0,1.0
1402414567785208781,,errorv,,0,,1402414567,784828562,/z_drive,port,,,-0.3,0.3048,0.0,,0.0,0.0,0.0,1.0
1402414567785231303,,errorv,,0,,1402414567,784835805,/z_drive,starboard,,,-0.3,-0.3048,0.0,,0.0,0.0,0.0,1.0
1402414567796151784,,errorv,,0,,1402414567,895945178,base_link,imu,,,0.13,0.0,-0.1,,1.0,0.0,0.0,0.0
1402414567799137417,,errorv,,0,,1402414567,898943483,/base_link,/gps,,,-0.84,0.0,-0.14,,0.0,0.0,0.0,1.0
1402414567805386359,,errorv,,0,,1402414567,804757379,base_link,/z_drive,,,0.0,0.0,0.0,,0.0,0.0,0.0,1.0
1402414567805416191,,errorv,,0,,1402414567,804776912,/z_drive,port,,,-0.3,0.3048,0.0,,0.0,0.0,0.0,1.0
1402414567805436559,,errorv,,0,,1402414567,804784072,/z_drive,starboard,,,-0.3,-0.3048,0.0,,0.0,0.0,0.0,1.0
1402414567815317986,,errorv,,0,,1402414567,741511106,/enu,/base_link,,,6.04015257633,22.4360634535,-10.3210996512,,-0.0112964421167,-0.0278053244069,0.928801145703,-0.36936118647
1402414567815343785,,errorv,,0,,1402414567,751553058,/enu,/base_link,,,6.04633514784,22.4269761869,-10.3216131824,,-0.0116489974208,-0.0276034282896,0.928892088928,-0.36913661256
1402414567815421448,,errorv,,0,,1402414567,761516094,/enu,/base_link,,,6.05238435374,22.4181234401,-10.3224322787,,-0.0114687997052,-0.0274774391972,0.928980902675,-0.368928095209
1402414567815445546,,errorv,,0,,1402414567,772510051,/enu,/base_link,,,6.05912339856,22.4082308251,-10.3231963343,,-0.011882881759,-0.0274014981016,0.92906675812,-0.368704372063
1402414567825520274,,errorv,,0,,1402414567,824896827,base_link,/z_drive,,,0.0,0.0,0.0,,0.0,0.0,0.0,1.0
1402414567825546057,,errorv,,0,,1402414567,825019471,/z_drive,port,,,-0.3,0.3048,0.0,,0.0,0.0,0.0,1.0
1402414567825620975,,errorv,,0,,1402414567,825031431,/z_drive,starboard,,,-0.3,-0.3048,0.0,,0.0,0.0,0.0,1.0
1402414567845551826,,errorv,,0,,1402414567,845085901,base_link,/z_drive,,,0.0,0.0,0.0,,0.0,0.0,0.0,1.0
1402414567845585931,,errorv,,0,,1402414567,845123327,/z_drive,port,,,-0.3,0.3048,0.0,,0.0,0.0,0.0,1.0
1402414567845607408,,errorv,,0,,1402414567,845135735,/z_drive,starboard,,,-0.3,-0.3048,0.0,,0.0,0.0,0.0,1.0
1402414567855769560,,errorv,,0,,1402414567,782510042,/enu,/base_link,,,6.04232956454,22.4406896391,-10.2378454142,,-0.0130584087753,-0.0240669676441,0.929055268013,-0.368926236537
1402414567855866328,,errorv,,0,,1402414567,793509006,/enu,/base_link,,,6.04857391023,22.4315711536,-10.2387296527,,-0.0133685930856,-0.0239021715261,0.929155212739,-0.368674053271
1402414567855895463,,errorv,,0,,1402414567,803509950,/enu,/base_link,,,6.05434435438,22.4231373634,-10.2393081973,,-0.0132268390425,-0.0238866347716,0.929238461113,-0.368470299747
1402414567855912480,,errorv,,0,,1402414567,813512086,/enu,/base_link,,,6.06000042599,22.4148488728,-10.2402398333,,-0.0136176108635,-0.0237860586833,0.929323873081,-0.368247095043
1402414567865335177,,errorv,,0,,1402414567,864827446,base_link,/z_drive,,,0.0,0.0,0.0,,0.0,0.0,0.0,1.0
1402414567865413905,,errorv,,0,,1402414567,864850614,/z_drive,port,,,-0.3,0.3048,0.0,,0.0,0.0,0.0,1.0
1402414567865430812,,errorv,,0,,1402414567,864863543,/z_drive,starboard,,,-0.3,-0.3048,0.0,,0.0,0.0,0.0,1.0
1402414567885081180,,errorv,,0,,1402414567,884793960,base_link,/z_drive,,,0.0,0.0,0.0,,0.0,0.0,0.0,1.0
1402414567885118781,,errorv,,0,,1402414567,884828888,/z_drive,port,,,-0.3,0.3048,0.0,,0.0,0.0,0.0,1.0
1402414567885200786,,errorv,,0,,1402414567,884838162,/z_drive,starboard,,,-0.3,-0.3048,0.0,,0.0,0.0,0.0,1.0
1402414567895568210,,errorv,,0,,1402414567,823513031,/enu,/base_link,,,6.0656611998,22.4064726958,-10.2409944467,,-0.0135871215903,-0.0235240570759,0.929426389078,-0.368006244717
1402414567895595686,,errorv,,0,,1402414567,833475112,/enu,/base_link,,,6.07138975048,22.3980826885,-10.2417620916,,-0.013776431944,-0.0235144884422,0.929513256883,-0.367780347538
1402414567895655400,,errorv,,0,,1402414567,844511032,/enu,/base_link,,,6.07760958479,22.3888045709,-10.2424914666,,-0.0141188134975,-0.0232644080507,0.92961791727,-0.367518644852
1402414567895680060,,errorv,,0,,1402414567,854475021,/enu,/base_link,,,6.08348755802,22.3805595411,-10.2435039881,,-0.0140026528198,-0.0232317065138,0.929706562784,-0.367300858483
1402414567895742123,,errorv,,0,,1402414567,864471912,/enu,/base_link,,,6.08924420763,22.3721222138,-10.2442706361,,-0.0139965519834,-0.0231116463182,0.929787829514,-0.367102901684
1402414567896245160,,errorv,,0,,1402414567,996045136,base_link,imu,,,0.13,0.0,-0.1,,1.0,0.0,0.0,0.0
1402414567899246655,,errorv,,0,,1402414567,999040890,/base_link,/gps,,,-0.84,0.0,-0.14,,0.0,0.0,0.0,1.0
1402414567905145533,,errorv,,0,,1402414567,904796773,base_link,/z_drive,,,0.0,0.0,0.0,,0.0,0.0,0.0,1.0
1402414567905174585,,errorv,,0,,1402414567,904818022,/z_drive,port,,,-0.3,0.3048,0.0,,0.0,0.0,0.0,1.0
1402414567905200213,,errorv,,0,,1402414567,904828213,/z_drive,starboard,,,-0.3,-0.3048,0.0,,0.0,0.0,0.0,1.0
1402414567925060672,,errorv,,0,,1402414567,924779360,base_link,/z_drive,,,0.0,0.0,0.0,,0.0,0.0,0.0,1.0
1402414567925089877,,errorv,,0,,1402414567,924803732,/z_drive,port,,,-0.3,0.3048,0.0,,0.0,0.0,0.0,1.0
1402414567925145201,,errorv,,0,,1402414567,924812977,/z_drive,starboard,,,-0.3,-0.3048,0.0,,0.0,0.0,0.0,1.0
1402414567935324629,,errorv,,0,,1402414567,875472068,/enu,/base_link,,,6.09558177482,22.3629818199,-10.2454095038,,-0.0141533395441,-0.0232073088983,0.92986635073,-0.366891909931
1402414567935337695,,errorv,,0,,1402414567,885483980,/enu,/base_link,,,6.14280090912,22.3139601307,-10.1927493049,,-0.0126504914811,-0.0281424239763,0.93003591205,-0.366170959164
1402414567935393484,,errorv,,0,,1402414567,897078990,/enu,/base_link,,,6.150606519,22.3034045723,-10.1940891404,,-0.0125442163958,-0.0281312416365,0.930123696074,-0.365952436638
1402414567943360004,,errorv,,0,,1402414567,905482053,/enu,/base_link,,,6.15613050683,22.2955092844,-10.1945810949,,-0.0128480580863,-0.0280537777854,0.930198327992,-0.365758094313
1402414567943485124,,errorv,,0,,1402414567,916466951,/enu,/base_link,,,6.16339786442,22.2851781341,-10.1954786957,,-0.0128540884831,-0.0278387136847,0.930303442211,-0.365506886173
1402414567945035365,,errorv,,0,,1402414567,944800815,base_link,/z_drive,,,0.0,0.0,0.0,,0.0,0.0,0.0,1.0
1402414567945056935,,errorv,,0,,1402414567,944820489,/z_drive,port,,,-0.3,0.3048,0.0,,0.0,0.0,0.0,1.0
1402414567945074469,,errorv,,0,,1402414567,944833271,/z_drive,starboard,,,-0.3,-0.3048,0.0,,0.0,0.0,0.0,1.0
1402414567964986793,,errorv,,0,,1402414567,964755526,base_link,/z_drive,,,0.0,0.0,0.0,,0.0,0.0,0.0,1.0
1402414567965017904,,errorv,,0,,1402414567,964774897,/z_drive,port,,,-0.3,0.3048,0.0,,0.0,0.0,0.0,1.0
1402414567965044238,,errorv,,0,,1402414567,964783443,/z_drive,starboard,,,-0.3,-0.3048,0.0,,0.0,0.0,0.0,1.0
1402414567983098977,,errorv,,0,,1402414567,926440954,/enu,/base_link,,,6.17003207765,22.275691259,-10.1961040007,,-0.0129873639008,-0.0279214338334,0.930382306052,-0.365295067714
1402414567983126607,,errorv,,0,,1402414567,936445951,/enu,/base_link,,,6.17658914427,22.2663457174,-10.1970358775,,-0.0132814414347,-0.0277888416081,0.930469853242,-0.365071548883
1402414567985057739,,errorv,,0,,1402414567,984784307,base_link,/z_drive,,,0.0,0.0,0.0,,0.0,0.0,0.0,1.0
1402414567985084765,,errorv,,0,,1402414567,984807034,/z_drive,port,,,-0.3,0.3048,0.0,,0.0,0.0,0.0,1.0
1402414567985127032,,errorv,,0,,1402414567,984814537,/z_drive,starboard,,,-0.3,-0.3048,0.0,,0.0,0.0,0.0,1.0
1402414567996340268,,errorv,,0,,1402414568,96145332,base_link,imu,,,0.13,0.0,-0.1,,1.0,0.0,0.0,0.0
1402414567999362263,,errorv,,0,,1402414568,99153888,/base_link,/gps,,,-0.84,0.0,-0.14,,0.0,0.0,0.0,1.0
1402414568005043614,,errorv,,0,,1402414568,4820413,base_link,/z_drive,,,0.0,0.0,0.0,,0.0,0.0,0.0,1.0
1402414568005078889,,errorv,,0,,1402414568,4837218,/z_drive,port,,,-0.3,0.3048,0.0,,0.0,0.0,0.0,1.0
1402414568005111122,,errorv,,0,,1402414568,4841871,/z_drive,starboard,,,-0.3,-0.3048,0.0,,0.0,0.0,0.0,1.0
1402414568023070573,,errorv,,0,,1402414567,946443080,/enu,/base_link,,,6.18325684655,22.2569213457,-10.1979214481,,-0.0136340888857,-0.0277698259976,0.930552137137,-0.364850200018
1402414568023184030,,errorv,,0,,1402414567,957444906,/enu,/base_link,,,6.19060009834,22.2465412259,-10.1988343178,,-0.0135970040695,-0.0275564512787,0.930668175722,-0.364571680429
1402414568023213298,,errorv,,0,,1402414567,967447996,/enu,/base_link,,,6.19746335782,22.2371836579,-10.199890749,,-0.0137368089394,-0.0276593537179,0.930734921054,-0.364388209144
1402414568025380271,,errorv,,0,,1402414567,977421045,/enu,/base_link,,,6.20398019981,22.2275701387,-10.2004784627,,-0.0139702871893,-0.0274758014915,0.930831450674,-0.364146566431
1402414568025402232,,errorv,,0,,1402414568,24808194,base_link,/z_drive,,,0.0,0.0,0.0,,0.0,0.0,0.0,1.0
1402414568025425694,,errorv,,0,,1402414568,24826230,/z_drive,port,,,-0.3,0.3048,0.0,,0.0,0.0,0.0,1.0
1402414568025437647,,errorv,,0,,1402414568,24835487,/z_drive,starboard,,,-0.3,-0.3048,0.0,,0.0,0.0,0.0,1.0
1402414568045070367,,errorv,,0,,1402414568,44752117,base_link,/z_drive,,,0.0,0.0,0.0,,0.0,0.0,0.0,1.0
1402414568045096446,,errorv,,0,,1402414568,44771223,/z_drive,port,,,-0.3,0.3048,0.0,,0.0,0.0,0.0,1.0
1402414568045121020,,errorv,,0,,1402414568,44781174,/z_drive,starboard,,,-0.3,-0.3048,0.0,,0.0,0.0,0.0,1.0
1402414568063063421,,errorv,,0,,1402414567,988421916,/enu,/base_link,,,6.19576658892,22.2209004366,-10.2251305554,,-0.0149955857593,-0.0264928107659,0.931139799082,-0.363389512714
1402414568063274594,,errorv,,0,,1402414567,998418092,/enu,/base_link,,,6.20221817504,22.2115232929,-10.22601776,,-0.015306108347,-0.0265037274946,0.931226782922,-0.363152797381
1402414568063302549,,errorv,,0,,1402414568,8430957,/enu,/base_link,,,6.20874148173,22.2021816467,-10.2270220036,,-0.0151652081484,-0.0264308318712,0.931318071638,-0.362929851389
1402414568063321998,,errorv,,0,,1402414568,19428968,/enu,/base_link,,,6.21587949345,22.1917393208,-10.2278738781,,-0.015367688607,-0.0263388213521,0.931415876564,-0.362676943742
1402414568065065855,,errorv,,0,,1402414568,64838808,base_link,/z_drive,,,0.0,0.0,0.0,,0.0,0.0,0.0,1.0
1402414568065099239,,errorv,,0,,1402414568,64908185,/z_drive,port,,,-0.3,0.3048,0.0,,0.0,0.0,0.0,1.0
1402414568065124536,,errorv,,0,,1402414568,64923510,/z_drive,starboard,,,-0.3,-0.3048,0.0,,0.0,0.0,0.0,1.0
1402414568085112218,,errorv,,0,,1402414568,84935872,base_link,/z_drive,,,0.0,0.0,0.0,,0.0,0.0,0.0,1.0
1402414568085139643,,errorv,,0,,1402414568,84954628,/z_drive,port,,,-0.3,0.3048,0.0,,0.0,0.0,0.0,1.0
1402414568085162626,,errorv,,0,,1402414568,84965121,/z_drive,starboard,,,-0.3,-0.3048,0.0,,0.0,0.0,0.0,1.0
1402414568096425105,,errorv,,0,,1402414568,196244233,base_link,imu,,,0.13,0.0,-0.1,,1.0,0.0,0.0,0.0
1402414568099433413,,errorv,,0,,1402414568,199260184,/base_link,/gps,,,-0.84,0.0,-0.14,,0.0,0.0,0.0,1.0
1402414568103189995,,errorv,,0,,1402414568,29414892,/enu,/base_link,,,6.22248086022,22.1822016535,-10.2287555258,,-0.0151478387167,-0.0264832990301,0.931503467448,-0.36245064214
1402414568103221185,,errorv,,0,,1402414568,39403915,/enu,/base_link,,,6.22882379355,22.1726339771,-10.2294760154,,-0.0154248783681,-0.0264929058801,0.931599997318,-0.362190066211
1402414568103277309,,errorv,,0,,1402414568,49403905,/enu,/base_link,,,6.2355176304,22.1632513951,-10.2306215228,,-0.0152186181253,-0.0264633369619,0.931702234597,-0.361937883491
1402414568103309630,,errorv,,0,,1402414568,60369014,/enu,/base_link,,,6.24253141169,22.1529230021,-10.2318412846,,-0.0153021049078,-0.0266225797848,0.931778670133,-0.361725854364
1402414568105110650,,errorv,,0,,1402414568,104792582,base_link,/z_drive,,,0.0,0.0,0.0,,0.0,0.0,0.0,1.0
1402414568105140532,,errorv,,0,,1402414568,104811373,/z_drive,port,,,-0.3,0.3048,0.0,,0.0,0.0,0.0,1.0
1402414568105255700,,errorv,,0,,1402414568,104819543,/z_drive,starboard,,,-0.3,-0.3048,0.0,,0.0,0.0,0.0,1.0
1402414568125083407,,errorv,,0,,1402414568,124754554,base_link,/z_drive,,,0.0,0.0,0.0,,0.0,0.0,0.0,1.0
1402414568125109000,,errorv,,0,,1402414568,124773606,/z_drive,port,,,-0.3,0.3048,0.0,,0.0,0.0,0.0,1.0
1402414568125151370,,errorv,,0,,1402414568,124783003,/z_drive,starboard,,,-0.3,-0.3048,0.0,,0.0,0.0,0.0,1.0
1402414568143873148,,errorv,,0,,1402414568,70364952,/enu,/base_link,,,6.24914385921,22.1434089704,-10.232855486,,-0.0154121017087,-0.0265875018188,0.931873201908,-0.361480161882
1402414568143899543,,errorv,,0,,1402414568,80363988,/enu,/base_link,,,6.25588121792,22.1337579481,-10.233798187,,-0.015133608697,-0.0267656298282,0.931969247172,-0.361231085696
1402414568143920823,,errorv,,0,,1402414568,90365886,/enu,/base_link,,,6.26241010234,22.1242195685,-10.2348023633,,-0.014909290803,-0.0267134251573,0.932083700623,-0.360948862024
1402414568143934345,,errorv,,0,,1402414568,101368904,/enu,/base_link,,,6.269599049,22.113515139,-10.2356287024,,-0.0149175824599,-0.0268948829969,0.932184111616,-0.360675634127
1402414568143958906,,errorv,,0,,1402414568,111365079,/enu,/base_link,,,6.27620584838,22.1036969044,-10.2361060852,,-0.0149917119422,-0.026851566968,0.932285074583,-0.360414735596
1402414568143973727,,errorv,,0,,1402414568,121365070,/enu,/base_link,,,6.28285048824,22.0941483926,-10.2371593737,,-0.0146744458803,-0.0270120385006,0.932374366417,-0.360184746017
1402414568143994407,,errorv,,0,,1402414568,132368087,/enu,/base_link,,,6.17102132359,22.2516129579,-10.030228627,,-0.0198009131687,-0.0121448861855,0.932473823401,-0.360489936406
1402414568145302449,,errorv,,0,,1402414568,145017420,base_link,/z_drive,,,0.0,0.0,0.0,,0.0,0.0,0.0,1.0
1402414568145323085,,errorv,,0,,1402414568,145035824,/z_drive,port,,,-0.3,0.3048,0.0,,0.0,0.0,0.0,1.0
1402414568145363499,,errorv,,0,,1402414568,145040741,/z_drive,starboard,,,-0.3,-0.3048,0.0,,0.0,0.0,0.0,1.0
1402414568165054661,,errorv,,0,,1402414568,164860585,base_link,/z_drive,,,0.0,0.0,0.0,,0.0,0.0,0.0,1.0
1402414568165086693,,errorv,,0,,1402414568,164879934,/z_drive,port,,,-0.3,0.3048,0.0,,0.0,0.0,0.0,1.0
1402414568165109297,,errorv,,0,,1402414568,164886740,/z_drive,starboard,,,-0.3,-0.3048,0.0,,0.0,0.0,0.0,1.0
1402414568183138383,,errorv,,0,,1402414568,142366886,/enu,/base_link,,,6.17555179306,22.2446208254,-10.0305768815,,-0.019548253338,-0.0121083929497,0.932575159501,-0.360242729965
1402414568183161901,,errorv,,0,,1402414568,152364969,/enu,/base_link,,,6.17993872174,22.237565629,-10.0308565945,,-0.0195469056207,-0.0123177169023,0.932660666779,-0.360014267738
1402414568185238763,,errorv,,0,,1402414568,185009955,base_link,/z_drive,,,0.0,0.0,0.0,,0.0,0.0,0.0,1.0
1402414568185264005,,errorv,,0,,1402414568,185028530,/z_drive,port,,,-0.3,0.3048,0.0,,0.0,0.0,0.0,1.0
1402414568185295359,,errorv,,0,,1402414568,185033288,/z_drive,starboard,,,-0.3,-0.3048,0.0,,0.0,0.0,0.0,1.0
1402414568191273374,,errorv,,0,,1402414568,162364006,/enu,/base_link,,,6.1842219055,22.2305800391,-10.0311677256,,-0.019545160951,-0.0122837206134,0.932769055356,-0.359734605316
1402414568191302595,,errorv,,0,,1402414568,173366069,/enu,/base_link,,,6.18900491848,22.2227936471,-10.0311327275,,-0.0197089344365,-0.0123641446886,0.932870986653,-0.359458492862
1402414568196565380,,errorv,,0,,1402414568,296342379,base_link,imu,,,0.13,0.0,-0.1,,1.0,0.0,0.0,0.0
1402414568199540257,,errorv,,0,,1402414568,299353245,/base_link,/gps,,,-0.84,0.0,-0.14,,0.0,0.0,0.0,1.0
1402414568205161423,,errorv,,0,,1402414568,204814343,base_link,/z_drive,,,0.0,0.0,0.0,,0.0,0.0,0.0,1.0
1402414568205188429,,errorv,,0,,1402414568,204834151,/z_drive,port,,,-0.3,0.3048,0.0,,0.0,0.0,0.0,1.0
1402414568205264048,,errorv,,0,,1402414568,204844509,/z_drive,starboard,,,-0.3,-0.3048,0.0,,0.0,0.0,0.0,1.0
1402414568225142171,,errorv,,0,,1402414568,224797343,base_link,/z_drive,,,0.0,0.0,0.0,,0.0,0.0,0.0,1.0
1402414568225209230,,errorv,,0,,1402414568,224815171,/z_drive,port,,,-0.3,0.3048,0.0,,0.0,0.0,0.0,1.0
1402414568225243707,,errorv,,0,,1402414568,224825193,/z_drive,starboard,,,-0.3,-0.3048,0.0,,0.0,0.0,0.0,1.0
1402414568231017085,,errorv,,0,,1402414568,183367013,/enu,/base_link,,,6.06045611369,22.4006323669,-9.72234335329,,-0.0254251337618,0.00315503952831,0.933079776916,-0.358755819757
1402414568245060532,,errorv,,0,,1402414568,244793684,base_link,/z_drive,,,0.0,0.0,0.0,,0.0,0.0,0.0,1.0
1402414568245090296,,errorv,,0,,1402414568,244900695,/z_drive,port,,,-0.3,0.3048,0.0,,0.0,0.0,0.0,1.0
1402414568245223113,,errorv,,0,,1402414568,244916720,/z_drive,starboard,,,-0.3,-0.3048,0.0,,0.0,0.0,0.0,1.0
1402414568264975313,,errorv,,0,,1402414568,264763894,base_link,/z_drive,,,0.0,0.0,0.0,,0.0,0.0,0.0,1.0
1402414568265112030,,errorv,,0,,1402414568,264794521,/z_drive,port,,,-0.3,0.3048,0.0,,0.0,0.0,0.0,1.0
1402414568265179782,,errorv,,0,,1402414568,264836504,/z_drive,starboard,,,-0.3,-0.3048,0.0,,0.0,0.0,0.0,1.0
1402414568271045054,,errorv,,0,,1402414568,193367004,/enu,/base_link,,,6.06222414469,22.3962225993,-9.72165726088,,-0.0254486693989,0.00295952653334,0.933171989282,-0.358515892044
1402414568271234547,,errorv,,0,,1402414568,204272031,/enu,/base_link,,,6.06426391351,22.3917108703,-9.72121636444,,-0.0253904470295,0.00303703002804,0.933291763653,-0.3582074616
1402414568271301496,,errorv,,0,,1402414568,214270114,/enu,/base_link,,,6.0660295711,22.3874997802,-9.72083445004,,-0.025164539094,0.00294856782302,0.93340014776,-0.357941637815
1402414568271398994,,errorv,,0,,1402414568,224286079,/enu,/base_link,,,6.06768713286,22.3833725069,-9.72033089753,,-0.0253093849641,0.00290143179381,0.933498421421,-0.357675430987
1402414568285104015,,errorv,,0,,1402414568,284782817,base_link,/z_drive,,,0.0,0.0,0.0,,0.0,0.0,0.0,1.0
1402414568285132795,,errorv,,0,,1402414568,284800614,/z_drive,port,,,-0.3,0.3048,0.0,,0.0,0.0,0.0,1.0
1402414568285178113,,errorv,,0,,1402414568,284809594,/z_drive,starboard,,,-0.3,-0.3048,0.0,,0.0,0.0,0.0,1.0
1402414568296662271,,errorv,,0,,1402414568,396445610,base_link,imu,,,0.13,0.0,-0.1,,1.0,0.0,0.0,0.0
1402414568299636264,,errorv,,0,,1402414568,399447679,/base_link,/gps,,,-0.84,0.0,-0.14,,0.0,0.0,0.0,1.0
1402414568305020248,,errorv,,0,,1402414568,304748743,base_link,/z_drive,,,0.0,0.0,0.0,,0.0,0.0,0.0,1.0
1402414568305102872,,errorv,,0,,1402414568,304765125,/z_drive,port,,,-0.3,0.3048,0.0,,0.0,0.0,0.0,1.0
1402414568305153552,,errorv,,0,,1402414568,304775228,/z_drive,starboard,,,-0.3,-0.3048,0.0,,0.0,0.0,0.0,1.0
1402414568311180142,,errorv,,0,,1402414568,234261035,/enu,/base_link,,,6.06948732357,22.3792040035,-9.71973336386,,-0.0250680350689,0.00302113952759,0.93360287572,-0.357418713529
1402414568311207688,,errorv,,0,,1402414568,245254993,/enu,/base_link,,,6.07126282577,22.3748939606,-9.71958200874,,-0.0250109503996,0.00307357629084,0.933719417467,-0.357117704593
1402414568311403585,,errorv,,0,,1402414568,255268096,/enu,/base_link,,,6.07291472218,22.3705155829,-9.71853828464,,-0.024846309932,0.00304111265432,0.933835020402,-0.356827083034
1402414568311428685,,errorv,,0,,1402414568,266257047,/enu,/base_link,,,6.07451735905,22.3662601267,-9.71817546988,,-0.0250334968965,0.00309517626168,0.933945842155,-0.356523362263
1402414568325192942,,errorv,,0,,1402414568,324808057,base_link,/z_drive,,,0.0,0.0,0.0,,0.0,0.0,0.0,1.0
1402414568325218539,,errorv,,0,,1402414568,324832879,/z_drive,port,,,-0.3,0.3048,0.0,,0.0,0.0,0.0,1.0
1402414568325238883,,errorv,,0,,1402414568,324844052,/z_drive,starboard,,,-0.3,-0.3048,0.0,,0.0,0.0,0.0,1.0
1402414568345095538,,errorv,,0,,1402414568,344754494,base_link,/z_drive,,,0.0,0.0,0.0,,0.0,0.0,0.0,1.0
1402414568345142433,,errorv,,0,,1402414568,344772974,/z_drive,port,,,-0.3,0.3048,0.0,,0.0,0.0,0.0,1.0
1402414568345167657,,errorv,,0,,1402414568,344782929,/z_drive,starboard,,,-0.3,-0.3048,0.0,,0.0,0.0,0.0,1.0
1402414568351379273,,errorv,,0,,1402414568,276257991,/enu,/base_link,,,6.07610860809,22.3622822073,-9.71768803881,,-0.0247936629101,0.00317511616818,0.93406066362,-0.356238501
1402414568351408344,,errorv,,0,,1402414568,286258935,/enu,/base_link,,,6.0775838641,22.3582853929,-9.71713394154,,-0.0248463125241,0.00301855681129,0.934159657643,-0.355976520435
1402414568351429673,,errorv,,0,,1402414568,297261953,/enu,/base_link,,,6.07917021318,22.3539248867,-9.71642002122,,-0.0247886545334,0.0031131774583,0.93428749874,-0.355644064242
1402414568351445303,,errorv,,0,,1402414568,307261943,/enu,/base_link,,,6.08058013602,22.3500360538,-9.71590125493,,-0.0246109434391,0.00309919161537,0.934395255258,-0.355373329648
1402414568365104670,,errorv,,0,,1402414568,364802328,base_link,/z_drive,,,0.0,0.0,0.0,,0.0,0.0,0.0,1.0
1402414568365153814,,errorv,,0,,1402414568,364825169,/z_drive,port,,,-0.3,0.3048,0.0,,0.0,0.0,0.0,1.0
1402414568365178634,,errorv,,0,,1402414568,364835560,/z_drive,starboard,,,-0.3,-0.3048,0.0,,0.0,0.0,0.0,1.0
1402414568385127909,,errorv,,0,,1402414568,384735831,base_link,/z_drive,,,0.0,0.0,0.0,,0.0,0.0,0.0,1.0
1402414568385154744,,errorv,,0,,1402414568,384753321,/z_drive,port,,,-0.3,0.3048,0.0,,0.0,0.0,0.0,1.0
1402414568385174715,,errorv,,0,,1402414568,384763229,/z_drive,starboard,,,-0.3,-0.3048,0.0,,0.0,0.0,0.0,1.0
1402414568391486746,,errorv,,0,,1402414568,317271947,/enu,/base_link,,,6.07624662994,22.3582067549,-9.64304839724,,-0.0251823230937,0.00344957225912,0.934516149155,-0.355011997014
1402414568391515171,,errorv,,0,,1402414568,328249931,/enu,/base_link,,,6.07754076241,22.3539537283,-9.64208464496,,-0.0252365993626,0.00328487108122,0.93463882873,-0.354686598991
1402414568391580713,,errorv,,0,,1402414568,338274955,/enu,/base_link,,,6.07873020393,22.3502039107,-9.64112331245,,-0.0252433254104,0.00341200145878,0.934749681218,-0.354392672371
1402414568391605413,,errorv,,0,,1402414568,348217010,/enu,/base_link,,,6.07993331729,22.3465271393,-9.64041819867,,-0.025141294673,0.0034855150761,0.934858447149,-0.354112200131
1402414568396773233,,errorv,,0,,1402414568,496547508,base_link,imu,,,0.13,0.0,-0.1,,1.0,0.0,0.0,0.0
1402414568399771882,,errorv,,0,,1402414568,499549917,/base_link,/gps,,,-0.84,0.0,-0.14,,0.0,0.0,0.0,1.0
1402414568405104522,,errorv,,0,,1402414568,404801533,base_link,/z_drive,,,0.0,0.0,0.0,,0.0,0.0,0.0,1.0
1402414568405204762,,errorv,,0,,1402414568,404822756,/z_drive,port,,,-0.3,0.3048,0.0,,0.0,0.0,0.0,1.0
1402414568405232746,,errorv,,0,,1402414568,404832756,/z_drive,starboard,,,-0.3,-0.3048,0.0,,0.0,0.0,0.0,1.0
1402414568425073572,,errorv,,0,,1402414568,424745950,base_link,/z_drive,,,0.0,0.0,0.0,,0.0,0.0,0.0,1.0
1402414568425173208,,errorv,,0,,1402414568,424764185,/z_drive,port,,,-0.3,0.3048,0.0,,0.0,0.0,0.0,1.0
1402414568425199959,,errorv,,0,,1402414568,424773430,/z_drive,starboard,,,-0.3,-0.3048,0.0,,0.0,0.0,0.0,1.0
1402414568431163182,,errorv,,0,,1402414568,358226060,/enu,/base_link,,,6.09157328917,22.3763770837,-9.52073669029,,-0.0236489506506,0.00490907121288,0.93502593295,-0.353755753118
1402414568431246886,,errorv,,0,,1402414568,368217945,/enu,/base_link,,,6.09294992471,22.3732455284,-9.51998878127,,-0.0235848193544,0.00516418511279,0.935127601164,-0.353487562765
1402414568431270932,,errorv,,0,,1402414568,379229068,/enu,/base_link,,,6.09427440949,22.3695926794,-9.51864871604,,-0.0237121215441,0.00508452034036,0.935226160176,-0.35321935432
1402414568431342648,,errorv,,0,,1402414568,389224052,/enu,/base_link,,,6.09546419484,22.3662938448,-9.51748105007,,-0.0237382712135,0.00519841918297,0.935320175558,-0.352966910788
1402414568445194259,,errorv,,0,,1402414568,444857364,base_link,/z_drive,,,0.0,0.0,0.0,,0.0,0.0,0.0,1.0
1402414568445247899,,errorv,,0,,1402414568,444880254,/z_drive,port,,,-0.3,0.3048,0.0,,0.0,0.0,0.0,1.0
1402414568445367520,,errorv,,0,,1402414568,444889478,/z_drive,starboard,,,-0.3,-0.3048,0.0,,0.0,0.0,0.0,1.0
1402414568465152945,,errorv,,0,,1402414568,464752502,base_link,/z_drive,,,0.0,0.0,0.0,,0.0,0.0,0.0,1.0
1402414568465184231,,errorv,,0,,1402414568,464773308,/z_drive,port,,,-0.3,0.3048,0.0,,0.0,0.0,0.0,1.0
1402414568465215812,,errorv,,0,,1402414568,464783410,/z_drive,starboard,,,-0.3,-0.3048,0.0,,0.0,0.0,0.0,1.0
1402414568471362457,,errorv,,0,,1402414568,399200916,/enu,/base_link,,,6.09479682223,22.4197984271,-9.30658874923,,-0.0228115452324,0.00760523196719,0.935592759045,-0.352261242651
1402414568471390692,,errorv,,0,,1402414568,409200906,/enu,/base_link,,,6.09597665286,22.4172050972,-9.30506915418,,-0.022820816148,0.00779219060726,0.935687746149,-0.352004167338
1402414568471420177,,errorv,,0,,1402414568,420198917,/enu,/base_link,,,6.09724205182,22.4143735958,-9.30351938442,,-0.0229698000201,0.00770346835642,0.935769677929,-0.351778559227
1402414568471444094,,errorv,,0,,1402414568,430172920,/enu,/base_link,,,6.09836923624,22.4117651291,-9.30178061623,,-0.0230556773316,0.00787100437634,0.935843165078,-0.351573681339
1402414568471462375,,errorv,,0,,1402414568,440190076,/enu,/base_link,,,6.0598387358,22.420477634,-9.18868045185,,-0.0269099391867,0.00866416202662,0.935511830497,-0.352162466015
1402414568485164332,,errorv,,0,,1402414568,484796569,base_link,/z_drive,,,0.0,0.0,0.0,,0.0,0.0,0.0,1.0
1402414568485195740,,errorv,,0,,1402414568,484822815,/z_drive,port,,,-0.3,0.3048,0.0,,0.0,0.0,0.0,1.0
1402414568486793799,,errorv,,0,,1402414568,484831540,/z_drive,starboard,,,-0.3,-0.3048,0.0,,0.0,0.0,0.0,1.0
1402414568496866244,,errorv,,0,,1402414568,596651868,base_link,imu,,,0.13,0.0,-0.1,,1.0,0.0,0.0,0.0
1402414568499857703,,errorv,,0,,1402414568,599658446,/base_link,/gps,,,-0.84,0.0,-0.14,,0.0,0.0,0.0,1.0
1402414568505093655,,errorv,,0,,1402414568,504775304,base_link,/z_drive,,,0.0,0.0,0.0,,0.0,0.0,0.0,1.0
1402414568505180564,,errorv,,0,,1402414568,504795339,/z_drive,port,,,-0.3,0.3048,0.0,,0.0,0.0,0.0,1.0
1402414568505273722,,errorv,,0,,1402414568,504805631,/z_drive,starboard,,,-0.3,-0.3048,0.0,,0.0,0.0,0.0,1.0
1402414568511114326,,errorv,,0,,1402414568,450192928,/enu,/base_link,,,6.06001560304,22.4176969725,-9.18657009833,,-0.0270603987343,0.00864179743962,0.935593681797,-0.351933966447
1402414568511213652,,errorv,,0,,1402414568,461164951,/enu,/base_link,,,6.06022347683,22.4149035997,-9.18467539095,,-0.0271641688184,0.00892504901075,0.93567974635,-0.351690010809
1402414568511238410,,errorv,,0,,1402414568,471162080,/enu,/base_link,,,6.0604609913,22.4125286017,-9.18320982418,,-0.0272658637551,0.00912640091428,0.935759729094,-0.351464096154
1402414568519217253,,errorv,,0,,1402414568,481159925,/enu,/base_link,,,6.06866061337,22.4432584041,-9.11233174928,,-0.0255422583025,0.011088163031,0.936272367858,-0.350169528753
1402414568519426597,,errorv,,0,,1402414568,491147041,/enu,/base_link,,,6.06883869124,22.4413768661,-9.11073381842,,-0.0256690823556,0.0111343747033,0.93635663172,-0.349933396727
1402414568525087885,,errorv,,0,,1402414568,524785776,base_link,/z_drive,,,0.0,0.0,0.0,,0.0,0.0,0.0,1.0
1402414568525110968,,errorv,,0,,1402414568,524804459,/z_drive,port,,,-0.3,0.3048,0.0,,0.0,0.0,0.0,1.0
1402414568525139109,,errorv,,0,,1402414568,524814819,/z_drive,starboard,,,-0.3,-0.3048,0.0,,0.0,0.0,0.0,1.0
1402414568545483335,,errorv,,0,,1402414568,544761987,base_link,/z_drive,,,0.0,0.0,0.0,,0.0,0.0,0.0,1.0
1402414568545513642,,errorv,,0,,1402414568,544802702,/z_drive,port,,,-0.3,0.3048,0.0,,0.0,0.0,0.0,1.0
1402414568545537711,,errorv,,0,,1402414568,544810691,/z_drive,starboard,,,-0.3,-0.3048,0.0,,0.0,0.0,0.0,1.0
1402414568559262498,,errorv,,0,,1402414568,502146959,/enu,/base_link,,,6.06914108788,22.4391957842,-9.10865251652,,-0.0258472316223,0.0114851071369,0.936443022439,-0.349677678238
1402414568559288384,,errorv,,0,,1402414568,512149095,/enu,/base_link,,,6.06936248854,22.4372658891,-9.1068463975,,-0.0259542526029,0.0114502091517,0.936521512577,-0.349460621477
1402414568565103394,,errorv,,0,,1402414568,564805735,base_link,/z_drive,,,0.0,0.0,0.0,,0.0,0.0,0.0,1.0
1402414568565131731,,errorv,,0,,1402414568,564825460,/z_drive,port,,,-0.3,0.3048,0.0,,0.0,0.0,0.0,1.0
1402414568565153634,,errorv,,0,,1402414568,564834608,/z_drive,starboard,,,-0.3,-0.3048,0.0,,0.0,0.0,0.0,1.0
1402414568585373409,,errorv,,0,,1402414568,584790340,base_link,/z_drive,,,0.0,0.0,0.0,,0.0,0.0,0.0,1.0
1402414568585400071,,errorv,,0,,1402414568,584813929,/z_drive,port,,,-0.3,0.3048,0.0,,0.0,0.0,0.0,1.0
1402414568585419355,,errorv,,0,,1402414568,584824342,/z_drive,starboard,,,-0.3,-0.3048,0.0,,0.0,0.0,0.0,1.0
1402414568596993425,,errorv,,0,,1402414568,696759453,base_link,imu,,,0.13,0.0,-0.1,,1.0,0.0,0.0,0.0
1402414568599099294,,errorv,,0,,1402414568,522134065,/enu,/base_link,,,6.06956451802,22.4352865586,-9.10486496565,,-0.0260917696466,0.0116203388001,0.936590313654,-0.349260320754
1402414568599359063,,errorv,,0,,1402414568,533134937,/enu,/base_link,,,6.09220695764,22.4133998299,-9.07894219049,,-0.0253590360359,0.00957242863734,0.936612891678,-0.349315872876
1402414568599443699,,errorv,,0,,1402414568,543138027,/enu,/base_link,,,6.09268825271,22.41100017,-9.07685226457,,-0.0254660801751,0.00959103694287,0.936693274365,-0.349091965721
1402414568599469967,,errorv,,0,,1402414568,553128957,/enu,/base_link,,,6.09311661516,22.4086936265,-9.07491621602,,-0.0255507793591,0.00958951618081,0.93677300173,-0.348871813256
1402414568599945027,,errorv,,0,,1402414568,699754634,/base_link,/gps,,,-0.84,0.0,-0.14,,0.0,0.0,0.0,1.0
1402414568605269881,,errorv,,0,,1402414568,605007118,base_link,/z_drive,,,0.0,0.0,0.0,,0.0,0.0,0.0,1.0
1402414568605298579,,errorv,,0,,1402414568,605021478,/z_drive,port,,,-0.3,0.3048,0.0,,0.0,0.0,0.0,1.0
1402414568605316442,,errorv,,0,,1402414568,605025810,/z_drive,starboard,,,-0.3,-0.3048,0.0,,0.0,0.0,0.0,1.0
1402414568625048657,,errorv,,0,,1402414568,624772516,base_link,/z_drive,,,0.0,0.0,0.0,,0.0,0.0,0.0,1.0
1402414568625077975,,errorv,,0,,1402414568,624790392,/z_drive,port,,,-0.3,0.3048,0.0,,0.0,0.0,0.0,1.0
1402414568625114882,,errorv,,0,,1402414568,624870601,/z_drive,starboard,,,-0.3,-0.3048,0.0,,0.0,0.0,0.0,1.0
1402414568639140542,,errorv,,0,,1402414568,563134908,/enu,/base_link,,,6.09347993629,22.406575191,-9.0731321654,,-0.0257255472243,0.00976233173015,0.936855998601,-0.348631224913
1402414568639164866,,errorv,,0,,1402414568,574120998,/enu,/base_link,,,6.09392690434,22.4041264034,-9.07099276393,,-0.0258080635746,0.00988725046138,0.9369541099,-0.348357836248
1402414568639184613,,errorv,,0,,1402414568,584136962,/enu,/base_link,,,6.13247835623,22.3271753503,-9.18946266235,,-0.0253741887913,0.00451418036394,0.936482038473,-0.349767300266
1402414568639251540,,errorv,,0,,1402414568,594125986,/enu,/base_link,,,6.13323011384,22.3240115599,-9.18786130293,,-0.0255041960604,0.00482437700331,0.936570117842,-0.349517775993
1402414568645238591,,errorv,,0,,1402414568,644813866,base_link,/z_drive,,,0.0,0.0,0.0,,0.0,0.0,0.0,1.0
1402414568645326414,,errorv,,0,,1402414568,644835364,/z_drive,port,,,-0.3,0.3048,0.0,,0.0,0.0,0.0,1.0
1402414568645352249,,errorv,,0,,1402414568,644845656,/z_drive,starboard,,,-0.3,-0.3048,0.0,,0.0,0.0,0.0,1.0
1402414568665308412,,errorv,,0,,1402414568,664799172,base_link,/z_drive,,,0.0,0.0,0.0,,0.0,0.0,0.0,1.0
1402414568665342408,,errorv,,0,,1402414568,664911452,/z_drive,port,,,-0.3,0.3048,0.0,,0.0,0.0,0.0,1.0
1402414568665363314,,errorv,,0,,1402414568,664927874,/z_drive,starboard,,,-0.3,-0.3048,0.0,,0.0,0.0,0.0,1.0
1402414568679370569,,errorv,,0,,1402414568,604151010,/enu,/base_link,,,6.13423666235,22.3207325633,-9.18617075494,,-0.0255760650473,0.00483472101441,0.93667121029,-0.349241369518
1402414568679399217,,errorv,,0,,1402414568,615510940,/enu,/base_link,,,6.13515987182,22.3172183186,-9.18442358246,,-0.0257471083776,0.0051189737958,0.936785772056,-0.348917325152
1402414568679422897,,errorv,,0,,1402414568,625092029,/enu,/base_link,,,6.1359752548,22.3140967482,-9.18269879136,,-0.0257624021203,0.00521414778741,0.936883247603,-0.348652967377
1402414568679457515,,errorv,,0,,1402414568,635343074,/enu,/base_link,,,6.15280505065,22.2666410143,-9.25045946072,,-0.0261825955627,0.00246302023117,0.936471677427,-0.349755918603
1402414568685251161,,errorv,,0,,1402414568,684825027,base_link,/z_drive,,,0.0,0.0,0.0,,0.0,0.0,0.0,1.0
1402414568685276686,,errorv,,0,,1402414568,684848575,/z_drive,port,,,-0.3,0.3048,0.0,,0.0,0.0,0.0,1.0
1402414568685313736,,errorv,,0,,1402414568,684861313,/z_drive,starboard,,,-0.3,-0.3048,0.0,,0.0,0.0,0.0,1.0
1402414568697062282,,errorv,,0,,1402414568,796865136,base_link,imu,,,0.13,0.0,-0.1,,1.0,0.0,0.0,0.0
1402414568700061690,,errorv,,0,,1402414568,799865925,/base_link,/gps,,,-0.84,0.0,-0.14,,0.0,0.0,0.0,1.0
1402414568705086400,,errorv,,0,,1402414568,704769860,base_link,/z_drive,,,0.0,0.0,0.0,,0.0,0.0,0.0,1.0
1402414568705114024,,errorv,,0,,1402414568,704789854,/z_drive,port,,,-0.3,0.3048,0.0,,0.0,0.0,0.0,1.0
1402414568705182764,,errorv,,0,,1402414568,704800368,/z_drive,starboard,,,-0.3,-0.3048,0.0,,0.0,0.0,0.0,1.0
1402414568719262903,,errorv,,0,,1402414568,645092010,/enu,/base_link,,,6.15372188302,22.2629978517,-9.2489788259,,-0.0261236501784,0.00237428974468,0.936574434898,-0.349485687181
1402414568719288935,,errorv,,0,,1402414568,655623912,/enu,/base_link,,,6.15475024722,22.2594799997,-9.24801903209,,-0.0262550231404,0.00264747668177,0.936688760517,-0.349167338891
1402414568719353633,,errorv,,0,,1402414568,666091918,/enu,/base_link,,,6.15561877923,22.2554333241,-9.24611621305,,-0.0262285951684,0.00268607783882,0.936807391995,-0.348850621449
1402414568719387678,,errorv,,0,,1402414568,676095008,/enu,/base_link,,,6.15647779861,22.2517547278,-9.24458547068,,-0.0262658288979,0.00271232185222,0.936917553156,-0.348551643421
1402414568725035214,,errorv,,0,,1402414568,724766117,base_link,/z_drive,,,0.0,0.0,0.0,,0.0,0.0,0.0,1.0
1402414568725060373,,errorv,,0,,1402414568,724784403,/z_drive,port,,,-0.3,0.3048,0.0,,0.0,0.0,0.0,1.0
1402414568725081594,,errorv,,0,,1402414568,724794810,/z_drive,starboard,,,-0.3,-0.3048,0.0,,0.0,0.0,0.0,1.0
1402414568745101585,,errorv,,0,,1402414568,744845123,base_link,/z_drive,,,0.0,0.0,0.0,,0.0,0.0,0.0,1.0
1402414568745171906,,errorv,,0,,1402414568,744917862,/z_drive,port,,,-0.3,0.3048,0.0,,0.0,0.0,0.0,1.0
1402414568745198077,,errorv,,0,,1402414568,744930454,/z_drive,starboard,,,-0.3,-0.3048,0.0,,0.0,0.0,0.0,1.0
1402414568759162429,,errorv,,0,,1402414568,686093091,/enu,/base_link,,,6.16669231406,22.2383286051,-9.20296695185,,-0.0263182528189,0.00162775821347,0.93683771021,-0.348768984718
1402414568759323854,,errorv,,0,,1402414568,697091102,/enu,/base_link,,,6.16774378463,22.2339124944,-9.20102833801,,-0.0262043196112,0.00148576663713,0.936973871781,-0.348412241075
1402414568759347641,,errorv,,0,,1402414568,707103013,/enu,/base_link,,,6.16880319058,22.2300543553,-9.19947554888,,-0.026075247277,0.00148724136105,0.937090918905,-0.348106994038
1402414568759405507,,errorv,,0,,1402414568,717075109,/enu,/base_link,,,6.16953525531,22.2260805073,-9.19768019534,,-0.0260078614615,0.00135617221867,0.93720515054,-0.347804913334
1402414568765061179,,errorv,,0,,1402414568,764792192,base_link,/z_drive,,,0.0,0.0,0.0,,0.0,0.0,0.0,1.0
1402414568765141439,,errorv,,0,,1402414568,764810204,/z_drive,port,,,-0.3,0.3048,0.0,,0.0,0.0,0.0,1.0
1402414568765163997,,errorv,,0,,1402414568,764820510,/z_drive,starboard,,,-0.3,-0.3048,0.0,,0.0,0.0,0.0,1.0
1402414568785017717,,errorv,,0,,1402414568,784725379,base_link,/z_drive,,,0.0,0.0,0.0,,0.0,0.0,0.0,1.0
1402414568785040326,,errorv,,0,,1402414568,784738947,/z_drive,port,,,-0.3,0.3048,0.0,,0.0,0.0,0.0,1.0
1402414568785080608,,errorv,,0,,1402414568,784743446,/z_drive,starboard,,,-0.3,-0.3048,0.0,,0.0,0.0,0.0,1.0
1402414568797183706,,errorv,,0,,1402414568,896970137,base_link,imu,,,0.13,0.0,-0.1,,1.0,0.0,0.0,0.0
1402414568799117221,,errorv,,0,,1402414568,727092027,/enu,/base_link,,,6.17056097369,22.2222066035,-9.19601601718,,-0.025994050467,0.00155471292661,0.937333023352,-0.347460351037
1402414568799143611,,errorv,,0,,1402414568,737097978,/enu,/base_link,,,6.19849461695,22.1768041036,-9.29043580889,,-0.0247751496788,-0.00151735669842,0.937293877412,-0.347655112078
1402414568799187085,,errorv,,0,,1402414568,748090028,/enu,/base_link,,,6.19983520685,22.1720178487,-9.28880280503,,-0.0248145201319,-0.00145846227074,0.93741789803,-0.347318005482
1402414568799269211,,errorv,,0,,1402414568,758091926,/enu,/base_link,,,6.20116531086,22.1677163465,-9.28739095456,,-0.0246099061999,-0.00146607445154,0.937542155206,-0.346996988971
1402414568799297392,,errorv,,0,,1402414568,768089056,/enu,/base_link,,,6.20239386997,22.1632388691,-9.28567600359,,-0.0244989045592,-0.00166178754278,0.937668217902,-0.346663172654
1402414568800150286,,errorv,,0,,1402414568,899962306,/base_link,/gps,,,-0.84,0.0,-0.14,,0.0,0.0,0.0,1.0
1402414568805121037,,errorv,,0,,1402414568,804776682,base_link,/z_drive,,,0.0,0.0,0.0,,0.0,0.0,0.0,1.0
1402414568805182473,,errorv,,0,,1402414568,804797051,/z_drive,port,,,-0.3,0.3048,0.0,,0.0,0.0,0.0,1.0
1402414568805239989,,errorv,,0,,1402414568,804806481,/z_drive,starboard,,,-0.3,-0.3048,0.0,,0.0,0.0,0.0,1.0
1402414568825049675,,errorv,,0,,1402414568,824753469,base_link,/z_drive,,,0.0,0.0,0.0,,0.0,0.0,0.0,1.0
1402414568825078366,,errorv,,0,,1402414568,824766634,/z_drive,port,,,-0.3,0.3048,0.0,,0.0,0.0,0.0,1.0
1402414568825097761,,errorv,,0,,1402414568,824771108,/z_drive,starboard,,,-0.3,-0.3048,0.0,,0.0,0.0,0.0,1.0
1402414568839117724,,errorv,,0,,1402414568,778069972,/enu,/base_link,,,6.20373373181,22.1589553195,-9.28424739714,,-0.0244136595178,-0.00152406448016,0.937796917703,-0.346321514785
1402414568839142586,,errorv,,0,,1402414568,789036989,/enu,/base_link,,,6.20506791895,22.1543237453,-9.28286141939,,-0.0244033004279,-0.00153178854263,0.93793345042,-0.345952272915
1402414568839206476,,errorv,,0,,1402414568,799073934,/enu,/base_link,,,6.20627384583,22.1499557485,-9.28143410279,,-0.0241509531132,-0.00159014464768,0.938059936608,-0.345626616792
1402414568845119089,,errorv,,0,,1402414568,844846200,base_link,/z_drive,,,0.0,0.0,0.0,,0.0,0.0,0.0,1.0
1402414568845272568,,errorv,,0,,1402414568,844867817,/z_drive,port,,,-0.3,0.3048,0.0,,0.0,0.0,0.0,1.0
1402414568845298543,,errorv,,0,,1402414568,844875823,/z_drive,starboard,,,-0.3,-0.3048,0.0,,0.0,0.0,0.0,1.0
1402414568847332561,,errorv,,0,,1402414568,809020996,/enu,/base_link,,,6.20737562075,22.1455740346,-9.28001745416,,-0.0240818084426,-0.00181025085455,0.938189760114,-0.345277806282
1402414568847357867,,errorv,,0,,1402414568,819040060,/enu,/base_link,,,6.20846559468,22.1413622469,-9.2787569484,,-0.0239607262139,-0.00171973829749,0.938317845145,-0.344938469269
1402414568865089465,,errorv,,0,,1402414568,864760941,base_link,/z_drive,,,0.0,0.0,0.0,,0.0,0.0,0.0,1.0
1402414568865118129,,errorv,,0,,1402414568,864777595,/z_drive,port,,,-0.3,0.3048,0.0,,0.0,0.0,0.0,1.0
1402414568865153759,,errorv,,0,,1402414568,864782349,/z_drive,starboard,,,-0.3,-0.3048,0.0,,0.0,0.0,0.0,1.0
1402414568885115339,,errorv,,0,,1402414568,884816908,base_link,/z_drive,,,0.0,0.0,0.0,,0.0,0.0,0.0,1.0
1402414568885146886,,errorv,,0,,1402414568,884922587,/z_drive,port,,,-0.3,0.3048,0.0,,0.0,0.0,0.0,1.0
1402414568885173467,,errorv,,0,,1402414568,884939508,/z_drive,starboard,,,-0.3,-0.3048,0.0,,0.0,0.0,0.0,1.0
1402414568887112602,,errorv,,0,,1402414568,830020904,/enu,/base_link,,,6.2097751544,22.1366795218,-9.27742976723,,-0.0236785587554,-0.00206414777438,0.938458630749,-0.344572871135
1402414568887138128,,errorv,,0,,1402414568,840009927,/enu,/base_link,,,6.23199561243,22.0741000739,-9.42699835571,,-0.0236749201314,-0.00555523845803,0.937975967667,-0.34584638434
1402414568897286373,,errorv,,0,,1402414568,997073916,base_link,imu,,,0.13,0.0,-0.1,,1.0,0.0,0.0,0.0
1402414568900268203,,errorv,,0,,1402414569,70062,/base_link,/gps,,,-0.84,0.0,-0.14,,0.0,0.0,0.0,1.0
1402414568905119495,,errorv,,0,,1402414568,904774721,base_link,/z_drive,,,0.0,0.0,0.0,,0.0,0.0,0.0,1.0
1402414568905148997,,errorv,,0,,1402414568,904795079,/z_drive,port,,,-0.3,0.3048,0.0,,0.0,0.0,0.0,1.0
1402414568905227312,,errorv,,0,,1402414568,904803343,/z_drive,starboard,,,-0.3,-0.3048,0.0,,0.0,0.0,0.0,1.0
1402414568925117885,,errorv,,0,,1402414568,924758708,base_link,/z_drive,,,0.0,0.0,0.0,,0.0,0.0,0.0,1.0
1402414568925190511,,errorv,,0,,1402414568,924781529,/z_drive,port,,,-0.3,0.3048,0.0,,0.0,0.0,0.0,1.0
1402414568925244283,,errorv,,0,,1402414568,924790361,/z_drive,starboard,,,-0.3,-0.3048,0.0,,0.0,0.0,0.0,1.0
1402414568927269621,,errorv,,0,,1402414568,850013971,/enu,/base_link,,,6.23328544406,22.0691572252,-9.4259908788,,-0.0233819863189,-0.00570433539642,0.938112482862,-0.34549343376
1402414568927305763,,errorv,,0,,1402414568,860012054,/enu,/base_link,,,6.23480457356,22.0642332383,-9.42519320992,,-0.0232133613498,-0.0059518155303,0.938227001439,-0.345189526952
1402414568927329900,,errorv,,0,,1402414568,870990991,/enu,/base_link,,,6.23628279296,22.0585664131,-9.42392728042,,-0.0228819777347,-0.00636139706584,0.938361033837,-0.344839843838
1402414568927409224,,errorv,,0,,1402414568,880985021,/enu,/base_link,,,6.22436434109,22.0402533443,-9.39406191433,,-0.0251302488246,-0.00733683599592,0.937704397627,-0.346446394271
1402414568944998939,,errorv,,0,,1402414568,944768182,base_link,/z_drive,,,0.0,0.0,0.0,,0.0,0.0,0.0,1.0
1402414568945081222,,errorv,,0,,1402414568,944811592,/z_drive,port,,,-0.3,0.3048,0.0,,0.0,0.0,0.0,1.0
1402414568945095049,,errorv,,0,,1402414568,944820715,/z_drive,starboard,,,-0.3,-0.3048,0.0,,0.0,0.0,0.0,1.0
1402414568965164917,,errorv,,0,,1402414568,964897773,base_link,/z_drive,,,0.0,0.0,0.0,,0.0,0.0,0.0,1.0
1402414568965198273,,errorv,,0,,1402414568,964916571,/z_drive,port,,,-0.3,0.3048,0.0,,0.0,0.0,0.0,1.0
1402414568965223332,,errorv,,0,,1402414568,964923002,/z_drive,starboard,,,-0.3,-0.3048,0.0,,0.0,0.0,0.0,1.0
1402414568967261962,,errorv,,0,,1402414568,890989065,/enu,/base_link,,,6.22543110245,22.0348977167,-9.39297511909,,-0.0248338982626,-0.00752544680096,0.937833460025,-0.346114210059
1402414568967289621,,errorv,,0,,1402414568,901042938,/enu,/base_link,,,6.22627108958,22.0294269163,-9.39175915836,,-0.0246450321505,-0.00778981918331,0.937941163865,-0.34582989205
1402414568967305499,,errorv,,0,,1402414568,912000894,/enu,/base_link,,,6.22732772595,22.0238012914,-9.39098072285,,-0.0245920600363,-0.00771067872922,0.938071064522,-0.345482928556
1402414568967362414,,errorv,,0,,1402414568,922029972,/enu,/base_link,,,6.22823911963,22.0184180042,-9.38993201438,,-0.0241820963179,-0.00808926879662,0.93818202869,-0.345201783008
1402414568985402113,,errorv,,0,,1402414568,984983696,base_link,/z_drive,,,0.0,0.0,0.0,,0.0,0.0,0.0,1.0
1402414568985534457,,errorv,,0,,1402414568,985022571,/z_drive,port,,,-0.3,0.3048,0.0,,0.0,0.0,0.0,1.0
1402414568985559376,,errorv,,0,,1402414568,985034244,/z_drive,starboard,,,-0.3,-0.3048,0.0,,0.0,0.0,0.0,1.0
1402414568997392769,,errorv,,0,,1402414569,97186050,base_link,imu,,,0.13,0.0,-0.1,,1.0,0.0,0.0,0.0
1402414569000391796,,errorv,,0,,1402414569,100165687,/base_link,/gps,,,-0.84,0.0,-0.14,,0.0,0.0,0.0,1.0
1402414569005054040,,errorv,,0,,1402414569,4792459,base_link,/z_drive,,,0.0,0.0,0.0,,0.0,0.0,0.0,1.0
1402414569005079220,,errorv,,0,,1402414569,4815637,/z_drive,port,,,-0.3,0.3048,0.0,,0.0,0.0,0.0,1.0
1402414569005099134,,errorv,,0,,1402414569,4825532,/z_drive,starboard,,,-0.3,-0.3048,0.0,,0.0,0.0,0.0,1.0
1402414569007273104,,errorv,,0,,1402414568,931994915,/enu,/base_link,,,6.24445056783,21.9260778918,-9.58358187063,,-0.0260571877247,-0.0133284113902,0.936821445607,-0.348581346989
1402414569007306167,,errorv,,0,,1402414568,943012952,/enu,/base_link,,,6.24529451293,21.9188213181,-9.58260182065,,-0.025866020776,-0.0136048394473,0.936952763238,-0.348231785988
1402414569007332607,,errorv,,0,,1402414568,952975034,/enu,/base_link,,,6.24620734218,21.9124220352,-9.58189282547,,-0.0258745037589,-0.0135435997708,0.937072739781,-0.347910565117
1402414569007359801,,errorv,,0,,1402414568,962976932,/enu,/base_link,,,6.24725645437,21.9060666322,-9.58141763845,,-0.0254749028513,-0.0138660095165,0.937185985022,-0.347622198059
1402414569025141821,,errorv,,0,,1402414569,24807375,base_link,/z_drive,,,0.0,0.0,0.0,,0.0,0.0,0.0,1.0
1402414569025215523,,errorv,,0,,1402414569,24826907,/z_drive,port,,,-0.3,0.3048,0.0,,0.0,0.0,0.0,1.0
1402414569025243021,,errorv,,0,,1402414569,24836492,/z_drive,starboard,,,-0.3,-0.3048,0.0,,0.0,0.0,0.0,1.0
1402414569045111488,,errorv,,0,,1402414569,44780841,base_link,/z_drive,,,0.0,0.0,0.0,,0.0,0.0,0.0,1.0
1402414569045137846,,errorv,,0,,1402414569,44807382,/z_drive,port,,,-0.3,0.3048,0.0,,0.0,0.0,0.0,1.0
1402414569045179780,,errorv,,0,,1402414569,44818047,/z_drive,starboard,,,-0.3,-0.3048,0.0,,0.0,0.0,0.0,1.0
1402414569047089911,,errorv,,0,,1402414568,972975015,/enu,/base_link,,,6.24787479989,21.8996517408,-9.58069009986,,-0.0255663405334,-0.0138898681394,0.937300735951,-0.347305001664
