rosbagTimestamp,control_method,x_current,x_desired,y_current,y_desired,x_velocity_current,x_velocity_desired,y_velocity_current,y_velocity_desired,yaw_current,yaw_desired,required_force_x,required_force_y,required_moment_z,resultant_force_x,resultant_force_y,resultant_moment_z,current_port_servo_angle,current_port_thruster_force,current_starboard_servo_angle,current_starboard_thruster_force,estimated_port_servo_angle,estimated_port_thruster_force,estimated_starboard_servo_angle,estimated_starboard_thruster_force,cost_value,step,user_defined_1,user_defined_2,user_defined_3,user_defined_4,user_defined_5
1402599247984450746,0,1.83001591714,-0.114322152727,-0.226694675445,0.043815185726,0.0804389443428,0.0,-0.166816598288,0.0,1.60780236144,0.0,0.0,0.0,0.0,-196.818825822,-2.0140101244,1.56857328287,-0.16034022172,-100.0,0.21711119811,-100.0,-0.168073019658,-100.0,0.188537930212,-100.0,2040140.83936,0.0,0.0,0.0,0.0,0.0,0.0
1402599248004629701,0,1.83333517935,-0.114322152727,-0.234313723221,0.043815185726,0.0779841111947,0.0,-0.20516596119,0.0,1.60771380804,0.0,0.0,0.0,0.0,-196.818825822,-2.0140101244,1.56857328287,-0.161874445277,-100.0,0.235523549718,-100.0,-0.168073019658,-100.0,0.188537930212,-100.0,2040140.83937,0.0,0.0,0.0,0.0,0.0,0.0
1402599248024012111,0,1.83333517935,-0.114322152727,-0.234313723221,0.043815185726,0.0779841111947,0.0,-0.20516596119,0.0,1.60771380804,0.0,0.0,0.0,0.0,-196.818825822,-2.0140101244,1.56857328287,-0.161874445277,-100.0,0.223248807592,-100.0,-0.168073019658,-100.0,0.188537930212,-100.0,2040140.83937,0.0,0.0,0.0,0.0,0.0,0.0
1402599248044508470,0,1.84122540824,-0.114322152727,-0.241690028494,0.043815185726,0.0979368965233,0.0,-0.233780711149,0.0,1.61000501781,0.0,0.0,0.0,0.0,-196.818825822,-2.0140101244,1.56857328287,-0.16034022172,-100.0,0.210973827047,-100.0,-0.168073019658,-100.0,0.188537930212,-100.0,2040140.83936,0.0,0.0,0.0,0.0,0.0,0.0
1402599248064026135,0,1.84122540824,-0.114322152727,-0.241690028494,0.043815185726,0.0979368965233,0.0,-0.233780711149,0.0,1.61000501781,0.0,0.0,0.0,0.0,-196.818825822,-2.0140101244,1.56857328287,-0.161874445277,-100.0,0.20943960349,-100.0,-0.168073019658,-100.0,0.188537930212,-100.0,2040140.83936,0.0,0.0,0.0,0.0,0.0,0.0
1402599248084512813,0,1.84469880052,-0.114322152727,-0.250640576248,0.043815185726,0.0883018184299,0.0,-0.255010360831,0.0,1.61265023183,0.0,0.0,0.0,0.0,-196.818825822,-2.0140101244,1.56857328287,-0.161874445277,-100.0,0.20943960349,-100.0,-0.168073019658,-100.0,0.188537930212,-100.0,2040140.83936,0.0,0.0,0.0,0.0,0.0,0.0
1402599248103969273,0,1.84469880052,-0.114322152727,-0.250640576248,0.043815185726,0.0883018184299,0.0,-0.255010360831,0.0,1.61265023183,0.0,0.0,0.0,0.0,-196.818825822,-2.0140101244,1.56857328287,-0.161874445277,-100.0,0.20637067954,-100.0,-0.168073019658,-100.0,0.188537930212,-100.0,2040140.83936,0.0,0.0,0.0,0.0,0.0,0.0
1402599248124569956,0,1.84742626374,-0.114322152727,-0.258908449996,0.043815185726,0.0842635521687,0.0,-0.277227343542,0.0,1.6146387163,0.0,0.0,0.0,0.0,-196.818825822,-2.0140101244,1.56857328287,-0.161874445277,-100.0,0.203301994008,-100.0,-0.168073019658,-100.0,0.188537930212,-100.0,2040140.83936,0.0,0.0,0.0,0.0,0.0,0.0
1402599248143921416,0,1.84939170435,-0.114322152727,-0.264995729359,0.043815185726,0.0904996230764,0.0,-0.303739762228,0.0,1.61593296938,0.0,0.0,0.0,0.0,-196.818825822,-2.0140101244,1.56857328287,-0.161874445277,-100.0,0.200233546895,-100.0,-0.168073019658,-100.0,0.188537930212,-100.0,2040140.83936,0.0,0.0,0.0,0.0,0.0,0.0
1402599248164484214,0,1.84939170435,-0.114322152727,-0.264995729359,0.043815185726,0.0904996230764,0.0,-0.303739762228,0.0,1.61593296938,0.0,0.0,0.0,0.0,-196.818825822,-2.0140101244,1.56857328287,-0.161874445277,-100.0,0.198698846502,-100.0,-0.168073019658,-100.0,0.188537930212,-100.0,2040140.83936,0.0,0.0,0.0,0.0,0.0,0.0
1402599248183955405,0,1.85124218969,-0.114322152727,-0.271692427114,0.043815185726,0.0860210362097,0.0,-0.321793096358,0.0,1.61713075337,0.0,0.0,0.0,0.0,-196.818825822,-2.0140101244,1.56857328287,-0.161874445277,-100.0,0.198698846502,-100.0,-0.168073019658,-100.0,0.188537930212,-100.0,2040140.83936,0.0,0.0,0.0,0.0,0.0,0.0
1402599248204375199,0,1.85124218969,-0.114322152727,-0.271692427114,0.043815185726,0.0860210362097,0.0,-0.321793096358,0.0,1.61713075337,0.0,0.0,0.0,0.0,-196.818825822,-2.0140101244,1.56857328287,-0.161874445277,-100.0,0.198698846502,-100.0,-0.168073019658,-100.0,0.188537930212,-100.0,2040140.83936,0.0,0.0,0.0,0.0,0.0,0.0
1402599248223752547,0,1.85703368015,-0.114322152727,-0.286237531249,0.043815185726,0.0975461594725,0.0,-0.368914160253,0.0,1.62072440347,0.0,0.0,0.0,0.0,-196.818825822,-2.0140101244,1.56857328287,-0.161874445277,-100.0,0.200233546895,-100.0,-0.168073019658,-100.0,0.188537930212,-100.0,2040140.83936,0.0,0.0,0.0,0.0,0.0,0.0
1402599248244185574,0,1.85703368015,-0.114322152727,-0.286237531249,0.043815185726,0.0975461594725,0.0,-0.368914160253,0.0,1.62072440347,0.0,0.0,0.0,0.0,-196.818825822,-2.0140101244,1.56857328287,-0.161874445277,-100.0,0.200233546895,-100.0,-0.168073019658,-100.0,0.188537930212,-100.0,2040140.83936,0.0,0.0,0.0,0.0,0.0,0.0
1402599248264005791,0,1.85388805177,-0.114322152727,-0.297760432199,0.043815185726,0.088568440488,0.0,-0.400857114369,0.0,1.62165895241,0.0,0.0,0.0,0.0,-196.818825822,-2.0140101244,1.56857328287,-0.161874445277,-100.0,0.200233546895,-100.0,-0.168073019658,-100.0,0.188537930212,-100.0,2040140.83936,0.0,0.0,0.0,0.0,0.0,0.0
1402599248284618353,0,1.85388805177,-0.114322152727,-0.297760432199,0.043815185726,0.088568440488,0.0,-0.400857114369,0.0,1.62165895241,0.0,0.0,0.0,0.0,-196.818825822,-2.0140101244,1.56857328287,-0.161874445277,-100.0,0.200233546895,-100.0,-0.168073019658,-100.0,0.188537930212,-100.0,2040140.83936,0.0,0.0,0.0,0.0,0.0,0.0
1402599248303749236,0,1.86449583521,-0.114322152727,-0.30764792768,0.043815185726,0.104328937118,0.0,-0.41235913741,0.0,1.62928969698,0.0,0.0,0.0,0.0,-196.818825822,-2.0140101244,1.56857328287,-0.161874445277,-100.0,0.200233546895,-100.0,-0.168073019658,-100.0,0.188537930212,-100.0,2040140.83936,0.0,0.0,0.0,0.0,0.0,0.0
1402599248324728301,0,1.86449583521,-0.114322152727,-0.30764792768,0.043815185726,0.104328937118,0.0,-0.41235913741,0.0,1.62928969698,0.0,0.0,0.0,0.0,-196.818825822,-2.0140101244,1.56857328287,-0.161874445277,-100.0,0.200233546895,-100.0,-0.168073019658,-100.0,0.188537930212,-100.0,2040140.83936,0.0,0.0,0.0,0.0,0.0,0.0
1402599248343833203,0,1.86699116849,-0.114322152727,-0.326165068529,0.043815185726,0.118148396446,0.0,-0.458388821703,0.0,1.63212929542,0.0,0.0,0.0,0.0,-196.818825822,-2.0140101244,1.56857328287,-0.161874445277,-100.0,0.200233546895,-100.0,-0.168073019658,-100.0,0.188537930212,-100.0,2040140.83936,0.0,0.0,0.0,0.0,0.0,0.0
1402599248364508445,0,1.86699116849,-0.114322152727,-0.326165068529,0.043815185726,0.118148396446,0.0,-0.458388821703,0.0,1.63212929542,0.0,0.0,0.0,0.0,-196.818825822,-2.0140101244,1.56857328287,-0.163408907252,-100.0,0.198698846502,-100.0,-0.168073019658,-100.0,0.188537930212,-100.0,2040140.83936,0.0,0.0,0.0,0.0,0.0,0.0
1402599248383915293,0,1.87211277875,-0.114322152727,-0.345659469166,0.043815185726,0.12132249738,0.0,-0.493672295354,0.0,1.63358093805,0.0,0.0,0.0,0.0,-196.818825822,-2.0140101244,1.56857328287,-0.163408907252,-100.0,0.198698846502,-100.0,-0.168073019658,-100.0,0.188537930212,-100.0,2040140.83936,0.0,0.0,0.0,0.0,0.0,0.0
1402599248404432788,0,1.87211277875,-0.114322152727,-0.345659469166,0.043815185726,0.12132249738,0.0,-0.493672295354,0.0,1.63358093805,0.0,0.0,0.0,0.0,-196.818825822,-2.0140101244,1.56857328287,-0.164943130809,-100.0,0.200233546895,-100.0,-0.168073019658,-100.0,0.188537930212,-100.0,2040140.83936,0.0,0.0,0.0,0.0,0.0,0.0
1402599248423914215,0,1.86727820088,-0.114322152727,-0.380144490797,0.043815185726,0.114377476854,0.0,-0.569449979123,0.0,1.63074350633,0.0,0.0,0.0,0.0,-196.818825822,-2.0140101244,1.56857328287,-0.164943130809,-100.0,0.200233546895,-100.0,-0.168073019658,-100.0,0.188537930212,-100.0,2040140.83936,0.0,0.0,0.0,0.0,0.0,0.0
1402599248444585026,0,1.86727820088,-0.114322152727,-0.380144490797,0.043815185726,0.114377476854,0.0,-0.569449979123,0.0,1.63074350633,0.0,0.0,0.0,0.0,-196.818825822,-2.0140101244,1.56857328287,-0.166477592784,-100.0,0.200233546895,-100.0,-0.168073019658,-100.0,0.188537930212,-100.0,2040140.83936,0.0,0.0,0.0,0.0,0.0,0.0
1402599248464067530,0,1.87206013643,-0.114322152727,-0.410335032242,0.043815185726,0.110861960431,0.0,-0.608805679322,0.0,1.63069367,0.0,0.0,0.0,0.0,-196.818825822,-2.0140101244,1.56857328287,-0.166477592784,-100.0,0.200233546895,-100.0,-0.168073019658,-100.0,0.188537930212,-100.0,2040140.83936,0.0,0.0,0.0,0.0,0.0,0.0
1402599248484458528,0,1.87206013643,-0.114322152727,-0.410335032242,0.043815185726,0.110861960431,0.0,-0.608805679322,0.0,1.63069367,0.0,0.0,0.0,0.0,-196.818825822,-2.0140101244,1.56857328287,-0.166477592784,-100.0,0.200233546895,-100.0,-0.168073019658,-100.0,0.188537930212,-100.0,2040140.83936,0.0,0.0,0.0,0.0,0.0,0.0
1402599248504121854,0,1.87432471291,-0.114322152727,-0.422630850566,0.043815185726,0.113533431499,0.0,-0.626233853798,0.0,1.63100484157,0.0,0.0,0.0,0.0,-196.818825822,-2.0140101244,1.56857328287,-0.16801181634,-100.0,0.200233546895,-100.0,-0.168073019658,-100.0,0.188537930212,-100.0,2040140.83936,0.0,0.0,0.0,0.0,0.0,0.0
1402599248524482795,0,1.87432471291,-0.114322152727,-0.422630850566,0.043815185726,0.113533431499,0.0,-0.626233853798,0.0,1.63100484157,0.0,0.0,0.0,0.0,-196.818825822,-2.0140101244,1.56857328287,-0.16801181634,-100.0,0.198698846502,-100.0,-0.168073019658,-100.0,0.188537930212,-100.0,2040140.83936,0.0,0.0,0.0,0.0,0.0,0.0
1402599248544123284,0,1.87895004378,-0.114322152727,-0.448783517745,0.043815185726,0.115641317429,0.0,-0.657286734903,0.0,1.63160408774,0.0,0.0,0.0,0.0,-196.818825822,-2.0140101244,1.56857328287,-0.16801181634,-100.0,0.200233546895,-100.0,-0.168073019658,-100.0,0.188537930212,-100.0,2040140.83936,0.0,0.0,0.0,0.0,0.0,0.0
1402599248564486520,0,1.87895004378,-0.114322152727,-0.448783517745,0.043815185726,0.115641317429,0.0,-0.657286734903,0.0,1.63160408774,0.0,0.0,0.0,0.0,-196.818825822,-2.0140101244,1.56857328287,-0.174149425822,-100.0,0.198698846502,-100.0,-0.168073019658,-100.0,0.188537930212,-100.0,2040140.83936,0.0,0.0,0.0,0.0,0.0,0.0
1402599248583899346,0,1.88116450944,-0.114322152727,-0.47025064146,0.043815185726,0.128727638216,0.0,-0.679023185117,0.0,1.63431749551,0.0,0.0,0.0,0.0,-196.818825822,-2.0140101244,1.56857328287,-0.177217872935,-100.0,0.200233546895,-100.0,-0.168073019658,-100.0,0.188537930212,-100.0,2040140.83936,0.0,0.0,0.0,0.0,0.0,0.0
1402599248604697181,0,1.88116450944,-0.114322152727,-0.47025064146,0.043815185726,0.128727638216,0.0,-0.679023185117,0.0,1.63431749551,0.0,0.0,0.0,0.0,-196.818825822,-2.0140101244,1.56857328287,-0.178752573329,-100.0,0.200233546895,-100.0,-0.168073019658,-100.0,0.188537930212,-100.0,2040140.83936,0.0,0.0,0.0,0.0,0.0,0.0
1402599248623851122,0,1.8863037491,-0.114322152727,-0.498609970585,0.043815185726,0.13273106883,0.0,-0.704418370474,0.0,1.634422027,0.0,0.0,0.0,0.0,-196.818825822,-2.0140101244,1.56857328287,-0.178752573329,-100.0,0.200233546895,-100.0,-0.168073019658,-100.0,0.188537930212,-100.0,2040140.83936,0.0,0.0,0.0,0.0,0.0,0.0
1402599248644580598,0,1.8863037491,-0.114322152727,-0.498609970585,0.043815185726,0.13273106883,0.0,-0.704418370474,0.0,1.634422027,0.0,0.0,0.0,0.0,-196.705701639,-2.59746828905,2.02541889915,-0.177217872935,-100.0,0.200233546895,-100.0,-0.168073019658,-100.0,0.194481174699,-100.0,2040081.23449,0.0,0.0,0.0,0.0,0.0,0.0
1402599248664178163,0,1.88816591774,-0.114322152727,-0.529529838346,0.043815185726,0.132058081058,0.0,-0.743406523002,0.0,1.6335675715,0.0,0.0,0.0,0.0,-196.705701639,-2.59746828905,2.02541889915,-0.178752573329,-100.0,0.200233546895,-100.0,-0.168073019658,-100.0,0.194481174699,-100.0,2040081.23449,0.0,0.0,0.0,0.0,0.0,0.0
1402599248684561444,0,1.88816591774,-0.114322152727,-0.529529838346,0.043815185726,0.132058081058,0.0,-0.743406523002,0.0,1.6335675715,0.0,0.0,0.0,0.0,-196.705701639,-2.59746828905,2.02541889915,-0.178752573329,-100.0,0.201767770452,-100.0,-0.168073019658,-100.0,0.194481174699,-100.0,2040081.23449,0.0,0.0,0.0,0.0,0.0,0.0
1402599248703866697,0,1.89252087933,-0.114322152727,-0.560150158701,0.043815185726,0.142163605121,0.0,-0.768853085283,0.0,1.63465202379,0.0,0.0,0.0,0.0,-196.705701639,-2.59746828905,2.02541889915,-0.180286796885,-100.0,0.201767770452,-100.0,-0.168073019658,-100.0,0.194481174699,-100.0,2040081.23449,0.0,0.0,0.0,0.0,0.0,0.0
1402599248724268811,0,1.89252087933,-0.114322152727,-0.560150158701,0.043815185726,0.142163605121,0.0,-0.768853085283,0.0,1.63465202379,0.0,0.0,0.0,0.0,-196.705701639,-2.59746828905,2.02541889915,-0.180286796885,-100.0,0.201767770452,-100.0,-0.168073019658,-100.0,0.194481174699,-100.0,2040081.23449,0.0,0.0,0.0,0.0,0.0,0.0
1402599248744132777,0,1.8994886561,-0.114322152727,-0.588749680552,0.043815185726,0.151221841476,0.0,-0.791331790688,0.0,1.63576520234,0.0,0.0,0.0,0.0,-196.705701639,-2.59746828905,2.02541889915,-0.180286796885,-100.0,0.201767770452,-100.0,-0.168073019658,-100.0,0.194481174699,-100.0,2040081.23449,0.0,0.0,0.0,0.0,0.0,0.0
1402599248764674586,0,1.8994886561,-0.114322152727,-0.588749680552,0.043815185726,0.151221841476,0.0,-0.791331790688,0.0,1.63576520234,0.0,0.0,0.0,0.0,-196.705701639,-2.59746828905,2.02541889915,-0.180286796885,-100.0,0.203301994008,-100.0,-0.168073019658,-100.0,0.194481174699,-100.0,2040081.23449,0.0,0.0,0.0,0.0,0.0,0.0
1402599248783884425,0,1.90015589958,-0.114322152727,-0.618455200073,0.043815185726,0.144154203676,0.0,-0.807549331764,0.0,1.63450626834,0.0,0.0,0.0,0.0,-196.705701639,-2.59746828905,2.02541889915,-0.180286796885,-100.0,0.203301994008,-100.0,-0.168073019658,-100.0,0.194481174699,-100.0,2040081.23449,0.0,0.0,0.0,0.0,0.0,0.0
1402599248804529382,0,1.90015589958,-0.114322152727,-0.618455200073,0.043815185726,0.144154203676,0.0,-0.807549331764,0.0,1.63450626834,0.0,0.0,0.0,0.0,-196.705701639,-2.59746828905,2.02541889915,-0.180286796885,-100.0,0.203301994008,-100.0,-0.168073019658,-100.0,0.194481174699,-100.0,2040081.23449,0.0,0.0,0.0,0.0,0.0,0.0
1402599248823917651,0,1.90976593971,-0.114322152727,-0.667164657246,0.043815185726,0.147813953373,0.0,-0.850019415055,0.0,1.6344707833,0.0,0.0,0.0,0.0,-196.705701639,-2.59746828905,2.02541889915,-0.180286796885,-100.0,0.203301994008,-100.0,-0.168073019658,-100.0,0.194481174699,-100.0,2040081.23449,0.0,0.0,0.0,0.0,0.0,0.0
1402599248844454574,0,1.90976593971,-0.114322152727,-0.667164657246,0.043815185726,0.147813953373,0.0,-0.850019415055,0.0,1.6344707833,0.0,0.0,0.0,0.0,-196.705701639,-2.59746828905,2.02541889915,-0.180286796885,-100.0,0.203301994008,-100.0,-0.168073019658,-100.0,0.194481174699,-100.0,2040081.23449,0.0,0.0,0.0,0.0,0.0,0.0
1402599248864084834,0,1.90928247567,-0.114322152727,-0.6914190897,0.043815185726,0.146920373733,0.0,-0.870076944641,0.0,1.63424481288,0.0,0.0,0.0,0.0,-196.705701639,-2.59746828905,2.02541889915,-0.180286796885,-100.0,0.201767770452,-100.0,-0.168073019658,-100.0,0.194481174699,-100.0,2040081.23449,0.0,0.0,0.0,0.0,0.0,0.0
1402599248884748887,0,1.9064544809,-0.114322152727,-0.704386365816,0.043815185726,0.137232417275,0.0,-0.872689101959,0.0,1.6332342041,0.0,0.0,0.0,0.0,-196.705701639,-2.59746828905,2.02541889915,-0.180286796885,-100.0,0.203301994008,-100.0,-0.168073019658,-100.0,0.194481174699,-100.0,2040081.23449,0.0,0.0,0.0,0.0,0.0,0.0
1402599248903890348,0,1.9064544809,-0.114322152727,-0.704386365816,0.043815185726,0.137232417275,0.0,-0.872689101959,0.0,1.6332342041,0.0,0.0,0.0,0.0,-196.705701639,-2.59746828905,2.02541889915,-0.180286796885,-100.0,0.203301994008,-100.0,-0.168073019658,-100.0,0.194481174699,-100.0,2040081.23449,0.0,0.0,0.0,0.0,0.0,0.0
1402599248924226303,0,1.90924888318,-0.114322152727,-0.721986563127,0.043815185726,0.135451367208,0.0,-0.883515325152,0.0,1.63334817011,0.0,0.0,0.0,0.0,-196.705701639,-2.59746828905,2.02541889915,-0.180286796885,-100.0,0.203301994008,-100.0,-0.168073019658,-100.0,0.194481174699,-100.0,2040081.23449,0.0,0.0,0.0,0.0,0.0,0.0
1402599248944021465,0,1.90924888318,-0.114322152727,-0.721986563127,0.043815185726,0.135451367208,0.0,-0.883515325152,0.0,1.63334817011,0.0,0.0,0.0,0.0,-196.705701639,-2.59746828905,2.02541889915,-0.180286796885,-100.0,0.203301994008,-100.0,-0.168073019658,-100.0,0.194481174699,-100.0,2040081.23449,0.0,0.0,0.0,0.0,0.0,0.0
1402599248964853972,0,1.91286107156,-0.114322152727,-0.760863734501,0.043815185726,0.141182480458,0.0,-0.915518656764,0.0,1.63411900498,0.0,0.0,0.0,0.0,-196.705701639,-2.59746828905,2.02541889915,-0.180286796885,-100.0,0.203301994008,-100.0,-0.168073019658,-100.0,0.194481174699,-100.0,2040081.23449,0.0,0.0,0.0,0.0,0.0,0.0
1402599248984178025,0,1.91286107156,-0.114322152727,-0.760863734501,0.043815185726,0.141182480458,0.0,-0.915518656764,0.0,1.63411900498,0.0,0.0,0.0,0.0,-196.705701639,-2.59746828905,2.02541889915,-0.180286796885,-100.0,0.203301994008,-100.0,-0.168073019658,-100.0,0.194481174699,-100.0,2040081.23449,0.0,0.0,0.0,0.0,0.0,0.0
1402599249004651322,0,1.91888865991,-0.114322152727,-0.798896793305,0.043815185726,0.143246207539,0.0,-0.93416920668,0.0,1.6347370674,0.0,0.0,0.0,0.0,-196.705701639,-2.59746828905,2.02541889915,-0.180286796885,-100.0,0.203301994008,-100.0,-0.168073019658,-100.0,0.194481174699,-100.0,2040081.23449,0.0,0.0,0.0,0.0,0.0,0.0
1402599249024147982,0,1.91888865991,-0.114322152727,-0.798896793305,0.043815185726,0.143246207539,0.0,-0.93416920668,0.0,1.6347370674,0.0,0.0,0.0,0.0,-196.705701639,-2.59746828905,2.02541889915,-0.180286796885,-100.0,0.203301994008,-100.0,-0.168073019658,-100.0,0.194481174699,-100.0,2040081.23449,0.0,0.0,0.0,0.0,0.0,0.0
1402599249044484143,0,1.92786481862,-0.114322152727,-0.835587777709,0.043815185726,0.157508925695,0.0,-0.954299045093,0.0,1.63658022979,0.0,0.0,0.0,0.0,-196.705701639,-2.59746828905,2.02541889915,-0.180286796885,-100.0,0.203301994008,-100.0,-0.168073019658,-100.0,0.194481174699,-100.0,2040081.23449,0.0,0.0,0.0,0.0,0.0,0.0
1402599249063838790,0,1.92786481862,-0.114322152727,-0.835587777709,0.043815185726,0.157508925695,0.0,-0.954299045093,0.0,1.63658022979,0.0,0.0,0.0,0.0,-196.705701639,-2.59746828905,2.02541889915,-0.18182125886,-100.0,0.203301994008,-100.0,-0.168073019658,-100.0,0.194481174699,-100.0,2040081.23449,0.0,0.0,0.0,0.0,0.0,0.0
1402599249084711417,0,1.92975580046,-0.114322152727,-0.875707360034,0.043815185726,0.153272419504,0.0,-0.975138857996,0.0,1.63636216363,0.0,0.0,0.0,0.0,-196.705701639,-2.59746828905,2.02541889915,-0.18182125886,-100.0,0.203301994008,-100.0,-0.168073019658,-100.0,0.194481174699,-100.0,2040081.23449,0.0,0.0,0.0,0.0,0.0,0.0
1402599249103792622,0,1.92975580046,-0.114322152727,-0.875707360034,0.043815185726,0.153272419504,0.0,-0.975138857996,0.0,1.63636216363,0.0,0.0,0.0,0.0,-196.705701639,-2.59746828905,2.02541889915,-0.180286796885,-100.0,0.203301994008,-100.0,-0.168073019658,-100.0,0.194481174699,-100.0,2040081.23449,0.0,0.0,0.0,0.0,0.0,0.0
1402599249124567405,0,1.93608477477,-0.114322152727,-0.916083776059,0.043815185726,0.155158265585,0.0,-0.990985437452,0.0,1.6371067027,0.0,0.0,0.0,0.0,-196.705701639,-2.59746828905,2.02541889915,-0.18182125886,-100.0,0.203301994008,-100.0,-0.168073019658,-100.0,0.194481174699,-100.0,2040081.23449,0.0,0.0,0.0,0.0,0.0,0.0
1402599249143912060,0,1.93608477477,-0.114322152727,-0.916083776059,0.043815185726,0.155158265585,0.0,-0.990985437452,0.0,1.6371067027,0.0,0.0,0.0,0.0,-196.705701639,-2.59746828905,2.02541889915,-0.180286796885,-100.0,0.203301994008,-100.0,-0.168073019658,-100.0,0.194481174699,-100.0,2040081.23449,0.0,0.0,0.0,0.0,0.0,0.0
1402599249164514386,0,1.9464467683,-0.114322152727,-0.956356894335,0.043815185726,0.165152904404,0.0,-0.996195536176,0.0,1.63878444036,0.0,0.0,0.0,0.0,-196.705701639,-2.59746828905,2.02541889915,-0.180286796885,-100.0,0.203301994008,-100.0,-0.168073019658,-100.0,0.194481174699,-100.0,2040081.23449,0.0,0.0,0.0,0.0,0.0,0.0
1402599249183941819,0,1.9464467683,-0.114322152727,-0.956356894335,0.043815185726,0.165152904404,0.0,-0.996195536176,0.0,1.63878444036,0.0,0.0,0.0,0.0,-196.705701639,-2.59746828905,2.02541889915,-0.180286796885,-100.0,0.204836455983,-100.0,-0.168073019658,-100.0,0.194481174699,-100.0,2040081.23449,0.0,0.0,0.0,0.0,0.0,0.0
1402599249204475819,0,1.96227973885,-0.114322152727,-1.00498681727,0.043815185726,0.193751952749,0.0,-1.02419589646,0.0,1.64100760979,0.0,0.0,0.0,0.0,-196.705701639,-2.59746828905,2.02541889915,-0.18182125886,-100.0,0.204836455983,-100.0,-0.168073019658,-100.0,0.194481174699,-100.0,2040081.23449,0.0,0.0,0.0,0.0,0.0,0.0
1402599249223947916,0,1.96227973885,-0.114322152727,-1.00498681727,0.043815185726,0.193751952749,0.0,-1.02419589646,0.0,1.64100760979,0.0,0.0,0.0,0.0,-196.705701639,-2.59746828905,2.02541889915,-0.180286796885,-100.0,0.204836455983,-100.0,-0.168073019658,-100.0,0.194481174699,-100.0,2040081.23449,0.0,0.0,0.0,0.0,0.0,0.0
1402599249244861470,0,1.98045445057,-0.114322152727,-1.0129049007,0.043815185726,0.237168240043,0.0,-1.01193705971,0.0,1.64331366502,0.0,0.0,0.0,0.0,-196.705701639,-2.59746828905,2.02541889915,-0.180286796885,-100.0,0.203301994008,-100.0,-0.168073019658,-100.0,0.194481174699,-100.0,2040081.23449,0.0,0.0,0.0,0.0,0.0,0.0
1402599249263878022,0,1.98045445057,-0.114322152727,-1.0129049007,0.043815185726,0.237168240043,0.0,-1.01193705971,0.0,1.64331366502,0.0,0.0,0.0,0.0,-196.705701639,-2.59746828905,2.02541889915,-0.18182125886,-100.0,0.204836455983,-100.0,-0.168073019658,-100.0,0.194481174699,-100.0,2040081.23449,0.0,0.0,0.0,0.0,0.0,0.0
1402599249284523985,0,1.99337064075,-0.114322152727,-1.05293514118,0.043815185726,0.234530868812,0.0,-1.02058137153,0.0,1.64369605913,0.0,0.0,0.0,0.0,-196.705701639,-2.59746828905,2.02541889915,-0.18182125886,-100.0,0.204836455983,-100.0,-0.168073019658,-100.0,0.194481174699,-100.0,2040081.23449,0.0,0.0,0.0,0.0,0.0,0.0
1402599249303778696,0,1.99337064075,-0.114322152727,-1.05293514118,0.043815185726,0.234530868812,0.0,-1.02058137153,0.0,1.64369605913,0.0,0.0,0.0,0.0,-196.705701639,-2.59746828905,2.02541889915,-0.18182125886,-100.0,0.203301994008,-100.0,-0.168073019658,-100.0,0.194481174699,-100.0,2040081.23449,0.0,0.0,0.0,0.0,0.0,0.0
1402599249325198614,0,2.00320994725,-0.114322152727,-1.09502194486,0.043815185726,0.239291198372,0.0,-1.02840326026,0.0,1.64421500548,0.0,0.0,0.0,0.0,-196.705701639,-2.59746828905,2.02541889915,-0.18182125886,-100.0,0.204836455983,-100.0,-0.168073019658,-100.0,0.194481174699,-100.0,2040081.23449,0.0,0.0,0.0,0.0,0.0,0.0
1402599249343928717,0,2.00320994725,-0.114322152727,-1.09502194486,0.043815185726,0.239291198372,0.0,-1.02840326026,0.0,1.64421500548,0.0,0.0,0.0,0.0,-196.705701639,-2.59746828905,2.02541889915,-0.18182125886,-100.0,0.203301994008,-100.0,-0.168073019658,-100.0,0.194481174699,-100.0,2040081.23449,0.0,0.0,0.0,0.0,0.0,0.0
1402599249366538101,0,2.01202251429,-0.114322152727,-1.13321585763,0.043815185726,0.231156076983,0.0,-1.02853609913,0.0,1.64470693781,0.0,0.0,0.0,0.0,-196.705701639,-2.59746828905,2.02541889915,-0.18182125886,-100.0,0.204836455983,-100.0,-0.168073019658,-100.0,0.194481174699,-100.0,2040081.23449,0.0,0.0,0.0,0.0,0.0,0.0
1402599249385830346,0,2.01202251429,-0.114322152727,-1.13321585763,0.043815185726,0.231156076983,0.0,-1.02853609913,0.0,1.64470693781,0.0,0.0,0.0,0.0,-196.705701639,-2.59746828905,2.02541889915,-0.18182125886,-100.0,0.204836455983,-100.0,-0.168073019658,-100.0,0.194481174699,-100.0,2040081.23449,0.0,0.0,0.0,0.0,0.0,0.0
1402599249408262671,0,2.02089626477,-0.114322152727,-1.17945226394,0.043815185726,0.230495567226,0.0,-1.05627442285,0.0,1.64514451182,0.0,0.0,0.0,0.0,-196.705701639,-2.59746828905,2.02541889915,-0.180286796885,-100.0,0.204836455983,-100.0,-0.168073019658,-100.0,0.194481174699,-100.0,2040081.23449,0.0,0.0,0.0,0.0,0.0,0.0
1402599249425918635,0,2.02089626477,-0.114322152727,-1.17945226394,0.043815185726,0.230495567226,0.0,-1.05627442285,0.0,1.64514451182,0.0,0.0,0.0,0.0,-196.705701639,-2.59746828905,2.02541889915,-0.18182125886,-100.0,0.204836455983,-100.0,-0.168073019658,-100.0,0.194481174699,-100.0,2040081.23449,0.0,0.0,0.0,0.0,0.0,0.0
1402599249446497587,0,2.03306332651,-0.114322152727,-1.22100178426,0.043815185726,0.237420244699,0.0,-1.06580195437,0.0,1.64570392524,0.0,0.0,0.0,0.0,-196.705701639,-2.59746828905,2.02541889915,-0.18182125886,-100.0,0.204836455983,-100.0,-0.168073019658,-100.0,0.194481174699,-100.0,2040081.23449,0.0,0.0,0.0,0.0,0.0,0.0
1402599249467995577,0,2.03306332651,-0.114322152727,-1.22100178426,0.043815185726,0.237420244699,0.0,-1.06580195437,0.0,1.64570392524,0.0,0.0,0.0,0.0,-196.705701639,-2.59746828905,2.02541889915,-0.18182125886,-100.0,0.204836455983,-100.0,-0.168073019658,-100.0,0.194481174699,-100.0,2040081.23449,0.0,0.0,0.0,0.0,0.0,0.0
1402599249484525188,0,2.04137339466,-0.114322152727,-1.26389201552,0.043815185726,0.236216964541,0.0,-1.07579236584,0.0,1.64661388947,0.0,0.0,0.0,0.0,-196.705701639,-2.59746828905,2.02541889915,-0.18182125886,-100.0,0.204836455983,-100.0,-0.168073019658,-100.0,0.194481174699,-100.0,2040081.23449,0.0,0.0,0.0,0.0,0.0,0.0
1402599249503875034,0,2.04137339466,-0.114322152727,-1.26389201552,0.043815185726,0.236216964541,0.0,-1.07579236584,0.0,1.64661388947,0.0,0.0,0.0,0.0,-196.705701639,-2.59746828905,2.02541889915,-0.18182125886,-100.0,0.204836455983,-100.0,-0.168073019658,-100.0,0.194481174699,-100.0,2040081.23449,0.0,0.0,0.0,0.0,0.0,0.0
1402599249524474214,0,2.05349873428,-0.114322152727,-1.31887350888,0.043815185726,0.243455041579,0.0,-1.08749351237,0.0,1.64756116728,0.0,0.0,0.0,0.0,-196.705701639,-2.59746828905,2.02541889915,-0.18182125886,-100.0,0.204836455983,-100.0,-0.168073019658,-100.0,0.194481174699,-100.0,2040081.23449,0.0,0.0,0.0,0.0,0.0,0.0
1402599249543819731,0,2.05349873428,-0.114322152727,-1.31887350888,0.043815185726,0.243455041579,0.0,-1.08749351237,0.0,1.64756116728,0.0,0.0,0.0,0.0,-196.705701639,-2.59746828905,2.02541889915,-0.18182125886,-100.0,0.204836455983,-100.0,-0.168073019658,-100.0,0.194481174699,-100.0,2040081.23449,0.0,0.0,0.0,0.0,0.0,0.0
1402599249564517443,0,2.06142082216,-0.114322152727,-1.35264461971,0.043815185726,0.248626223917,0.0,-1.09151010526,0.0,1.64813863674,0.0,0.0,0.0,0.0,-196.705701639,-2.59746828905,2.02541889915,-0.183355482417,-100.0,0.204836455983,-100.0,-0.168073019658,-100.0,0.194481174699,-100.0,2040081.23449,0.0,0.0,0.0,0.0,0.0,0.0
1402599249583833830,0,2.06858776053,-0.114322152727,-1.37486092685,0.043815185726,0.242034160983,0.0,-1.09489454433,0.0,1.64877356647,0.0,0.0,0.0,0.0,-196.705701639,-2.59746828905,2.02541889915,-0.18182125886,-100.0,0.204836455983,-100.0,-0.168073019658,-100.0,0.194481174699,-100.0,2040081.23449,0.0,0.0,0.0,0.0,0.0,0.0
1402599249604636046,0,2.06858776053,-0.114322152727,-1.37486092685,0.043815185726,0.242034160983,0.0,-1.09489454433,0.0,1.64877356647,0.0,0.0,0.0,0.0,-196.705701639,-2.59746828905,2.02541889915,-0.183355482417,-100.0,0.204836455983,-100.0,-0.168073019658,-100.0,0.194481174699,-100.0,2040081.23449,0.0,0.0,0.0,0.0,0.0,0.0
1402599249624060990,0,2.07377189378,-0.114322152727,-1.39788076077,0.043815185726,0.247531338498,0.0,-1.10044309395,0.0,1.64929101892,0.0,0.0,0.0,0.0,-196.705701639,-2.59746828905,2.02541889915,-0.18182125886,-100.0,0.204836455983,-100.0,-0.168073019658,-100.0,0.194481174699,-100.0,2040081.23449,0.0,0.0,0.0,0.0,0.0,0.0
1402599249644689803,0,2.07377189378,-0.114322152727,-1.39788076077,0.043815185726,0.247531338498,0.0,-1.10044309395,0.0,1.64929101892,0.0,0.0,0.0,0.0,-196.705701639,-2.59746828905,2.02541889915,-0.183355482417,-100.0,0.204836455983,-100.0,-0.168073019658,-100.0,0.194481174699,-100.0,2040081.23449,0.0,0.0,0.0,0.0,0.0,0.0
1402599249663857914,0,2.07465645315,-0.114322152727,-1.43824172433,0.043815185726,0.226581121732,0.0,-1.09500965118,0.0,1.65162860388,0.0,0.0,0.0,0.0,-196.705701639,-2.59746828905,2.02541889915,-0.183355482417,-100.0,0.204836455983,-100.0,-0.168073019658,-100.0,0.194481174699,-100.0,2040081.23449,0.0,0.0,0.0,0.0,0.0,0.0
1402599249684741153,0,2.07465645315,-0.114322152727,-1.43824172433,0.043815185726,0.226581121732,0.0,-1.09500965118,0.0,1.65162860388,0.0,0.0,0.0,0.0,-196.705701639,-2.59746828905,2.02541889915,-0.183355482417,-100.0,0.20637067954,-100.0,-0.168073019658,-100.0,0.194481174699,-100.0,2040081.23449,0.0,0.0,0.0,0.0,0.0,0.0
1402599249703963388,0,2.09152345894,-0.114322152727,-1.48222458516,0.043815185726,0.244068053458,0.0,-1.09369747964,0.0,1.6514739063,0.0,0.0,0.0,0.0,-196.705701639,-2.59746828905,2.02541889915,-0.183355482417,-100.0,0.204836455983,-100.0,-0.168073019658,-100.0,0.194481174699,-100.0,2040081.23449,0.0,0.0,0.0,0.0,0.0,0.0
1402599249724518520,0,2.09152345894,-0.114322152727,-1.48222458516,0.043815185726,0.244068053458,0.0,-1.09369747964,0.0,1.6514739063,0.0,0.0,0.0,0.0,-196.705701639,-2.59746828905,2.02541889915,-0.183355482417,-100.0,0.204836455983,-100.0,-0.168073019658,-100.0,0.194481174699,-100.0,2040081.23449,0.0,0.0,0.0,0.0,0.0,0.0
1402599249743978140,0,2.0803650284,-0.114322152727,-1.52522584678,0.043815185726,0.210045383696,0.0,-1.09912860367,0.0,1.65489844267,0.0,0.0,0.0,0.0,-196.705701639,-2.59746828905,2.02541889915,-0.183355482417,-100.0,0.204836455983,-100.0,-0.168073019658,-100.0,0.194481174699,-100.0,2040081.23449,0.0,0.0,0.0,0.0,0.0,0.0
1402599249764305135,0,2.0803650284,-0.114322152727,-1.52522584678,0.043815185726,0.210045383696,0.0,-1.09912860367,0.0,1.65489844267,0.0,0.0,0.0,0.0,-196.705701639,-2.59746828905,2.02541889915,-0.183355482417,-100.0,0.204836455983,-100.0,-0.168073019658,-100.0,0.194481174699,-100.0,2040081.23449,0.0,0.0,0.0,0.0,0.0,0.0
1402599249784132262,0,2.08639855431,-0.114322152727,-1.56795853905,0.043815185726,0.20668028292,0.0,-1.10229038607,0.0,1.65602063023,0.0,0.0,0.0,0.0,-196.705701639,-2.59746828905,2.02541889915,-0.183355482417,-100.0,0.204836455983,-100.0,-0.168073019658,-100.0,0.194481174699,-100.0,2040081.23449,0.0,0.0,0.0,0.0,0.0,0.0
1402599249803823511,0,2.08639855431,-0.114322152727,-1.56795853905,0.043815185726,0.20668028292,0.0,-1.10229038607,0.0,1.65602063023,0.0,0.0,0.0,0.0,-196.705701639,-2.59746828905,2.02541889915,-0.183355482417,-100.0,0.204836455983,-100.0,-0.168073019658,-100.0,0.194481174699,-100.0,2040081.23449,0.0,0.0,0.0,0.0,0.0,0.0
1402599249824536896,0,2.08759922419,-0.114322152727,-1.61420125855,0.043815185726,0.19908301216,0.0,-1.11998081185,0.0,1.6578360256,0.0,0.0,0.0,0.0,-196.705701639,-2.59746828905,2.02541889915,-0.183355482417,-100.0,0.204836455983,-100.0,-0.168073019658,-100.0,0.194481174699,-100.0,2040081.23449,0.0,0.0,0.0,0.0,0.0,0.0
1402599249843915383,0,2.08759922419,-0.114322152727,-1.61420125855,0.043815185726,0.19908301216,0.0,-1.11998081185,0.0,1.6578360256,0.0,0.0,0.0,0.0,-196.705701639,-2.59746828905,2.02541889915,-0.183355482417,-100.0,0.204836455983,-100.0,-0.168073019658,-100.0,0.194481174699,-100.0,2040081.23449,0.0,0.0,0.0,0.0,0.0,0.0
1402599249864518434,0,2.09729883712,-0.114322152727,-1.66082882139,0.043815185726,0.201052662339,0.0,-1.12887769783,0.0,1.6586783344,0.0,0.0,0.0,0.0,-196.705701639,-2.59746828905,2.02541889915,-0.183355482417,-100.0,0.204836455983,-100.0,-0.168073019658,-100.0,0.194481174699,-100.0,2040081.23449,0.0,0.0,0.0,0.0,0.0,0.0
1402599249883890429,0,2.09729883712,-0.114322152727,-1.66082882139,0.043815185726,0.201052662339,0.0,-1.12887769783,0.0,1.6586783344,0.0,0.0,0.0,0.0,-196.705701639,-2.59746828905,2.02541889915,-0.183355482417,-100.0,0.204836455983,-100.0,-0.168073019658,-100.0,0.194481174699,-100.0,2040081.23449,0.0,0.0,0.0,0.0,0.0,0.0
1402599249904485131,0,2.09889816399,-0.114322152727,-1.70047751426,0.043815185726,0.185307983481,0.0,-1.11604370821,0.0,1.66068797309,0.0,0.0,0.0,0.0,-196.705701639,-2.59746828905,2.02541889915,-0.183355482417,-100.0,0.204836455983,-100.0,-0.168073019658,-100.0,0.194481174699,-100.0,2040081.23449,0.0,0.0,0.0,0.0,0.0,0.0
1402599249924012615,0,2.09889816399,-0.114322152727,-1.70047751426,0.043815185726,0.185307983481,0.0,-1.11604370821,0.0,1.66068797309,0.0,0.0,0.0,0.0,-196.705701639,-2.59746828905,2.02541889915,-0.183355482417,-100.0,0.204836455983,-100.0,-0.168073019658,-100.0,0.194481174699,-100.0,2040081.23449,0.0,0.0,0.0,0.0,0.0,0.0
1402599249944514291,0,2.11668791834,-0.114322152727,-1.75327236852,0.043815185726,0.198069866102,0.0,-1.10593369238,0.0,1.66111321506,0.0,0.0,0.0,0.0,-196.705701639,-2.59746828905,2.02541889915,-0.183355482417,-100.0,0.204836455983,-100.0,-0.168073019658,-100.0,0.194481174699,-100.0,2040081.23449,0.0,0.0,0.0,0.0,0.0,0.0
1402599249963935948,0,2.11668791834,-0.114322152727,-1.75327236852,0.043815185726,0.198069866102,0.0,-1.10593369238,0.0,1.66111321506,0.0,0.0,0.0,0.0,-196.705701639,-2.59746828905,2.02541889915,-0.183355482417,-100.0,0.204836455983,-100.0,-0.168073019658,-100.0,0.194481174699,-100.0,2040081.23449,0.0,0.0,0.0,0.0,0.0,0.0
1402599249984575675,0,2.11551841319,-0.114322152727,-1.82856945849,0.043815185726,0.180772274079,0.0,-1.1010793203,0.0,1.66527412225,0.0,0.0,0.0,0.0,-196.705701639,-2.59746828905,2.02541889915,-0.183355482417,-100.0,0.204836455983,-100.0,-0.168073019658,-100.0,0.194481174699,-100.0,2040081.23449,0.0,0.0,0.0,0.0,0.0,0.0
1402599250003963697,0,2.11551841319,-0.114322152727,-1.82856945849,0.043815185726,0.180772274079,0.0,-1.1010793203,0.0,1.66527412225,0.0,0.0,0.0,0.0,-196.705701639,-2.59746828905,2.02541889915,-0.183355482417,-100.0,0.20637067954,-100.0,-0.168073019658,-100.0,0.194481174699,-100.0,2040081.23449,0.0,0.0,0.0,0.0,0.0,0.0
1402599250023968084,0,2.11977823286,-0.114322152727,-1.84811303864,0.043815185726,0.186067491644,0.0,-1.09375024325,0.0,1.66560889286,0.0,0.0,0.0,0.0,-196.705701639,-2.59746828905,2.02541889915,-0.183355482417,-100.0,0.20637067954,-100.0,-0.168073019658,-100.0,0.194481174699,-100.0,2040081.23449,0.0,0.0,0.0,0.0,0.0,0.0
1402599250044508016,0,2.11977823286,-0.114322152727,-1.84811303864,0.043815185726,0.186067491644,0.0,-1.09375024325,0.0,1.66560889286,0.0,0.0,0.0,0.0,-196.705701639,-2.59746828905,2.02541889915,-0.183355482417,-100.0,0.204836455983,-100.0,-0.168073019658,-100.0,0.194481174699,-100.0,2040081.23449,0.0,0.0,0.0,0.0,0.0,0.0
1402599250064003520,0,2.12377815395,-0.114322152727,-1.87109480229,0.043815185726,0.185706205775,0.0,-1.0917674107,0.0,1.66631717966,0.0,0.0,0.0,0.0,-196.705701639,-2.59746828905,2.02541889915,-0.183355482417,-100.0,0.204836455983,-100.0,-0.168073019658,-100.0,0.194481174699,-100.0,2040081.23449,0.0,0.0,0.0,0.0,0.0,0.0
1402599250084510400,0,2.12377815395,-0.114322152727,-1.87109480229,0.043815185726,0.185706205775,0.0,-1.0917674107,0.0,1.66631717966,0.0,0.0,0.0,0.0,-196.705701639,-2.59746828905,2.02541889915,-0.183355482417,-100.0,0.204836455983,-100.0,-0.168073019658,-100.0,0.194481174699,-100.0,2040081.23449,0.0,0.0,0.0,0.0,0.0,0.0
1402599250104099894,0,2.1379610854,-0.114322152727,-1.91401918777,0.043815185726,0.204407331196,0.0,-1.07981561716,0.0,1.66601434039,0.0,0.0,0.0,0.0,-196.705701639,-2.59746828905,2.02541889915,-0.183355482417,-100.0,0.204836455983,-100.0,-0.168073019658,-100.0,0.194481174699,-100.0,2040081.23449,0.0,0.0,0.0,0.0,0.0,0.0
1402599250124421343,0,2.1379610854,-0.114322152727,-1.91401918777,0.043815185726,0.204407331196,0.0,-1.07981561716,0.0,1.66601434039,0.0,0.0,0.0,0.0,-196.705701639,-2.59746828905,2.02541889915,-0.183355482417,-100.0,0.204836455983,-100.0,-0.168073019658,-100.0,0.194481174699,-100.0,2040081.23449,0.0,0.0,0.0,0.0,0.0,0.0
1402599250143916874,0,2.14808220671,-0.114322152727,-1.95915850021,0.043815185726,0.212911385697,0.0,-1.07994918697,0.0,1.66629815618,0.0,0.0,0.0,0.0,-196.705701639,-2.59746828905,2.02541889915,-0.183355482417,-100.0,0.20637067954,-100.0,-0.168073019658,-100.0,0.194481174699,-100.0,2040081.23449,0.0,0.0,0.0,0.0,0.0,0.0
1402599250164507213,0,2.14808220671,-0.114322152727,-1.95915850021,0.043815185726,0.212911385697,0.0,-1.07994918697,0.0,1.66629815618,0.0,0.0,0.0,0.0,-196.705701639,-2.59746828905,2.02541889915,-0.183355482417,-100.0,0.204836455983,-100.0,-0.168073019658,-100.0,0.194481174699,-100.0,2040081.23449,0.0,0.0,0.0,0.0,0.0,0.0
1402599250183894820,0,2.14185547409,-0.114322152727,-2.01395679651,0.043815185726,0.197146787869,0.0,-1.08811008392,0.0,1.67051643787,0.0,0.0,0.0,0.0,-196.705701639,-2.59746828905,2.02541889915,-0.183355482417,-100.0,0.204836455983,-100.0,-0.168073019658,-100.0,0.194481174699,-100.0,2040081.23449,0.0,0.0,0.0,0.0,0.0,0.0
1402599250204475750,0,2.14185547409,-0.114322152727,-2.01395679651,0.043815185726,0.197146787869,0.0,-1.08811008392,0.0,1.67051643787,0.0,0.0,0.0,0.0,-196.705701639,-2.59746828905,2.02541889915,-0.183355482417,-100.0,0.204836455983,-100.0,-0.168073019658,-100.0,0.194481174699,-100.0,2040081.23449,0.0,0.0,0.0,0.0,0.0,0.0
1402599250223946482,0,2.14963618474,-0.114322152727,-2.07035960504,0.043815185726,0.197852326147,0.0,-1.09182257657,0.0,1.67251720269,0.0,0.0,0.0,0.0,-196.705701639,-2.59746828905,2.02541889915,-0.183355482417,-100.0,0.20637067954,-100.0,-0.168073019658,-100.0,0.194481174699,-100.0,2040081.23449,0.0,0.0,0.0,0.0,0.0,0.0
1402599250244880090,0,2.14963618474,-0.114322152727,-2.07035960504,0.043815185726,0.197852326147,0.0,-1.09182257657,0.0,1.67251720269,0.0,0.0,0.0,0.0,-196.705701639,-2.59746828905,2.02541889915,-0.183355482417,-100.0,0.204836455983,-100.0,-0.168073019658,-100.0,0.194481174699,-100.0,2040081.23449,0.0,0.0,0.0,0.0,0.0,0.0
1402599250264659031,0,2.15350987451,-0.114322152727,-2.09219240381,0.043815185726,0.198585924915,0.0,-1.09463235464,0.0,1.67315566363,0.0,0.0,0.0,0.0,-196.705701639,-2.59746828905,2.02541889915,-0.183355482417,-100.0,0.204836455983,-100.0,-0.168073019658,-100.0,0.194481174699,-100.0,2040081.23449,0.0,0.0,0.0,0.0,0.0,0.0
1402599250285230196,0,2.15350987451,-0.114322152727,-2.09219240381,0.043815185726,0.198585924915,0.0,-1.09463235464,0.0,1.67315566363,0.0,0.0,0.0,0.0,-196.705701639,-2.59746828905,2.02541889915,-0.183355482417,-100.0,0.204836455983,-100.0,-0.168073019658,-100.0,0.194481174699,-100.0,2040081.23449,0.0,0.0,0.0,0.0,0.0,0.0
1402599250304698524,0,2.16171840773,-0.114322152727,-2.13727261757,0.043815185726,0.199386802453,0.0,-1.10086711285,0.0,1.67454297128,0.0,0.0,0.0,0.0,-196.705701639,-2.59746828905,2.02541889915,-0.183355482417,-100.0,0.20637067954,-100.0,-0.168073019658,-100.0,0.194481174699,-100.0,2040081.23449,0.0,0.0,0.0,0.0,0.0,0.0
1402599250325038399,0,2.16171840773,-0.114322152727,-2.13727261757,0.043815185726,0.199386802453,0.0,-1.10086711285,0.0,1.67454297128,0.0,0.0,0.0,0.0,-196.705701639,-2.59746828905,2.02541889915,-0.184889705973,-100.0,0.20637067954,-100.0,-0.168073019658,-100.0,0.194481174699,-100.0,2040081.23449,0.0,0.0,0.0,0.0,0.0,0.0
1402599250343953103,0,2.1759240591,-0.114322152727,-2.18104704978,0.043815185726,0.211407363389,0.0,-1.09679171865,0.0,1.67464321918,0.0,0.0,0.0,0.0,-196.705701639,-2.59746828905,2.02541889915,-0.183355482417,-100.0,0.20637067954,-100.0,-0.168073019658,-100.0,0.194481174699,-100.0,2040081.23449,0.0,0.0,0.0,0.0,0.0,0.0
1402599250364548887,0,2.1759240591,-0.114322152727,-2.18104704978,0.043815185726,0.211407363389,0.0,-1.09679171865,0.0,1.67464321918,0.0,0.0,0.0,0.0,-196.705701639,-2.59746828905,2.02541889915,-0.184889705973,-100.0,0.204836455983,-100.0,-0.168073019658,-100.0,0.194481174699,-100.0,2040081.23449,0.0,0.0,0.0,0.0,0.0,0.0
1402599250383957886,0,2.18128886736,-0.114322152727,-2.22545149314,0.043815185726,0.208569886052,0.0,-1.09546732151,0.0,1.67644251855,0.0,0.0,0.0,0.0,-196.705701639,-2.59746828905,2.02541889915,-0.183355482417,-100.0,0.204836455983,-100.0,-0.168073019658,-100.0,0.194481174699,-100.0,2040081.23449,0.0,0.0,0.0,0.0,0.0,0.0
1402599250404522663,0,2.18128886736,-0.114322152727,-2.22545149314,0.043815185726,0.208569886052,0.0,-1.09546732151,0.0,1.67644251855,0.0,0.0,0.0,0.0,-196.705701639,-2.59746828905,2.02541889915,-0.183355482417,-100.0,0.204836455983,-100.0,-0.168073019658,-100.0,0.194481174699,-100.0,2040081.23449,0.0,0.0,0.0,0.0,0.0,0.0
1402599250423724687,0,2.19490411974,-0.114322152727,-2.27793055239,0.043815185726,0.220875330507,0.0,-1.11754958314,0.0,1.67722710909,0.0,0.0,0.0,0.0,-196.705701639,-2.59746828905,2.02541889915,-0.183355482417,-100.0,0.204836455983,-100.0,-0.168073019658,-100.0,0.194481174699,-100.0,2040081.23449,0.0,0.0,0.0,0.0,0.0,0.0
1402599250444436201,0,2.19490411974,-0.114322152727,-2.27793055239,0.043815185726,0.220875330507,0.0,-1.11754958314,0.0,1.67722710909,0.0,0.0,0.0,0.0,-196.705701639,-2.59746828905,2.02541889915,-0.183355482417,-100.0,0.204836455983,-100.0,-0.168073019658,-100.0,0.194481174699,-100.0,2040081.23449,0.0,0.0,0.0,0.0,0.0,0.0
1402599250463828708,0,2.20631165503,-0.114322152727,-2.33498804593,0.043815185726,0.226549959703,0.0,-1.1178801883,0.0,1.67906526065,0.0,0.0,0.0,0.0,-196.705701639,-2.59746828905,2.02541889915,-0.183355482417,-100.0,0.204836455983,-100.0,-0.168073019658,-100.0,0.194481174699,-100.0,2040081.23449,0.0,0.0,0.0,0.0,0.0,0.0
1402599250484698219,0,2.20631165503,-0.114322152727,-2.33498804593,0.043815185726,0.226549959703,0.0,-1.1178801883,0.0,1.67906526065,0.0,0.0,0.0,0.0,-196.705701639,-2.59746828905,2.02541889915,-0.183355482417,-100.0,0.204836455983,-100.0,-0.168073019658,-100.0,0.194481174699,-100.0,2040081.23449,0.0,0.0,0.0,0.0,0.0,0.0
1402599250503890561,0,2.21301871927,-0.114322152727,-2.36867281673,0.043815185726,0.222003767826,0.0,-1.11920852464,0.0,1.6802591392,0.0,0.0,0.0,0.0,-196.705701639,-2.59746828905,2.02541889915,-0.183355482417,-100.0,0.204836455983,-100.0,-0.168073019658,-100.0,0.194481174699,-100.0,2040081.23449,0.0,0.0,0.0,0.0,0.0,0.0
1402599250524377282,0,2.21768074498,-0.114322152727,-2.39208709363,0.043815185726,0.224529414482,0.0,-1.11682835402,0.0,1.68113479804,0.0,0.0,0.0,0.0,-196.705701639,-2.59746828905,2.02541889915,-0.183355482417,-100.0,0.204836455983,-100.0,-0.168073019658,-100.0,0.194481174699,-100.0,2040081.23449,0.0,0.0,0.0,0.0,0.0,0.0
1402599250543928377,0,2.21768074498,-0.114322152727,-2.39208709363,0.043815185726,0.224529414482,0.0,-1.11682835402,0.0,1.68113479804,0.0,0.0,0.0,0.0,-196.705701639,-2.59746828905,2.02541889915,-0.184889705973,-100.0,0.20637067954,-100.0,-0.168073019658,-100.0,0.194481174699,-100.0,2040081.23449,0.0,0.0,0.0,0.0,0.0,0.0
1402599250564522978,0,2.2224619516,-0.114322152727,-2.41446913978,0.043815185726,0.224166219817,0.0,-1.1184156595,0.0,1.68201305774,0.0,0.0,0.0,0.0,-196.705701639,-2.59746828905,2.02541889915,-0.183355482417,-100.0,0.20637067954,-100.0,-0.168073019658,-100.0,0.194481174699,-100.0,2040081.23449,0.0,0.0,0.0,0.0,0.0,0.0
1402599250583876798,0,2.2224619516,-0.114322152727,-2.41446913978,0.043815185726,0.224166219817,0.0,-1.1184156595,0.0,1.68201305774,0.0,0.0,0.0,0.0,-196.705701639,-2.59746828905,2.02541889915,-0.184889705973,-100.0,0.20637067954,-100.0,-0.168073019658,-100.0,0.194481174699,-100.0,2040081.23449,0.0,0.0,0.0,0.0,0.0,0.0
1402599250604613008,0,2.23721562435,-0.114322152727,-2.46419984051,0.043815185726,0.242739958747,0.0,-1.13374866104,0.0,1.68222032759,0.0,0.0,0.0,0.0,-196.705701639,-2.59746828905,2.02541889915,-0.183355482417,-100.0,0.204836455983,-100.0,-0.168073019658,-100.0,0.194481174699,-100.0,2040081.23449,0.0,0.0,0.0,0.0,0.0,0.0
1402599250623957342,0,2.23721562435,-0.114322152727,-2.46419984051,0.043815185726,0.242739958747,0.0,-1.13374866104,0.0,1.68222032759,0.0,0.0,0.0,0.0,-196.705701639,-2.59746828905,2.02541889915,-0.184889705973,-100.0,0.20637067954,-100.0,-0.168073019658,-100.0,0.194481174699,-100.0,2040081.23449,0.0,0.0,0.0,0.0,0.0,0.0
1402599250644494697,0,2.24120130889,-0.114322152727,-2.50834820701,0.043815185726,0.242442041924,0.0,-1.13410671772,0.0,1.6844132344,0.0,0.0,0.0,0.0,-196.705701639,-2.59746828905,2.02541889915,-0.183355482417,-100.0,0.204836455983,-100.0,-0.168073019658,-100.0,0.194481174699,-100.0,2040081.23449,0.0,0.0,0.0,0.0,0.0,0.0
1402599250663865914,0,2.24120130889,-0.114322152727,-2.50834820701,0.043815185726,0.242442041924,0.0,-1.13410671772,0.0,1.6844132344,0.0,0.0,0.0,0.0,-196.705701639,-2.59746828905,2.02541889915,-0.183355482417,-100.0,0.20637067954,-100.0,-0.168073019658,-100.0,0.194481174699,-100.0,2040081.23449,0.0,0.0,0.0,0.0,0.0,0.0
1402599250684548475,0,2.24942354564,-0.114322152727,-2.55526372227,0.043815185726,0.248778255164,0.0,-1.1358375112,0.0,1.68596808401,0.0,0.0,0.0,0.0,-196.705701639,-2.59746828905,2.02541889915,-0.184889705973,-100.0,0.20637067954,-100.0,-0.168073019658,-100.0,0.194481174699,-100.0,2040081.23449,0.0,0.0,0.0,0.0,0.0,0.0
1402599250703938074,0,2.24942354564,-0.114322152727,-2.55526372227,0.043815185726,0.248778255164,0.0,-1.1358375112,0.0,1.68596808401,0.0,0.0,0.0,0.0,-196.705701639,-2.59746828905,2.02541889915,-0.183355482417,-100.0,0.20637067954,-100.0,-0.168073019658,-100.0,0.194481174699,-100.0,2040081.23449,0.0,0.0,0.0,0.0,0.0,0.0
1402599250724589012,0,2.24581548036,-0.114322152727,-2.59733686051,0.043815185726,0.228196838047,0.0,-1.11907341962,0.0,1.68982853221,0.0,0.0,0.0,0.0,-196.705701639,-2.59746828905,2.02541889915,-0.183355482417,-100.0,0.20637067954,-100.0,-0.168073019658,-100.0,0.194481174699,-100.0,2040081.23449,0.0,0.0,0.0,0.0,0.0,0.0
1402599250743832745,0,2.24581548036,-0.114322152727,-2.59733686051,0.043815185726,0.228196838047,0.0,-1.11907341962,0.0,1.68982853221,0.0,0.0,0.0,0.0,-196.705701639,-2.59746828905,2.02541889915,-0.183355482417,-100.0,0.204836455983,-100.0,-0.168073019658,-100.0,0.194481174699,-100.0,2040081.23449,0.0,0.0,0.0,0.0,0.0,0.0
1402599250764551637,0,2.25605784518,-0.114322152727,-2.6419998065,0.043815185726,0.226549761029,0.0,-1.10903711284,0.0,1.69141141347,0.0,0.0,0.0,0.0,-196.705701639,-2.59746828905,2.02541889915,-0.184889705973,-100.0,0.204836455983,-100.0,-0.168073019658,-100.0,0.194481174699,-100.0,2040081.23449,0.0,0.0,0.0,0.0,0.0,0.0
1402599250783933125,0,2.25605784518,-0.114322152727,-2.6419998065,0.043815185726,0.226549761029,0.0,-1.10903711284,0.0,1.69141141347,0.0,0.0,0.0,0.0,-196.705701639,-2.59746828905,2.02541889915,-0.183355482417,-100.0,0.20637067954,-100.0,-0.168073019658,-100.0,0.194481174699,-100.0,2040081.23449,0.0,0.0,0.0,0.0,0.0,0.0
1402599250804507704,0,2.26529498166,-0.114322152727,-2.70085657883,0.043815185726,0.221657408799,0.0,-1.10785404252,0.0,1.69404210933,0.0,0.0,0.0,0.0,-196.705701639,-2.59746828905,2.02541889915,-0.183355482417,-100.0,0.20637067954,-100.0,-0.168073019658,-100.0,0.194481174699,-100.0,2040081.23449,0.0,0.0,0.0,0.0,0.0,0.0
1402599250823739835,0,2.26529498166,-0.114322152727,-2.70085657883,0.043815185726,0.221657408799,0.0,-1.10785404252,0.0,1.69404210933,0.0,0.0,0.0,0.0,-196.705701639,-2.59746828905,2.02541889915,-0.183355482417,-100.0,0.20637067954,-100.0,-0.168073019658,-100.0,0.194481174699,-100.0,2040081.23449,0.0,0.0,0.0,0.0,0.0,0.0
1402599250844504717,0,2.27595228017,-0.114322152727,-2.76433449625,0.043815185726,0.224685561525,0.0,-1.12272384058,0.0,1.69614191321,0.0,0.0,0.0,0.0,-196.705701639,-2.59746828905,2.02541889915,-0.183355482417,-100.0,0.20637067954,-100.0,-0.168073019658,-100.0,0.194481174699,-100.0,2040081.23449,0.0,0.0,0.0,0.0,0.0,0.0
1402599250863907971,0,2.27595228017,-0.114322152727,-2.76433449625,0.043815185726,0.224685561525,0.0,-1.12272384058,0.0,1.69614191321,0.0,0.0,0.0,0.0,-196.705701639,-2.59746828905,2.02541889915,-0.183355482417,-100.0,0.204836455983,-100.0,-0.168073019658,-100.0,0.194481174699,-100.0,2040081.23449,0.0,0.0,0.0,0.0,0.0,0.0
1402599250884586518,0,2.28025105308,-0.114322152727,-2.7836938188,0.043815185726,0.226759869032,0.0,-1.11002995213,0.0,1.69684799457,0.0,0.0,0.0,0.0,-196.705701639,-2.59746828905,2.02541889915,-0.183355482417,-100.0,0.204836455983,-100.0,-0.168073019658,-100.0,0.194481174699,-100.0,2040081.23449,0.0,0.0,0.0,0.0,0.0,0.0
1402599250903928651,0,2.28025105308,-0.114322152727,-2.7836938188,0.043815185726,0.226759869032,0.0,-1.11002995213,0.0,1.69684799457,0.0,0.0,0.0,0.0,-196.705701639,-2.59746828905,2.02541889915,-0.183355482417,-100.0,0.204836455983,-100.0,-0.168073019658,-100.0,0.194481174699,-100.0,2040081.23449,0.0,0.0,0.0,0.0,0.0,0.0
1402599250924791032,0,2.28949986401,-0.114322152727,-2.83010564394,0.043815185726,0.224524377148,0.0,-1.11262435243,0.0,1.6989024773,0.0,0.0,0.0,0.0,-196.705701639,-2.59746828905,2.02541889915,-0.183355482417,-100.0,0.204836455983,-100.0,-0.168073019658,-100.0,0.194481174699,-100.0,2040081.23449,0.0,0.0,0.0,0.0,0.0,0.0
1402599250944002579,0,2.28949986401,-0.114322152727,-2.83010564394,0.043815185726,0.224524377148,0.0,-1.11262435243,0.0,1.6989024773,0.0,0.0,0.0,0.0,-196.705701639,-2.59746828905,2.02541889915,-0.184889705973,-100.0,0.20637067954,-100.0,-0.168073019658,-100.0,0.194481174699,-100.0,2040081.23449,0.0,0.0,0.0,0.0,0.0,0.0
1402599250964542238,0,2.30080959191,-0.114322152727,-2.87995643705,0.043815185726,0.231713225661,0.0,-1.12357227524,0.0,1.70093504787,0.0,0.0,0.0,0.0,-196.705701639,-2.59746828905,2.02541889915,-0.183355482417,-100.0,0.20637067954,-100.0,-0.168073019658,-100.0,0.194481174699,-100.0,2040081.23449,0.0,0.0,0.0,0.0,0.0,0.0
1402599250983914399,0,2.30080959191,-0.114322152727,-2.87995643705,0.043815185726,0.231713225661,0.0,-1.12357227524,0.0,1.70093504787,0.0,0.0,0.0,0.0,-196.705701639,-2.59746828905,2.02541889915,-0.183355482417,-100.0,0.204836455983,-100.0,-0.168073019658,-100.0,0.194481174699,-100.0,2040081.23449,0.0,0.0,0.0,0.0,0.0,0.0
1402599251004593490,0,2.30427906269,-0.114322152727,-2.91972632832,0.043815185726,0.228176326993,0.0,-1.11344352435,0.0,1.70328820063,0.0,0.0,0.0,0.0,-196.705701639,-2.59746828905,2.02541889915,-0.184889705973,-100.0,0.20637067954,-100.0,-0.168073019658,-100.0,0.194481174699,-100.0,2040081.23449,0.0,0.0,0.0,0.0,0.0,0.0
1402599251024108478,0,2.30427906269,-0.114322152727,-2.91972632832,0.043815185726,0.228176326993,0.0,-1.11344352435,0.0,1.70328820063,0.0,0.0,0.0,0.0,-196.705701639,-2.59746828905,2.02541889915,-0.183355482417,-100.0,0.204836455983,-100.0,-0.168073019658,-100.0,0.194481174699,-100.0,2040081.23449,0.0,0.0,0.0,0.0,0.0,0.0
1402599251044658728,0,2.31887250284,-0.114322152727,-2.98192007609,0.043815185726,0.249496339756,0.0,-1.14093774036,0.0,1.70541537343,0.0,0.0,0.0,0.0,-196.705701639,-2.59746828905,2.02541889915,-0.183355482417,-100.0,0.20637067954,-100.0,-0.168073019658,-100.0,0.194481174699,-100.0,2040081.23449,0.0,0.0,0.0,0.0,0.0,0.0
1402599251063881502,0,2.31887250284,-0.114322152727,-2.98192007609,0.043815185726,0.249496339756,0.0,-1.14093774036,0.0,1.70541537343,0.0,0.0,0.0,0.0,-196.705701639,-2.59746828905,2.02541889915,-0.184889705973,-100.0,0.204836455983,-100.0,-0.168073019658,-100.0,0.194481174699,-100.0,2040081.23449,0.0,0.0,0.0,0.0,0.0,0.0
1402599251084665676,0,2.31721921521,-0.114322152727,-3.02403165765,0.043815185726,0.22631497716,0.0,-1.15840260883,0.0,1.70798987392,0.0,0.0,0.0,0.0,-196.705701639,-2.59746828905,2.02541889915,-0.184889705973,-100.0,0.20637067954,-100.0,-0.168073019658,-100.0,0.194481174699,-100.0,2040081.23449,0.0,0.0,0.0,0.0,0.0,0.0
1402599251103914725,0,2.32182088612,-0.114322152727,-3.04718231186,0.043815185726,0.228514517105,0.0,-1.15637085107,0.0,1.70907431266,0.0,0.0,0.0,0.0,-196.705701639,-2.59746828905,2.02541889915,-0.183355482417,-100.0,0.20637067954,-100.0,-0.168073019658,-100.0,0.194481174699,-100.0,2040081.23449,0.0,0.0,0.0,0.0,0.0,0.0
1402599251124508751,0,2.32182088612,-0.114322152727,-3.04718231186,0.043815185726,0.228514517105,0.0,-1.15637085107,0.0,1.70907431266,0.0,0.0,0.0,0.0,-196.705701639,-2.59746828905,2.02541889915,-0.184889705973,-100.0,0.20637067954,-100.0,-0.168073019658,-100.0,0.194481174699,-100.0,2040081.23449,0.0,0.0,0.0,0.0,0.0,0.0
1402599251143901591,0,2.32423159998,-0.114322152727,-3.06459901934,0.043815185726,0.229352079226,0.0,-1.1312786299,0.0,1.70997293068,0.0,0.0,0.0,0.0,-196.705701639,-2.59746828905,2.02541889915,-0.183355482417,-100.0,0.20637067954,-100.0,-0.168073019658,-100.0,0.194481174699,-100.0,2040081.23449,0.0,0.0,0.0,0.0,0.0,0.0
1402599251164539598,0,2.32423159998,-0.114322152727,-3.06459901934,0.043815185726,0.229352079226,0.0,-1.1312786299,0.0,1.70997293068,0.0,0.0,0.0,0.0,-196.705701639,-2.59746828905,2.02541889915,-0.183355482417,-100.0,0.20637067954,-100.0,-0.168073019658,-100.0,0.194481174699,-100.0,2040081.23449,0.0,0.0,0.0,0.0,0.0,0.0
1402599251183921901,0,2.33387003694,-0.114322152727,-3.11102430047,0.043815185726,0.236309429904,0.0,-1.12966204495,0.0,1.71184718387,0.0,0.0,0.0,0.0,-196.705701639,-2.59746828905,2.02541889915,-0.183355482417,-100.0,0.20637067954,-100.0,-0.168073019658,-100.0,0.194481174699,-100.0,2040081.23449,0.0,0.0,0.0,0.0,0.0,0.0
1402599251204486186,0,2.33387003694,-0.114322152727,-3.11102430047,0.043815185726,0.236309429904,0.0,-1.12966204495,0.0,1.71184718387,0.0,0.0,0.0,0.0,-196.705701639,-2.59746828905,2.02541889915,-0.184889705973,-100.0,0.204836455983,-100.0,-0.168073019658,-100.0,0.194481174699,-100.0,2040081.23449,0.0,0.0,0.0,0.0,0.0,0.0
1402599251223941513,0,2.34703676593,-0.114322152727,-3.15589058526,0.043815185726,0.242804151118,0.0,-1.11644367873,0.0,1.71326656755,0.0,0.0,0.0,0.0,-196.705701639,-2.59746828905,2.02541889915,-0.184889705973,-100.0,0.20637067954,-100.0,-0.168073019658,-100.0,0.194481174699,-100.0,2040081.23449,0.0,0.0,0.0,0.0,0.0,0.0
1402599251244459997,0,2.34703676593,-0.114322152727,-3.15589058526,0.043815185726,0.242804151118,0.0,-1.11644367873,0.0,1.71326656755,0.0,0.0,0.0,0.0,-196.705701639,-2.59746828905,2.02541889915,-0.183355482417,-100.0,0.20637067954,-100.0,-0.168073019658,-100.0,0.194481174699,-100.0,2040081.23449,0.0,0.0,0.0,0.0,0.0,0.0
1402599251264614708,0,2.35133255393,-0.114322152727,-3.20257285228,0.043815185726,0.235236383074,0.0,-1.12235572033,0.0,1.71542008875,0.0,0.0,0.0,0.0,-196.705701639,-2.59746828905,2.02541889915,-0.184889705973,-100.0,0.20637067954,-100.0,-0.168073019658,-100.0,0.194481174699,-100.0,2040081.23449,0.0,0.0,0.0,0.0,0.0,0.0
1402599251284547363,0,2.35133255393,-0.114322152727,-3.20257285228,0.043815185726,0.235236383074,0.0,-1.12235572033,0.0,1.71542008875,0.0,0.0,0.0,0.0,-196.705701639,-2.59746828905,2.02541889915,-0.184889705973,-100.0,0.20637067954,-100.0,-0.168073019658,-100.0,0.194481174699,-100.0,2040081.23449,0.0,0.0,0.0,0.0,0.0,0.0
1402599251304065666,0,2.36319909378,-0.114322152727,-3.25016991249,0.043815185726,0.241854780499,0.0,-1.12347695406,0.0,1.71702780391,0.0,0.0,0.0,0.0,-196.705701639,-2.59746828905,2.02541889915,-0.184889705973,-100.0,0.204836455983,-100.0,-0.168073019658,-100.0,0.194481174699,-100.0,2040081.23449,0.0,0.0,0.0,0.0,0.0,0.0
1402599251324432184,0,2.36319909378,-0.114322152727,-3.25016991249,0.043815185726,0.241854780499,0.0,-1.12347695406,0.0,1.71702780391,0.0,0.0,0.0,0.0,-196.705701639,-2.59746828905,2.02541889915,-0.184889705973,-100.0,0.20637067954,-100.0,-0.168073019658,-100.0,0.194481174699,-100.0,2040081.23449,0.0,0.0,0.0,0.0,0.0,0.0
1402599251343884381,0,2.37405601636,-0.114322152727,-3.29743599678,0.043815185726,0.24872937028,0.0,-1.12779579205,0.0,1.71869472747,0.0,0.0,0.0,0.0,-196.705701639,-2.59746828905,2.02541889915,-0.184889705973,-100.0,0.20637067954,-100.0,-0.168073019658,-100.0,0.194481174699,-100.0,2040081.23449,0.0,0.0,0.0,0.0,0.0,0.0
1402599251364543962,0,2.37405601636,-0.114322152727,-3.29743599678,0.043815185726,0.24872937028,0.0,-1.12779579205,0.0,1.71869472747,0.0,0.0,0.0,0.0,-196.705701639,-2.59746828905,2.02541889915,-0.184889705973,-100.0,0.20637067954,-100.0,-0.168073019658,-100.0,0.194481174699,-100.0,2040081.23449,0.0,0.0,0.0,0.0,0.0,0.0
1402599251383911988,0,2.38429909761,-0.114322152727,-3.34383006956,0.043815185726,0.255623163526,0.0,-1.1291194546,0.0,1.72061416833,0.0,0.0,0.0,0.0,-196.705701639,-2.59746828905,2.02541889915,-0.184889705973,-100.0,0.20637067954,-100.0,-0.168073019658,-100.0,0.194481174699,-100.0,2040081.23449,0.0,0.0,0.0,0.0,0.0,0.0
1402599251404441525,0,2.38429909761,-0.114322152727,-3.34383006956,0.043815185726,0.255623163526,0.0,-1.1291194546,0.0,1.72061416833,0.0,0.0,0.0,0.0,-196.705701639,-2.59746828905,2.02541889915,-0.184889705973,-100.0,0.204836455983,-100.0,-0.168073019658,-100.0,0.194481174699,-100.0,2040081.23449,0.0,0.0,0.0,0.0,0.0,0.0
1402599251423725082,0,2.39512018047,-0.114322152727,-3.4035331197,0.043815185726,0.259163297669,0.0,-1.13634931994,0.0,1.72332141741,0.0,0.0,0.0,0.0,-196.705701639,-2.59746828905,2.02541889915,-0.184889705973,-100.0,0.20637067954,-100.0,-0.168073019658,-100.0,0.194481174699,-100.0,2040081.23449,0.0,0.0,0.0,0.0,0.0,0.0
1402599251444560408,0,2.39512018047,-0.114322152727,-3.4035331197,0.043815185726,0.259163297669,0.0,-1.13634931994,0.0,1.72332141741,0.0,0.0,0.0,0.0,-196.705701639,-2.59746828905,2.02541889915,-0.183355482417,-100.0,0.20637067954,-100.0,-0.168073019658,-100.0,0.194481174699,-100.0,2040081.23449,0.0,0.0,0.0,0.0,0.0,0.0
1402599251463918831,0,2.41403937325,-0.114322152727,-3.48269260888,0.043815185726,0.26020057408,0.0,-1.11756623358,0.0,1.72754568223,0.0,0.0,0.0,0.0,-196.705701639,-2.59746828905,2.02541889915,-0.184889705973,-100.0,0.20637067954,-100.0,-0.168073019658,-100.0,0.194481174699,-100.0,2040081.23449,0.0,0.0,0.0,0.0,0.0,0.0
1402599251484535175,0,2.41403937325,-0.114322152727,-3.48269260888,0.043815185726,0.26020057408,0.0,-1.11756623358,0.0,1.72754568223,0.0,0.0,0.0,0.0,-196.705701639,-2.59746828905,2.02541889915,-0.184889705973,-100.0,0.20637067954,-100.0,-0.168073019658,-100.0,0.194481174699,-100.0,2040081.23449,0.0,0.0,0.0,0.0,0.0,0.0
1402599251503967989,0,2.41673870215,-0.114322152727,-3.49399829039,0.043815185726,0.257741122107,0.0,-1.11828479859,0.0,1.72802692919,0.0,0.0,0.0,0.0,-196.705701639,-2.59746828905,2.02541889915,-0.184889705973,-100.0,0.20637067954,-100.0,-0.168073019658,-100.0,0.194481174699,-100.0,2040081.23449,0.0,0.0,0.0,0.0,0.0,0.0
1402599251524349619,0,2.41673870215,-0.114322152727,-3.49399829039,0.043815185726,0.257741122107,0.0,-1.11828479859,0.0,1.72802692919,0.0,0.0,0.0,0.0,-196.705701639,-2.59746828905,2.02541889915,-0.184889705973,-100.0,0.20637067954,-100.0,-0.168073019658,-100.0,0.194481174699,-100.0,2040081.23449,0.0,0.0,0.0,0.0,0.0,0.0
1402599251543748730,0,2.42464271462,-0.114322152727,-3.52845323109,0.043815185726,0.258707546159,0.0,-1.11573761215,0.0,1.72960852122,0.0,0.0,0.0,0.0,-196.705701639,-2.59746828905,2.02541889915,-0.184889705973,-100.0,0.204836455983,-100.0,-0.168073019658,-100.0,0.194481174699,-100.0,2040081.23449,0.0,0.0,0.0,0.0,0.0,0.0
1402599251564506428,0,2.42464271462,-0.114322152727,-3.52845323109,0.043815185726,0.258707546159,0.0,-1.11573761215,0.0,1.72960852122,0.0,0.0,0.0,0.0,-196.705701639,-2.59746828905,2.02541889915,-0.184889705973,-100.0,0.20637067954,-100.0,-0.168073019658,-100.0,0.194481174699,-100.0,2040081.23449,0.0,0.0,0.0,0.0,0.0,0.0
1402599251583916020,0,2.44051540658,-0.114322152727,-3.57996267987,0.043815185726,0.275355556831,0.0,-1.13430954273,0.0,1.73097995665,0.0,0.0,0.0,0.0,-196.705701639,-2.59746828905,2.02541889915,-0.184889705973,-100.0,0.20637067954,-100.0,-0.168073019658,-100.0,0.194481174699,-100.0,2040081.23449,0.0,0.0,0.0,0.0,0.0,0.0
1402599251604538080,0,2.44051540658,-0.114322152727,-3.57996267987,0.043815185726,0.275355556831,0.0,-1.13430954273,0.0,1.73097995665,0.0,0.0,0.0,0.0,-196.705701639,-2.59746828905,2.02541889915,-0.184889705973,-100.0,0.20637067954,-100.0,-0.168073019658,-100.0,0.194481174699,-100.0,2040081.23449,0.0,0.0,0.0,0.0,0.0,0.0
1402599251623948835,0,2.45155021611,-0.114322152727,-3.62531880171,0.043815185726,0.274951385742,0.0,-1.13602354751,0.0,1.7329423991,0.0,0.0,0.0,0.0,-196.705701639,-2.59746828905,2.02541889915,-0.184889705973,-100.0,0.20637067954,-100.0,-0.168073019658,-100.0,0.194481174699,-100.0,2040081.23449,0.0,0.0,0.0,0.0,0.0,0.0
1402599251644510706,0,2.45155021611,-0.114322152727,-3.62531880171,0.043815185726,0.274951385742,0.0,-1.13602354751,0.0,1.7329423991,0.0,0.0,0.0,0.0,-196.705701639,-2.59746828905,2.02541889915,-0.184889705973,-100.0,0.20637067954,-100.0,-0.168073019658,-100.0,0.194481174699,-100.0,2040081.23449,0.0,0.0,0.0,0.0,0.0,0.0
