rosbagTimestamp,control_method,x_current,x_desired,y_current,y_desired,z_current,z_desired,x_velocity_current,x_velocity_desired,y_velocity_current,y_velocity_desired,z_velocity_current,z_velocity_desired,yaw_current,yaw_desired,yaw_velocity_current,yaw_velocity_desired,roll_current,roll_desired,roll_velocity_current,roll_velocity_desired,pitch_current,pitch_desired,pitch_velocity_current,pitch_velocity_desired,required_force_x,required_force_y,required_moment_z,resultant_force_x,resultant_force_y,resultant_moment_z,current_port_servo_angle,current_port_thruster_force,current_starboard_servo_angle,current_starboard_thruster_force,estimated_port_servo_angle,estimated_port_thruster_force,estimated_starboard_servo_angle,estimated_starboard_thruster_force,cost_value,step,user_defined_1,user_defined_2,user_defined_3,user_defined_4,user_defined_5
1402753252388135817,3,-8.57370117852,-0.00591572024346,-2.77819196314,-0.122189614607,7.0133952207,0.10862951003,0.00637241415064,0.0,-0.0260754299985,0.0,0.0637707767861,0.0,-1.4261864513,0.0,0.0055936816808,0.0,-0.00172833049275,0.0,0.0267744420527,0.0,0.0726700676578,0.0,-0.0050314799935,0.0,0.0,0.0,0.0,100.0,-0.0,0.0,-0.00230160554007,0.0,-0.00383606751517,0.0,-0.0,50.0,-0.0,50.0,525000.0,0.0,0.0,0.0,0.0,0.0,0.0
1402753252407990581,3,-8.57344229152,-0.00591572024346,-2.77900929207,-0.122189614607,7.01539304389,0.10862951003,0.00642278928511,0.0,-0.0257626301062,0.0,0.0656552837772,0.0,-1.42615082997,0.0,0.00199861977591,0.0,-0.00145901176313,0.0,0.0192444266075,0.0,0.0732246936249,0.0,-0.00855031030829,0.0,0.0,0.0,0.0,100.0,-0.0,0.0,-0.00230160554007,0.0,-0.00383606751517,0.0,-0.0,50.0,-0.0,50.0,525000.0,0.0,0.0,0.0,0.0,0.0,0.0
1402753252428284622,3,-8.57534513208,-0.00591572024346,-2.78671922823,-0.122189614607,7.02882621652,0.10862951003,0.00761434753167,0.0,-0.0349596293039,0.0,0.0705108501079,0.0,-1.42607871783,0.0,0.00472334026456,0.0,-0.00141607617967,0.0,0.0169288350655,0.0,0.0746499517372,0.0,-0.00182123877126,0.0,0.0,0.0,0.0,100.0,-0.0,0.0,-0.00230160554007,0.0,-0.00383606751517,0.0,-0.0,50.0,-0.0,50.0,525000.0,0.0,0.0,0.0,0.0,0.0,0.0
1402753252447973315,3,-8.57534513208,-0.00591572024346,-2.78671922823,-0.122189614607,7.02882621652,0.10862951003,0.00761434753167,0.0,-0.0349596293039,0.0,0.0705108501079,0.0,-1.42607871783,0.0,0.00472334026456,0.0,-0.00141607617967,0.0,0.0169288350655,0.0,0.0746499517372,0.0,-0.00182123877126,0.0,0.0,0.0,0.0,100.0,-0.0,0.0,-0.00230160554007,0.0,-0.00383606751517,0.0,-0.0,50.0,-0.0,50.0,525000.0,0.0,0.0,0.0,0.0,0.0,0.0
1402753252467861751,3,-8.57519528418,-0.00591572024346,-2.7874095698,-0.122189614607,7.03026882177,0.10862951003,0.00755600347967,0.0,-0.0359777521637,0.0,0.0729095412775,0.0,-1.42601267455,0.0,0.00213710500476,0.0,-0.00126124819213,0.0,0.0223377478495,0.0,0.075080085177,0.0,-0.00296378054385,0.0,0.0,0.0,0.0,100.0,-0.0,0.0,-0.00383606751517,0.0,-0.00383606751517,0.0,-0.0,50.0,-0.0,50.0,525000.0,0.0,0.0,0.0,0.0,0.0,0.0
1402753252487817262,3,-8.57519528418,-0.00591572024346,-2.7874095698,-0.122189614607,7.03026882177,0.10862951003,0.00755600347967,0.0,-0.0359777521637,0.0,0.0729095412775,0.0,-1.42601267455,0.0,0.00213710500476,0.0,-0.00126124819213,0.0,0.0223377478495,0.0,0.075080085177,0.0,-0.00296378054385,0.0,0.0,0.0,0.0,100.0,-0.0,0.0,-0.00230160554007,0.0,-0.00383606751517,0.0,-0.0,50.0,-0.0,50.0,525000.0,0.0,0.0,0.0,0.0,0.0,0.0
1402753252508213667,3,-8.57888393256,-0.00591572024346,-2.78686963986,-0.122189614607,7.03313882269,0.10862951003,0.00267803076398,0.0,-0.0271952626073,0.0,0.0734296024464,0.0,-1.42572785101,0.0,0.00594372904413,0.0,-0.000643431429864,0.0,0.0132438117421,0.0,0.0745396915328,0.0,0.000464625971315,0.0,0.0,0.0,0.0,100.0,-0.0,0.0,-0.00230160554007,0.0,-0.00383606751517,0.0,-0.0,50.0,-0.0,50.0,525000.0,0.0,0.0,0.0,0.0,0.0,0.0
1402753252528122376,3,-8.57888393256,-0.00591572024346,-2.78686963986,-0.122189614607,7.03313882269,0.10862951003,0.00267803076398,0.0,-0.0271952626073,0.0,0.0734296024464,0.0,-1.42572785101,0.0,0.00594372904413,0.0,-0.000643431429864,0.0,0.0132438117421,0.0,0.0745396915328,0.0,0.000464625971315,0.0,0.0,0.0,0.0,100.0,-0.0,0.0,-0.00383606751517,0.0,-0.00383606751517,0.0,-0.0,50.0,-0.0,50.0,525000.0,0.0,0.0,0.0,0.0,0.0,0.0
1402753252548630473,3,-8.57880394097,-0.00591572024346,-2.78810278314,-0.122189614607,7.03633914798,0.10862951003,0.00283077036764,0.0,-0.0269871662556,0.0,0.0758595525699,0.0,-1.42560737987,0.0,-0.000269567526207,0.0,-0.000505818863163,0.0,0.00791384284463,0.0,0.0748734352162,0.0,-0.000515727725536,0.0,0.0,0.0,0.0,100.0,-0.0,0.0,-0.00230160554007,0.0,-0.00383606751517,0.0,-0.0,50.0,-0.0,50.0,525000.0,0.0,0.0,0.0,0.0,0.0,0.0
1402753252567978466,3,-8.57880394097,-0.00591572024346,-2.78810278314,-0.122189614607,7.03633914798,0.10862951003,0.00283077036764,0.0,-0.0269871662556,0.0,0.0758595525699,0.0,-1.42560737987,0.0,-0.000269567526207,0.0,-0.000505818863163,0.0,0.00791384284463,0.0,0.0748734352162,0.0,-0.000515727725536,0.0,0.0,0.0,0.0,100.0,-0.0,0.0,-0.00383606751517,0.0,-0.00383606751517,0.0,-0.0,50.0,-0.0,50.0,525000.0,0.0,0.0,0.0,0.0,0.0,0.0
1402753252588246877,3,-8.57982247112,-0.00591572024346,-2.78894869665,-0.122189614607,7.02934770755,0.10862951003,0.00568013551999,0.0,-0.0286149380963,0.0,0.0715642035785,0.0,-1.42544837675,0.0,0.00148659611774,0.0,-0.000548055892918,0.0,5.81858761984e-05,0.0,0.0754997408734,0.0,-0.00784324805079,0.0,0.0,0.0,0.0,100.0,-0.0,0.0,-0.00383606751517,0.0,-0.00383606751517,0.0,-0.0,50.0,-0.0,50.0,525000.0,0.0,0.0,0.0,0.0,0.0,0.0
1402753252607712818,3,-8.57982247112,-0.00591572024346,-2.78894869665,-0.122189614607,7.02934770755,0.10862951003,0.00568013551999,0.0,-0.0286149380963,0.0,0.0715642035785,0.0,-1.42544837675,0.0,0.00148659611774,0.0,-0.000548055892918,0.0,5.81858761984e-05,0.0,0.0754997408734,0.0,-0.00784324805079,0.0,0.0,0.0,0.0,100.0,-0.0,0.0,-0.00230160554007,0.0,-0.00383606751517,0.0,-0.0,50.0,-0.0,50.0,525000.0,0.0,0.0,0.0,0.0,0.0,0.0
1402753252627824718,3,-8.58347058472,-0.00591572024346,-2.79565834919,-0.122189614607,7.04740644207,0.10862951003,0.00303291938951,0.0,-0.03253771135,0.0,0.0781418280842,0.0,-1.42532289926,0.0,0.00227575547948,0.0,0.000165577724134,0.0,0.0025612931643,0.0,0.0757884517269,0.0,-0.00283625791343,0.0,0.0,0.0,0.0,100.0,-0.0,0.0,-0.00230160554007,0.0,-0.00383606751517,0.0,-0.0,50.0,-0.0,50.0,525000.0,0.0,0.0,0.0,0.0,0.0,0.0
1402753252647892513,3,-8.58347058472,-0.00591572024346,-2.79565834919,-0.122189614607,7.04740644207,0.10862951003,0.00303291938951,0.0,-0.03253771135,0.0,0.0781418280842,0.0,-1.42532289926,0.0,0.00227575547948,0.0,0.000165577724134,0.0,0.0025612931643,0.0,0.0757884517269,0.0,-0.00283625791343,0.0,0.0,0.0,0.0,100.0,-0.0,0.0,-0.00383606751517,0.0,-0.00383606751517,0.0,-0.0,50.0,-0.0,50.0,525000.0,0.0,0.0,0.0,0.0,0.0,0.0
1402753252667994434,3,-8.59154627104,-0.00591572024346,-2.79443807741,-0.122189614607,7.04505921481,0.10862951003,-0.0104796477397,0.0,-0.0245184906082,0.0,0.0749387139996,0.0,-1.42507191691,0.0,0.0057159569516,0.0,0.0017558286271,0.0,-0.00642059850695,0.0,0.0743866340026,0.0,0.00353731704676,0.0,0.0,0.0,0.0,100.0,-0.0,0.0,-0.00230160554007,0.0,-0.00383606751517,0.0,-0.0,50.0,-0.0,50.0,525000.0,0.0,0.0,0.0,0.0,0.0,0.0
1402753252687716966,3,-8.59154627104,-0.00591572024346,-2.79443807741,-0.122189614607,7.04505921481,0.10862951003,-0.0104796477397,0.0,-0.0245184906082,0.0,0.0749387139996,0.0,-1.42507191691,0.0,0.0057159569516,0.0,0.0017558286271,0.0,-0.00642059850695,0.0,0.0743866340026,0.0,0.00353731704676,0.0,0.0,0.0,0.0,100.0,-0.0,0.0,-0.00230160554007,0.0,-0.00383606751517,0.0,-0.0,50.0,-0.0,50.0,525000.0,0.0,0.0,0.0,0.0,0.0,0.0
1402753252708397699,3,-8.59100655178,-0.00591572024346,-2.7949786535,-0.122189614607,7.05363409627,0.10862951003,0.0003024594958,0.0,-0.0169628802844,0.0,0.0746743899143,0.0,-1.42499902619,0.0,0.0081215008918,0.0,0.000448595445123,0.0,-0.0137863028646,0.0,0.073418621325,0.0,0.00508086827217,0.0,0.0,0.0,0.0,100.0,-0.0,0.0,-0.00230160554007,0.0,-0.00383606751517,0.0,-0.0,50.0,-0.0,50.0,525000.0,0.0,0.0,0.0,0.0,0.0,0.0
1402753252728148019,3,-8.59100655178,-0.00591572024346,-2.7949786535,-0.122189614607,7.05363409627,0.10862951003,0.0003024594958,0.0,-0.0169628802844,0.0,0.0746743899143,0.0,-1.42499902619,0.0,0.0081215008918,0.0,0.000448595445123,0.0,-0.0137863028646,0.0,0.073418621325,0.0,0.00508086827217,0.0,0.0,0.0,0.0,100.0,-0.0,0.0,-0.00383606751517,0.0,-0.00383606751517,0.0,-0.0,50.0,-0.0,50.0,525000.0,0.0,0.0,0.0,0.0,0.0,0.0
1402753252747998445,3,-8.59527957874,-0.00591572024346,-2.80231466312,-0.122189614607,7.06621982351,0.10862951003,-0.000726477114381,0.0,-0.0228435863477,0.0,0.0751019740168,0.0,-1.42487259538,0.0,0.00729848139218,0.0,0.000626872738339,0.0,-0.0191681972071,0.0,0.0734343352772,0.0,-0.002366912603,0.0,0.0,0.0,0.0,100.0,-0.0,0.0,-0.00230160554007,0.0,-0.00383606751517,0.0,-0.0,50.0,-0.0,50.0,525000.0,0.0,0.0,0.0,0.0,0.0,0.0
1402753252767923875,3,-8.59527957874,-0.00591572024346,-2.80231466312,-0.122189614607,7.06621982351,0.10862951003,-0.000726477114381,0.0,-0.0228435863477,0.0,0.0751019740168,0.0,-1.42487259538,0.0,0.00729848139218,0.0,0.000626872738339,0.0,-0.0191681972071,0.0,0.0734343352772,0.0,-0.002366912603,0.0,0.0,0.0,0.0,100.0,-0.0,0.0,-0.00230160554007,0.0,-0.00383606751517,0.0,-0.0,50.0,-0.0,50.0,525000.0,0.0,0.0,0.0,0.0,0.0,0.0
1402753252787797477,3,-8.59823681609,-0.00591572024346,-2.80382437218,-0.122189614607,7.06888337771,0.10862951003,7.53105521847e-05,0.0,-0.0216914515671,0.0,0.0738261571802,0.0,-1.42468062661,0.0,0.00618774665283,0.0,0.000627356873208,0.0,-0.0144631610788,0.0,0.0726324499682,0.0,0.00131957432074,0.0,0.0,0.0,0.0,100.0,-0.0,0.0,-0.00230160554007,0.0,-0.00383606751517,0.0,-0.0,50.0,-0.0,50.0,525000.0,0.0,0.0,0.0,0.0,0.0,0.0
1402753252807991811,3,-8.59823681609,-0.00591572024346,-2.80382437218,-0.122189614607,7.06888337771,0.10862951003,7.53105521847e-05,0.0,-0.0216914515671,0.0,0.0738261571802,0.0,-1.42468062661,0.0,0.00618774665283,0.0,0.000627356873208,0.0,-0.0144631610788,0.0,0.0726324499682,0.0,0.00131957432074,0.0,0.0,0.0,0.0,100.0,-0.0,0.0,-0.00230160554007,0.0,-0.00383606751517,0.0,-0.0,50.0,-0.0,50.0,525000.0,0.0,0.0,0.0,0.0,0.0,0.0
1402753252828320193,3,-8.59829282802,-0.00591572024346,-2.80476720579,-0.122189614607,7.07183428864,0.10862951003,0.000787802071241,0.0,-0.0221378426693,0.0,0.0736499553388,0.0,-1.4247076576,0.0,-0.00166275134109,0.0,0.000551412748706,0.0,-0.0130442108189,0.0,0.0720308652225,0.0,-0.00449879568627,0.0,0.0,0.0,0.0,100.0,-0.0,0.0,-0.00383606751517,0.0,-0.00383606751517,0.0,-0.0,50.0,-0.0,50.0,525000.0,0.0,0.0,0.0,0.0,0.0,0.0
1402753252848619995,3,-8.59829282802,-0.00591572024346,-2.80476720579,-0.122189614607,7.07183428864,0.10862951003,0.000787802071241,0.0,-0.0221378426693,0.0,0.0736499553388,0.0,-1.4247076576,0.0,-0.00166275134109,0.0,0.000551412748706,0.0,-0.0130442108189,0.0,0.0720308652225,0.0,-0.00449879568627,0.0,0.0,0.0,0.0,100.0,-0.0,0.0,-0.00230160554007,0.0,-0.00383606751517,0.0,-0.0,50.0,-0.0,50.0,525000.0,0.0,0.0,0.0,0.0,0.0,0.0
1402753252868043230,3,-8.60427590626,-0.00591572024346,-2.80900144785,-0.122189614607,7.08256363361,0.10862951003,-0.00648962495463,0.0,-0.021492247426,0.0,0.0740549278573,0.0,-1.42440412924,0.0,0.00713156189137,0.0,0.00129702230746,0.0,-0.0155902266244,0.0,0.0711395567817,0.0,-0.000924678817957,0.0,0.0,0.0,0.0,100.0,-0.0,0.0,-0.00230160554007,0.0,-0.00383606751517,0.0,-0.0,50.0,-0.0,50.0,525000.0,0.0,0.0,0.0,0.0,0.0,0.0
1402753252887792159,3,-8.60427590626,-0.00591572024346,-2.80900144785,-0.122189614607,7.08256363361,0.10862951003,-0.00648962495463,0.0,-0.021492247426,0.0,0.0740549278573,0.0,-1.42440412924,0.0,0.00713156189137,0.0,0.00129702230746,0.0,-0.0155902266244,0.0,0.0711395567817,0.0,-0.000924678817957,0.0,0.0,0.0,0.0,100.0,-0.0,0.0,-0.00230160554007,0.0,-0.00383606751517,0.0,-0.0,50.0,-0.0,50.0,525000.0,0.0,0.0,0.0,0.0,0.0,0.0
1402753252908096035,3,-8.60430589785,-0.00591572024346,-2.81148305796,-0.122189614607,7.08213840473,0.10862951003,0.0039687591385,0.0,-0.0233991825773,0.0,0.0700910902925,0.0,-1.42432155037,0.0,0.00464667707931,0.0,6.75437597844e-05,0.0,-0.012752516192,0.0,0.0710702089519,0.0,0.00638817242647,0.0,0.0,0.0,0.0,100.0,-0.0,0.0,-0.00230160554007,0.0,-0.00383606751517,0.0,-0.0,50.0,-0.0,50.0,525000.0,0.0,0.0,0.0,0.0,0.0,0.0
1402753252927755493,3,-8.60430589785,-0.00591572024346,-2.81148305796,-0.122189614607,7.08213840473,0.10862951003,0.0039687591385,0.0,-0.0233991825773,0.0,0.0700910902925,0.0,-1.42432155037,0.0,0.00464667707931,0.0,6.75437597844e-05,0.0,-0.012752516192,0.0,0.0710702089519,0.0,0.00638817242647,0.0,0.0,0.0,0.0,100.0,-0.0,0.0,-0.00230160554007,0.0,-0.00383606751517,0.0,-0.0,50.0,-0.0,50.0,525000.0,0.0,0.0,0.0,0.0,0.0,0.0
1402753252948355384,3,-8.60659056242,-0.00591572024346,-2.81427042003,-0.122189614607,7.09801655506,0.10862951003,0.00634121577499,0.0,-0.0164986523788,0.0,0.0717904682642,0.0,-1.42422603926,0.0,-0.000175684121504,0.0,-0.000518151785102,0.0,-0.0110803888832,0.0,0.0697222619035,0.0,0.0026152813486,0.0,0.0,0.0,0.0,100.0,-0.0,0.0,-0.00383606751517,0.0,-0.00383606751517,0.0,-0.0,50.0,-0.0,50.0,525000.0,0.0,0.0,0.0,0.0,0.0,0.0
1402753252967892707,3,-8.60659056242,-0.00591572024346,-2.81427042003,-0.122189614607,7.09801655506,0.10862951003,0.00634121577499,0.0,-0.0164986523788,0.0,0.0717904682642,0.0,-1.42422603926,0.0,-0.000175684121504,0.0,-0.000518151785102,0.0,-0.0110803888832,0.0,0.0697222619035,0.0,0.0026152813486,0.0,0.0,0.0,0.0,100.0,-0.0,0.0,-0.00383606751517,0.0,-0.00383606751517,0.0,-0.0,50.0,-0.0,50.0,525000.0,0.0,0.0,0.0,0.0,0.0,0.0
1402753252987855838,3,-8.60904148101,-0.00591572024346,-2.8242657682,-0.122189614607,7.09902884456,0.10862951003,0.0112444967097,0.0,-0.0374013423777,0.0,0.0689970708246,0.0,-1.42441667579,0.0,-0.000813774050274,0.0,-0.00110828397613,0.0,-0.00742593879618,0.0,0.0719478833627,0.0,0.0111509543232,0.0,0.0,0.0,0.0,100.0,-0.0,0.0,-0.00230160554007,0.0,-0.00383606751517,0.0,-0.0,50.0,-0.0,50.0,525000.0,0.0,0.0,0.0,0.0,0.0,0.0
1402753253008382854,3,-8.60904148101,-0.00591572024346,-2.8242657682,-0.122189614607,7.09902884456,0.10862951003,0.0112444967097,0.0,-0.0374013423777,0.0,0.0689970708246,0.0,-1.42441667579,0.0,-0.000813774050274,0.0,-0.00110828397613,0.0,-0.00742593879618,0.0,0.0719478833627,0.0,0.0111509543232,0.0,0.0,0.0,0.0,100.0,-0.0,0.0,-0.00383606751517,0.0,-0.00383606751517,0.0,-0.0,50.0,-0.0,50.0,525000.0,0.0,0.0,0.0,0.0,0.0,0.0
1402753253028241999,3,-8.60872863868,-0.00591572024346,-2.82586843715,-0.122189614607,7.10195810806,0.10862951003,0.00993484527458,0.0,-0.0380430665221,0.0,0.0688220506382,0.0,-1.42444980847,0.0,0.00857672968899,0.0,-0.00136824386951,0.0,-0.0110707725359,0.0,0.0716582844135,0.0,0.00870084255503,0.0,0.0,0.0,0.0,100.0,-0.0,0.0,-0.00230160554007,0.0,-0.00383606751517,0.0,-0.0,50.0,-0.0,50.0,525000.0,0.0,0.0,0.0,0.0,0.0,0.0
1402753253047743031,3,-8.60872863868,-0.00591572024346,-2.82586843715,-0.122189614607,7.10195810806,0.10862951003,0.00993484527458,0.0,-0.0380430665221,0.0,0.0688220506382,0.0,-1.42444980847,0.0,0.00857672968899,0.0,-0.00136824386951,0.0,-0.0110707725359,0.0,0.0716582844135,0.0,0.00870084255503,0.0,0.0,0.0,0.0,100.0,-0.0,0.0,-0.00230160554007,0.0,-0.00383606751517,0.0,-0.0,50.0,-0.0,50.0,525000.0,0.0,0.0,0.0,0.0,0.0,0.0
1402753253068762471,3,-8.61329636661,-0.00591572024346,-2.82631229556,-0.122189614607,7.11399955264,0.10862951003,0.00425797980355,0.0,-0.0291367790056,0.0,0.071979881594,0.0,-1.42442844045,0.0,5.40978687114e-05,0.0,-0.00109758641569,0.0,-0.00479472230685,0.0,0.0701013632633,0.0,0.00845204031292,0.0,0.0,0.0,0.0,100.0,-0.0,0.0,-0.00230160554007,0.0,-0.00383606751517,0.0,-0.0,50.0,-0.0,50.0,525000.0,0.0,0.0,0.0,0.0,0.0,0.0
1402753253087719453,3,-8.61329636661,-0.00591572024346,-2.82631229556,-0.122189614607,7.11399955264,0.10862951003,0.00425797980355,0.0,-0.0291367790056,0.0,0.071979881594,0.0,-1.42442844045,0.0,5.40978687114e-05,0.0,-0.00109758641569,0.0,-0.00479472230685,0.0,0.0701013632633,0.0,0.00845204031292,0.0,0.0,0.0,0.0,100.0,-0.0,0.0,-0.00383606751517,0.0,-0.00383606751517,0.0,-0.0,50.0,-0.0,50.0,525000.0,0.0,0.0,0.0,0.0,0.0,0.0
1402753253107933491,3,-8.61335716379,-0.00591572024346,-2.82063226534,-0.122189614607,7.1058178125,0.10862951003,0.00749230810244,0.0,-0.0173134509596,0.0,0.0677774829958,0.0,-1.42429798307,0.0,0.00571655230632,0.0,-0.00203377673554,0.0,0.00631080081321,0.0,0.0689249871349,0.0,0.00588989215589,0.0,0.0,0.0,0.0,100.0,-0.0,0.0,-0.00230160554007,0.0,-0.00383606751517,0.0,-0.0,50.0,-0.0,50.0,525000.0,0.0,0.0,0.0,0.0,0.0,0.0
1402753253127892206,3,-8.61335716379,-0.00591572024346,-2.82063226534,-0.122189614607,7.1058178125,0.10862951003,0.00749230810244,0.0,-0.0173134509596,0.0,0.0677774829958,0.0,-1.42429798307,0.0,0.00571655230632,0.0,-0.00203377673554,0.0,0.00631080081321,0.0,0.0689249871349,0.0,0.00588989215589,0.0,0.0,0.0,0.0,100.0,-0.0,0.0,-0.00230160554007,0.0,-0.00383606751517,0.0,-0.0,50.0,-0.0,50.0,525000.0,0.0,0.0,0.0,0.0,0.0,0.0
1402753253147851522,3,-8.61345382833,-0.00591572024346,-2.82551120423,-0.122189614607,7.11525242373,0.10862951003,0.0139163641079,0.0,-0.0221315928147,0.0,0.0685386272855,0.0,-1.42423879412,0.0,0.00582957710134,0.0,-0.00308844804406,0.0,0.005857192307,0.0,0.0698227354857,0.0,0.00748966760747,0.0,0.0,0.0,0.0,100.0,-0.0,0.0,-0.00230160554007,0.0,-0.00383606751517,0.0,-0.0,50.0,-0.0,50.0,525000.0,0.0,0.0,0.0,0.0,0.0,0.0
1402753253167994159,3,-8.61345382833,-0.00591572024346,-2.82551120423,-0.122189614607,7.11525242373,0.10862951003,0.0139163641079,0.0,-0.0221315928147,0.0,0.0685386272855,0.0,-1.42423879412,0.0,0.00582957710134,0.0,-0.00308844804406,0.0,0.005857192307,0.0,0.0698227354857,0.0,0.00748966760747,0.0,0.0,0.0,0.0,100.0,-0.0,0.0,-0.00230160554007,0.0,-0.00383606751517,0.0,-0.0,50.0,-0.0,50.0,525000.0,0.0,0.0,0.0,0.0,0.0,0.0
1402753253187801830,3,-8.61814371104,-0.00591572024346,-2.83269402083,-0.122189614607,7.13127863626,0.10862951003,0.00824319340757,0.0,-0.0270189363076,0.0,0.072130586685,0.0,-1.4241339716,0.0,0.0043452698045,0.0,-0.00265386600832,0.0,0.00763737992171,0.0,0.0706072083417,0.0,0.000691627387777,0.0,0.0,0.0,0.0,100.0,-0.0,0.0,-0.00230160554007,0.0,-0.00383606751517,0.0,-0.0,50.0,-0.0,50.0,525000.0,0.0,0.0,0.0,0.0,0.0,0.0
1402753253209588275,3,-8.61814371104,-0.00591572024346,-2.83269402083,-0.122189614607,7.13127863626,0.10862951003,0.00824319340757,0.0,-0.0270189363076,0.0,0.072130586685,0.0,-1.4241339716,0.0,0.0043452698045,0.0,-0.00265386600832,0.0,0.00763737992171,0.0,0.0706072083417,0.0,0.000691627387777,0.0,0.0,0.0,0.0,100.0,-0.0,0.0,-0.00230160554007,0.0,-0.00383606751517,0.0,-0.0,50.0,-0.0,50.0,525000.0,0.0,0.0,0.0,0.0,0.0,0.0
1402753253227695298,3,-8.6242790275,-0.00591572024346,-2.83498354775,-0.122189614607,7.1367571264,0.10862951003,0.00221252867902,0.0,-0.0217981359347,0.0,0.0702793077964,0.0,-1.42389898254,0.0,0.00348812100115,0.0,-0.002161831835,0.0,0.00612896352349,0.0,0.0703589746477,0.0,0.00556869714957,0.0,0.0,0.0,0.0,100.0,-0.0,0.0,-0.00383606751517,0.0,-0.00383606751517,0.0,-0.0,50.0,-0.0,50.0,525000.0,0.0,0.0,0.0,0.0,0.0,0.0
1402753253248058243,3,-8.6242790275,-0.00591572024346,-2.83498354775,-0.122189614607,7.1367571264,0.10862951003,0.00221252867902,0.0,-0.0217981359347,0.0,0.0702793077964,0.0,-1.42389898254,0.0,0.00348812100115,0.0,-0.002161831835,0.0,0.00612896352349,0.0,0.0703589746477,0.0,0.00556869714957,0.0,0.0,0.0,0.0,100.0,-0.0,0.0,-0.00230160554007,0.0,-0.00383606751517,0.0,-0.0,50.0,-0.0,50.0,525000.0,0.0,0.0,0.0,0.0,0.0,0.0
1402753253267797166,3,-8.62428193671,-0.00591572024346,-2.83553419759,-0.122189614607,7.13831839932,0.10862951003,0.00178382384172,0.0,-0.0226243595908,0.0,0.0718145716003,0.0,-1.42384298482,0.0,-0.000611730932947,0.0,-0.0020954595216,0.0,0.0164497627876,0.0,0.0706268057554,0.0,-0.00537092421858,0.0,0.0,0.0,0.0,100.0,-0.0,0.0,-0.00230160554007,0.0,-0.00383606751517,0.0,-0.0,50.0,-0.0,50.0,525000.0,0.0,0.0,0.0,0.0,0.0,0.0
1402753253288312045,3,-8.62428193671,-0.00591572024346,-2.83553419759,-0.122189614607,7.13831839932,0.10862951003,0.00178382384172,0.0,-0.0226243595908,0.0,0.0718145716003,0.0,-1.42384298482,0.0,-0.000611730932947,0.0,-0.0020954595216,0.0,0.0164497627876,0.0,0.0706268057554,0.0,-0.00537092421858,0.0,0.0,0.0,0.0,100.0,-0.0,0.0,-0.00230160554007,0.0,-0.00383606751517,0.0,-0.0,50.0,-0.0,50.0,525000.0,0.0,0.0,0.0,0.0,0.0,0.0
1402753253308054660,3,-8.62961085323,-0.00591572024346,-2.84636681953,-0.122189614607,7.15601295852,0.10862951003,-0.000382006413814,0.0,-0.0326828482746,0.0,0.0733375479787,0.0,-1.42359496346,0.0,0.00612491521687,0.0,-0.00184413125292,0.0,0.0123332378507,0.0,0.0722562227128,0.0,-0.00311201780804,0.0,0.0,0.0,0.0,100.0,-0.0,0.0,-0.00230160554007,0.0,-0.00383606751517,0.0,-0.0,50.0,-0.0,50.0,525000.0,0.0,0.0,0.0,0.0,0.0,0.0
1402753253328064426,3,-8.62961085323,-0.00591572024346,-2.84636681953,-0.122189614607,7.15601295852,0.10862951003,-0.000382006413814,0.0,-0.0326828482746,0.0,0.0733375479787,0.0,-1.42359496346,0.0,0.00612491521687,0.0,-0.00184413125292,0.0,0.0123332378507,0.0,0.0722562227128,0.0,-0.00311201780804,0.0,0.0,0.0,0.0,100.0,-0.0,0.0,-0.00383606751517,0.0,-0.00383606751517,0.0,-0.0,50.0,-0.0,50.0,525000.0,0.0,0.0,0.0,0.0,0.0,0.0
1402753253348382538,3,-8.63400328511,-0.00591572024346,-2.84409578979,-0.122189614607,7.15296447656,0.10862951003,-0.000344434404898,0.0,-0.0211092327434,0.0,0.0683321981978,0.0,-1.4233746345,0.0,0.00647031111699,0.0,-0.00161833410419,0.0,0.0169003552274,0.0,0.0714363993471,0.0,-0.00379415373238,0.0,0.0,0.0,0.0,100.0,-0.0,0.0,-0.00383606751517,0.0,-0.00383606751517,0.0,-0.0,50.0,-0.0,50.0,525000.0,0.0,0.0,0.0,0.0,0.0,0.0
1402753253367718334,3,-8.63400328511,-0.00591572024346,-2.84409578979,-0.122189614607,7.15296447656,0.10862951003,-0.000344434404898,0.0,-0.0211092327434,0.0,0.0683321981978,0.0,-1.4233746345,0.0,0.00647031111699,0.0,-0.00161833410419,0.0,0.0169003552274,0.0,0.0714363993471,0.0,-0.00379415373238,0.0,0.0,0.0,0.0,100.0,-0.0,0.0,-0.00230160554007,0.0,-0.00383606751517,0.0,-0.0,50.0,-0.0,50.0,525000.0,0.0,0.0,0.0,0.0,0.0,0.0
1402753253387705735,3,-8.63514128159,-0.00591572024346,-2.84957764829,-0.122189614607,7.15883311526,0.10862951003,0.00923856028499,0.0,-0.025208882756,0.0,0.0658192553033,0.0,-1.42333264763,0.0,-0.000971466809141,0.0,-0.00226275166271,0.0,0.00851883372761,0.0,0.0726135956282,0.0,-0.00382720808635,0.0,0.0,0.0,0.0,100.0,-0.0,0.0,-0.00230160554007,0.0,-0.00383606751517,0.0,-0.0,50.0,-0.0,50.0,525000.0,0.0,0.0,0.0,0.0,0.0,0.0
1402753253407605186,3,-8.63514128159,-0.00591572024346,-2.84957764829,-0.122189614607,7.15883311526,0.10862951003,0.00923856028499,0.0,-0.025208882756,0.0,0.0658192553033,0.0,-1.42333264763,0.0,-0.000971466809141,0.0,-0.00226275166271,0.0,0.00851883372761,0.0,0.0726135956282,0.0,-0.00382720808635,0.0,0.0,0.0,0.0,100.0,-0.0,0.0,-0.00230160554007,50.0,-0.00383606751517,50.0,-0.0,50.0,-0.0,50.0,525000.0,0.0,0.0,0.0,0.0,0.0,0.0
1402753253428081204,3,-8.63481035561,-0.00591572024346,-2.85052654392,-0.122189614607,7.16129151646,0.10862951003,0.0098947252521,0.0,-0.0257105748656,0.0,0.0662503471522,0.0,-1.42318643692,0.0,0.00614375908971,0.0,-0.0018638633906,0.0,0.00978005787047,0.0,0.072979390412,0.0,-0.00170107851876,0.0,0.0,0.0,0.0,100.0,-0.0,0.0,-0.00230160554007,50.0,-0.00383606751517,50.0,-0.0,50.0,-0.0,50.0,525000.0,0.0,0.0,0.0,0.0,0.0,0.0
1402753253447936941,3,-8.63481035561,-0.00591572024346,-2.85052654392,-0.122189614607,7.16129151646,0.10862951003,0.0098947252521,0.0,-0.0257105748656,0.0,0.0662503471522,0.0,-1.42318643692,0.0,0.00614375908971,0.0,-0.0018638633906,0.0,0.00978005787047,0.0,0.072979390412,0.0,-0.00170107851876,0.0,0.0,0.0,0.0,100.0,-0.0,0.0,-0.00230160554007,50.0,-0.00383606751517,50.0,-0.0,50.0,-0.0,50.0,525000.0,0.0,0.0,0.0,0.0,0.0,0.0
1402753253468149982,3,-8.63766894565,-0.00591572024346,-2.85530519411,-0.122189614607,7.17246571842,0.10862951003,0.0118680283253,0.0,-0.0248968180869,0.0,0.066431126327,0.0,-1.42292138347,0.0,0.00304061063263,0.0,-0.00170550650443,0.0,0.003925190997,0.0,0.0732677892404,0.0,-0.0104038381508,0.0,0.0,0.0,0.0,100.0,-0.0,0.0,-0.00230160554007,50.0,-0.00383606751517,50.0,-0.0,50.0,-0.0,50.0,525000.0,0.0,0.0,0.0,0.0,0.0,0.0
1402753253488352667,3,-8.63766894565,-0.00591572024346,-2.85530519411,-0.122189614607,7.17246571842,0.10862951003,0.0118680283253,0.0,-0.0248968180869,0.0,0.066431126327,0.0,-1.42292138347,0.0,0.00304061063263,0.0,-0.00170550650443,0.0,0.003925190997,0.0,0.0732677892404,0.0,-0.0104038381508,0.0,0.0,0.0,0.0,100.0,-0.0,0.0,-0.00383606751517,50.0,-0.00383606751517,50.0,-0.0,50.0,-0.0,50.0,525000.0,0.0,0.0,0.0,0.0,0.0,0.0
1402753253507798302,3,-8.64398057955,-0.00591572024346,-2.86420541844,-0.122189614607,7.19368674996,0.10862951003,0.00471124023502,0.0,-0.0306311346917,0.0,0.0720678526076,0.0,-1.4226306134,0.0,0.00365998359363,0.0,-0.000515865969701,0.0,0.0062919513852,0.0,0.0737396012102,0.0,-0.00606745697714,0.0,0.0,0.0,0.0,100.0,-0.0,0.0,-0.00230160554007,50.0,-0.00383606751517,50.0,-0.0,50.0,-0.0,50.0,525000.0,0.0,0.0,0.0,0.0,0.0,0.0
1402753253527895419,3,-8.64398057955,-0.00591572024346,-2.86420541844,-0.122189614607,7.19368674996,0.10862951003,0.00471124023502,0.0,-0.0306311346917,0.0,0.0720678526076,0.0,-1.4226306134,0.0,0.00365998359363,0.0,-0.000515865969701,0.0,0.0062919513852,0.0,0.0737396012102,0.0,-0.00606745697714,0.0,0.0,0.0,0.0,100.0,-0.0,0.0,-0.00383606751517,50.0,-0.00383606751517,50.0,-0.0,50.0,-0.0,50.0,525000.0,0.0,0.0,0.0,0.0,0.0,0.0
1402753253547755617,3,-8.64375365286,-0.00591572024346,-2.86536876938,-0.122189614607,7.19647743034,0.10862951003,0.00543728700415,0.0,-0.0309614710426,0.0,0.0723620675146,0.0,-1.42262170267,0.0,0.00625590032382,0.0,-0.00013015870758,0.0,0.00324486654378,0.0,0.0738610019058,0.0,-0.00436546147221,0.0,0.0,0.0,0.0,100.0,-0.0,0.0,-0.00230160554007,50.0,-0.00383606751517,50.0,-0.0,50.0,-0.0,50.0,525000.0,0.0,0.0,0.0,0.0,0.0,0.0
1402753253567797162,3,-8.64375365286,-0.00591572024346,-2.86536876938,-0.122189614607,7.19647743034,0.10862951003,0.00543728700415,0.0,-0.0309614710426,0.0,0.0723620675146,0.0,-1.42262170267,0.0,0.00625590032382,0.0,-0.00013015870758,0.0,0.00324486654378,0.0,0.0738610019058,0.0,-0.00436546147221,0.0,0.0,0.0,0.0,100.0,-0.0,0.0,-0.00230160554007,50.0,-0.00383606751517,50.0,-0.0,50.0,-0.0,50.0,525000.0,0.0,0.0,0.0,0.0,0.0,0.0
1402753253588535215,3,-8.64733860511,-0.00591572024346,-2.86697094337,-0.122189614607,7.20126111654,0.10862951003,0.00846763897193,0.0,-0.0421012403399,0.0,0.0822017381879,0.0,-1.42231081702,0.0,0.00365767318779,0.0,-0.000166522454856,0.0,-0.00666301651414,0.0,0.0736078206174,0.0,0.0237991979543,0.0,0.0,0.0,0.0,100.0,-0.0,0.0,-0.00230160554007,50.0,-0.00383606751517,50.0,-0.0,50.0,-0.0,50.0,525000.0,0.0,0.0,0.0,0.0,0.0,0.0
1402753253608314561,3,-8.64733860511,-0.00591572024346,-2.86697094337,-0.122189614607,7.20126111654,0.10862951003,0.00846763897193,0.0,-0.0421012403399,0.0,0.0822017381879,0.0,-1.42231081702,0.0,0.00365767318779,0.0,-0.000166522454856,0.0,-0.00666301651414,0.0,0.0736078206174,0.0,0.0237991979543,0.0,0.0,0.0,0.0,100.0,-0.0,0.0,-0.00230160554007,50.0,-0.00383606751517,50.0,-0.0,50.0,-0.0,50.0,525000.0,0.0,0.0,0.0,0.0,0.0,0.0
1402753253627734660,3,-8.65108461569,-0.00591572024346,-2.86413176484,-0.122189614607,7.19654445962,0.10862951003,0.00444753189679,0.0,-0.0543200988263,0.0,0.0665655637914,0.0,-1.42250495473,0.0,-0.00983271231718,0.0,0.00109661543029,0.0,-0.0429500553158,0.0,0.07115753391,0.0,-0.0456912236292,0.0,0.0,0.0,0.0,100.0,-0.0,0.0,-0.00230160554007,50.0,-0.00383606751517,50.0,-0.0,50.0,-0.0,50.0,525000.0,0.0,0.0,0.0,0.0,0.0,0.0
1402753253647544191,3,-8.65108461569,-0.00591572024346,-2.86413176484,-0.122189614607,7.19654445962,0.10862951003,0.00444753189679,0.0,-0.0543200988263,0.0,0.0665655637914,0.0,-1.42250495473,0.0,-0.00983271231718,0.0,0.00109661543029,0.0,-0.0429500553158,0.0,0.07115753391,0.0,-0.0456912236292,0.0,0.0,0.0,0.0,100.0,-0.0,0.0,-0.00230160554007,50.0,-0.00383606751517,50.0,-0.0,50.0,-0.0,50.0,525000.0,0.0,0.0,0.0,0.0,0.0,0.0
1402753253667640804,3,-8.65231391754,-0.00591572024346,-2.86417633461,-0.122189614607,7.20133372844,0.10862951003,0.0122323364188,0.0,-0.0707840950047,0.0,0.0759855483746,0.0,-1.42262888469,0.0,-0.00970481809832,0.0,0.000254227518991,0.0,-0.0545524561613,0.0,0.0685213001992,0.0,-0.0166627116185,0.0,0.0,0.0,0.0,100.0,-0.0,0.0,-0.00230160554007,50.0,-0.00383606751517,50.0,-0.0,50.0,-0.0,50.0,525000.0,0.0,0.0,0.0,0.0,0.0,0.0
1402753253687607553,3,-8.65231391754,-0.00591572024346,-2.86417633461,-0.122189614607,7.20133372844,0.10862951003,0.0122323364188,0.0,-0.0707840950047,0.0,0.0759855483746,0.0,-1.42262888469,0.0,-0.00970481809832,0.0,0.000254227518991,0.0,-0.0545524561613,0.0,0.0685213001992,0.0,-0.0166627116185,0.0,0.0,0.0,0.0,100.0,-0.0,0.0,-0.00383606751517,50.0,-0.00383606751517,50.0,-0.0,50.0,-0.0,50.0,525000.0,0.0,0.0,0.0,0.0,0.0,0.0
1402753253707804161,3,-8.65416392192,-0.00591572024346,-2.87486570907,-0.122189614607,7.21470848503,0.10862951003,0.0184063763486,0.0,-0.106136554564,0.0,0.0849654056063,0.0,-1.42305021808,0.0,-0.00990305075596,0.0,0.000543247172722,0.0,-0.0589121751462,0.0,0.0674382507236,0.0,-0.00687541369906,0.0,0.0,0.0,0.0,100.0,-0.0,0.0,-0.00230160554007,50.0,-0.00383606751517,50.0,-0.0,50.0,-0.0,50.0,525000.0,0.0,0.0,0.0,0.0,0.0,0.0
1402753253727765711,3,-8.65416392192,-0.00591572024346,-2.87486570907,-0.122189614607,7.21470848503,0.10862951003,0.0184063763486,0.0,-0.106136554564,0.0,0.0849654056063,0.0,-1.42305021808,0.0,-0.00990305075596,0.0,0.000543247172722,0.0,-0.0589121751462,0.0,0.0674382507236,0.0,-0.00687541369906,0.0,0.0,0.0,0.0,100.0,-0.0,0.0,-0.00230160554007,50.0,-0.00383606751517,50.0,-0.0,50.0,-0.0,50.0,525000.0,0.0,0.0,0.0,0.0,0.0,0.0
1402753253747739303,3,-8.65869657593,-0.00591572024346,-2.8812707268,-0.122189614607,7.22356170674,0.10862951003,0.0175274171408,0.0,-0.126703466158,0.0,0.0963140247487,0.0,-1.42418116932,0.0,-0.0123014054412,0.0,0.00110481207573,0.0,-0.0582019547157,0.0,0.0646855519242,0.0,-0.00556711694455,0.0,0.0,0.0,0.0,100.0,-0.0,0.0,-0.00230160554007,50.0,-0.00383606751517,50.0,-0.0,50.0,-0.0,50.0,525000.0,0.0,0.0,0.0,0.0,0.0,0.0
1402753253767839997,3,-8.65869657593,-0.00591572024346,-2.8812707268,-0.122189614607,7.22356170674,0.10862951003,0.0175274171408,0.0,-0.126703466158,0.0,0.0963140247487,0.0,-1.42418116932,0.0,-0.0123014054412,0.0,0.00110481207573,0.0,-0.0582019547157,0.0,0.0646855519242,0.0,-0.00556711694455,0.0,0.0,0.0,0.0,100.0,-0.0,0.0,-0.00230160554007,50.0,-0.00383606751517,50.0,-0.0,50.0,-0.0,50.0,525000.0,0.0,0.0,0.0,0.0,0.0,0.0
1402753253787868368,3,-8.65845186616,-0.00591572024346,-2.88450237975,-0.122189614607,7.21338728692,0.10862951003,0.0268103489498,0.0,-0.14914796651,0.0,0.0874793644389,0.0,-1.42443152004,0.0,-0.0230548066591,0.0,0.000671092685969,0.0,-0.0713240775639,0.0,0.0620788588274,0.0,-0.00438293265972,0.0,0.0,0.0,0.0,100.0,-0.0,0.0,-0.00230160554007,50.0,-0.00230160554007,50.0,-0.0,50.0,-0.0,50.0,525000.0,0.0,0.0,0.0,0.0,0.0,0.0
1402753253807752935,3,-8.65845186616,-0.00591572024346,-2.88450237975,-0.122189614607,7.21338728692,0.10862951003,0.0268103489498,0.0,-0.14914796651,0.0,0.0874793644389,0.0,-1.42443152004,0.0,-0.0230548066591,0.0,0.000671092685969,0.0,-0.0713240775639,0.0,0.0620788588274,0.0,-0.00438293265972,0.0,0.0,0.0,0.0,100.0,-0.0,0.0,-0.00230160554007,50.0,-0.00383606751517,50.0,-0.0,50.0,-0.0,50.0,525000.0,0.0,0.0,0.0,0.0,0.0,0.0
1402753253827699680,3,-8.65753550963,-0.00591572024346,-2.89099901612,-0.122189614607,7.21712782739,0.10862951003,0.0269480020211,0.0,-0.173721544549,0.0,0.0881274037389,0.0,-1.42520493203,0.0,-0.021907798564,0.0,0.00104783848491,0.0,-0.0659006236923,0.0,0.0593622229935,0.0,-0.0154069510166,0.0,0.0,0.0,0.0,100.0,-0.0,0.0,-0.00230160554007,50.0,-0.00383606751517,50.0,-0.0,50.0,-0.0,50.0,525000.0,0.0,0.0,0.0,0.0,0.0,0.0
1402753253847679697,3,-8.65753550963,-0.00591572024346,-2.89099901612,-0.122189614607,7.21712782739,0.10862951003,0.0269480020211,0.0,-0.173721544549,0.0,0.0881274037389,0.0,-1.42520493203,0.0,-0.021907798564,0.0,0.00104783848491,0.0,-0.0659006236923,0.0,0.0593622229935,0.0,-0.0154069510166,0.0,0.0,0.0,0.0,100.0,-0.0,0.0,-0.00383606751517,50.0,-0.00383606751517,50.0,-0.0,50.0,-0.0,50.0,525000.0,0.0,0.0,0.0,0.0,0.0,0.0
1402753253867718407,3,-8.65575781352,-0.00591572024346,-2.89829133203,-0.122189614607,7.22003467552,0.10862951003,0.0344629486328,0.0,-0.198399120918,0.0,0.0869773544519,0.0,-1.42542648572,0.0,-0.0301460039327,0.0,0.000751124802801,0.0,-0.0473686475743,0.0,0.0573229003172,0.0,-0.026109327488,0.0,0.0,0.0,0.0,100.0,-0.0,0.0,-0.00230160554007,50.0,-0.00383606751517,50.0,-0.0,50.0,-0.0,50.0,525000.0,0.0,0.0,0.0,0.0,0.0,0.0
1402753253888353987,3,-8.65575781352,-0.00591572024346,-2.89829133203,-0.122189614607,7.22003467552,0.10862951003,0.0344629486328,0.0,-0.198399120918,0.0,0.0869773544519,0.0,-1.42542648572,0.0,-0.0301460039327,0.0,0.000751124802801,0.0,-0.0473686475743,0.0,0.0573229003172,0.0,-0.026109327488,0.0,0.0,0.0,0.0,100.0,-0.0,0.0,-0.00230160554007,50.0,-0.00383606751517,50.0,-0.0,50.0,-0.0,50.0,525000.0,0.0,0.0,0.0,0.0,0.0,0.0
1402753253907796288,3,-8.66074849025,-0.00591572024346,-2.91004629336,-0.122189614607,7.23312557812,0.10862951003,0.0273476952475,0.0,-0.224384515195,0.0,0.0864130187642,0.0,-1.42824055992,0.0,-0.0254803849737,0.0,0.00218329605202,0.0,-0.0349411566024,0.0,0.0555058116668,0.0,-0.015669435459,0.0,0.0,0.0,0.0,100.0,-0.0,0.0,-0.00383606751517,50.0,-0.00383606751517,50.0,-0.0,50.0,-0.0,50.0,525000.0,0.0,0.0,0.0,0.0,0.0,0.0
1402753253927990050,3,-8.66074849025,-0.00591572024346,-2.91004629336,-0.122189614607,7.23312557812,0.10862951003,0.0273476952475,0.0,-0.224384515195,0.0,0.0864130187642,0.0,-1.42824055992,0.0,-0.0254803849737,0.0,0.00218329605202,0.0,-0.0349411566024,0.0,0.0555058116668,0.0,-0.015669435459,0.0,0.0,0.0,0.0,100.0,-0.0,0.0,-0.00383606751517,50.0,-0.00383606751517,50.0,-0.0,50.0,-0.0,50.0,525000.0,0.0,0.0,0.0,0.0,0.0,0.0
1402753253947627109,3,-8.6571253427,-0.00591572024346,-2.91805135782,-0.122189614607,7.21244996602,0.10862951003,0.0406985975371,0.0,-0.260672055871,0.0,0.0732385457919,0.0,-1.42820716116,0.0,-0.0273757220161,0.0,0.0013277654908,0.0,-0.0118552393332,0.0,0.0564798936936,0.0,-0.0017176949833,0.0,0.0,0.0,0.0,100.0,-0.0,0.0,-0.00230160554007,50.0,-0.00383606751517,50.0,-0.0,50.0,-0.0,50.0,525000.0,0.0,0.0,0.0,0.0,0.0,0.0
1402753253967816585,3,-8.6571253427,-0.00591572024346,-2.91805135782,-0.122189614607,7.21244996602,0.10862951003,0.0406985975371,0.0,-0.260672055871,0.0,0.0732385457919,0.0,-1.42820716116,0.0,-0.0273757220161,0.0,0.0013277654908,0.0,-0.0118552393332,0.0,0.0564798936936,0.0,-0.0017176949833,0.0,0.0,0.0,0.0,100.0,-0.0,0.0,-0.00230160554007,50.0,-0.00383606751517,50.0,-0.0,50.0,-0.0,50.0,525000.0,0.0,0.0,0.0,0.0,0.0,0.0
1402753253987850004,3,-8.65647509717,-0.00591572024346,-2.93148031333,-0.122189614607,7.22560426126,0.10862951003,0.0447371902183,0.0,-0.285315735355,0.0,0.0692598184595,0.0,-1.42942710389,0.0,-0.032925280687,0.0,0.00156757026222,0.0,0.00801110402526,0.0,0.0566352858224,0.0,-0.00559304550156,0.0,0.0,0.0,0.0,100.0,-0.0,0.0,-0.00230160554007,50.0,-0.00383606751517,50.0,-0.0,50.0,-0.0,50.0,525000.0,0.0,0.0,0.0,0.0,0.0,0.0
1402753254008335294,3,-8.65647509717,-0.00591572024346,-2.93148031333,-0.122189614607,7.22560426126,0.10862951003,0.0447371902183,0.0,-0.285315735355,0.0,0.0692598184595,0.0,-1.42942710389,0.0,-0.032925280687,0.0,0.00156757026222,0.0,0.00801110402526,0.0,0.0566352858224,0.0,-0.00559304550156,0.0,0.0,0.0,0.0,100.0,-0.0,0.0,-0.00230160554007,50.0,-0.00383606751517,50.0,-0.0,50.0,-0.0,50.0,525000.0,0.0,0.0,0.0,0.0,0.0,0.0
1402753254027963742,3,-8.65463866083,-0.00591572024346,-2.94343790281,-0.122189614607,7.2283506777,0.10862951003,0.0467352231399,0.0,-0.308856147816,0.0,0.0652420840739,0.0,-1.43067764931,0.0,-0.0374455562539,0.0,0.00172002430949,0.0,0.0273838202624,0.0,0.0573454136712,0.0,-0.0108518983361,0.0,0.0,0.0,0.0,100.0,-0.0,0.0,-0.00230160554007,50.0,-0.00383606751517,50.0,-0.0,50.0,-0.0,50.0,525000.0,0.0,0.0,0.0,0.0,0.0,0.0
1402753254047565711,3,-8.65463866083,-0.00591572024346,-2.94343790281,-0.122189614607,7.2283506777,0.10862951003,0.0467352231399,0.0,-0.308856147816,0.0,0.0652420840739,0.0,-1.43067764931,0.0,-0.0374455562539,0.0,0.00172002430949,0.0,0.0273838202624,0.0,0.0573454136712,0.0,-0.0108518983361,0.0,0.0,0.0,0.0,100.0,-0.0,0.0,-0.00230160554007,50.0,-0.00383606751517,50.0,-0.0,50.0,-0.0,50.0,525000.0,0.0,0.0,0.0,0.0,0.0,0.0
1402753254068162161,3,-8.65902728199,-0.00591572024346,-2.95207645088,-0.122189614607,7.21828901818,0.10862951003,0.0383974995822,0.0,-0.324806100085,0.0,0.054344251287,0.0,-1.43445405169,0.0,-0.0451872088914,0.0,0.00328760076938,0.0,0.0277953385673,0.0,0.0577600481535,0.0,0.0115717797152,0.0,0.0,0.0,0.0,100.0,-0.0,0.0,-0.00230160554007,50.0,-0.00383606751517,50.0,-0.0,50.0,-0.0,50.0,525000.0,0.0,0.0,0.0,0.0,0.0,0.0
1402753254087856485,3,-8.65902728199,-0.00591572024346,-2.95207645088,-0.122189614607,7.21828901818,0.10862951003,0.0383974995822,0.0,-0.324806100085,0.0,0.054344251287,0.0,-1.43445405169,0.0,-0.0451872088914,0.0,0.00328760076938,0.0,0.0277953385673,0.0,0.0577600481535,0.0,0.0115717797152,0.0,0.0,0.0,0.0,100.0,-0.0,0.0,-0.00383606751517,50.0,-0.00383606751517,50.0,-0.0,50.0,-0.0,50.0,525000.0,0.0,0.0,0.0,0.0,0.0,0.0
1402753254107775333,3,-8.66060262617,-0.00591572024346,-2.97022918001,-0.122189614607,7.22992663399,0.10862951003,0.0328630234788,0.0,-0.354018037356,0.0,0.05652766533,0.0,-1.43711191171,0.0,-0.0379863375502,0.0,0.00397037096013,0.0,0.0399870333636,0.0,0.0599654000407,0.0,0.00643462044292,0.0,0.0,0.0,0.0,100.0,-0.0,0.0,-0.00383606751517,50.0,-0.00383606751517,50.0,-0.0,50.0,-0.0,50.0,525000.0,0.0,0.0,0.0,0.0,0.0,0.0
1402753254127866741,3,-8.66060262617,-0.00591572024346,-2.97022918001,-0.122189614607,7.22992663399,0.10862951003,0.0328630234788,0.0,-0.354018037356,0.0,0.05652766533,0.0,-1.43711191171,0.0,-0.0379863375502,0.0,0.00397037096013,0.0,0.0399870333636,0.0,0.0599654000407,0.0,0.00643462044292,0.0,0.0,0.0,0.0,100.0,-0.0,0.0,-0.00230160554007,50.0,-0.00383606751517,50.0,-0.0,50.0,-0.0,50.0,525000.0,0.0,0.0,0.0,0.0,0.0,0.0
1402753254147759902,3,-8.66341214008,-0.00591572024346,-2.97568087334,-0.122189614607,7.23014441154,0.10862951003,0.0243147165491,0.0,-0.351193495828,0.0,0.0556847189102,0.0,-1.44023072045,0.0,-0.0448796206991,0.0,0.0050813719568,0.0,0.0473459948906,0.0,0.0586694278927,0.0,0.00528823511063,0.0,0.0,0.0,0.0,100.0,-0.0,0.0,-0.00230160554007,50.0,-0.00383606751517,50.0,-0.0,50.0,-0.0,50.0,525000.0,0.0,0.0,0.0,0.0,0.0,0.0
1402753254167679838,3,-8.66341214008,-0.00591572024346,-2.97568087334,-0.122189614607,7.23014441154,0.10862951003,0.0243147165491,0.0,-0.351193495828,0.0,0.0556847189102,0.0,-1.44023072045,0.0,-0.0448796206991,0.0,0.0050813719568,0.0,0.0473459948906,0.0,0.0586694278927,0.0,0.00528823511063,0.0,0.0,0.0,0.0,100.0,-0.0,0.0,-0.00383606751517,50.0,-0.00383606751517,50.0,-0.0,50.0,-0.0,50.0,525000.0,0.0,0.0,0.0,0.0,0.0,0.0
1402753254187966143,3,-8.66272032272,-0.00591572024346,-2.99063340893,-0.122189614607,7.23318886178,0.10862951003,0.0290472508418,0.0,-0.370452041726,0.0,0.0510506926729,0.0,-1.44197014509,0.0,-0.0500137547664,0.0,0.00465825245924,0.0,0.0476304419911,0.0,0.0607152423116,0.0,0.0194843122188,0.0,0.0,0.0,0.0,100.0,-0.0,0.0,-0.00230160554007,50.0,-0.00383606751517,50.0,-0.0,50.0,-0.0,50.0,525000.0,0.0,0.0,0.0,0.0,0.0,0.0
1402753254207697040,3,-8.66272032272,-0.00591572024346,-2.99063340893,-0.122189614607,7.23318886178,0.10862951003,0.0290472508418,0.0,-0.370452041726,0.0,0.0510506926729,0.0,-1.44197014509,0.0,-0.0500137547664,0.0,0.00465825245924,0.0,0.0476304419911,0.0,0.0607152423116,0.0,0.0194843122188,0.0,0.0,0.0,0.0,100.0,-0.0,0.0,-0.00230160554007,50.0,-0.00230160554007,50.0,-0.0,50.0,-0.0,50.0,525000.0,0.0,0.0,0.0,0.0,0.0,0.0
1402753254228809220,3,-8.66157422536,-0.00591572024346,-3.00581944471,-0.122189614607,7.23519131485,0.10862951003,0.0304182058266,0.0,-0.388525405971,0.0,0.0505310998242,0.0,-1.44407910232,0.0,-0.0562809075525,0.0,0.00423105279173,0.0,0.0379683463414,0.0,0.0623725781762,0.0,0.0213045161514,0.0,0.0,0.0,0.0,100.0,-0.0,0.0,-0.00230160554007,50.0,-0.00383606751517,50.0,-0.0,50.0,-0.0,50.0,525000.0,0.0,0.0,0.0,0.0,0.0,0.0
1402753254247664456,3,-8.66157422536,-0.00591572024346,-3.00581944471,-0.122189614607,7.23519131485,0.10862951003,0.0304182058266,0.0,-0.388525405971,0.0,0.0505310998242,0.0,-1.44407910232,0.0,-0.0562809075525,0.0,0.00423105279173,0.0,0.0379683463414,0.0,0.0623725781762,0.0,0.0213045161514,0.0,0.0,0.0,0.0,100.0,-0.0,0.0,-0.00230160554007,50.0,-0.00230160554007,50.0,-0.0,50.0,-0.0,50.0,525000.0,0.0,0.0,0.0,0.0,0.0,0.0
1402753254267748373,3,-8.66290242142,-0.00591572024346,-3.02623269989,-0.122189614607,7.22707555341,0.10862951003,0.0257096387022,0.0,-0.423893274305,0.0,0.0476609018145,0.0,-1.44722837689,0.0,-0.0551762463143,0.0,0.00447772208241,0.0,0.0297147076463,0.0,0.0656867243064,0.0,0.00309267016979,0.0,0.0,0.0,0.0,100.0,-0.0,0.0,-0.00230160554007,50.0,-0.00383606751517,50.0,-0.0,50.0,-0.0,50.0,525000.0,0.0,0.0,0.0,0.0,0.0,0.0
1402753254288452756,3,-8.66290242142,-0.00591572024346,-3.02623269989,-0.122189614607,7.22707555341,0.10862951003,0.0257096387022,0.0,-0.423893274305,0.0,0.0476609018145,0.0,-1.44722837689,0.0,-0.0551762463143,0.0,0.00447772208241,0.0,0.0297147076463,0.0,0.0656867243064,0.0,0.00309267016979,0.0,0.0,0.0,0.0,100.0,-0.0,0.0,-0.00230160554007,50.0,-0.00383606751517,50.0,-0.0,50.0,-0.0,50.0,525000.0,0.0,0.0,0.0,0.0,0.0,0.0
1402753254308222321,3,-8.66673336332,-0.00591572024346,-3.0501866775,-0.122189614607,7.22741388337,0.10862951003,0.0179521628005,0.0,-0.460957022473,0.0,0.0500476976188,0.0,-1.45168077878,0.0,-0.0595965433857,0.0,0.00531642208981,0.0,0.016435084806,0.0,0.0686452807932,0.0,0.0152187138854,0.0,0.0,0.0,0.0,100.0,-0.0,0.0,-0.00383606751517,50.0,-0.00383606751517,50.0,-0.0,50.0,-0.0,50.0,525000.0,0.0,0.0,0.0,0.0,0.0,0.0
1402753254327680250,3,-8.66673336332,-0.00591572024346,-3.0501866775,-0.122189614607,7.22741388337,0.10862951003,0.0179521628005,0.0,-0.460957022473,0.0,0.0500476976188,0.0,-1.45168077878,0.0,-0.0595965433857,0.0,0.00531642208981,0.0,0.016435084806,0.0,0.0686452807932,0.0,0.0152187138854,0.0,0.0,0.0,0.0,100.0,-0.0,0.0,-0.00230160554007,50.0,-0.00383606751517,50.0,-0.0,50.0,-0.0,50.0,525000.0,0.0,0.0,0.0,0.0,0.0,0.0
1402753254347880328,3,-8.66881878057,-0.00591572024346,-3.0639869319,-0.122189614607,7.23734770173,0.10862951003,0.0071524369398,0.0,-0.462355866585,0.0,0.0598378497776,0.0,-1.45577220313,0.0,-0.0598983446683,0.0,0.00571710545099,0.0,0.00518064390912,0.0,0.0667205295515,0.0,0.0170892301651,0.0,0.0,0.0,0.0,100.0,-0.0,0.0,-0.00383606751517,50.0,-0.00383606751517,50.0,-0.0,50.0,-0.0,50.0,525000.0,0.0,0.0,0.0,0.0,0.0,0.0
1402753254367527881,3,-8.66881878057,-0.00591572024346,-3.0639869319,-0.122189614607,7.23734770173,0.10862951003,0.0071524369398,0.0,-0.462355866585,0.0,0.0598378497776,0.0,-1.45577220313,0.0,-0.0598983446683,0.0,0.00571710545099,0.0,0.00518064390912,0.0,0.0667205295515,0.0,0.0170892301651,0.0,0.0,0.0,0.0,100.0,-0.0,0.0,-0.00230160554007,50.0,-0.00383606751517,50.0,-0.0,50.0,-0.0,50.0,525000.0,0.0,0.0,0.0,0.0,0.0,0.0
1402753254387673860,3,-8.67008592327,-0.00591572024346,-3.0796137775,-0.122189614607,7.23162079298,0.10862951003,-0.000477348902931,0.0,-0.480256391608,0.0,0.0627300426276,0.0,-1.4595126675,0.0,-0.0666105963246,0.0,0.00602837123013,0.0,0.001508616145,0.0,0.0667185666186,0.0,0.0192191671447,0.0,0.0,0.0,0.0,100.0,-0.0,0.0,-0.00230160554007,50.0,-0.00383606751517,50.0,-0.0,50.0,-0.0,50.0,525000.0,0.0,0.0,0.0,0.0,0.0,0.0
1402753254408261139,3,-8.67008592327,-0.00591572024346,-3.0796137775,-0.122189614607,7.23162079298,0.10862951003,-0.000477348902931,0.0,-0.480256391608,0.0,0.0627300426276,0.0,-1.4595126675,0.0,-0.0666105963246,0.0,0.00602837123013,0.0,0.001508616145,0.0,0.0667185666186,0.0,0.0192191671447,0.0,0.0,0.0,0.0,100.0,-0.0,0.0,-0.00230160554007,50.0,-0.00383606751517,50.0,-0.0,50.0,-0.0,50.0,525000.0,0.0,0.0,0.0,0.0,0.0,0.0
1402753254427974891,3,-8.67013784009,-0.00591572024346,-3.09950857694,-0.122189614607,7.23407055469,0.10862951003,-0.00202191917149,0.0,-0.497785957448,0.0,0.0671522736031,0.0,-1.46214244423,0.0,-0.0659388957679,0.0,0.00542958003609,0.0,-0.00497103267492,0.0,0.0665677214325,0.0,0.0175566557959,0.0,0.0,0.0,0.0,100.0,-0.0,0.0,-0.00230160554007,50.0,-0.00383606751517,50.0,-0.0,50.0,-0.0,50.0,525000.0,0.0,0.0,0.0,0.0,0.0,0.0
1402753254447734498,3,-8.67013784009,-0.00591572024346,-3.09950857694,-0.122189614607,7.23407055469,0.10862951003,-0.00202191917149,0.0,-0.497785957448,0.0,0.0671522736031,0.0,-1.46214244423,0.0,-0.0659388957679,0.0,0.00542958003609,0.0,-0.00497103267492,0.0,0.0665677214325,0.0,0.0175566557959,0.0,0.0,0.0,0.0,100.0,-0.0,0.0,-0.00383606751517,50.0,-0.00383606751517,50.0,-0.0,50.0,-0.0,50.0,525000.0,0.0,0.0,0.0,0.0,0.0,0.0
1402753254467769314,3,-8.66445719157,-0.00591572024346,-3.10678335175,-0.122189614607,7.22668809055,0.10862951003,0.00482678073401,0.0,-0.493429822916,0.0,0.0709815856811,0.0,-1.4635253556,0.0,-0.0652512331492,0.0,0.003965169228,0.0,-0.00767933597401,0.0,0.06391551662,0.0,0.0079190548858,0.0,0.0,0.0,0.0,100.0,-0.0,0.0,-0.00383606751517,50.0,-0.00383606751517,50.0,-0.0,50.0,-0.0,50.0,525000.0,0.0,0.0,0.0,0.0,0.0,0.0
1402753254487657449,3,-8.66445719157,-0.00591572024346,-3.10678335175,-0.122189614607,7.22668809055,0.10862951003,0.00482678073401,0.0,-0.493429822916,0.0,0.0709815856811,0.0,-1.4635253556,0.0,-0.0652512331492,0.0,0.003965169228,0.0,-0.00767933597401,0.0,0.06391551662,0.0,0.0079190548858,0.0,0.0,0.0,0.0,100.0,-0.0,0.0,-0.00230160554007,50.0,-0.00383606751517,50.0,-0.0,50.0,-0.0,50.0,525000.0,0.0,0.0,0.0,0.0,0.0,0.0
1402753254507754030,3,-8.65953975786,-0.00591572024346,-3.1257265937,-0.122189614607,7.22091775553,0.10862951003,0.0111812957583,0.0,-0.52031567998,0.0,0.0713504219381,0.0,-1.46529973312,0.0,-0.0664373582749,0.0,0.00271511027228,0.0,-0.00977167758154,0.0,0.064863185846,0.0,0.00295311987413,0.0,0.0,0.0,0.0,100.0,-0.0,0.0,-0.00230160554007,50.0,-0.00383606751517,50.0,-0.0,50.0,-0.0,50.0,525000.0,0.0,0.0,0.0,0.0,0.0,0.0
1402753254528905929,3,-8.65953975786,-0.00591572024346,-3.1257265937,-0.122189614607,7.22091775553,0.10862951003,0.0111812957583,0.0,-0.52031567998,0.0,0.0713504219381,0.0,-1.46529973312,0.0,-0.0664373582749,0.0,0.00271511027228,0.0,-0.00977167758154,0.0,0.064863185846,0.0,0.00295311987413,0.0,0.0,0.0,0.0,100.0,-0.0,0.0,-0.00230160554007,50.0,-0.00383606751517,50.0,-0.0,50.0,-0.0,50.0,525000.0,0.0,0.0,0.0,0.0,0.0,0.0
1402753254548093178,3,-8.65910094582,-0.00591572024346,-3.14744878857,-0.122189614607,7.22390160523,0.10862951003,0.00944999462913,0.0,-0.537772156849,0.0,0.0762715025543,0.0,-1.46820797405,0.0,-0.0674819526616,0.0,0.00258509125713,0.0,-0.0161089259264,0.0,0.0642987415961,0.0,0.00525078624283,0.0,0.0,0.0,0.0,100.0,-0.0,0.0,-0.00230160554007,50.0,-0.00383606751517,50.0,-0.0,50.0,-0.0,50.0,525000.0,0.0,0.0,0.0,0.0,0.0,0.0
1402753254567715509,3,-8.65910094582,-0.00591572024346,-3.14744878857,-0.122189614607,7.22390160523,0.10862951003,0.00944999462913,0.0,-0.537772156849,0.0,0.0762715025543,0.0,-1.46820797405,0.0,-0.0674819526616,0.0,0.00258509125713,0.0,-0.0161089259264,0.0,0.0642987415961,0.0,0.00525078624283,0.0,0.0,0.0,0.0,100.0,-0.0,0.0,-0.00230160554007,50.0,-0.00383606751517,50.0,-0.0,50.0,-0.0,50.0,525000.0,0.0,0.0,0.0,0.0,0.0,0.0
1402753254587728046,3,-8.65779018093,-0.00591572024346,-3.16630705832,-0.122189614607,7.21435028061,0.10862951003,0.00480426606849,0.0,-0.561969685536,0.0,0.0753386025141,0.0,-1.47111781264,0.0,-0.0616646360278,0.0,0.00287043406175,0.0,-0.00895626620226,0.0,0.064728754915,0.0,0.00499425763429,0.0,0.0,0.0,0.0,100.0,-0.0,0.0,-0.00230160554007,50.0,-0.00383606751517,50.0,-0.0,50.0,-0.0,50.0,525000.0,0.0,0.0,0.0,0.0,0.0,0.0
1402753254607713669,3,-8.65779018093,-0.00591572024346,-3.16630705832,-0.122189614607,7.21435028061,0.10862951003,0.00480426606849,0.0,-0.561969685536,0.0,0.0753386025141,0.0,-1.47111781264,0.0,-0.0616646360278,0.0,0.00287043406175,0.0,-0.00895626620226,0.0,0.064728754915,0.0,0.00499425763429,0.0,0.0,0.0,0.0,100.0,-0.0,0.0,-0.00230160554007,50.0,-0.00383606751517,50.0,-0.0,50.0,-0.0,50.0,525000.0,0.0,0.0,0.0,0.0,0.0,0.0
1402753254627930315,3,-8.65256895364,-0.00591572024346,-3.18799965756,-0.122189614607,7.22100100823,0.10862951003,0.0107912058621,0.0,-0.581639743562,0.0,0.0797671714212,0.0,-1.47309658063,0.0,-0.0669249988598,0.0,0.00191824982766,0.0,-0.00602650516644,0.0,0.0649066459765,0.0,0.000760042946251,0.0,0.0,0.0,0.0,100.0,-0.0,0.0,-0.00383606751517,50.0,-0.00383606751517,50.0,-0.0,50.0,-0.0,50.0,525000.0,0.0,0.0,0.0,0.0,0.0,0.0
1402753254647816397,3,-8.65256895364,-0.00591572024346,-3.18799965756,-0.122189614607,7.22100100823,0.10862951003,0.0107912058621,0.0,-0.581639743562,0.0,0.0797671714212,0.0,-1.47309658063,0.0,-0.0669249988598,0.0,0.00191824982766,0.0,-0.00602650516644,0.0,0.0649066459765,0.0,0.000760042946251,0.0,0.0,0.0,0.0,100.0,-0.0,0.0,-0.00230160554007,50.0,-0.00383606751517,50.0,-0.0,50.0,-0.0,50.0,525000.0,0.0,0.0,0.0,0.0,0.0,0.0
1402753254667632439,3,-8.66302966087,-0.00591572024346,-3.20241288186,-0.122189614607,7.20375021542,0.10862951003,-0.0245944581183,0.0,-0.589585119931,0.0,0.0731233003338,0.0,-1.47943730336,0.0,-0.0710476571019,0.0,0.00570504898845,0.0,0.00206287761728,0.0,0.0630998943316,0.0,-0.00454684419298,0.0,0.0,0.0,0.0,100.0,-0.0,0.0,-0.00230160554007,50.0,-0.00383606751517,50.0,-0.0,50.0,-0.0,50.0,525000.0,0.0,0.0,0.0,0.0,0.0,0.0
1402753254688318938,3,-8.66302966087,-0.00591572024346,-3.20241288186,-0.122189614607,7.20375021542,0.10862951003,-0.0245944581183,0.0,-0.589585119931,0.0,0.0731233003338,0.0,-1.47943730336,0.0,-0.0710476571019,0.0,0.00570504898845,0.0,0.00206287761728,0.0,0.0630998943316,0.0,-0.00454684419298,0.0,0.0,0.0,0.0,100.0,-0.0,0.0,-0.00230160554007,50.0,-0.00383606751517,50.0,-0.0,50.0,-0.0,50.0,525000.0,0.0,0.0,0.0,0.0,0.0,0.0
1402753254707786729,3,-8.65723597282,-0.00591572024346,-3.22358721192,-0.122189614607,7.1985843812,0.10862951003,-0.0156332159737,0.0,-0.609102209281,0.0,0.07389301672,0.0,-1.48109140095,0.0,-0.0695392531083,0.0,0.00418780359116,0.0,0.0031823726104,0.0,0.0638631382142,0.0,-0.00849085101484,0.0,0.0,0.0,0.0,100.0,-0.0,0.0,-0.00230160554007,50.0,-0.00383606751517,50.0,-0.0,50.0,-0.0,50.0,525000.0,0.0,0.0,0.0,0.0,0.0,0.0
1402753254727923687,3,-8.65723597282,-0.00591572024346,-3.22358721192,-0.122189614607,7.1985843812,0.10862951003,-0.0156332159737,0.0,-0.609102209281,0.0,0.07389301672,0.0,-1.48109140095,0.0,-0.0695392531083,0.0,0.00418780359116,0.0,0.0031823726104,0.0,0.0638631382142,0.0,-0.00849085101484,0.0,0.0,0.0,0.0,100.0,-0.0,0.0,-0.00383606751517,50.0,-0.00383606751517,50.0,-0.0,50.0,-0.0,50.0,525000.0,0.0,0.0,0.0,0.0,0.0,0.0
1402753254748099839,3,-8.6551571353,-0.00591572024346,-3.25064085849,-0.122189614607,7.19925359583,0.10862951003,-0.0165214227311,0.0,-0.626627483977,0.0,0.0719298723832,0.0,-1.48479382688,0.0,-0.0746970402473,0.0,0.00414166440224,0.0,0.00989300197755,0.0,0.0639475182269,0.0,0.000969630939566,0.0,0.0,0.0,0.0,100.0,-0.0,0.0,-0.00383606751517,50.0,-0.00383606751517,50.0,-0.0,50.0,-0.0,50.0,525000.0,0.0,0.0,0.0,0.0,0.0,0.0
1402753254767713562,3,-8.6551571353,-0.00591572024346,-3.25064085849,-0.122189614607,7.19925359583,0.10862951003,-0.0165214227311,0.0,-0.626627483977,0.0,0.0719298723832,0.0,-1.48479382688,0.0,-0.0746970402473,0.0,0.00414166440224,0.0,0.00989300197755,0.0,0.0639475182269,0.0,0.000969630939566,0.0,0.0,0.0,0.0,100.0,-0.0,0.0,-0.00230160554007,50.0,-0.00383606751517,50.0,-0.0,50.0,-0.0,50.0,525000.0,0.0,0.0,0.0,0.0,0.0,0.0
1402753254787762903,3,-8.65427198725,-0.00591572024346,-3.27640771701,-0.122189614607,7.19823058785,0.10862951003,-0.0234193780721,0.0,-0.640399095325,0.0,0.0726040723629,0.0,-1.48902062866,0.0,-0.0701314180641,0.0,0.00482426851598,0.0,0.00358624780728,0.0,0.063649954315,0.0,0.00120653897323,0.0,0.0,0.0,0.0,100.0,-0.0,0.0,-0.00230160554007,50.0,-0.00383606751517,50.0,-0.0,50.0,-0.0,50.0,525000.0,0.0,0.0,0.0,0.0,0.0,0.0
1402753254808365740,3,-8.65427198725,-0.00591572024346,-3.27640771701,-0.122189614607,7.19823058785,0.10862951003,-0.0234193780721,0.0,-0.640399095325,0.0,0.0726040723629,0.0,-1.48902062866,0.0,-0.0701314180641,0.0,0.00482426851598,0.0,0.00358624780728,0.0,0.063649954315,0.0,0.00120653897323,0.0,0.0,0.0,0.0,100.0,-0.0,0.0,-0.00230160554007,50.0,-0.00383606751517,50.0,-0.0,50.0,-0.0,50.0,525000.0,0.0,0.0,0.0,0.0,0.0,0.0
1402753254827867909,3,-8.6457616934,-0.00591572024346,-3.28716732928,-0.122189614607,7.19083742158,0.10862951003,-0.0084622452967,0.0,-0.654541886075,0.0,0.0711287335326,0.0,-1.48930669832,0.0,-0.071439732836,0.0,0.0030344909704,0.0,0.0151966203008,0.0,0.0650013734157,0.0,-0.00132916935863,0.0,0.0,0.0,0.0,100.0,-0.0,0.0,-0.00230160554007,50.0,-0.00383606751517,50.0,-0.0,50.0,-0.0,50.0,525000.0,0.0,0.0,0.0,0.0,0.0,0.0
1402753254848060819,3,-8.6457616934,-0.00591572024346,-3.28716732928,-0.122189614607,7.19083742158,0.10862951003,-0.0084622452967,0.0,-0.654541886075,0.0,0.0711287335326,0.0,-1.48930669832,0.0,-0.071439732836,0.0,0.0030344909704,0.0,0.0151966203008,0.0,0.0650013734157,0.0,-0.00132916935863,0.0,0.0,0.0,0.0,100.0,-0.0,0.0,-0.00230160554007,50.0,-0.00383606751517,50.0,-0.0,50.0,-0.0,50.0,525000.0,0.0,0.0,0.0,0.0,0.0,0.0
1402753254867854873,3,-8.64607932228,-0.00591572024346,-3.31316747352,-0.122189614607,7.19359418713,0.10862951003,-0.0110544403152,0.0,-0.668661785472,0.0,0.0714298345755,0.0,-1.49204905197,0.0,-0.0701921809605,0.0,0.00314147134806,0.0,0.0112445696414,0.0,0.0655392546037,0.0,-0.00605623476119,0.0,0.0,0.0,0.0,100.0,-0.0,0.0,-0.00230160554007,50.0,-0.00383606751517,50.0,-0.0,50.0,-0.0,50.0,525000.0,0.0,0.0,0.0,0.0,0.0,0.0
1402753254888263752,3,-8.64607932228,-0.00591572024346,-3.31316747352,-0.122189614607,7.19359418713,0.10862951003,-0.0110544403152,0.0,-0.668661785472,0.0,0.0714298345755,0.0,-1.49204905197,0.0,-0.0701921809605,0.0,0.00314147134806,0.0,0.0112445696414,0.0,0.0655392546037,0.0,-0.00605623476119,0.0,0.0,0.0,0.0,100.0,-0.0,0.0,-0.00230160554007,50.0,-0.00383606751517,50.0,-0.0,50.0,-0.0,50.0,525000.0,0.0,0.0,0.0,0.0,0.0,0.0
1402753254908960116,3,-8.65140797061,-0.00591572024346,-3.33787234434,-0.122189614607,7.18335214405,0.10862951003,-0.0290216509322,0.0,-0.691125672833,0.0,0.0705265102318,0.0,-1.49579214278,0.0,-0.0797269769148,0.0,0.00530823564325,0.0,0.0121398507654,0.0,0.0667682605889,0.0,-0.00974551205519,0.0,0.0,0.0,0.0,100.0,-0.0,0.0,-0.00230160554007,50.0,-0.00383606751517,50.0,-0.0,50.0,-0.0,50.0,525000.0,0.0,0.0,0.0,0.0,0.0,0.0
1402753254927694665,3,-8.65140797061,-0.00591572024346,-3.33787234434,-0.122189614607,7.18335214405,0.10862951003,-0.0290216509322,0.0,-0.691125672833,0.0,0.0705265102318,0.0,-1.49579214278,0.0,-0.0797269769148,0.0,0.00530823564325,0.0,0.0121398507654,0.0,0.0667682605889,0.0,-0.00974551205519,0.0,0.0,0.0,0.0,100.0,-0.0,0.0,-0.00230160554007,50.0,-0.00383606751517,50.0,-0.0,50.0,-0.0,50.0,525000.0,0.0,0.0,0.0,0.0,0.0,0.0
1402753254947921461,3,-8.65597648603,-0.00591572024346,-3.35978472924,-0.122189614607,7.17181025336,0.10862951003,-0.0447949014854,0.0,-0.702634464361,0.0,0.0681674378595,0.0,-1.49965249709,0.0,-0.0757213292022,0.0,0.00682567373652,0.0,0.0108109709245,0.0,0.0667111067744,0.0,0.00349176694951,0.0,0.0,0.0,0.0,100.0,-0.0,0.0,-0.00230160554007,50.0,-0.00383606751517,50.0,-0.0,50.0,-0.0,50.0,525000.0,0.0,0.0,0.0,0.0,0.0,0.0
1402753254967574128,3,-8.65597648603,-0.00591572024346,-3.35978472924,-0.122189614607,7.17181025336,0.10862951003,-0.0447949014854,0.0,-0.702634464361,0.0,0.0681674378595,0.0,-1.49965249709,0.0,-0.0757213292022,0.0,0.00682567373652,0.0,0.0108109709245,0.0,0.0667111067744,0.0,0.00349176694951,0.0,0.0,0.0,0.0,100.0,-0.0,0.0,-0.00230160554007,50.0,-0.00383606751517,50.0,-0.0,50.0,-0.0,50.0,525000.0,0.0,0.0,0.0,0.0,0.0,0.0
1402753254988077709,3,-8.65066952299,-0.00591572024346,-3.38677798117,-0.122189614607,7.16021847038,0.10862951003,-0.0340790105041,0.0,-0.726288082848,0.0,0.0667003590211,0.0,-1.50194414346,0.0,-0.073403447808,0.0,0.00538728650938,0.0,0.00559042460825,0.0,0.0684619508235,0.0,0.00530063389161,0.0,0.0,0.0,0.0,100.0,-0.0,0.0,-0.00383606751517,50.0,-0.00383606751517,50.0,-0.0,50.0,-0.0,50.0,525000.0,0.0,0.0,0.0,0.0,0.0,0.0
1402753255008513432,3,-8.65066952299,-0.00591572024346,-3.38677798117,-0.122189614607,7.16021847038,0.10862951003,-0.0340790105041,0.0,-0.726288082848,0.0,0.0667003590211,0.0,-1.50194414346,0.0,-0.073403447808,0.0,0.00538728650938,0.0,0.00559042460825,0.0,0.0684619508235,0.0,0.00530063389161,0.0,0.0,0.0,0.0,100.0,-0.0,0.0,-0.00383606751517,50.0,-0.00383606751517,50.0,-0.0,50.0,-0.0,50.0,525000.0,0.0,0.0,0.0,0.0,0.0,0.0
1402753255027737289,3,-8.65066952299,-0.00591572024346,-3.38677798117,-0.122189614607,7.16021847038,0.10862951003,-0.0340790105041,0.0,-0.726288082848,0.0,0.0667003590211,0.0,-1.50194414346,0.0,-0.073403447808,0.0,0.00538728650938,0.0,0.00559042460825,0.0,0.0684619508235,0.0,0.00530063389161,0.0,0.0,0.0,0.0,100.0,-0.0,0.0,-0.00230160554007,50.0,-0.00383606751517,50.0,-0.0,50.0,-0.0,50.0,525000.0,0.0,0.0,0.0,0.0,0.0,0.0
1402753255047936683,3,-8.65336919364,-0.00591572024346,-3.44313012611,-0.122189614607,7.17366189436,0.10862951003,-0.0441711102245,0.0,-0.750782135522,0.0,0.0803179204872,0.0,-1.50836491235,0.0,-0.0805455186475,0.0,0.00583601089142,0.0,-0.00841201606946,0.0,0.0681426585848,0.0,0.00795730452115,0.0,0.0,0.0,0.0,100.0,-0.0,0.0,-0.00230160554007,50.0,-0.00383606751517,50.0,-0.0,50.0,-0.0,50.0,525000.0,0.0,0.0,0.0,0.0,0.0,0.0
1402753255067804576,3,-8.65380440327,-0.00591572024346,-3.45061635857,-0.122189614607,7.17441621005,0.10862951003,-0.0456790895517,0.0,-0.754422003365,0.0,0.08103120613,0.0,-1.50912031523,0.0,-0.0744690850682,0.0,0.00575936013654,0.0,-0.00178686004739,0.0,0.0681281837345,0.0,0.00762308647536,0.0,0.0,0.0,0.0,100.0,-0.0,0.0,-0.00230160554007,50.0,-0.00383606751517,50.0,-0.0,50.0,-0.0,50.0,525000.0,0.0,0.0,0.0,0.0,0.0,0.0
1402753255088383128,3,-8.65426582088,-0.00591572024346,-3.45884404068,-0.122189614607,7.17509922586,0.10862951003,-0.0471874569136,0.0,-0.758624266914,0.0,0.0833608852013,0.0,-1.50993657237,0.0,-0.0738170564313,0.0,0.00578642683933,0.0,0.00125442785275,0.0,0.06813895604,0.0,-0.00232709627639,0.0,0.0,0.0,0.0,100.0,-0.0,0.0,-0.00230160554007,50.0,-0.00383606751517,50.0,-0.0,50.0,-0.0,50.0,525000.0,0.0,0.0,0.0,0.0,0.0,0.0
1402753255107662582,3,-8.65527965885,-0.00591572024346,-3.47406522133,-0.122189614607,7.17688900827,0.10862951003,-0.0493504297266,0.0,-0.765836443795,0.0,0.0852056563664,0.0,-1.51134944118,0.0,-0.0665357083866,0.0,0.0059039325719,0.0,0.00239223933184,0.0,0.0681126433808,0.0,0.00211912333465,0.0,0.0,0.0,0.0,100.0,-0.0,0.0,-0.00230160554007,50.0,-0.00230160554007,50.0,-0.0,50.0,-0.0,50.0,525000.0,0.0,0.0,0.0,0.0,0.0,0.0
1402753255127683894,3,-8.65527965885,-0.00591572024346,-3.47406522133,-0.122189614607,7.17688900827,0.10862951003,-0.0493504297266,0.0,-0.765836443795,0.0,0.0852056563664,0.0,-1.51134944118,0.0,-0.0665357083866,0.0,0.0059039325719,0.0,0.00239223933184,0.0,0.0681126433808,0.0,0.00211912333465,0.0,0.0,0.0,0.0,100.0,-0.0,0.0,-0.00230160554007,50.0,-0.00383606751517,50.0,-0.0,50.0,-0.0,50.0,525000.0,0.0,0.0,0.0,0.0,0.0,0.0
1402753255147921111,3,-8.65601255893,-0.00591572024346,-3.49218353204,-0.122189614607,7.13931511928,0.10862951003,-0.0521117588902,0.0,-0.77341264847,0.0,0.0757516317938,0.0,-1.51420208664,0.0,-0.0746353545243,0.0,0.00590024611223,0.0,-0.00477918109084,0.0,0.0676724087847,0.0,-0.00121116389406,0.0,0.0,0.0,0.0,100.0,-0.0,0.0,-0.00383606751517,50.0,-0.00383606751517,50.0,-0.0,50.0,-0.0,50.0,525000.0,0.0,0.0,0.0,0.0,0.0,0.0
