rosbagTimestamp,control_method,x_current,x_desired,y_current,y_desired,x_velocity_current,x_velocity_desired,y_velocity_current,y_velocity_desired,yaw_current,yaw_desired,required_force_x,required_force_y,required_moment_z,resultant_force_x,resultant_force_y,resultant_moment_z,current_port_servo_angle,current_port_thruster_force,current_starboard_servo_angle,current_starboard_thruster_force,estimated_port_servo_angle,estimated_port_thruster_force,estimated_starboard_servo_angle,estimated_starboard_thruster_force,cost_value,step,user_defined_1,user_defined_2,user_defined_3,user_defined_4,user_defined_5
1402598261582714441,0,15.900296525,-0.114322152727,-22.7245197569,0.043815185726,0.000273136204327,0.0,0.0962906072183,0.0,2.16586203893,0.0,0.0,0.0,0.0,-0.0,0.0,0.0,-0.172614963847,-0.0,0.0222481171314,-0.0,-0.168073019658,-0.0,0.0207256318136,-0.0,1.14736092777e-07,0.0,0.0,0.0,0.0,0.0,0.0
1402598261602869753,0,15.900296525,-0.114322152727,-22.7245197569,0.043815185726,0.000273136204327,0.0,0.0962906072183,0.0,2.16586203893,0.0,0.0,0.0,0.0,-0.0,0.0,0.0,-0.172614963847,-0.0,0.0222481171314,-0.0,-0.168073019658,-0.0,0.0207256318136,-0.0,1.14736092777e-07,0.0,0.0,0.0,0.0,0.0,0.0
1402598261622467524,0,15.8972125565,-0.114322152727,-22.7231298434,0.043815185726,-0.00447427305458,0.0,0.0895468080738,0.0,2.16308232748,0.0,0.0,0.0,0.0,-0.0,0.0,0.0,-0.172614963847,-0.0,0.0222481171314,-0.0,-0.168073019658,-0.0,0.0207256318136,-0.0,1.14736092777e-07,0.0,0.0,0.0,0.0,0.0,0.0
1402598261642362850,0,15.8972125565,-0.114322152727,-22.7231298434,0.043815185726,-0.00447427305458,0.0,0.0895468080738,0.0,2.16308232748,0.0,0.0,0.0,0.0,-0.0,0.0,0.0,-0.172614963847,-0.0,0.0222481171314,-0.0,-0.161961585105,-0.0,0.0207256318136,-0.0,5.79062200784e-07,0.0,0.0,0.0,0.0,0.0,0.0
1402598261662473264,0,15.8969440776,-0.114322152727,-22.7197373282,0.043815185726,-0.00809600743648,0.0,0.0874802648302,0.0,2.16058132494,0.0,0.0,0.0,0.0,3.85246905468,0.102981510973,1.09968425207,-0.172614963847,-0.0,0.0222481171314,-0.0,-0.186463408346,-0.0,0.0267249369469,3.85384522378,1426.2918299,0.0,0.0,0.0,0.0,0.0,0.0
1402598261682334410,0,15.8969440776,-0.114322152727,-22.7197373282,0.043815185726,-0.00809600743648,0.0,0.0874802648302,0.0,2.16058132494,0.0,0.0,0.0,0.0,-88.8511770012,18.1922509807,19.7200572463,-0.172614963847,-0.0,0.0222481171314,3.85384522378,-0.180351973793,-100.0,0.0267249369469,9.53028798103,805100.041441,0.0,0.0,0.0,0.0,0.0,0.0
1402598261702475252,0,15.9018694009,-0.114322152727,-22.7188132305,0.043815185726,0.00225155988786,0.0,0.0820258252377,0.0,2.15783036065,0.0,0.0,0.0,0.0,-60.7852445075,18.7168314216,27.8948096892,-0.174149425822,-100.0,0.0222481171314,9.53028798103,-0.180351973793,-100.0,0.0207256318136,37.6008927822,806031.526212,0.0,0.0,0.0,0.0,0.0,0.0
1402598261723164472,0,15.9018694009,-0.114322152727,-22.7188132305,0.043815185726,0.00225155988786,0.0,0.0820258252377,0.0,2.15783036065,0.0,0.0,0.0,0.0,-1.59707174492,43.1058181335,28.2801772665,-0.175683649379,-100.0,0.0222481171314,37.6008927822,-0.180351973793,-100.0,0.254418150756,100.0,1429067.52377,0.0,0.0,0.0,0.0,0.0,0.0
1402598261742567007,0,15.8981266082,-0.114322152727,-22.7132627143,0.043815185726,-0.00762477795905,0.0,0.0850046796618,0.0,2.15495466117,0.0,0.0,0.0,0.0,-1.59707174492,43.1058181335,28.2801772665,-0.178752573329,-100.0,0.0222481171314,100.0,-0.180351973793,-100.0,0.254418150756,100.0,1429067.52377,0.0,0.0,0.0,0.0,0.0,0.0
1402598261763026139,0,15.8981266082,-0.114322152727,-22.7132627143,0.043815185726,-0.00762477795905,0.0,0.0850046796618,0.0,2.15495466117,0.0,0.0,0.0,0.0,-1.59707174492,43.1058181335,28.2801772665,-0.178752573329,-100.0,0.0314544121449,100.0,-0.180351973793,-100.0,0.254418150756,100.0,1429067.52375,0.0,0.0,0.0,0.0,0.0,0.0
1402598261782475918,0,15.9009947861,-0.114322152727,-22.7041890155,0.043815185726,-0.000700295349982,0.0,0.0959407613449,0.0,2.15223281542,0.0,0.0,0.0,0.0,-1.59707174492,43.1058181335,28.2801772665,-0.180286796885,-100.0,0.0575383583729,100.0,-0.180351973793,-100.0,0.254418150756,100.0,1429067.52369,0.0,0.0,0.0,0.0,0.0,0.0
1402598261802921977,0,15.9009947861,-0.114322152727,-22.7041890155,0.043815185726,-0.000700295349982,0.0,0.0959407613449,0.0,2.15223281542,0.0,0.0,0.0,0.0,-1.59707174492,43.1058181335,28.2801772665,-0.183355482417,-100.0,0.085156766576,100.0,-0.180351973793,-100.0,0.254418150756,100.0,1429067.52364,0.0,0.0,0.0,0.0,0.0,0.0
1402598261822832983,0,15.898018037,-0.114322152727,-22.7115853011,0.043815185726,-0.00399923841892,0.0,0.0711986265796,0.0,2.14966113707,0.0,0.0,0.0,0.0,-1.59707174492,43.1058181335,28.2801772665,-0.183355482417,-100.0,0.117378322286,100.0,-0.180351973793,-100.0,0.254418150756,100.0,1429067.52359,0.0,0.0,0.0,0.0,0.0,0.0
1402598261843207450,0,15.898018037,-0.114322152727,-22.7115853011,0.043815185726,-0.00399923841892,0.0,0.0711986265796,0.0,2.14966113707,0.0,0.0,0.0,0.0,-1.59707174492,43.1058181335,28.2801772665,-0.183355482417,-100.0,0.148065416021,100.0,-0.180351973793,-100.0,0.254418150756,100.0,1429067.52356,0.0,0.0,0.0,0.0,0.0,0.0
1402598261862537427,0,15.8979749172,-0.114322152727,-22.7088673358,0.043815185726,-0.00680187666331,0.0,0.0688141082948,0.0,2.14699693197,0.0,0.0,0.0,0.0,-1.59707174492,43.1058181335,28.2801772665,-0.183355482417,-100.0,0.183355418843,100.0,-0.180351973793,-100.0,0.254418150756,100.0,1429067.52352,0.0,0.0,0.0,0.0,0.0,0.0
1402598261883005290,0,15.8979749172,-0.114322152727,-22.7088673358,0.043815185726,-0.00680187666331,0.0,0.0688141082948,0.0,2.14699693197,0.0,0.0,0.0,0.0,-1.59707174492,43.1058181335,28.2801772665,-0.183355482417,-100.0,0.218645421666,100.0,-0.180351973793,-100.0,0.254418150756,100.0,1429067.52351,0.0,0.0,0.0,0.0,0.0,0.0
1402598261902365967,0,15.8978393513,-0.114322152727,-22.7061190762,0.043815185726,-0.00736716841676,0.0,0.0597216462469,0.0,2.14450362001,0.0,0.0,0.0,0.0,-1.59707174492,43.1058181335,28.2801772665,-0.183355482417,-100.0,0.243195382756,100.0,-0.180351973793,-100.0,0.254418150756,100.0,1429067.5235,0.0,0.0,0.0,0.0,0.0,0.0
1402598261923161658,0,15.8978393513,-0.114322152727,-22.7061190762,0.043815185726,-0.00736716841676,0.0,0.0597216462469,0.0,2.14450362001,0.0,0.0,0.0,0.0,-1.59707174492,43.1058181335,28.2801772665,-0.183355482417,-100.0,0.250866977376,100.0,-0.180351973793,-100.0,0.254418150756,100.0,1429067.5235,0.0,0.0,0.0,0.0,0.0,0.0
1402598261942370972,0,15.8928795775,-0.114322152727,-22.6967019527,0.043815185726,-0.0253003724858,0.0,0.0742512743382,0.0,2.14404117185,0.0,0.0,0.0,0.0,-1.59707174492,43.1058181335,28.2801772665,-0.18182125886,-100.0,0.257004586858,100.0,-0.180351973793,-100.0,0.254418150756,100.0,1429067.5235,0.0,0.0,0.0,0.0,0.0,0.0
1402598261963068512,0,15.8928795775,-0.114322152727,-22.6967019527,0.043815185726,-0.0253003724858,0.0,0.0742512743382,0.0,2.14404117185,0.0,0.0,0.0,0.0,-1.59707174492,43.1058181335,28.2801772665,-0.18182125886,-100.0,0.261607495946,100.0,-0.180351973793,-100.0,0.254418150756,100.0,1429067.5235,0.0,0.0,0.0,0.0,0.0,0.0
1402598261982527755,0,15.8915804576,-0.114322152727,-22.6935137045,0.043815185726,-0.0369661669474,0.0,0.0817472590279,0.0,2.14544734329,0.0,0.0,0.0,0.0,-1.59707174492,43.1058181335,28.2801772665,-0.17108074029,-100.0,0.263141957921,100.0,-0.180351973793,-100.0,0.254418150756,100.0,1429067.5235,0.0,0.0,0.0,0.0,0.0,0.0
1402598262002997166,0,15.8915804576,-0.114322152727,-22.6935137045,0.043815185726,-0.0369661669474,0.0,0.0817472590279,0.0,2.14544734329,0.0,0.0,0.0,0.0,-1.59707174492,43.1058181335,28.2801772665,-0.174149425822,-100.0,0.263141957921,100.0,-0.180351973793,-100.0,0.254418150756,100.0,1429067.5235,0.0,0.0,0.0,0.0,0.0,0.0
1402598262022277372,0,15.8894411509,-0.114322152727,-22.6902403023,0.043815185726,-0.05326351682,0.0,0.0821803761734,0.0,2.14975959161,0.0,0.0,0.0,0.0,-1.59707174492,43.1058181335,28.2801772665,-0.174149425822,-100.0,0.261607495946,100.0,-0.180351973793,-100.0,0.254418150756,100.0,1429067.5235,0.0,0.0,0.0,0.0,0.0,0.0
1402598262043033161,0,15.8894411509,-0.114322152727,-22.6902403023,0.043815185726,-0.05326351682,0.0,0.0821803761734,0.0,2.14975959161,0.0,0.0,0.0,0.0,-1.59707174492,43.1058181335,28.2801772665,-0.174149425822,-100.0,0.261607495946,100.0,-0.180351973793,-100.0,0.254418150756,100.0,1429067.5235,0.0,0.0,0.0,0.0,0.0,0.0
1402598262062449224,0,15.8810209877,-0.114322152727,-22.6850518157,0.043815185726,-0.0738992937997,0.0,0.0852306087686,0.0,2.15650244895,0.0,0.0,0.0,0.0,-1.59707174492,43.1058181335,28.2801772665,-0.172614963847,-100.0,0.260073033971,100.0,-0.180351973793,-100.0,0.254418150756,100.0,1429067.5235,0.0,0.0,0.0,0.0,0.0,0.0
1402598262083095475,0,15.8810209877,-0.114322152727,-22.6850518157,0.043815185726,-0.0738992937997,0.0,0.0852306087686,0.0,2.15650244895,0.0,0.0,0.0,0.0,-1.59707174492,43.1058181335,28.2801772665,-0.172614963847,-100.0,0.258538810415,100.0,-0.180351973793,-100.0,0.254418150756,100.0,1429067.5235,0.0,0.0,0.0,0.0,0.0,0.0
1402598262102294060,0,15.8779084622,-0.114322152727,-22.6817070505,0.043815185726,-0.0779074706614,0.0,0.0839359815089,0.0,2.16544810846,0.0,0.0,0.0,0.0,-1.59707174492,43.1058181335,28.2801772665,-0.172614963847,-100.0,0.258538810415,100.0,-0.180351973793,-100.0,0.254418150756,100.0,1429067.5235,0.0,0.0,0.0,0.0,0.0,0.0
1402598262123154608,0,15.8779084622,-0.114322152727,-22.6817070505,0.043815185726,-0.0779074706614,0.0,0.0839359815089,0.0,2.16544810846,0.0,0.0,0.0,0.0,-1.59707174492,43.1058181335,28.2801772665,-0.172614963847,-100.0,0.258538810415,100.0,-0.180351973793,-100.0,0.254418150756,100.0,1429067.5235,0.0,0.0,0.0,0.0,0.0,0.0
1402598262142524836,0,15.8716229313,-0.114322152727,-22.6789070115,0.043815185726,-0.0862528146242,0.0,0.0819245824758,0.0,2.17628696486,0.0,0.0,0.0,0.0,-1.59707174492,43.1058181335,28.2801772665,-0.172614963847,-100.0,0.258538810415,100.0,-0.180351973793,-100.0,0.254418150756,100.0,1429067.5235,0.0,0.0,0.0,0.0,0.0,0.0
1402598262163087719,0,15.8716229313,-0.114322152727,-22.6789070115,0.043815185726,-0.0862528146242,0.0,0.0819245824758,0.0,2.17628696486,0.0,0.0,0.0,0.0,-1.59707174492,43.1058181335,28.2801772665,-0.172614963847,-100.0,0.257004586858,100.0,-0.180351973793,-100.0,0.254418150756,100.0,1429067.5235,0.0,0.0,0.0,0.0,0.0,0.0
1402598262182497586,0,15.8675912522,-0.114322152727,-22.6758665982,0.043815185726,-0.103532002199,0.0,0.0759884623793,0.0,2.18928531832,0.0,0.0,0.0,0.0,-1.59707174492,43.1058181335,28.2801772665,-0.172614963847,-100.0,0.257004586858,100.0,-0.180351973793,-100.0,0.254418150756,100.0,1429067.5235,0.0,0.0,0.0,0.0,0.0,0.0
1402598262202891752,0,15.8675912522,-0.114322152727,-22.6758665982,0.043815185726,-0.103532002199,0.0,0.0759884623793,0.0,2.18928531832,0.0,0.0,0.0,0.0,-1.59707174492,43.1058181335,28.2801772665,-0.17108074029,-100.0,0.258538810415,100.0,-0.180351973793,-100.0,0.254418150756,100.0,1429067.5235,0.0,0.0,0.0,0.0,0.0,0.0
1402598262222808070,0,15.8722044564,-0.114322152727,-22.6648768548,0.043815185726,-0.096181329085,0.0,0.0903802155503,0.0,2.20402575323,0.0,0.0,0.0,0.0,-1.59707174492,43.1058181335,28.2801772665,-0.17108074029,-100.0,0.257004586858,100.0,-0.180351973793,-100.0,0.254418150756,100.0,1429067.5235,0.0,0.0,0.0,0.0,0.0,0.0
1402598262243148449,0,15.8722044564,-0.114322152727,-22.6648768548,0.043815185726,-0.096181329085,0.0,0.0903802155503,0.0,2.20402575323,0.0,0.0,0.0,0.0,-1.59707174492,43.1058181335,28.2801772665,-0.17108074029,-100.0,0.257004586858,100.0,-0.180351973793,-100.0,0.254418150756,100.0,1429067.5235,0.0,0.0,0.0,0.0,0.0,0.0
1402598262262515722,0,15.8622572397,-0.114322152727,-22.6563729945,0.043815185726,-0.115886188054,0.0,0.0988954530145,0.0,2.22181752715,0.0,0.0,0.0,0.0,-1.59707174492,43.1058181335,28.2801772665,-0.17108074029,-100.0,0.257004586858,100.0,-0.180351973793,-100.0,0.254418150756,100.0,1429067.5235,0.0,0.0,0.0,0.0,0.0,0.0
1402598262283149003,0,15.8622572397,-0.114322152727,-22.6563729945,0.043815185726,-0.115886188054,0.0,0.0988954530145,0.0,2.22181752715,0.0,0.0,0.0,0.0,-1.59707174492,43.1058181335,28.2801772665,-0.169546278315,-100.0,0.257004586858,100.0,-0.180351973793,-100.0,0.254418150756,100.0,1429067.5235,0.0,0.0,0.0,0.0,0.0,0.0
1402598262302714905,0,15.8603343796,-0.114322152727,-22.6414262477,0.043815185726,-0.127503992689,0.0,0.105574843596,0.0,2.24519311739,0.0,0.0,0.0,0.0,-1.59707174492,43.1058181335,28.2801772665,-0.169546278315,-100.0,0.257004586858,100.0,-0.180351973793,-100.0,0.254418150756,100.0,1429067.5235,0.0,0.0,0.0,0.0,0.0,0.0
1402598262323198005,0,15.8603343796,-0.114322152727,-22.6414262477,0.043815185726,-0.127503992689,0.0,0.105574843596,0.0,2.24519311739,0.0,0.0,0.0,0.0,-1.59707174492,43.1058181335,28.2801772665,-0.169546278315,-100.0,0.255470124883,100.0,-0.180351973793,-100.0,0.254418150756,100.0,1429067.5235,0.0,0.0,0.0,0.0,0.0,0.0
1402598262342730800,0,15.8535315694,-0.114322152727,-22.6360531086,0.043815185726,-0.147276264493,0.0,0.101831060377,0.0,2.26995730805,0.0,0.0,0.0,0.0,-1.59707174492,43.1058181335,28.2801772665,-0.169546278315,-100.0,0.257004586858,100.0,-0.180351973793,-100.0,0.254418150756,100.0,1429067.5235,0.0,0.0,0.0,0.0,0.0,0.0
1402598262363020029,0,15.8535315694,-0.114322152727,-22.6360531086,0.043815185726,-0.147276264493,0.0,0.101831060377,0.0,2.26995730805,0.0,0.0,0.0,0.0,-1.59707174492,43.1058181335,28.2801772665,-0.169546278315,-100.0,0.257004586858,100.0,-0.180351973793,-100.0,0.254418150756,100.0,1429067.5235,0.0,0.0,0.0,0.0,0.0,0.0
1402598262382800217,0,15.8603484684,-0.114322152727,-22.6263064029,0.043815185726,-0.123908300967,0.0,0.113921487675,0.0,2.27894157288,0.0,0.0,0.0,0.0,-1.59707174492,43.1058181335,28.2801772665,-0.169546278315,-100.0,0.257004586858,100.0,-0.180351973793,-100.0,0.254418150756,100.0,1429067.5235,0.0,0.0,0.0,0.0,0.0,0.0
1402598262402803035,0,15.8603484684,-0.114322152727,-22.6263064029,0.043815185726,-0.123908300967,0.0,0.113921487675,0.0,2.27894157288,0.0,0.0,0.0,0.0,-1.59707174492,43.1058181335,28.2801772665,-0.169546278315,-100.0,0.257004586858,100.0,-0.180351973793,-100.0,0.254418150756,100.0,1429067.5235,0.0,0.0,0.0,0.0,0.0,0.0
1402598262422328068,0,15.8550898062,-0.114322152727,-22.6216784674,0.043815185726,-0.137043688596,0.0,0.106706630932,0.0,2.30122181448,0.0,0.0,0.0,0.0,-1.59707174492,43.1058181335,28.2801772665,-0.169546278315,-100.0,0.257004586858,100.0,-0.180351973793,-100.0,0.254418150756,100.0,1429067.5235,0.0,0.0,0.0,0.0,0.0,0.0
1402598262443019492,0,15.8550898062,-0.114322152727,-22.6216784674,0.043815185726,-0.137043688596,0.0,0.106706630932,0.0,2.30122181448,0.0,0.0,0.0,0.0,-1.59707174492,43.1058181335,28.2801772665,-0.169546278315,-100.0,0.257004586858,100.0,-0.180351973793,-100.0,0.254418150756,100.0,1429067.5235,0.0,0.0,0.0,0.0,0.0,0.0
1402598262462348465,0,15.8495672304,-0.114322152727,-22.6172981939,0.043815185726,-0.146114511011,0.0,0.107088070887,0.0,2.32463464686,0.0,0.0,0.0,0.0,-1.59707174492,43.1058181335,28.2801772665,-0.16801181634,-100.0,0.257004586858,100.0,-0.180351973793,-100.0,0.254418150756,100.0,1429067.5235,0.0,0.0,0.0,0.0,0.0,0.0
1402598262483060880,0,15.8495672304,-0.114322152727,-22.6172981939,0.043815185726,-0.146114511011,0.0,0.107088070887,0.0,2.32463464686,0.0,0.0,0.0,0.0,-1.59707174492,43.1058181335,28.2801772665,-0.16801181634,-100.0,0.257004586858,100.0,-0.180351973793,-100.0,0.254418150756,100.0,1429067.5235,0.0,0.0,0.0,0.0,0.0,0.0
1402598262502486450,0,15.8432217428,-0.114322152727,-22.6131184407,0.043815185726,-0.153372347773,0.0,0.0987906779121,0.0,2.3491820658,0.0,0.0,0.0,0.0,-1.59707174492,43.1058181335,28.2801772665,-0.16801181634,-100.0,0.257004586858,100.0,-0.180351973793,-100.0,0.254418150756,100.0,1429067.5235,0.0,0.0,0.0,0.0,0.0,0.0
1402598262522925674,0,15.8432217428,-0.114322152727,-22.6131184407,0.043815185726,-0.153372347773,0.0,0.0987906779121,0.0,2.3491820658,0.0,0.0,0.0,0.0,-1.59707174492,43.1058181335,28.2801772665,-0.16801181634,-100.0,0.257004586858,100.0,-0.180351973793,-100.0,0.254418150756,100.0,1429067.5235,0.0,0.0,0.0,0.0,0.0,0.0
1402598262542453418,0,15.8368240453,-0.114322152727,-22.6089564236,0.043815185726,-0.158592979415,0.0,0.0907011553271,0.0,2.37469952253,0.0,0.0,0.0,0.0,-1.59707174492,43.1058181335,28.2801772665,-0.16801181634,-100.0,0.258538810415,100.0,-0.180351973793,-100.0,0.254418150756,100.0,1429067.5235,0.0,0.0,0.0,0.0,0.0,0.0
1402598262563068044,0,15.8368240453,-0.114322152727,-22.6089564236,0.043815185726,-0.158592979415,0.0,0.0907011553271,0.0,2.37469952253,0.0,0.0,0.0,0.0,-1.59707174492,43.1058181335,28.2801772665,-0.16801181634,-100.0,0.257004586858,100.0,-0.180351973793,-100.0,0.254418150756,100.0,1429067.5235,0.0,0.0,0.0,0.0,0.0,0.0
1402598262582579569,0,15.8305092363,-0.114322152727,-22.6051745575,0.043815185726,-0.161933268252,0.0,0.0883566228961,0.0,2.40102453852,0.0,0.0,0.0,0.0,-1.59707174492,43.1058181335,28.2801772665,-0.166477592784,-100.0,0.257004586858,100.0,-0.180351973793,-100.0,0.254418150756,100.0,1429067.5235,0.0,0.0,0.0,0.0,0.0,0.0
1402598262602974515,0,15.8305092363,-0.114322152727,-22.6051745575,0.043815185726,-0.161933268252,0.0,0.0883566228961,0.0,2.40102453852,0.0,0.0,0.0,0.0,-1.59707174492,43.1058181335,28.2801772665,-0.16801181634,-100.0,0.257004586858,100.0,-0.180351973793,-100.0,0.254418150756,100.0,1429067.5235,0.0,0.0,0.0,0.0,0.0,0.0
1402598262622469153,0,15.8320322097,-0.114322152727,-22.5973914059,0.043815185726,-0.14782365507,0.0,0.0889839206118,0.0,2.42639731634,0.0,0.0,0.0,0.0,-1.59707174492,43.1058181335,28.2801772665,-0.166477592784,-100.0,0.257004586858,100.0,-0.180351973793,-100.0,0.254418150756,100.0,1429067.5235,0.0,0.0,0.0,0.0,0.0,0.0
1402598262642956864,0,15.8320322097,-0.114322152727,-22.5973914059,0.043815185726,-0.14782365507,0.0,0.0889839206118,0.0,2.42639731634,0.0,0.0,0.0,0.0,-1.59707174492,43.1058181335,28.2801772665,-0.166477592784,-100.0,0.255470124883,100.0,-0.180351973793,-100.0,0.254418150756,100.0,1429067.5235,0.0,0.0,0.0,0.0,0.0,0.0
1402598262662392727,0,15.8332802084,-0.114322152727,-22.5858186524,0.043815185726,-0.133125213646,0.0,0.0961065722791,0.0,2.46007863623,0.0,0.0,0.0,0.0,-1.59707174492,43.1058181335,28.2801772665,-0.16801181634,-100.0,0.257004586858,100.0,-0.180351973793,-100.0,0.254418150756,100.0,1429067.5235,0.0,0.0,0.0,0.0,0.0,0.0
1402598262682993016,0,15.8332802084,-0.114322152727,-22.5858186524,0.043815185726,-0.133125213646,0.0,0.0961065722791,0.0,2.46007863623,0.0,0.0,0.0,0.0,-1.59707174492,43.1058181335,28.2801772665,-0.16801181634,-100.0,0.257004586858,100.0,-0.180351973793,-100.0,0.254418150756,100.0,1429067.5235,0.0,0.0,0.0,0.0,0.0,0.0
1402598262702494797,0,15.8252623629,-0.114322152727,-22.5875384313,0.043815185726,-0.136491955276,0.0,0.0735071215875,0.0,2.49597425298,0.0,0.0,0.0,0.0,-1.59707174492,43.1058181335,28.2801772665,-0.16801181634,-100.0,0.255470124883,100.0,-0.180351973793,-100.0,0.254418150756,100.0,1429067.5235,0.0,0.0,0.0,0.0,0.0,0.0
1402598262723033411,0,15.8252623629,-0.114322152727,-22.5875384313,0.043815185726,-0.136491955276,0.0,0.0735071215875,0.0,2.49597425298,0.0,0.0,0.0,0.0,-1.59707174492,43.1058181335,28.2801772665,-0.16801181634,-100.0,0.255470124883,100.0,-0.180351973793,-100.0,0.254418150756,100.0,1429067.5235,0.0,0.0,0.0,0.0,0.0,0.0
1402598262742478633,0,15.8174199449,-0.114322152727,-22.589568448,0.043815185726,-0.149495416778,0.0,0.0584420439296,0.0,2.51183352469,0.0,0.0,0.0,0.0,-1.59707174492,43.1058181335,28.2801772665,-0.166477592784,-100.0,0.255470124883,100.0,-0.180351973793,-100.0,0.254418150756,100.0,1429067.5235,0.0,0.0,0.0,0.0,0.0,0.0
1402598262763012068,0,15.8174199449,-0.114322152727,-22.589568448,0.043815185726,-0.149495416778,0.0,0.0584420439296,0.0,2.51183352469,0.0,0.0,0.0,0.0,-1.59707174492,43.1058181335,28.2801772665,-0.166477592784,-100.0,0.255470124883,100.0,-0.180351973793,-100.0,0.254418150756,100.0,1429067.5235,0.0,0.0,0.0,0.0,0.0,0.0
1402598262782469886,0,15.8104188412,-0.114322152727,-22.5853931716,0.043815185726,-0.151518819692,0.0,0.0589261169158,0.0,2.54163685886,0.0,0.0,0.0,0.0,-1.59707174492,43.1058181335,28.2801772665,-0.166477592784,-100.0,0.255470124883,100.0,-0.180351973793,-100.0,0.254418150756,100.0,1429067.5235,0.0,0.0,0.0,0.0,0.0,0.0
1402598262802978681,0,15.8104188412,-0.114322152727,-22.5853931716,0.043815185726,-0.151518819692,0.0,0.0589261169158,0.0,2.54163685886,0.0,0.0,0.0,0.0,-1.59707174492,43.1058181335,28.2801772665,-0.166477592784,-100.0,0.255470124883,100.0,-0.180351973793,-100.0,0.254418150756,100.0,1429067.5235,0.0,0.0,0.0,0.0,0.0,0.0
1402598262822476769,0,15.8066626259,-0.114322152727,-22.5705582788,0.043815185726,-0.146608579786,0.0,0.0824885687662,0.0,2.57053626337,0.0,0.0,0.0,0.0,-1.59707174492,43.1058181335,28.2801772665,-0.166477592784,-100.0,0.255470124883,100.0,-0.180351973793,-100.0,0.254418150756,100.0,1429067.5235,0.0,0.0,0.0,0.0,0.0,0.0
1402598262843010520,0,15.8066626259,-0.114322152727,-22.5705582788,0.043815185726,-0.146608579786,0.0,0.0824885687662,0.0,2.57053626337,0.0,0.0,0.0,0.0,-1.59707174492,43.1058181335,28.2801772665,-0.166477592784,-100.0,0.255470124883,100.0,-0.180351973793,-100.0,0.254418150756,100.0,1429067.5235,0.0,0.0,0.0,0.0,0.0,0.0
1402598262862595830,0,15.8006786813,-0.114322152727,-22.5672393477,0.043815185726,-0.147789249451,0.0,0.0764193761106,0.0,2.60157984214,0.0,0.0,0.0,0.0,-1.59707174492,43.1058181335,28.2801772665,-0.166477592784,-100.0,0.255470124883,100.0,-0.180351973793,-100.0,0.254418150756,100.0,1429067.5235,0.0,0.0,0.0,0.0,0.0,0.0
1402598262883030312,0,15.8006786813,-0.114322152727,-22.5672393477,0.043815185726,-0.147789249451,0.0,0.0764193761106,0.0,2.60157984214,0.0,0.0,0.0,0.0,-1.59707174492,43.1058181335,28.2801772665,-0.166477592784,-100.0,0.255470124883,100.0,-0.180351973793,-100.0,0.254418150756,100.0,1429067.5235,0.0,0.0,0.0,0.0,0.0,0.0
1402598262902574051,0,15.7931281669,-0.114322152727,-22.5631125601,0.043815185726,-0.143931762363,0.0,0.0844387589942,0.0,2.64171770128,0.0,0.0,0.0,0.0,-1.59707174492,43.1058181335,28.2801772665,-0.166477592784,-100.0,0.24933275382,100.0,-0.180351973793,-100.0,0.254418150756,100.0,1429067.5235,0.0,0.0,0.0,0.0,0.0,0.0
1402598262922904557,0,15.7931281669,-0.114322152727,-22.5631125601,0.043815185726,-0.143931762363,0.0,0.0844387589942,0.0,2.64171770128,0.0,0.0,0.0,0.0,-1.59707174492,43.1058181335,28.2801772665,-0.166477592784,-100.0,0.247798291845,100.0,-0.180351973793,-100.0,0.254418150756,100.0,1429067.5235,0.0,0.0,0.0,0.0,0.0,0.0
1402598262942443968,0,15.7910746471,-0.114322152727,-22.5663847724,0.043815185726,-0.135520194352,0.0,0.0613526538917,0.0,2.66616538534,0.0,0.0,0.0,0.0,-1.59707174492,43.1058181335,28.2801772665,-0.166477592784,-100.0,0.24933275382,100.0,-0.180351973793,-100.0,0.254418150756,100.0,1429067.5235,0.0,0.0,0.0,0.0,0.0,0.0
1402598262963018601,0,15.787583553,-0.114322152727,-22.5528691642,0.043815185726,-0.133646936205,0.0,0.0905444027543,0.0,2.67959723498,0.0,0.0,0.0,0.0,-1.59707174492,43.1058181335,28.2801772665,-0.166477592784,-100.0,0.24933275382,100.0,-0.180351973793,-100.0,0.254418150756,100.0,1429067.5235,0.0,0.0,0.0,0.0,0.0,0.0
1402598262982444251,0,15.787583553,-0.114322152727,-22.5528691642,0.043815185726,-0.133646936205,0.0,0.0905444027543,0.0,2.67959723498,0.0,0.0,0.0,0.0,-1.59707174492,43.1058181335,28.2801772665,-0.166477592784,-100.0,0.24933275382,100.0,-0.180351973793,-100.0,0.254418150756,100.0,1429067.5235,0.0,0.0,0.0,0.0,0.0,0.0
1402598263003005367,0,15.7844755627,-0.114322152727,-22.5513336711,0.043815185726,-0.134527626228,0.0,0.0746856154044,0.0,2.69642912661,0.0,0.0,0.0,0.0,-1.59707174492,43.1058181335,28.2801772665,-0.166477592784,-100.0,0.24933275382,100.0,-0.180351973793,-100.0,0.254418150756,100.0,1429067.5235,0.0,0.0,0.0,0.0,0.0,0.0
1402598263022422851,0,15.7844755627,-0.114322152727,-22.5513336711,0.043815185726,-0.134527626228,0.0,0.0746856154044,0.0,2.69642912661,0.0,0.0,0.0,0.0,-1.59707174492,43.1058181335,28.2801772665,-0.166477592784,-100.0,0.24933275382,100.0,-0.180351973793,-100.0,0.254418150756,100.0,1429067.5235,0.0,0.0,0.0,0.0,0.0,0.0
1402598263043100987,0,15.768604054,-0.114322152727,-22.5440420305,0.043815185726,-0.152977627791,0.0,0.0852780609467,0.0,2.73038589191,0.0,0.0,0.0,0.0,-1.59707174492,43.1058181335,28.2801772665,-0.166477592784,-100.0,0.24933275382,100.0,-0.180351973793,-100.0,0.254418150756,100.0,1429067.5235,0.0,0.0,0.0,0.0,0.0,0.0
1402598263062543586,0,15.768604054,-0.114322152727,-22.5440420305,0.043815185726,-0.152977627791,0.0,0.0852780609467,0.0,2.73038589191,0.0,0.0,0.0,0.0,-1.59707174492,43.1058181335,28.2801772665,-0.166477592784,-100.0,0.24933275382,100.0,-0.180351973793,-100.0,0.254418150756,100.0,1429067.5235,0.0,0.0,0.0,0.0,0.0,0.0
1402598263083064642,0,15.762444683,-0.114322152727,-22.5408949553,0.043815185726,-0.151390077521,0.0,0.0774149269084,0.0,2.76451699318,0.0,0.0,0.0,0.0,-1.59707174492,43.1058181335,28.2801772665,-0.166477592784,-100.0,0.247798291845,100.0,-0.180351973793,-100.0,0.254418150756,100.0,1429067.5235,0.0,0.0,0.0,0.0,0.0,0.0
1402598263102436535,0,15.762444683,-0.114322152727,-22.5408949553,0.043815185726,-0.151390077521,0.0,0.0774149269084,0.0,2.76451699318,0.0,0.0,0.0,0.0,-1.59707174492,43.1058181335,28.2801772665,-0.166477592784,-100.0,0.24933275382,100.0,-0.180351973793,-100.0,0.254418150756,100.0,1429067.5235,0.0,0.0,0.0,0.0,0.0,0.0
1402598263123003135,0,15.7561619741,-0.114322152727,-22.538041847,0.043815185726,-0.152343570969,0.0,0.0670460723491,0.0,2.79793413701,0.0,0.0,0.0,0.0,-1.59707174492,43.1058181335,28.2801772665,-0.166477592784,-100.0,0.247798291845,100.0,-0.180351973793,-100.0,0.254418150756,100.0,1429067.5235,0.0,0.0,0.0,0.0,0.0,0.0
1402598263142451285,0,15.7561619741,-0.114322152727,-22.538041847,0.043815185726,-0.152343570969,0.0,0.0670460723491,0.0,2.79793413701,0.0,0.0,0.0,0.0,-1.59707174492,43.1058181335,28.2801772665,-0.164943130809,-100.0,0.247798291845,100.0,-0.180351973793,-100.0,0.254418150756,100.0,1429067.5235,0.0,0.0,0.0,0.0,0.0,0.0
1402598263163040567,0,15.7496600086,-0.114322152727,-22.5410259025,0.043815185726,-0.148309954415,0.0,0.0440393707956,0.0,2.84153180857,0.0,0.0,0.0,0.0,-1.59707174492,43.1058181335,28.2801772665,-0.166477592784,-100.0,0.24933275382,100.0,-0.180351973793,-100.0,0.254418150756,100.0,1429067.5235,0.0,0.0,0.0,0.0,0.0,0.0
1402598263182452320,0,15.7496600086,-0.114322152727,-22.5410259025,0.043815185726,-0.148309954415,0.0,0.0440393707956,0.0,2.84153180857,0.0,0.0,0.0,0.0,-1.59707174492,43.1058181335,28.2801772665,-0.166477592784,-100.0,0.247798291845,100.0,-0.180351973793,-100.0,0.254418150756,100.0,1429067.5235,0.0,0.0,0.0,0.0,0.0,0.0
1402598263203783657,0,15.7382510082,-0.114322152727,-22.5432559204,0.043815185726,-0.153927451483,0.0,0.0181805408583,0.0,2.88679711414,0.0,0.0,0.0,0.0,-1.59707174492,43.1058181335,28.2801772665,-0.166477592784,-100.0,0.24933275382,100.0,-0.180351973793,-100.0,0.254418150756,100.0,1429067.5235,0.0,0.0,0.0,0.0,0.0,0.0
1402598263222521108,0,15.7382510082,-0.114322152727,-22.5432559204,0.043815185726,-0.153927451483,0.0,0.0181805408583,0.0,2.88679711414,0.0,0.0,0.0,0.0,-1.59707174492,43.1058181335,28.2801772665,-0.166477592784,-100.0,0.24933275382,100.0,-0.180351973793,-100.0,0.254418150756,100.0,1429067.5235,0.0,0.0,0.0,0.0,0.0,0.0
1402598263243078029,0,15.7364967115,-0.114322152727,-22.5517919786,0.043815185726,-0.151343559686,0.0,-0.00798634249057,0.0,2.90640660161,0.0,0.0,0.0,0.0,-1.59707174492,43.1058181335,28.2801772665,-0.164943130809,-100.0,0.24933275382,100.0,-0.180351973793,-100.0,0.254418150756,100.0,1429067.5235,0.0,0.0,0.0,0.0,0.0,0.0
1402598263262408535,0,15.7364967115,-0.114322152727,-22.5517919786,0.043815185726,-0.151343559686,0.0,-0.00798634249057,0.0,2.90640660161,0.0,0.0,0.0,0.0,-1.59707174492,43.1058181335,28.2801772665,-0.164943130809,-100.0,0.24933275382,100.0,-0.180351973793,-100.0,0.254418150756,100.0,1429067.5235,0.0,0.0,0.0,0.0,0.0,0.0
1402598263283182943,0,15.7255424956,-0.114322152727,-22.5524151049,0.043815185726,-0.156770844202,0.0,-0.01492113957,0.0,2.9420621766,0.0,0.0,0.0,0.0,-1.59707174492,43.1058181335,28.2801772665,-0.164943130809,-100.0,0.24933275382,100.0,-0.180351973793,-100.0,0.254418150756,100.0,1429067.5235,0.0,0.0,0.0,0.0,0.0,0.0
1402598263302476968,0,15.7255424956,-0.114322152727,-22.5524151049,0.043815185726,-0.156770844202,0.0,-0.01492113957,0.0,2.9420621766,0.0,0.0,0.0,0.0,-1.59707174492,43.1058181335,28.2801772665,-0.164943130809,-100.0,0.24933275382,100.0,-0.180351973793,-100.0,0.254418150756,100.0,1429067.5235,0.0,0.0,0.0,0.0,0.0,0.0
1402598263323098168,0,15.7228787047,-0.114322152727,-22.5584334692,0.043815185726,-0.145316209481,0.0,-0.0338042998098,0.0,2.97881649394,0.0,0.0,0.0,0.0,-1.59707174492,43.1058181335,28.2801772665,-0.164943130809,-100.0,0.24933275382,100.0,-0.180351973793,-100.0,0.254418150756,100.0,1429067.5235,0.0,0.0,0.0,0.0,0.0,0.0
1402598263342455082,0,15.7228787047,-0.114322152727,-22.5584334692,0.043815185726,-0.145316209481,0.0,-0.0338042998098,0.0,2.97881649394,0.0,0.0,0.0,0.0,-1.59707174492,43.1058181335,28.2801772665,-0.164943130809,-100.0,0.24933275382,100.0,-0.180351973793,-100.0,0.254418150756,100.0,1429067.5235,0.0,0.0,0.0,0.0,0.0,0.0
1402598263363036770,0,15.7170362864,-0.114322152727,-22.5598710533,0.043815185726,-0.139259591851,0.0,-0.0367175211438,0.0,3.01524504868,0.0,0.0,0.0,0.0,-1.59707174492,43.1058181335,28.2801772665,-0.163408907252,-100.0,0.24933275382,100.0,-0.180351973793,-100.0,0.254418150756,100.0,1429067.5235,0.0,0.0,0.0,0.0,0.0,0.0
1402598263383140496,0,15.7170362864,-0.114322152727,-22.5598710533,0.043815185726,-0.139259591851,0.0,-0.0367175211438,0.0,3.01524504868,0.0,0.0,0.0,0.0,-1.59707174492,43.1058181335,28.2801772665,-0.163408907252,-100.0,0.24933275382,100.0,-0.180351973793,-100.0,0.254418150756,100.0,1429067.5235,0.0,0.0,0.0,0.0,0.0,0.0
1402598263403442530,0,15.7115551423,-0.114322152727,-22.5615243761,0.043815185726,-0.131659130195,0.0,-0.0371725010437,0.0,3.050726326,0.0,0.0,0.0,0.0,-1.59707174492,43.1058181335,28.2801772665,-0.163408907252,-100.0,0.24933275382,100.0,-0.180351973793,-100.0,0.254418150756,100.0,1429067.5235,0.0,0.0,0.0,0.0,0.0,0.0
1402598263422561798,0,15.7115551423,-0.114322152727,-22.5615243761,0.043815185726,-0.131659130195,0.0,-0.0371725010437,0.0,3.050726326,0.0,0.0,0.0,0.0,-1.59707174492,43.1058181335,28.2801772665,-0.163408907252,-100.0,0.24933275382,100.0,-0.180351973793,-100.0,0.254418150756,100.0,1429067.5235,0.0,0.0,0.0,0.0,0.0,0.0
1402598263442870461,0,15.7049558974,-0.114322152727,-22.5633428046,0.043815185726,-0.123151658971,0.0,-0.0425406128371,0.0,3.09442257455,0.0,0.0,0.0,0.0,-1.59707174492,43.1058181335,28.2801772665,-0.164943130809,-100.0,0.24933275382,100.0,-0.180351973793,-100.0,0.254418150756,100.0,1429067.5235,0.0,0.0,0.0,0.0,0.0,0.0
1402598263462361595,0,15.7049558974,-0.114322152727,-22.5633428046,0.043815185726,-0.123151658971,0.0,-0.0425406128371,0.0,3.09442257455,0.0,0.0,0.0,0.0,-1.59707174492,43.1058181335,28.2801772665,-0.164943130809,-100.0,0.24933275382,100.0,-0.180351973793,-100.0,0.254418150756,100.0,1429067.5235,0.0,0.0,0.0,0.0,0.0,0.0
1402598263482992225,0,15.6863677101,-0.114322152727,-22.5589399176,0.043815185726,-0.150602963188,0.0,-0.0323512267079,0.0,3.11932851697,0.0,0.0,0.0,0.0,-1.59707174492,43.1058181335,28.2801772665,-0.164943130809,-100.0,0.24933275382,100.0,-0.180351973793,-100.0,0.254418150756,100.0,1429067.5235,0.0,0.0,0.0,0.0,0.0,0.0
1402598263503562258,0,15.6833426657,-0.114322152727,-22.5596914849,0.043815185726,-0.147322424424,0.0,-0.0361443550325,0.0,3.13727318692,0.0,0.0,0.0,0.0,-1.59707174492,43.1058181335,28.2801772665,-0.164943130809,-100.0,0.24933275382,100.0,-0.180351973793,-100.0,0.254418150756,100.0,1429067.5235,0.0,0.0,0.0,0.0,0.0,0.0
1402598263522867808,0,15.6833426657,-0.114322152727,-22.5596914849,0.043815185726,-0.147322424424,0.0,-0.0361443550325,0.0,3.13727318692,0.0,0.0,0.0,0.0,-1.59707174492,43.1058181335,28.2801772665,-0.164943130809,-100.0,0.24933275382,100.0,-0.180351973793,-100.0,0.254418150756,100.0,1429067.5235,0.0,0.0,0.0,0.0,0.0,0.0
1402598263542326636,0,15.680396846,-0.114322152727,-22.5606747929,0.043815185726,-0.146000560626,0.0,-0.0425785674059,0.0,-3.12882782978,0.0,0.0,0.0,0.0,-1.59707174492,43.1058181335,28.2801772665,-0.164943130809,-100.0,0.24933275382,100.0,-0.180351973793,-100.0,0.254418150756,100.0,1429067.5235,0.0,0.0,0.0,0.0,0.0,0.0
1402598263562938184,0,15.680396846,-0.114322152727,-22.5606747929,0.043815185726,-0.146000560626,0.0,-0.0425785674059,0.0,-3.12882782978,0.0,0.0,0.0,0.0,-1.59707174492,43.1058181335,28.2801772665,-0.164943130809,-100.0,0.24933275382,100.0,-0.180351973793,-100.0,0.254418150756,100.0,1429067.5235,0.0,0.0,0.0,0.0,0.0,0.0
1402598263582515258,0,15.6747066854,-0.114322152727,-22.5626868599,0.043815185726,-0.13677996674,0.0,-0.0579113052022,0.0,-3.09369264338,0.0,0.0,0.0,0.0,-1.59707174492,43.1058181335,28.2801772665,-0.163408907252,-100.0,0.24933275382,100.0,-0.180351973793,-100.0,0.254418150756,100.0,1429067.5235,0.0,0.0,0.0,0.0,0.0,0.0
1402598263603329789,0,15.6747066854,-0.114322152727,-22.5626868599,0.043815185726,-0.13677996674,0.0,-0.0579113052022,0.0,-3.09369264338,0.0,0.0,0.0,0.0,-1.59707174492,43.1058181335,28.2801772665,-0.163408907252,-100.0,0.24933275382,100.0,-0.180351973793,-100.0,0.254418150756,100.0,1429067.5235,0.0,0.0,0.0,0.0,0.0,0.0
1402598263623286198,0,15.6793827973,-0.114322152727,-22.56778203,0.043815185726,-0.109923802218,0.0,-0.0736637474966,0.0,-3.05829246427,0.0,0.0,0.0,0.0,-1.59707174492,43.1058181335,28.2801772665,-0.163408907252,-100.0,0.24933275382,100.0,-0.180351973793,-100.0,0.254418150756,100.0,1429067.5235,0.0,0.0,0.0,0.0,0.0,0.0
1402598263643022862,0,15.6793827973,-0.114322152727,-22.56778203,0.043815185726,-0.109923802218,0.0,-0.0736637474966,0.0,-3.05829246427,0.0,0.0,0.0,0.0,-1.59707174492,43.1058181335,28.2801772665,-0.163408907252,-100.0,0.24933275382,100.0,-0.180351973793,-100.0,0.254418150756,100.0,1429067.5235,0.0,0.0,0.0,0.0,0.0,0.0
1402598263662506442,0,15.6749408682,-0.114322152727,-22.5707519293,0.043815185726,-0.0996869503462,0.0,-0.0859378592509,0.0,-3.02271722253,0.0,0.0,0.0,0.0,-1.59707174492,43.1058181335,28.2801772665,-0.163408907252,-100.0,0.24933275382,100.0,-0.180351973793,-100.0,0.254418150756,100.0,1429067.5235,0.0,0.0,0.0,0.0,0.0,0.0
1402598263684102504,0,15.6749408682,-0.114322152727,-22.5707519293,0.043815185726,-0.0996869503462,0.0,-0.0859378592509,0.0,-3.02271722253,0.0,0.0,0.0,0.0,-1.59707174492,43.1058181335,28.2801772665,-0.163408907252,-100.0,0.24933275382,100.0,-0.180351973793,-100.0,0.254418150756,100.0,1429067.5235,0.0,0.0,0.0,0.0,0.0,0.0
1402598263702699004,0,15.6608042743,-0.114322152727,-22.5704480913,0.043815185726,-0.109910758802,0.0,-0.0859442535514,0.0,-2.98772351843,0.0,0.0,0.0,0.0,-1.59707174492,43.1058181335,28.2801772665,-0.163408907252,-100.0,0.24933275382,100.0,-0.180351973793,-100.0,0.254418150756,100.0,1429067.5235,0.0,0.0,0.0,0.0,0.0,0.0
1402598263722893533,0,15.6608042743,-0.114322152727,-22.5704480913,0.043815185726,-0.109910758802,0.0,-0.0859442535514,0.0,-2.98772351843,0.0,0.0,0.0,0.0,-1.59707174492,43.1058181335,28.2801772665,-0.164943130809,-100.0,0.24933275382,100.0,-0.180351973793,-100.0,0.254418150756,100.0,1429067.5235,0.0,0.0,0.0,0.0,0.0,0.0
1402598263742581520,0,15.6544083065,-0.114322152727,-22.5777236875,0.043815185726,-0.107614714547,0.0,-0.102260276374,0.0,-2.95021514276,0.0,0.0,0.0,0.0,-1.59707174492,43.1058181335,28.2801772665,-0.164943130809,-100.0,0.24933275382,100.0,-0.180351973793,-100.0,0.254418150756,100.0,1429067.5235,0.0,0.0,0.0,0.0,0.0,0.0
1402598263762997862,0,15.6544083065,-0.114322152727,-22.5777236875,0.043815185726,-0.107614714547,0.0,-0.102260276374,0.0,-2.95021514276,0.0,0.0,0.0,0.0,-1.59707174492,43.1058181335,28.2801772665,-0.164943130809,-100.0,0.24933275382,100.0,-0.180351973793,-100.0,0.254418150756,100.0,1429067.5235,0.0,0.0,0.0,0.0,0.0,0.0
1402598263783230240,0,15.6537396014,-0.114322152727,-22.5974320296,0.043815185726,-0.0926906294277,0.0,-0.138497091734,0.0,-2.90035762545,0.0,0.0,0.0,0.0,-1.59707174492,43.1058181335,28.2801772665,-0.164943130809,-100.0,0.24933275382,100.0,-0.180351973793,-100.0,0.254418150756,100.0,1429067.5235,0.0,0.0,0.0,0.0,0.0,0.0
1402598263802959310,0,15.6537396014,-0.114322152727,-22.5974320296,0.043815185726,-0.0926906294277,0.0,-0.138497091734,0.0,-2.90035762545,0.0,0.0,0.0,0.0,-1.59707174492,43.1058181335,28.2801772665,-0.164943130809,-100.0,0.24933275382,100.0,-0.180351973793,-100.0,0.254418150756,100.0,1429067.5235,0.0,0.0,0.0,0.0,0.0,0.0
1402598263822576372,0,15.628597081,-0.114322152727,-22.5991719464,0.043815185726,-0.119059364483,0.0,-0.128794926127,0.0,-2.84872738221,0.0,0.0,0.0,0.0,-1.59707174492,43.1058181335,28.2801772665,-0.164943130809,-100.0,0.24933275382,100.0,-0.180351973793,-100.0,0.254418150756,100.0,1429067.5235,0.0,0.0,0.0,0.0,0.0,0.0
1402598263842466867,0,15.628597081,-0.114322152727,-22.5991719464,0.043815185726,-0.119059364483,0.0,-0.128794926127,0.0,-2.84872738221,0.0,0.0,0.0,0.0,-1.59707174492,43.1058181335,28.2801772665,-0.163408907252,-100.0,0.250866977376,100.0,-0.180351973793,-100.0,0.254418150756,100.0,1429067.5235,0.0,0.0,0.0,0.0,0.0,0.0
1402598263863024451,0,15.6267109372,-0.114322152727,-22.6016562332,0.043815185726,-0.113421094746,0.0,-0.131942198296,0.0,-2.83090186604,0.0,0.0,0.0,0.0,-1.59707174492,43.1058181335,28.2801772665,-0.164943130809,-100.0,0.250866977376,100.0,-0.180351973793,-100.0,0.254418150756,100.0,1429067.5235,0.0,0.0,0.0,0.0,0.0,0.0
1402598263882487506,0,15.6267109372,-0.114322152727,-22.6016562332,0.043815185726,-0.113421094746,0.0,-0.131942198296,0.0,-2.83090186604,0.0,0.0,0.0,0.0,-1.59707174492,43.1058181335,28.2801772665,-0.163408907252,-100.0,0.24933275382,100.0,-0.180351973793,-100.0,0.254418150756,100.0,1429067.5235,0.0,0.0,0.0,0.0,0.0,0.0
1402598263903093527,0,15.6131548429,-0.114322152727,-22.5977652801,0.043815185726,-0.112951711077,0.0,-0.11832627947,0.0,-2.79707454463,0.0,0.0,0.0,0.0,-1.59707174492,43.1058181335,28.2801772665,-0.163408907252,-100.0,0.24933275382,100.0,-0.180351973793,-100.0,0.254418150756,100.0,1429067.5235,0.0,0.0,0.0,0.0,0.0,0.0
1402598263922463480,0,15.6131548429,-0.114322152727,-22.5977652801,0.043815185726,-0.112951711077,0.0,-0.11832627947,0.0,-2.79707454463,0.0,0.0,0.0,0.0,-1.59707174492,43.1058181335,28.2801772665,-0.163408907252,-100.0,0.250866977376,100.0,-0.180351973793,-100.0,0.254418150756,100.0,1429067.5235,0.0,0.0,0.0,0.0,0.0,0.0
1402598263943088733,0,15.6013155996,-0.114322152727,-22.6102858716,0.043815185726,-0.112505002333,0.0,-0.127438814917,0.0,-2.74932670926,0.0,0.0,0.0,0.0,-1.59707174492,43.1058181335,28.2801772665,-0.163408907252,-100.0,0.250866977376,100.0,-0.180351973793,-100.0,0.254418150756,100.0,1429067.5235,0.0,0.0,0.0,0.0,0.0,0.0
1402598263962531264,0,15.6013155996,-0.114322152727,-22.6102858716,0.043815185726,-0.112505002333,0.0,-0.127438814917,0.0,-2.74932670926,0.0,0.0,0.0,0.0,-1.59707174492,43.1058181335,28.2801772665,-0.163408907252,-100.0,0.24933275382,100.0,-0.180351973793,-100.0,0.254418150756,100.0,1429067.5235,0.0,0.0,0.0,0.0,0.0,0.0
1402598263983057403,0,15.5798985257,-0.114322152727,-22.6185039375,0.043815185726,-0.13829784741,0.0,-0.141649059645,0.0,-2.72355488966,0.0,0.0,0.0,0.0,-1.59707174492,43.1058181335,28.2801772665,-0.163408907252,-100.0,0.24933275382,100.0,-0.180351973793,-100.0,0.254418150756,100.0,1429067.5235,0.0,0.0,0.0,0.0,0.0,0.0
1402598264002560026,0,15.5770945616,-0.114322152727,-22.6214205003,0.043815185726,-0.135146384106,0.0,-0.143938497685,0.0,-2.70592405057,0.0,0.0,0.0,0.0,-1.59707174492,43.1058181335,28.2801772665,-0.163408907252,-100.0,0.250866977376,100.0,-0.180351973793,-100.0,0.254418150756,100.0,1429067.5235,0.0,0.0,0.0,0.0,0.0,0.0
1402598264023365014,0,15.5770945616,-0.114322152727,-22.6214205003,0.043815185726,-0.135146384106,0.0,-0.143938497685,0.0,-2.70592405057,0.0,0.0,0.0,0.0,-1.59707174492,43.1058181335,28.2801772665,-0.163408907252,-100.0,0.24933275382,100.0,-0.180351973793,-100.0,0.254418150756,100.0,1429067.5235,0.0,0.0,0.0,0.0,0.0,0.0
1402598264042580216,0,15.5733622979,-0.114322152727,-22.6241822665,0.043815185726,-0.128341353033,0.0,-0.144807098606,0.0,-2.68707840701,0.0,0.0,0.0,0.0,-1.59707174492,43.1058181335,28.2801772665,-0.163408907252,-100.0,0.24933275382,100.0,-0.180351973793,-100.0,0.254418150756,100.0,1429067.5235,0.0,0.0,0.0,0.0,0.0,0.0
1402598264063073486,0,15.5733622979,-0.114322152727,-22.6241822665,0.043815185726,-0.128341353033,0.0,-0.144807098606,0.0,-2.68707840701,0.0,0.0,0.0,0.0,-1.59707174492,43.1058181335,28.2801772665,-0.163408907252,-100.0,0.24933275382,100.0,-0.180351973793,-100.0,0.254418150756,100.0,1429067.5235,0.0,0.0,0.0,0.0,0.0,0.0
1402598264082615860,0,15.5645476489,-0.114322152727,-22.6344306056,0.043815185726,-0.12382060251,0.0,-0.163433656238,0.0,-2.64988849406,0.0,0.0,0.0,0.0,-1.59707174492,43.1058181335,28.2801772665,-0.163408907252,-100.0,0.24933275382,100.0,-0.180351973793,-100.0,0.254418150756,100.0,1429067.5235,0.0,0.0,0.0,0.0,0.0,0.0
1402598264103046089,0,15.5645476489,-0.114322152727,-22.6344306056,0.043815185726,-0.12382060251,0.0,-0.163433656238,0.0,-2.64988849406,0.0,0.0,0.0,0.0,-1.59707174492,43.1058181335,28.2801772665,-0.163408907252,-100.0,0.24933275382,100.0,-0.180351973793,-100.0,0.254418150756,100.0,1429067.5235,0.0,0.0,0.0,0.0,0.0,0.0
1402598264122486423,0,15.5593125109,-0.114322152727,-22.6414565045,0.043815185726,-0.113491918978,0.0,-0.172387847065,0.0,-2.61260546138,0.0,0.0,0.0,0.0,-1.59707174492,43.1058181335,28.2801772665,-0.163408907252,-100.0,0.250866977376,100.0,-0.180351973793,-100.0,0.254418150756,100.0,1429067.5235,0.0,0.0,0.0,0.0,0.0,0.0
1402598264142967693,0,15.5593125109,-0.114322152727,-22.6414565045,0.043815185726,-0.113491918978,0.0,-0.172387847065,0.0,-2.61260546138,0.0,0.0,0.0,0.0,-1.59707174492,43.1058181335,28.2801772665,-0.163408907252,-100.0,0.250866977376,100.0,-0.180351973793,-100.0,0.254418150756,100.0,1429067.5235,0.0,0.0,0.0,0.0,0.0,0.0
1402598264162502671,0,15.5474188457,-0.114322152727,-22.6524774484,0.043815185726,-0.119703461959,0.0,-0.189071760435,0.0,-2.57645725561,0.0,0.0,0.0,0.0,-1.59707174492,43.1058181335,28.2801772665,-0.163408907252,-100.0,0.250866977376,100.0,-0.180351973793,-100.0,0.254418150756,100.0,1429067.5235,0.0,0.0,0.0,0.0,0.0,0.0
1402598264183162148,0,15.5474188457,-0.114322152727,-22.6524774484,0.043815185726,-0.119703461959,0.0,-0.189071760435,0.0,-2.57645725561,0.0,0.0,0.0,0.0,-1.59707174492,43.1058181335,28.2801772665,-0.161874445277,-100.0,0.24933275382,100.0,-0.180351973793,-100.0,0.254418150756,100.0,1429067.5235,0.0,0.0,0.0,0.0,0.0,0.0
1402598264202455573,0,15.5416784564,-0.114322152727,-22.6626502464,0.043815185726,-0.103128622911,0.0,-0.202767831888,0.0,-2.52964381734,0.0,0.0,0.0,0.0,-1.59707174492,43.1058181335,28.2801772665,-0.161874445277,-100.0,0.24933275382,100.0,-0.180351973793,-100.0,0.254418150756,100.0,1429067.5235,0.0,0.0,0.0,0.0,0.0,0.0
1402598264223674260,0,15.5416784564,-0.114322152727,-22.6626502464,0.043815185726,-0.103128622911,0.0,-0.202767831888,0.0,-2.52964381734,0.0,0.0,0.0,0.0,-1.59707174492,43.1058181335,28.2801772665,-0.161874445277,-100.0,0.250866977376,100.0,-0.180351973793,-100.0,0.254418150756,100.0,1429067.5235,0.0,0.0,0.0,0.0,0.0,0.0
1402598264242736027,0,15.463752384,-0.114322152727,-22.5960472382,0.043815185726,-0.21767046912,0.0,-0.0361055778367,0.0,-2.50199301428,0.0,0.0,0.0,0.0,-1.59707174492,43.1058181335,28.2801772665,-0.161874445277,-100.0,0.250866977376,100.0,-0.180351973793,-100.0,0.254418150756,100.0,1429067.5235,0.0,0.0,0.0,0.0,0.0,0.0
1402598264263081027,0,15.463752384,-0.114322152727,-22.5960472382,0.043815185726,-0.21767046912,0.0,-0.0361055778367,0.0,-2.50199301428,0.0,0.0,0.0,0.0,-1.59707174492,43.1058181335,28.2801772665,-0.161874445277,-100.0,0.24933275382,100.0,-0.180351973793,-100.0,0.254418150756,100.0,1429067.5235,0.0,0.0,0.0,0.0,0.0,0.0
1402598264282527638,0,15.4281262066,-0.114322152727,-22.5575894357,0.043815185726,-0.253157918824,0.0,0.0538055809539,0.0,-2.49027208904,0.0,0.0,0.0,0.0,-1.59707174492,43.1058181335,28.2801772665,-0.163408907252,-100.0,0.250866977376,100.0,-0.180351973793,-100.0,0.254418150756,100.0,1429067.5235,0.0,0.0,0.0,0.0,0.0,0.0
1402598264303102583,0,15.4281262066,-0.114322152727,-22.5575894357,0.043815185726,-0.253157918824,0.0,0.0538055809539,0.0,-2.49027208904,0.0,0.0,0.0,0.0,-1.59707174492,43.1058181335,28.2801772665,-0.163408907252,-100.0,0.250866977376,100.0,-0.180351973793,-100.0,0.254418150756,100.0,1429067.5235,0.0,0.0,0.0,0.0,0.0,0.0
1402598264322522042,0,15.4182908566,-0.114322152727,-22.5554865559,0.043815185726,-0.249814826371,0.0,0.0535357012812,0.0,-2.45257817667,0.0,0.0,0.0,0.0,-1.59707174492,43.1058181335,28.2801772665,-0.163408907252,-100.0,0.250866977376,100.0,-0.180351973793,-100.0,0.254418150756,100.0,1429067.5235,0.0,0.0,0.0,0.0,0.0,0.0
1402598264343012660,0,15.4182908566,-0.114322152727,-22.5554865559,0.043815185726,-0.249814826371,0.0,0.0535357012812,0.0,-2.45257817667,0.0,0.0,0.0,0.0,-1.59707174492,43.1058181335,28.2801772665,-0.163408907252,-100.0,0.250866977376,100.0,-0.180351973793,-100.0,0.254418150756,100.0,1429067.5235,0.0,0.0,0.0,0.0,0.0,0.0
1402598264362517335,0,15.4058695864,-0.114322152727,-22.5526268708,0.043815185726,-0.238301687315,0.0,0.061401729822,0.0,-2.40388816694,0.0,0.0,0.0,0.0,-1.59707174492,43.1058181335,28.2801772665,-0.163408907252,-100.0,0.24933275382,100.0,-0.180351973793,-100.0,0.254418150756,100.0,1429067.5235,0.0,0.0,0.0,0.0,0.0,0.0
1402598264383123247,0,15.4058695864,-0.114322152727,-22.5526268708,0.043815185726,-0.238301687315,0.0,0.061401729822,0.0,-2.40388816694,0.0,0.0,0.0,0.0,-1.59707174492,43.1058181335,28.2801772665,-0.163408907252,-100.0,0.250866977376,100.0,-0.180351973793,-100.0,0.254418150756,100.0,1429067.5235,0.0,0.0,0.0,0.0,0.0,0.0
1402598264402488422,0,15.3987028653,-0.114322152727,-22.5504985896,0.043815185726,-0.229457280851,0.0,0.0689269975428,0.0,-2.37530085274,0.0,0.0,0.0,0.0,-1.59707174492,43.1058181335,28.2801772665,-0.163408907252,-100.0,0.250866977376,100.0,-0.180351973793,-100.0,0.254418150756,100.0,1429067.5235,0.0,0.0,0.0,0.0,0.0,0.0
1402598264423035294,0,15.3679601421,-0.114322152727,-22.5417787413,0.043815185726,-0.254647962748,0.0,0.0860370849787,0.0,-2.36007166351,0.0,0.0,0.0,0.0,-1.59707174492,43.1058181335,28.2801772665,-0.163408907252,-100.0,0.250866977376,100.0,-0.180351973793,-100.0,0.254418150756,100.0,1429067.5235,0.0,0.0,0.0,0.0,0.0,0.0
1402598264442377208,0,15.3679601421,-0.114322152727,-22.5417787413,0.043815185726,-0.254647962748,0.0,0.0860370849787,0.0,-2.36007166351,0.0,0.0,0.0,0.0,-1.59707174492,43.1058181335,28.2801772665,-0.161874445277,-100.0,0.250866977376,100.0,-0.180351973793,-100.0,0.254418150756,100.0,1429067.5235,0.0,0.0,0.0,0.0,0.0,0.0
1402598264463014261,0,15.3626612825,-0.114322152727,-22.5400080458,0.043815185726,-0.250733915325,0.0,0.0917193964005,0.0,-2.34091470756,0.0,0.0,0.0,0.0,-1.59707174492,43.1058181335,28.2801772665,-0.163408907252,-100.0,0.250866977376,100.0,-0.180351973793,-100.0,0.254418150756,100.0,1429067.5235,0.0,0.0,0.0,0.0,0.0,0.0
1402598264482471778,0,15.3626612825,-0.114322152727,-22.5400080458,0.043815185726,-0.250733915325,0.0,0.0917193964005,0.0,-2.34091470756,0.0,0.0,0.0,0.0,-1.59707174492,43.1058181335,28.2801772665,-0.163408907252,-100.0,0.250866977376,100.0,-0.180351973793,-100.0,0.254418150756,100.0,1429067.5235,0.0,0.0,0.0,0.0,0.0,0.0
1402598264503073722,0,15.3526296876,-0.114322152727,-22.5359396133,0.043815185726,-0.246911279617,0.0,0.10536415181,0.0,-2.30279017707,0.0,0.0,0.0,0.0,-1.59707174492,43.1058181335,28.2801772665,-0.163408907252,-100.0,0.250866977376,100.0,-0.180351973793,-100.0,0.254418150756,100.0,1429067.5235,0.0,0.0,0.0,0.0,0.0,0.0
1402598264522667223,0,15.3526296876,-0.114322152727,-22.5359396133,0.043815185726,-0.246911279617,0.0,0.10536415181,0.0,-2.30279017707,0.0,0.0,0.0,0.0,-1.59707174492,43.1058181335,28.2801772665,-0.161874445277,-100.0,0.24933275382,100.0,-0.180351973793,-100.0,0.254418150756,100.0,1429067.5235,0.0,0.0,0.0,0.0,0.0,0.0
1402598264543103797,0,15.3400477043,-0.114322152727,-22.529966801,0.043815185726,-0.248136699605,0.0,0.127097375275,0.0,-2.25627914295,0.0,0.0,0.0,0.0,-1.59707174492,43.1058181335,28.2801772665,-0.163408907252,-100.0,0.250866977376,100.0,-0.180351973793,-100.0,0.254418150756,100.0,1429067.5235,0.0,0.0,0.0,0.0,0.0,0.0
1402598264562599876,0,15.3400477043,-0.114322152727,-22.529966801,0.043815185726,-0.248136699605,0.0,0.127097375275,0.0,-2.25627914295,0.0,0.0,0.0,0.0,-1.59707174492,43.1058181335,28.2801772665,-0.163408907252,-100.0,0.24933275382,100.0,-0.180351973793,-100.0,0.254418150756,100.0,1429067.5235,0.0,0.0,0.0,0.0,0.0,0.0
1402598264583076287,0,15.3980838207,-0.114322152727,-22.5728492158,0.043815185726,-0.140558527554,0.0,0.0438375308763,0.0,-2.19796104204,0.0,0.0,0.0,0.0,-1.59707174492,43.1058181335,28.2801772665,-0.163408907252,-100.0,0.250866977376,100.0,-0.180351973793,-100.0,0.254418150756,100.0,1429067.5235,0.0,0.0,0.0,0.0,0.0,0.0
1402598264602495544,0,15.3980838207,-0.114322152727,-22.5728492158,0.043815185726,-0.140558527554,0.0,0.0438375308763,0.0,-2.19796104204,0.0,0.0,0.0,0.0,-1.59707174492,43.1058181335,28.2801772665,-0.163408907252,-100.0,0.24933275382,100.0,-0.180351973793,-100.0,0.254418150756,100.0,1429067.5235,0.0,0.0,0.0,0.0,0.0,0.0
1402598264622917569,0,15.3951468496,-0.114322152727,-22.5719449466,0.043815185726,-0.136582662898,0.0,0.0500845945285,0.0,-2.17930711298,0.0,0.0,0.0,0.0,-1.59707174492,43.1058181335,28.2801772665,-0.163408907252,-100.0,0.24933275382,100.0,-0.180351973793,-100.0,0.254418150756,100.0,1429067.5235,0.0,0.0,0.0,0.0,0.0,0.0
1402598264642519399,0,15.3951468496,-0.114322152727,-22.5719449466,0.043815185726,-0.136582662898,0.0,0.0500845945285,0.0,-2.17930711298,0.0,0.0,0.0,0.0,-1.59707174492,43.1058181335,28.2801772665,-0.163408907252,-100.0,0.24933275382,100.0,-0.180351973793,-100.0,0.254418150756,100.0,1429067.5235,0.0,0.0,0.0,0.0,0.0,0.0
1402598264663057206,0,15.4057589219,-0.114322152727,-22.5727708319,0.043815185726,-0.108049406317,0.0,0.0588212246951,0.0,-2.14066122309,0.0,0.0,0.0,0.0,-1.59707174492,43.1058181335,28.2801772665,-0.163408907252,-100.0,0.24933275382,100.0,-0.180351973793,-100.0,0.254418150756,100.0,1429067.5235,0.0,0.0,0.0,0.0,0.0,0.0
1402598264682563219,0,15.4057589219,-0.114322152727,-22.5727708319,0.043815185726,-0.108049406317,0.0,0.0588212246951,0.0,-2.14066122309,0.0,0.0,0.0,0.0,-1.59707174492,43.1058181335,28.2801772665,-0.163408907252,-100.0,0.24933275382,100.0,-0.180351973793,-100.0,0.254418150756,100.0,1429067.5235,0.0,0.0,0.0,0.0,0.0,0.0
1402598264703206247,0,15.3484870987,-0.114322152727,-22.5774622316,0.043815185726,-0.1944009292,0.0,0.039237772278,0.0,-2.11139111059,0.0,0.0,0.0,0.0,-1.59707174492,43.1058181335,28.2801772665,-0.163408907252,-100.0,0.24933275382,100.0,-0.180351973793,-100.0,0.254418150756,100.0,1429067.5235,0.0,0.0,0.0,0.0,0.0,0.0
1402598264722355887,0,15.3484870987,-0.114322152727,-22.5774622316,0.043815185726,-0.1944009292,0.0,0.039237772278,0.0,-2.11139111059,0.0,0.0,0.0,0.0,-1.59707174492,43.1058181335,28.2801772665,-0.163408907252,-100.0,0.24933275382,100.0,-0.180351973793,-100.0,0.254418150756,100.0,1429067.5235,0.0,0.0,0.0,0.0,0.0,0.0
1402598264743036383,0,15.3382206769,-0.114322152727,-22.5905449801,0.043815185726,-0.179684799959,0.0,0.0131199540788,0.0,-2.07384676649,0.0,0.0,0.0,0.0,-1.59707174492,43.1058181335,28.2801772665,-0.163408907252,-100.0,0.24933275382,100.0,-0.180351973793,-100.0,0.254418150756,100.0,1429067.5235,0.0,0.0,0.0,0.0,0.0,0.0
1402598264762356661,0,15.3382206769,-0.114322152727,-22.5905449801,0.043815185726,-0.179684799959,0.0,0.0131199540788,0.0,-2.07384676649,0.0,0.0,0.0,0.0,-1.59707174492,43.1058181335,28.2801772665,-0.163408907252,-100.0,0.250866977376,100.0,-0.180351973793,-100.0,0.254418150756,100.0,1429067.5235,0.0,0.0,0.0,0.0,0.0,0.0
1402598264783099123,0,15.3310264756,-0.114322152727,-22.579342736,0.043815185726,-0.159689697751,0.0,0.0444963522384,0.0,-2.0256854201,0.0,0.0,0.0,0.0,-1.59707174492,43.1058181335,28.2801772665,-0.161874445277,-100.0,0.24933275382,100.0,-0.180351973793,-100.0,0.254418150756,100.0,1429067.5235,0.0,0.0,0.0,0.0,0.0,0.0
1402598264802521109,0,15.3310264756,-0.114322152727,-22.579342736,0.043815185726,-0.159689697751,0.0,0.0444963522384,0.0,-2.0256854201,0.0,0.0,0.0,0.0,-1.59707174492,43.1058181335,28.2801772665,-0.161874445277,-100.0,0.24933275382,100.0,-0.180351973793,-100.0,0.254418150756,100.0,1429067.5235,0.0,0.0,0.0,0.0,0.0,0.0
1402598264822979979,0,15.3260187084,-0.114322152727,-22.5778299707,0.043815185726,-0.159372377442,0.0,0.0477526056266,0.0,-1.99700172109,0.0,0.0,0.0,0.0,-1.59707174492,43.1058181335,28.2801772665,-0.161874445277,-100.0,0.24933275382,100.0,-0.180351973793,-100.0,0.254418150756,100.0,1429067.5235,0.0,0.0,0.0,0.0,0.0,0.0
1402598264842681268,0,15.3229824696,-0.114322152727,-22.5767125925,0.043815185726,-0.159120730535,0.0,0.0519887272319,0.0,-1.97831131283,0.0,0.0,0.0,0.0,-1.59707174492,43.1058181335,28.2801772665,-0.161874445277,-100.0,0.24933275382,100.0,-0.180351973793,-100.0,0.254418150756,100.0,1429067.5235,0.0,0.0,0.0,0.0,0.0,0.0
1402598264863270151,0,15.3229824696,-0.114322152727,-22.5767125925,0.043815185726,-0.159120730535,0.0,0.0519887272319,0.0,-1.97831131283,0.0,0.0,0.0,0.0,-1.59707174492,43.1058181335,28.2801772665,-0.161874445277,-100.0,0.24933275382,100.0,-0.180351973793,-100.0,0.254418150756,100.0,1429067.5235,0.0,0.0,0.0,0.0,0.0,0.0
1402598264882567291,0,15.3198272612,-0.114322152727,-22.5754949237,0.043815185726,-0.157518261732,0.0,0.05817043407,0.0,-1.95856115805,0.0,0.0,0.0,0.0,-1.59707174492,43.1058181335,28.2801772665,-0.161874445277,-100.0,0.250866977376,100.0,-0.180351973793,-100.0,0.254418150756,100.0,1429067.5235,0.0,0.0,0.0,0.0,0.0,0.0
1402598264903090491,0,15.3198272612,-0.114322152727,-22.5754949237,0.043815185726,-0.157518261732,0.0,0.05817043407,0.0,-1.95856115805,0.0,0.0,0.0,0.0,-1.59707174492,43.1058181335,28.2801772665,-0.161874445277,-100.0,0.250866977376,100.0,-0.180351973793,-100.0,0.254418150756,100.0,1429067.5235,0.0,0.0,0.0,0.0,0.0,0.0
1402598264922489197,0,15.3235653343,-0.114322152727,-22.6048144464,0.043815185726,-0.132012014233,0.0,-0.00298647049454,0.0,-1.91853657461,0.0,0.0,0.0,0.0,-1.59707174492,43.1058181335,28.2801772665,-0.161874445277,-100.0,0.250866977376,100.0,-0.180351973793,-100.0,0.254418150756,100.0,1429067.5235,0.0,0.0,0.0,0.0,0.0,0.0
1402598264943360052,0,15.3235653343,-0.114322152727,-22.6048144464,0.043815185726,-0.132012014233,0.0,-0.00298647049454,0.0,-1.91853657461,0.0,0.0,0.0,0.0,-1.59707174492,43.1058181335,28.2801772665,-0.161874445277,-100.0,0.250866977376,100.0,-0.180351973793,-100.0,0.254418150756,100.0,1429067.5235,0.0,0.0,0.0,0.0,0.0,0.0
1402598264962381243,0,15.3416993916,-0.114322152727,-22.6269444279,0.043815185726,-0.0877187897958,0.0,-0.0402183496124,0.0,-1.87814178506,0.0,0.0,0.0,0.0,-1.59707174492,43.1058181335,28.2801772665,-0.161874445277,-100.0,0.250866977376,100.0,-0.180351973793,-100.0,0.254418150756,100.0,1429067.5235,0.0,0.0,0.0,0.0,0.0,0.0
1402598264983174560,0,15.3416993916,-0.114322152727,-22.6269444279,0.043815185726,-0.0877187897958,0.0,-0.0402183496124,0.0,-1.87814178506,0.0,0.0,0.0,0.0,-1.59707174492,43.1058181335,28.2801772665,-0.161874445277,-100.0,0.250866977376,100.0,-0.180351973793,-100.0,0.254418150756,100.0,1429067.5235,0.0,0.0,0.0,0.0,0.0,0.0
1402598265002591823,0,15.3387796662,-0.114322152727,-22.6458716612,0.043815185726,-0.0936488748887,0.0,-0.0692072229878,0.0,-1.84025078708,0.0,0.0,0.0,0.0,-1.59707174492,43.1058181335,28.2801772665,-0.161874445277,-100.0,0.250866977376,100.0,-0.180351973793,-100.0,0.254418150756,100.0,1429067.5235,0.0,0.0,0.0,0.0,0.0,0.0
1402598265023037809,0,15.3387796662,-0.114322152727,-22.6458716612,0.043815185726,-0.0936488748887,0.0,-0.0692072229878,0.0,-1.84025078708,0.0,0.0,0.0,0.0,-1.59707174492,43.1058181335,28.2801772665,-0.161874445277,-100.0,0.250866977376,100.0,-0.180351973793,-100.0,0.254418150756,100.0,1429067.5235,0.0,0.0,0.0,0.0,0.0,0.0
1402598265042541946,0,15.3357853225,-0.114322152727,-22.6484725451,0.043815185726,-0.0887326422621,0.0,-0.0596460052677,0.0,-1.80242893106,0.0,0.0,0.0,0.0,-1.59707174492,43.1058181335,28.2801772665,-0.161874445277,-100.0,0.250866977376,100.0,-0.180351973793,-100.0,0.254418150756,100.0,1429067.5235,0.0,0.0,0.0,0.0,0.0,0.0
1402598265063086733,0,15.3357853225,-0.114322152727,-22.6484725451,0.043815185726,-0.0887326422621,0.0,-0.0596460052677,0.0,-1.80242893106,0.0,0.0,0.0,0.0,-1.59707174492,43.1058181335,28.2801772665,-0.161874445277,-100.0,0.250866977376,100.0,-0.180351973793,-100.0,0.254418150756,100.0,1429067.5235,0.0,0.0,0.0,0.0,0.0,0.0
1402598265082613367,0,15.3464010293,-0.114322152727,-22.6690290466,0.043815185726,-0.0521546400826,0.0,-0.0839595111004,0.0,-1.75469349643,0.0,0.0,0.0,0.0,-1.59707174492,43.1058181335,28.2801772665,-0.161874445277,-100.0,0.250866977376,100.0,-0.180351973793,-100.0,0.254418150756,100.0,1429067.5235,0.0,0.0,0.0,0.0,0.0,0.0
1402598265103097458,0,15.3464010293,-0.114322152727,-22.6690290466,0.043815185726,-0.0521546400826,0.0,-0.0839595111004,0.0,-1.75469349643,0.0,0.0,0.0,0.0,-1.59707174492,43.1058181335,28.2801772665,-0.161874445277,-100.0,0.250866977376,100.0,-0.180351973793,-100.0,0.254418150756,100.0,1429067.5235,0.0,0.0,0.0,0.0,0.0,0.0
1402598265122582511,0,15.3441679319,-0.114322152727,-22.673070893,0.043815185726,-0.0457075085079,0.0,-0.0766294055842,0.0,-1.70789412028,0.0,0.0,0.0,0.0,-1.59707174492,43.1058181335,28.2801772665,-0.161874445277,-100.0,0.250866977376,100.0,-0.180351973793,-100.0,0.254418150756,100.0,1429067.5235,0.0,0.0,0.0,0.0,0.0,0.0
1402598265143060608,0,15.3441679319,-0.114322152727,-22.673070893,0.043815185726,-0.0457075085079,0.0,-0.0766294055842,0.0,-1.70789412028,0.0,0.0,0.0,0.0,-1.59707174492,43.1058181335,28.2801772665,-0.161874445277,-100.0,0.250866977376,100.0,-0.180351973793,-100.0,0.254418150756,100.0,1429067.5235,0.0,0.0,0.0,0.0,0.0,0.0
1402598265162410078,0,15.3433989494,-0.114322152727,-22.6745866751,0.043815185726,-0.0387512977902,0.0,-0.0753179560456,0.0,-1.68912910409,0.0,0.0,0.0,0.0,-1.59707174492,43.1058181335,28.2801772665,-0.161874445277,-100.0,0.250866977376,100.0,-0.180351973793,-100.0,0.254418150756,100.0,1429067.5235,0.0,0.0,0.0,0.0,0.0,0.0
1402598265183053143,0,15.3433989494,-0.114322152727,-22.6745866751,0.043815185726,-0.0387512977902,0.0,-0.0753179560456,0.0,-1.68912910409,0.0,0.0,0.0,0.0,-1.59707174492,43.1058181335,28.2801772665,-0.161874445277,-100.0,0.24933275382,100.0,-0.180351973793,-100.0,0.254418150756,100.0,1429067.5235,0.0,0.0,0.0,0.0,0.0,0.0
1402598265202510575,0,15.3390636698,-0.114322152727,-22.6934768698,0.043815185726,-0.042924754281,0.0,-0.106692021909,0.0,-1.65610338005,0.0,0.0,0.0,0.0,-1.59707174492,43.1058181335,28.2801772665,-0.16034022172,-100.0,0.24933275382,100.0,-0.180351973793,-100.0,0.254418150756,100.0,1429067.5235,0.0,0.0,0.0,0.0,0.0,0.0
1402598265223134070,0,15.3390636698,-0.114322152727,-22.6934768698,0.043815185726,-0.042924754281,0.0,-0.106692021909,0.0,-1.65610338005,0.0,0.0,0.0,0.0,-1.59707174492,43.1058181335,28.2801772665,-0.16034022172,-100.0,0.24933275382,100.0,-0.180351973793,-100.0,0.254418150756,100.0,1429067.5235,0.0,0.0,0.0,0.0,0.0,0.0
1402598265242468420,0,15.3523678786,-0.114322152727,-22.7171882346,0.043815185726,-0.0110060137468,0.0,-0.142164305354,0.0,-1.61898139656,0.0,0.0,0.0,0.0,-1.59707174492,43.1058181335,28.2801772665,-0.161874445277,-100.0,0.250866977376,100.0,-0.180351973793,-100.0,0.254418150756,100.0,1429067.5235,0.0,0.0,0.0,0.0,0.0,0.0
1402598265263086201,0,15.3523678786,-0.114322152727,-22.7171882346,0.043815185726,-0.0110060137468,0.0,-0.142164305354,0.0,-1.61898139656,0.0,0.0,0.0,0.0,-1.59707174492,43.1058181335,28.2801772665,-0.161874445277,-100.0,0.24933275382,100.0,-0.180351973793,-100.0,0.254418150756,100.0,1429067.5235,0.0,0.0,0.0,0.0,0.0,0.0
