rosbagTimestamp,control_method,x_current,x_desired,y_current,y_desired,z_current,z_desired,x_velocity_current,x_velocity_desired,y_velocity_current,y_velocity_desired,z_velocity_current,z_velocity_desired,yaw_current,yaw_desired,yaw_velocity_current,yaw_velocity_desired,roll_current,roll_desired,roll_velocity_current,roll_velocity_desired,pitch_current,pitch_desired,pitch_velocity_current,pitch_velocity_desired,required_force_x,required_force_y,required_moment_z,resultant_force_x,resultant_force_y,resultant_moment_z,current_port_servo_angle,current_port_thruster_force,current_starboard_servo_angle,current_starboard_thruster_force,estimated_port_servo_angle,estimated_port_thruster_force,estimated_starboard_servo_angle,estimated_starboard_thruster_force,cost_value,step,user_defined_1,user_defined_2,user_defined_3,user_defined_4,user_defined_5
1402753644649645068,3,-7.62317254114,-0.00591572024346,-0.928914099969,-0.122189614607,7.67456850282,0.10862951003,-0.003362975298,0.0,-0.0104446849349,0.0,0.0731155678308,0.0,1.60392736594,0.0,-0.00265978614228,0.0,0.000181675308842,0.0,-0.0057883115778,0.0,0.0714331519862,0.0,-0.0153758927241,0.0,0.0,0.0,0.0,-50.0,0.0,0.0,0.00230154196664,0.0,-0.00383606751517,0.0,-0.0,-25.0,-0.0,-25.0,131250.0,0.0,0.0,0.0,0.0,0.0,0.0
1402753644669332066,3,-7.62317254114,-0.00591572024346,-0.928914099969,-0.122189614607,7.67456850282,0.10862951003,-0.003362975298,0.0,-0.0104446849349,0.0,0.0731155678308,0.0,1.60392736594,0.0,-0.00265978614228,0.0,0.000181675308842,0.0,-0.0057883115778,0.0,0.0714331519862,0.0,-0.0153758927241,0.0,0.0,0.0,0.0,-50.0,0.0,0.0,0.00230154196664,0.0,-0.00383606751517,0.0,-0.0,-25.0,-0.0,-25.0,131250.0,0.0,0.0,0.0,0.0,0.0,0.0
1402753644689343317,3,-7.61854914753,-0.00591572024346,-0.921049490358,-0.122189614607,7.63869607696,0.10862951003,-0.0131962415233,0.0,-0.0211515107759,0.0,0.0725725361204,0.0,1.60398993614,0.0,-0.00202997054007,0.0,-0.00126519489913,0.0,-0.00863250989428,0.0,0.070778352808,0.0,-0.00279457065655,0.0,0.0,0.0,0.0,-50.0,0.0,0.0,0.00230154196664,0.0,-0.00383606751517,0.0,-0.0,-25.0,-0.0,-25.0,131250.0,0.0,0.0,0.0,0.0,0.0,0.0
1402753644709214107,3,-7.61854914753,-0.00591572024346,-0.921049490358,-0.122189614607,7.63869607696,0.10862951003,-0.0131962415233,0.0,-0.0211515107759,0.0,0.0725725361204,0.0,1.60398993614,0.0,-0.00202997054007,0.0,-0.00126519489913,0.0,-0.00863250989428,0.0,0.070778352808,0.0,-0.00279457065655,0.0,0.0,0.0,0.0,-50.0,0.0,0.0,0.00230154196664,0.0,-0.00383606751517,0.0,-0.0,-25.0,-0.0,-25.0,131250.0,0.0,0.0,0.0,0.0,0.0,0.0
1402753644729165437,3,-7.61431375903,-0.00591572024346,-0.912963034642,-0.122189614607,7.61376827039,0.10862951003,-0.0143005701239,0.0,-0.0223266067644,0.0,0.0718597970405,0.0,1.6040059753,0.0,-0.00403208780653,0.0,-0.00140010940665,0.0,-0.00919112030459,0.0,0.0708464168526,0.0,-0.00583602896811,0.0,0.0,0.0,0.0,-50.0,0.0,0.0,0.00230154196664,0.0,-0.00383606751517,0.0,-0.0,-25.0,-0.0,-25.0,131250.0,0.0,0.0,0.0,0.0,0.0,0.0
1402753644749662482,3,-7.6144825385,-0.00591572024346,-0.913362168246,-0.122189614607,7.61513939636,0.10862951003,-0.0146112857317,0.0,-0.0227191362814,0.0,0.072423003165,0.0,1.60389374452,0.0,-0.00287880370084,0.0,-0.00153793801122,0.0,-0.00597234268538,0.0,0.0710218173384,0.0,-0.00631181297391,0.0,0.0,0.0,0.0,-50.0,0.0,0.0,0.00230154196664,0.0,-0.00383606751517,0.0,-0.0,-25.0,-0.0,-25.0,131250.0,0.0,0.0,0.0,0.0,0.0,0.0
1402753644769555178,3,-7.6144825385,-0.00591572024346,-0.913362168246,-0.122189614607,7.61513939636,0.10862951003,-0.0146112857317,0.0,-0.0227191362814,0.0,0.072423003165,0.0,1.60389374452,0.0,-0.00287880370084,0.0,-0.00153793801122,0.0,-0.00597234268538,0.0,0.0710218173384,0.0,-0.00631181297391,0.0,0.0,0.0,0.0,-50.0,0.0,0.0,0.00230154196664,0.0,-0.00383606751517,0.0,-0.0,-25.0,-0.0,-25.0,131250.0,0.0,0.0,0.0,0.0,0.0,0.0
1402753644789221271,3,-7.61081956305,-0.00591572024346,-0.901457400737,-0.122189614607,7.58238421624,0.10862951003,-0.014589162,0.0,-0.0172609625378,0.0,0.0680792087918,0.0,1.60405622603,0.0,-0.00199173487251,0.0,-0.00152982831832,0.0,-0.0048712302807,0.0,0.0716816666203,0.0,-0.00621462450416,0.0,0.0,0.0,0.0,-50.0,0.0,0.0,0.00230154196664,-25.0,-0.00383606751517,-25.0,-0.0,-25.0,-0.0,-25.0,131250.0,0.0,0.0,0.0,0.0,0.0,0.0
1402753644809223035,3,-7.61081956305,-0.00591572024346,-0.901457400737,-0.122189614607,7.58238421624,0.10862951003,-0.014589162,0.0,-0.0172609625378,0.0,0.0680792087918,0.0,1.60405622603,0.0,-0.00199173487251,0.0,-0.00152982831832,0.0,-0.0048712302807,0.0,0.0716816666203,0.0,-0.00621462450416,0.0,0.0,0.0,0.0,-50.0,0.0,0.0,0.00230154196664,-25.0,-0.00383606751517,-25.0,-0.0,-25.0,-0.0,-25.0,131250.0,0.0,0.0,0.0,0.0,0.0,0.0
1402753644829097513,3,-7.61143433279,-0.00591572024346,-0.902213679167,-0.122189614607,7.58542346635,0.10862951003,-0.0140153688927,0.0,-0.0171978457863,0.0,0.0712012243684,0.0,1.6039791404,0.0,-0.000545163299733,0.0,-0.00166349762175,0.0,-0.00458316738093,0.0,0.071917085836,0.0,-0.00166916981027,0.0,0.0,0.0,0.0,-50.0,0.0,0.0,0.00230154196664,-25.0,-0.00383606751517,-25.0,-0.0,-25.0,-0.0,-25.0,131250.0,0.0,0.0,0.0,0.0,0.0,0.0
1402753644849267070,3,-7.61143433279,-0.00591572024346,-0.902213679167,-0.122189614607,7.58542346635,0.10862951003,-0.0140153688927,0.0,-0.0171978457863,0.0,0.0712012243684,0.0,1.6039791404,0.0,-0.000545163299733,0.0,-0.00166349762175,0.0,-0.00458316738093,0.0,0.071917085836,0.0,-0.00166916981027,0.0,0.0,0.0,0.0,-50.0,0.0,0.0,0.00230154196664,-25.0,-0.00383606751517,-25.0,-0.0,-25.0,-0.0,-25.0,131250.0,0.0,0.0,0.0,0.0,0.0,0.0
1402753644869117129,3,-7.60535332541,-0.00591572024346,-0.892065150597,-0.122189614607,7.57598129601,0.10862951003,-0.0129408678469,0.0,-0.00605707547203,0.0,0.0751747269767,0.0,1.60392441362,0.0,-0.0075156167771,0.0,-0.0015177132178,0.0,0.00188641919158,0.0,0.0732111079457,0.0,0.00013850104777,0.0,0.0,0.0,0.0,-50.0,0.0,0.0,0.00230154196664,-25.0,-0.00383606751517,-25.0,-0.0,-25.0,-0.0,-25.0,131250.0,0.0,0.0,0.0,0.0,0.0,0.0
1402753644889068302,3,-7.60535332541,-0.00591572024346,-0.892065150597,-0.122189614607,7.57598129601,0.10862951003,-0.0129408678469,0.0,-0.00605707547203,0.0,0.0751747269767,0.0,1.60392441362,0.0,-0.0075156167771,0.0,-0.0015177132178,0.0,0.00188641919158,0.0,0.0732111079457,0.0,0.00013850104777,0.0,0.0,0.0,0.0,-50.0,0.0,0.0,0.00230154196664,-25.0,-0.00383606751517,-25.0,-0.0,-25.0,-0.0,-25.0,131250.0,0.0,0.0,0.0,0.0,0.0,0.0
1402753644909215160,3,-7.60063152338,-0.00591572024346,-0.890006898429,-0.122189614607,7.56481063356,0.10862951003,-0.0117614329342,0.0,-0.0150305591885,0.0,0.0796278609402,0.0,1.60384855999,0.0,-0.00362992386714,0.0,-0.00142844613544,0.0,-0.000796092894543,0.0,0.0720967989064,0.0,0.00754053678769,0.0,0.0,0.0,0.0,-50.0,0.0,0.0,0.00230154196664,-25.0,-0.00383606751517,-25.0,-0.0,-25.0,-0.0,-25.0,131250.0,0.0,0.0,0.0,0.0,0.0,0.0
1402753644928959376,3,-7.60063152338,-0.00591572024346,-0.890006898429,-0.122189614607,7.56481063356,0.10862951003,-0.0117614329342,0.0,-0.0150305591885,0.0,0.0796278609402,0.0,1.60384855999,0.0,-0.00362992386714,0.0,-0.00142844613544,0.0,-0.000796092894543,0.0,0.0720967989064,0.0,0.00754053678769,0.0,0.0,0.0,0.0,-50.0,0.0,0.0,0.00230154196664,-25.0,-0.00383606751517,-25.0,-0.0,-25.0,-0.0,-25.0,131250.0,0.0,0.0,0.0,0.0,0.0,0.0
1402753644949843585,3,-7.59686744598,-0.00591572024346,-0.880152738391,-0.122189614607,7.54446547152,0.10862951003,-0.0130791865867,0.0,-0.0103461413382,0.0,0.0800572115665,0.0,1.60373915657,0.0,-0.00236657596845,0.0,-0.00147201533195,0.0,0.0073786348785,0.0,0.0726965656377,0.0,0.00424370742116,0.0,0.0,0.0,0.0,-50.0,0.0,0.0,0.00230154196664,-25.0,-0.00383606751517,-25.0,-0.0,-25.0,-0.0,-25.0,131250.0,0.0,0.0,0.0,0.0,0.0,0.0
1402753644969258132,3,-7.59686744598,-0.00591572024346,-0.880152738391,-0.122189614607,7.54446547152,0.10862951003,-0.0130791865867,0.0,-0.0103461413382,0.0,0.0800572115665,0.0,1.60373915657,0.0,-0.00236657596845,0.0,-0.00147201533195,0.0,0.0073786348785,0.0,0.0726965656377,0.0,0.00424370742116,0.0,0.0,0.0,0.0,-50.0,0.0,0.0,0.00230154196664,-25.0,-0.00383606751517,-25.0,-0.0,-25.0,-0.0,-25.0,131250.0,0.0,0.0,0.0,0.0,0.0,0.0
1402753644989208974,3,-7.59267310163,-0.00591572024346,-0.869516148982,-0.122189614607,7.51218586587,0.10862951003,-0.00908248884772,0.0,-0.0140516687981,0.0,0.0746847419416,0.0,1.60364484529,0.0,-0.00434198660352,0.0,-0.000838125570578,0.0,0.000377359323934,0.0,0.0727425681939,0.0,0.00209623438162,0.0,0.0,0.0,0.0,-50.0,0.0,0.0,0.00230154196664,-25.0,-0.00383606751517,-25.0,-0.0,-25.0,-0.0,-25.0,131250.0,0.0,0.0,0.0,0.0,0.0,0.0
1402753645009273304,3,-7.59267310163,-0.00591572024346,-0.869516148982,-0.122189614607,7.51218586587,0.10862951003,-0.00908248884772,0.0,-0.0140516687981,0.0,0.0746847419416,0.0,1.60364484529,0.0,-0.00434198660352,0.0,-0.000838125570578,0.0,0.000377359323934,0.0,0.0727425681939,0.0,0.00209623438162,0.0,0.0,0.0,0.0,-50.0,0.0,0.0,0.00230154196664,-25.0,-0.00383606751517,-25.0,-0.0,-25.0,-0.0,-25.0,131250.0,0.0,0.0,0.0,0.0,0.0,0.0
1402753645029120210,3,-7.59195541572,-0.00591572024346,-0.868136489661,-0.122189614607,7.50556248878,0.10862951003,-0.0176958895169,0.0,-0.0253619687481,0.0,0.0777490019564,0.0,1.60317918899,0.0,0.00154701845357,0.0,-0.0019262561031,0.0,-0.0047046089825,0.0,0.0725653304557,0.0,-0.00151803414346,0.0,0.0,0.0,0.0,-50.0,0.0,0.0,0.00230154196664,-25.0,-0.00383606751517,-25.0,-0.0,-25.0,-0.0,-25.0,131250.0,0.0,0.0,0.0,0.0,0.0,0.0
1402753645049300682,3,-7.59195541572,-0.00591572024346,-0.868136489661,-0.122189614607,7.50556248878,0.10862951003,-0.0176958895169,0.0,-0.0253619687481,0.0,0.0777490019564,0.0,1.60317918899,0.0,0.00154701845357,0.0,-0.0019262561031,0.0,-0.0047046089825,0.0,0.0725653304557,0.0,-0.00151803414346,0.0,0.0,0.0,0.0,-50.0,0.0,0.0,0.00230154196664,-25.0,-0.00383606751517,-25.0,-0.0,-25.0,-0.0,-25.0,131250.0,0.0,0.0,0.0,0.0,0.0,0.0
1402753645069298499,3,-7.59257895968,-0.00591572024346,-0.869271491065,-0.122189614607,7.5086970516,0.10862951003,-0.017233488624,0.0,-0.0298333029314,0.0,0.0786283232941,0.0,1.60306201095,0.0,0.000668216192404,0.0,-0.00175085312927,0.0,0.000396969001341,0.0,0.0725195018684,0.0,0.00478785040276,0.0,0.0,0.0,0.0,-50.0,0.0,0.0,0.00230154196664,-25.0,-0.00383606751517,-25.0,-0.0,-25.0,-0.0,-25.0,131250.0,0.0,0.0,0.0,0.0,0.0,0.0
1402753645089795441,3,-7.59257895968,-0.00591572024346,-0.869271491065,-0.122189614607,7.5086970516,0.10862951003,-0.017233488624,0.0,-0.0298333029314,0.0,0.0786283232941,0.0,1.60306201095,0.0,0.000668216192404,0.0,-0.00175085312927,0.0,0.000396969001341,0.0,0.0725195018684,0.0,0.00478785040276,0.0,0.0,0.0,0.0,-50.0,0.0,0.0,0.00230154196664,-25.0,-0.00383606751517,-25.0,-0.0,-25.0,-0.0,-25.0,131250.0,0.0,0.0,0.0,0.0,0.0,0.0
1402753645109149135,3,-7.58702895373,-0.00591572024346,-0.868682729336,-0.122189614607,7.49738946399,0.10862951003,-0.0100857125294,0.0,-0.0410393011423,0.0,0.0792941973599,0.0,1.60324445624,0.0,-0.00384810183956,0.0,-0.000681595169789,0.0,0.000720877269333,0.0,0.0716453198291,0.0,0.0153311209987,0.0,0.0,0.0,0.0,-50.0,0.0,0.0,0.00230154196664,-25.0,-0.00383606751517,-25.0,-0.0,-25.0,-0.0,-25.0,131250.0,0.0,0.0,0.0,0.0,0.0,0.0
1402753645129088774,3,-7.58702895373,-0.00591572024346,-0.868682729336,-0.122189614607,7.49738946399,0.10862951003,-0.0100857125294,0.0,-0.0410393011423,0.0,0.0792941973599,0.0,1.60324445624,0.0,-0.00384810183956,0.0,-0.000681595169789,0.0,0.000720877269333,0.0,0.0716453198291,0.0,0.0153311209987,0.0,0.0,0.0,0.0,-50.0,0.0,0.0,0.00230154196664,-25.0,-0.00383606751517,-25.0,-0.0,-25.0,-0.0,-25.0,131250.0,0.0,0.0,0.0,0.0,0.0,0.0
1402753645149479184,3,-7.58706545602,-0.00591572024346,-0.857995190036,-0.122189614607,7.464045207,0.10862951003,-0.0174136030819,0.0,-0.0349509896322,0.0,0.0743499999749,0.0,1.6029957887,0.0,-0.00310133799398,0.0,-0.00126893899211,0.0,-0.00843749452862,0.0,0.0726960846444,0.0,0.00134806381033,0.0,0.0,0.0,0.0,-50.0,0.0,0.0,0.00230154196664,-25.0,-0.00383606751517,-25.0,-0.0,-25.0,-0.0,-25.0,131250.0,0.0,0.0,0.0,0.0,0.0,0.0
1402753645169269161,3,-7.58706545602,-0.00591572024346,-0.857995190036,-0.122189614607,7.464045207,0.10862951003,-0.0174136030819,0.0,-0.0349509896322,0.0,0.0743499999749,0.0,1.6029957887,0.0,-0.00310133799398,0.0,-0.00126893899211,0.0,-0.00843749452862,0.0,0.0726960846444,0.0,0.00134806381033,0.0,0.0,0.0,0.0,-50.0,0.0,0.0,0.00230154196664,-25.0,-0.00383606751517,-25.0,-0.0,-25.0,-0.0,-25.0,131250.0,0.0,0.0,0.0,0.0,0.0,0.0
1402753645189198216,3,-7.58067715897,-0.00591572024346,-0.857916921139,-0.122189614607,7.45568070982,0.10862951003,-0.00657137952421,0.0,-0.0462605690487,0.0,0.0750270167066,0.0,1.60338663727,0.0,0.00203802450151,0.0,0.000188320566174,0.0,-0.00205345951132,0.0,0.0718260709755,0.0,0.00879519040512,0.0,0.0,0.0,0.0,-50.0,0.0,0.0,0.00230154196664,-25.0,-0.00383606751517,-25.0,-0.0,-25.0,-0.0,-25.0,131250.0,0.0,0.0,0.0,0.0,0.0,0.0
1402753645209267231,3,-7.58067715897,-0.00591572024346,-0.857916921139,-0.122189614607,7.45568070982,0.10862951003,-0.00657137952421,0.0,-0.0462605690487,0.0,0.0750270167066,0.0,1.60338663727,0.0,0.00203802450151,0.0,0.000188320566174,0.0,-0.00205345951132,0.0,0.0718260709755,0.0,0.00879519040512,0.0,0.0,0.0,0.0,-50.0,0.0,0.0,0.00230154196664,-25.0,-0.00383606751517,-25.0,-0.0,-25.0,-0.0,-25.0,131250.0,0.0,0.0,0.0,0.0,0.0,0.0
1402753645229871220,3,-7.57747056311,-0.00591572024346,-0.852216693688,-0.122189614607,7.44373575749,0.10862951003,-0.00766709680458,0.0,-0.0427157231229,0.0,0.0741202819376,0.0,1.60334522928,0.0,-0.00441008112228,0.0,0.000276528335858,0.0,0.000720852742697,0.0,0.0728214540793,0.0,0.0151763173448,0.0,0.0,0.0,0.0,-50.0,0.0,0.0,0.00230154196664,-25.0,-0.00383606751517,-25.0,-0.0,-25.0,-0.0,-25.0,131250.0,0.0,0.0,0.0,0.0,0.0,0.0
1402753645249678737,3,-7.57747056311,-0.00591572024346,-0.852216693688,-0.122189614607,7.44373575749,0.10862951003,-0.00766709680458,0.0,-0.0427157231229,0.0,0.0741202819376,0.0,1.60334522928,0.0,-0.00441008112228,0.0,0.000276528335858,0.0,0.000720852742697,0.0,0.0728214540793,0.0,0.0151763173448,0.0,0.0,0.0,0.0,-50.0,0.0,0.0,0.00230154196664,-25.0,-0.00383606751517,-25.0,-0.0,-25.0,-0.0,-25.0,131250.0,0.0,0.0,0.0,0.0,0.0,0.0
1402753645269200485,3,-7.57793491363,-0.00591572024346,-0.854461809207,-0.122189614607,7.4475127622,0.10862951003,-0.00687246493697,0.0,-0.0475208797707,0.0,0.0759120238562,0.0,1.6032660532,0.0,0.00710609436542,0.0,0.000376658227925,0.0,-0.00241339893522,0.0,0.0728350934212,0.0,0.00295151321378,0.0,0.0,0.0,0.0,-50.0,0.0,0.0,0.00230154196664,-25.0,-0.00383606751517,-25.0,-0.0,-25.0,-0.0,-25.0,131250.0,0.0,0.0,0.0,0.0,0.0,0.0
1402753645289191464,3,-7.57793491363,-0.00591572024346,-0.854461809207,-0.122189614607,7.4475127622,0.10862951003,-0.00687246493697,0.0,-0.0475208797707,0.0,0.0759120238562,0.0,1.6032660532,0.0,0.00710609436542,0.0,0.000376658227925,0.0,-0.00241339893522,0.0,0.0728350934212,0.0,0.00295151321378,0.0,0.0,0.0,0.0,-50.0,0.0,0.0,0.00230154196664,-25.0,-0.00383606751517,-25.0,-0.0,-25.0,-0.0,-25.0,131250.0,0.0,0.0,0.0,0.0,0.0,0.0
1402753645310067018,3,-7.57600323424,-0.00591572024346,-0.853774932292,-0.122189614607,7.42953643986,0.10862951003,-0.00799049994956,0.0,-0.0572529487908,0.0,0.0744830723926,0.0,1.60330971339,0.0,0.00579494294044,0.0,0.000310312389181,0.0,-0.00759568942607,0.0,0.0723597035329,0.0,0.00257341872213,0.0,0.0,0.0,0.0,-50.0,0.0,0.0,0.00230154196664,-25.0,-0.00383606751517,-25.0,-0.0,-25.0,-0.0,-25.0,131250.0,0.0,0.0,0.0,0.0,0.0,0.0
1402753645329656419,3,-7.57600323424,-0.00591572024346,-0.853774932292,-0.122189614607,7.42953643986,0.10862951003,-0.00799049994956,0.0,-0.0572529487908,0.0,0.0744830723926,0.0,1.60330971339,0.0,0.00579494294044,0.0,0.000310312389181,0.0,-0.00759568942607,0.0,0.0723597035329,0.0,0.00257341872213,0.0,0.0,0.0,0.0,-50.0,0.0,0.0,0.00230154196664,-25.0,-0.00383606751517,-25.0,-0.0,-25.0,-0.0,-25.0,131250.0,0.0,0.0,0.0,0.0,0.0,0.0
1402753645349363909,3,-7.57060445712,-0.00591572024346,-0.844828578347,-0.122189614607,7.40718659178,0.10862951003,-0.00144250170552,0.0,-0.0516144166204,0.0,0.0701996446123,0.0,1.60379364938,0.0,0.00370084534584,0.0,0.00118736968092,0.0,0.00141465336794,0.0,0.0731859586842,0.0,0.00415940880327,0.0,0.0,0.0,0.0,-50.0,0.0,0.0,0.00230154196664,-25.0,-0.00383606751517,-25.0,-0.0,-25.0,-0.0,-25.0,131250.0,0.0,0.0,0.0,0.0,0.0,0.0
1402753645369200020,3,-7.57060445712,-0.00591572024346,-0.844828578347,-0.122189614607,7.40718659178,0.10862951003,-0.00144250170552,0.0,-0.0516144166204,0.0,0.0701996446123,0.0,1.60379364938,0.0,0.00370084534584,0.0,0.00118736968092,0.0,0.00141465336794,0.0,0.0731859586842,0.0,0.00415940880327,0.0,0.0,0.0,0.0,-50.0,0.0,0.0,0.00230154196664,-25.0,-0.00383606751517,-25.0,-0.0,-25.0,-0.0,-25.0,131250.0,0.0,0.0,0.0,0.0,0.0,0.0
1402753645389705203,3,-7.5706192591,-0.00591572024346,-0.8471997732,-0.122189614607,7.4096158978,0.10862951003,-0.0137000750689,0.0,-0.0576419653422,0.0,0.0747903970879,0.0,1.60332207541,0.0,0.00250867412736,0.0,-0.000244122960679,0.0,-0.0034227651296,0.0,0.0731383996275,0.0,0.00668302106269,0.0,0.0,0.0,0.0,-50.0,0.0,0.0,0.00230154196664,-25.0,-0.00383606751517,-25.0,-0.0,-25.0,-0.0,-25.0,131250.0,0.0,0.0,0.0,0.0,0.0,0.0
1402753645409289994,3,-7.5706192591,-0.00591572024346,-0.8471997732,-0.122189614607,7.4096158978,0.10862951003,-0.0137000750689,0.0,-0.0576419653422,0.0,0.0747903970879,0.0,1.60332207541,0.0,0.00250867412736,0.0,-0.000244122960679,0.0,-0.0034227651296,0.0,0.0731383996275,0.0,0.00668302106269,0.0,0.0,0.0,0.0,-50.0,0.0,0.0,0.00230154196664,-25.0,-0.00383606751517,-25.0,-0.0,-25.0,-0.0,-25.0,131250.0,0.0,0.0,0.0,0.0,0.0,0.0
1402753645428934248,3,-7.56648658998,-0.00591572024346,-0.848650754985,-0.122189614607,7.39372672597,0.10862951003,-0.00943159384106,0.0,-0.0730841627806,0.0,0.0744546371892,0.0,1.6036518855,0.0,-0.000903234253147,0.0,0.000565017776208,0.0,0.000435586310178,0.0,0.071809260702,0.0,0.00356815702428,0.0,0.0,0.0,0.0,-50.0,0.0,0.0,0.00230154196664,-25.0,-0.00383606751517,-25.0,-0.0,-25.0,-0.0,-25.0,131250.0,0.0,0.0,0.0,0.0,0.0,0.0
1402753645449645741,3,-7.56648658998,-0.00591572024346,-0.848650754985,-0.122189614607,7.39372672597,0.10862951003,-0.00943159384106,0.0,-0.0730841627806,0.0,0.0744546371892,0.0,1.6036518855,0.0,-0.000903234253147,0.0,0.000565017776208,0.0,0.000435586310178,0.0,0.071809260702,0.0,0.00356815702428,0.0,0.0,0.0,0.0,-50.0,0.0,0.0,0.00230154196664,-25.0,-0.00383606751517,-25.0,-0.0,-25.0,-0.0,-25.0,131250.0,0.0,0.0,0.0,0.0,0.0,0.0
1402753645469243293,3,-7.56682964855,-0.00591572024346,-0.851722676964,-0.122189614607,7.39677986033,0.10862951003,-0.00891191836896,0.0,-0.0768601014378,0.0,0.0761342807311,0.0,1.60373980889,0.0,0.0053086801678,0.0,0.000643428104718,0.0,-0.000839351991318,0.0,0.0718109987285,0.0,-0.00123399771063,0.0,0.0,0.0,0.0,-50.0,0.0,0.0,0.00230154196664,-25.0,-0.00383606751517,-25.0,-0.0,-25.0,-0.0,-25.0,131250.0,0.0,0.0,0.0,0.0,0.0,0.0
1402753645489161834,3,-7.56682964855,-0.00591572024346,-0.851722676964,-0.122189614607,7.39677986033,0.10862951003,-0.00891191836896,0.0,-0.0768601014378,0.0,0.0761342807311,0.0,1.60373980889,0.0,0.0053086801678,0.0,0.000643428104718,0.0,-0.000839351991318,0.0,0.0718109987285,0.0,-0.00123399771063,0.0,0.0,0.0,0.0,-50.0,0.0,0.0,0.00230154196664,-25.0,-0.00383606751517,-25.0,-0.0,-25.0,-0.0,-25.0,131250.0,0.0,0.0,0.0,0.0,0.0,0.0
1402753645509223626,3,-7.56058084014,-0.00591572024346,-0.843669433394,-0.122189614607,7.37398842056,0.10862951003,-0.00036286467314,0.0,-0.0724568021255,0.0,0.0733674066671,0.0,1.60438448834,0.0,0.00610311154415,0.0,0.0015074948766,0.0,0.00220801732516,0.0,0.0725916916588,0.0,-0.00295344500192,0.0,0.0,0.0,0.0,-50.0,0.0,0.0,0.00230154196664,-25.0,-0.00383606751517,-25.0,-0.0,-25.0,-0.0,-25.0,131250.0,0.0,0.0,0.0,0.0,0.0,0.0
1402753645529115102,3,-7.56058084014,-0.00591572024346,-0.843669433394,-0.122189614607,7.37398842056,0.10862951003,-0.00036286467314,0.0,-0.0724568021255,0.0,0.0733674066671,0.0,1.60438448834,0.0,0.00610311154415,0.0,0.0015074948766,0.0,0.00220801732516,0.0,0.0725916916588,0.0,-0.00295344500192,0.0,0.0,0.0,0.0,-50.0,0.0,0.0,0.00230154196664,-25.0,-0.00383606751517,-25.0,-0.0,-25.0,-0.0,-25.0,131250.0,0.0,0.0,0.0,0.0,0.0,0.0
1402753645549409895,3,-7.56055425974,-0.00591572024346,-0.846829731502,-0.122189614607,7.37717743636,0.10862951003,-0.000561896613477,0.0,-0.0759340441867,0.0,0.0755175277469,0.0,1.60436668397,0.0,0.000966119263366,0.0,0.00138465501158,0.0,0.0036076909376,0.0,0.0725843770336,0.0,-0.00538548355982,0.0,0.0,0.0,0.0,-50.0,0.0,0.0,0.00230154196664,-25.0,-0.00383606751517,-25.0,-0.0,-25.0,-0.0,-25.0,131250.0,0.0,0.0,0.0,0.0,0.0,0.0
1402753645569760254,3,-7.56055425974,-0.00591572024346,-0.846829731502,-0.122189614607,7.37717743636,0.10862951003,-0.000561896613477,0.0,-0.0759340441867,0.0,0.0755175277469,0.0,1.60436668397,0.0,0.000966119263366,0.0,0.00138465501158,0.0,0.0036076909376,0.0,0.0725843770336,0.0,-0.00538548355982,0.0,0.0,0.0,0.0,-50.0,0.0,0.0,0.00230154196664,-25.0,-0.00383606751517,-25.0,-0.0,-25.0,-0.0,-25.0,131250.0,0.0,0.0,0.0,0.0,0.0,0.0
1402753645589350678,3,-7.56384066755,-0.00591572024346,-0.848704813133,-0.122189614607,7.36344560497,0.10862951003,-0.0181793959368,0.0,-0.0862006659671,0.0,0.0753991355862,0.0,1.60364784878,0.0,0.00284467448198,0.0,-0.00114928028469,0.0,-0.00289073856742,0.0,0.0720642512547,0.0,-0.0163250424293,0.0,0.0,0.0,0.0,-50.0,0.0,0.0,0.00230154196664,-25.0,-0.00383606751517,-25.0,-0.0,-25.0,-0.0,-25.0,131250.0,0.0,0.0,0.0,0.0,0.0,0.0
1402753645609943774,3,-7.56384066755,-0.00591572024346,-0.848704813133,-0.122189614607,7.36344560497,0.10862951003,-0.0181793959368,0.0,-0.0862006659671,0.0,0.0753991355862,0.0,1.60364784878,0.0,0.00284467448198,0.0,-0.00114928028469,0.0,-0.00289073856742,0.0,0.0720642512547,0.0,-0.0163250424293,0.0,0.0,0.0,0.0,-50.0,0.0,0.0,0.00230154196664,-25.0,-0.00383606751517,-25.0,-0.0,-25.0,-0.0,-25.0,131250.0,0.0,0.0,0.0,0.0,0.0,0.0
1402753645629948891,3,-7.56083397707,-0.00591572024346,-0.848283321742,-0.122189614607,7.35364341381,0.10862951003,-0.0172130151323,0.0,-0.0891486264937,0.0,0.0749409495796,0.0,1.60391997835,0.0,0.00136431685209,0.0,-0.0012455917268,0.0,0.000533611378562,0.0,0.0720625420186,0.0,-0.00945004417332,0.0,0.0,0.0,0.0,-50.0,0.0,0.0,0.00230154196664,-25.0,-0.00383606751517,-25.0,-0.0,-25.0,-0.0,-25.0,131250.0,0.0,0.0,0.0,0.0,0.0,0.0
1402753645648925261,3,-7.56083397707,-0.00591572024346,-0.848283321742,-0.122189614607,7.35364341381,0.10862951003,-0.0172130151323,0.0,-0.0891486264937,0.0,0.0749409495796,0.0,1.60391997835,0.0,0.00136431685209,0.0,-0.0012455917268,0.0,0.000533611378562,0.0,0.0720625420186,0.0,-0.00945004417332,0.0,0.0,0.0,0.0,-50.0,0.0,0.0,0.00230154196664,-25.0,-0.00383606751517,-25.0,-0.0,-25.0,-0.0,-25.0,131250.0,0.0,0.0,0.0,0.0,0.0,0.0
1402753645669311317,3,-7.55974302835,-0.00591572024346,-0.846322632167,-0.122189614607,7.32978741433,0.10862951003,-0.0149894191749,0.0,-0.0900937953829,0.0,0.0707673440672,0.0,1.60422054432,0.0,0.00675290038394,0.0,-0.0015439861215,0.0,-0.00053446626423,0.0,0.0722405258684,0.0,-0.0074333338504,0.0,0.0,0.0,0.0,-50.0,0.0,0.0,0.00230154196664,-25.0,-0.00383606751517,-25.0,-0.0,-25.0,-0.0,-25.0,131250.0,0.0,0.0,0.0,0.0,0.0,0.0
1402753645689646574,3,-7.55974302835,-0.00591572024346,-0.846322632167,-0.122189614607,7.32978741433,0.10862951003,-0.0149894191749,0.0,-0.0900937953829,0.0,0.0707673440672,0.0,1.60422054432,0.0,0.00675290038394,0.0,-0.0015439861215,0.0,-0.00053446626423,0.0,0.0722405258684,0.0,-0.0074333338504,0.0,0.0,0.0,0.0,-50.0,0.0,0.0,0.00230154196664,-25.0,-0.00383606751517,-25.0,-0.0,-25.0,-0.0,-25.0,131250.0,0.0,0.0,0.0,0.0,0.0,0.0
1402753645709046755,3,-7.55554330023,-0.00591572024346,-0.847196892725,-0.122189614607,7.32995045381,0.10862951003,-0.0108173574324,0.0,-0.0875686743763,0.0,0.0727005356159,0.0,1.60451934456,0.0,0.00333567594297,0.0,-0.00130496685384,0.0,0.00539174200084,0.0,0.0729110052228,0.0,-0.00271437368497,0.0,0.0,0.0,0.0,-50.0,0.0,0.0,0.00230154196664,-25.0,-0.00383606751517,-25.0,-0.0,-25.0,-0.0,-25.0,131250.0,0.0,0.0,0.0,0.0,0.0,0.0
1402753645729007523,3,-7.55554330023,-0.00591572024346,-0.847196892725,-0.122189614607,7.32995045381,0.10862951003,-0.0108173574324,0.0,-0.0875686743763,0.0,0.0727005356159,0.0,1.60451934456,0.0,0.00333567594297,0.0,-0.00130496685384,0.0,0.00539174200084,0.0,0.0729110052228,0.0,-0.00271437368497,0.0,0.0,0.0,0.0,-50.0,0.0,0.0,0.00230154196664,-25.0,-0.00383606751517,-25.0,-0.0,-25.0,-0.0,-25.0,131250.0,0.0,0.0,0.0,0.0,0.0,0.0
1402753645749257849,3,-7.55744714191,-0.00591572024346,-0.850257020978,-0.122189614607,7.32411951642,0.10862951003,-0.0213401755978,0.0,-0.0935556978188,0.0,0.0717573299527,0.0,1.60424456715,0.0,0.00426445998286,0.0,-0.00263805479067,0.0,0.00133022089811,0.0,0.0724976795484,0.0,-0.000459350715425,0.0,0.0,0.0,0.0,-50.0,0.0,0.0,0.00230154196664,-25.0,-0.00383606751517,-25.0,-0.0,-25.0,-0.0,-25.0,131250.0,0.0,0.0,0.0,0.0,0.0,0.0
1402753645769446735,3,-7.55744714191,-0.00591572024346,-0.850257020978,-0.122189614607,7.32411951642,0.10862951003,-0.0213401755978,0.0,-0.0935556978188,0.0,0.0717573299527,0.0,1.60424456715,0.0,0.00426445998286,0.0,-0.00263805479067,0.0,0.00133022089811,0.0,0.0724976795484,0.0,-0.000459350715425,0.0,0.0,0.0,0.0,-50.0,0.0,0.0,0.00230154196664,-25.0,-0.00383606751517,-25.0,-0.0,-25.0,-0.0,-25.0,131250.0,0.0,0.0,0.0,0.0,0.0,0.0
1402753645789162164,3,-7.55331613194,-0.00591572024346,-0.857598032826,-0.122189614607,7.32103899345,0.10862951003,-0.0125800936318,0.0,-0.105676131726,0.0,0.0719096185002,0.0,1.60470975911,0.0,0.00112079973088,0.0,-0.00171833917052,0.0,0.000155252773301,0.0,0.0713200417793,0.0,-0.00460543847296,0.0,0.0,0.0,0.0,-50.0,0.0,0.0,0.00230154196664,-25.0,-0.00383606751517,-25.0,-0.0,-25.0,-0.0,-25.0,131250.0,0.0,0.0,0.0,0.0,0.0,0.0
1402753645809796112,3,-7.55331613194,-0.00591572024346,-0.857598032826,-0.122189614607,7.32103899345,0.10862951003,-0.0125800936318,0.0,-0.105676131726,0.0,0.0719096185002,0.0,1.60470975911,0.0,0.00112079973088,0.0,-0.00171833917052,0.0,0.000155252773301,0.0,0.0713200417793,0.0,-0.00460543847296,0.0,0.0,0.0,0.0,-50.0,0.0,0.0,0.00230154196664,-25.0,-0.00383606751517,-25.0,-0.0,-25.0,-0.0,-25.0,131250.0,0.0,0.0,0.0,0.0,0.0,0.0
1402753645829369418,3,-7.54981760846,-0.00591572024346,-0.862959241244,-0.122189614607,7.33050447832,0.10862951003,-0.00733021239423,0.0,-0.107045334315,0.0,0.0759812519027,0.0,1.60488366747,0.0,0.000411000097446,0.0,-0.00137985051202,0.0,-0.000848469211283,0.0,0.0715182289087,0.0,0.00217915770864,0.0,0.0,0.0,0.0,-50.0,0.0,0.0,0.00230154196664,-25.0,-0.00383606751517,-25.0,-0.0,-25.0,-0.0,-25.0,131250.0,0.0,0.0,0.0,0.0,0.0,0.0
1402753645849107013,3,-7.54981760846,-0.00591572024346,-0.862959241244,-0.122189614607,7.33050447832,0.10862951003,-0.00733021239423,0.0,-0.107045334315,0.0,0.0759812519027,0.0,1.60488366747,0.0,0.000411000097446,0.0,-0.00137985051202,0.0,-0.000848469211283,0.0,0.0715182289087,0.0,0.00217915770864,0.0,0.0,0.0,0.0,-50.0,0.0,0.0,0.00230154196664,-25.0,-0.00383606751517,-25.0,-0.0,-25.0,-0.0,-25.0,131250.0,0.0,0.0,0.0,0.0,0.0,0.0
1402753645869027214,3,-7.55006873801,-0.00591572024346,-0.867554784751,-0.122189614607,7.33374536644,0.10862951003,-0.00722675284919,0.0,-0.11062212612,0.0,0.0766843894142,0.0,1.60503118116,0.0,0.00399712906336,0.0,-0.00149212978038,0.0,-0.00265980428536,0.0,0.0714598296709,0.0,-0.0031659343047,0.0,0.0,0.0,0.0,-50.0,0.0,0.0,0.00230154196664,-25.0,-0.00383606751517,-25.0,-0.0,-25.0,-0.0,-25.0,131250.0,0.0,0.0,0.0,0.0,0.0,0.0
1402753645889114040,3,-7.55006873801,-0.00591572024346,-0.867554784751,-0.122189614607,7.33374536644,0.10862951003,-0.00722675284919,0.0,-0.11062212612,0.0,0.0766843894142,0.0,1.60503118116,0.0,0.00399712906336,0.0,-0.00149212978038,0.0,-0.00265980428536,0.0,0.0714598296709,0.0,-0.0031659343047,0.0,0.0,0.0,0.0,-50.0,0.0,0.0,0.00230154196664,-25.0,-0.00383606751517,-25.0,-0.0,-25.0,-0.0,-25.0,131250.0,0.0,0.0,0.0,0.0,0.0,0.0
1402753645909061446,3,-7.55076356305,-0.00591572024346,-0.867078123248,-0.122189614607,7.32415394078,0.10862951003,-0.00898627129787,0.0,-0.104950279492,0.0,0.0734205237024,0.0,1.60513751659,0.0,0.00555433168068,0.0,-0.00188454269367,0.0,0.000992371594596,0.0,0.0724053673946,0.0,0.00616149444777,0.0,0.0,0.0,0.0,-50.0,0.0,0.0,0.00230154196664,-25.0,-0.00383606751517,-25.0,-0.0,-25.0,-0.0,-25.0,131250.0,0.0,0.0,0.0,0.0,0.0,0.0
1402753645930154317,3,-7.55076356305,-0.00591572024346,-0.867078123248,-0.122189614607,7.32415394078,0.10862951003,-0.00898627129787,0.0,-0.104950279492,0.0,0.0734205237024,0.0,1.60513751659,0.0,0.00555433168068,0.0,-0.00188454269367,0.0,0.000992371594596,0.0,0.0724053673946,0.0,0.00616149444777,0.0,0.0,0.0,0.0,-50.0,0.0,0.0,0.00230154196664,-25.0,-0.00383606751517,-25.0,-0.0,-25.0,-0.0,-25.0,131250.0,0.0,0.0,0.0,0.0,0.0,0.0
1402753645949277589,3,-7.54978588171,-0.00591572024346,-0.870924619491,-0.122189614607,7.31936958296,0.10862951003,-0.00800710671297,0.0,-0.108646556095,0.0,0.0722064050389,0.0,1.60537396998,0.0,0.00607114054929,0.0,-0.00159159055576,0.0,0.00251390728415,0.0,0.0722192888755,0.0,0.00370232254882,0.0,0.0,0.0,0.0,-50.0,0.0,0.0,0.00230154196664,-25.0,-0.00383606751517,-25.0,-0.0,-25.0,-0.0,-25.0,131250.0,0.0,0.0,0.0,0.0,0.0,0.0
1402753645969323287,3,-7.54978588171,-0.00591572024346,-0.870924619491,-0.122189614607,7.31936958296,0.10862951003,-0.00800710671297,0.0,-0.108646556095,0.0,0.0722064050389,0.0,1.60537396998,0.0,0.00607114054929,0.0,-0.00159159055576,0.0,0.00251390728415,0.0,0.0722192888755,0.0,0.00370232254882,0.0,0.0,0.0,0.0,-50.0,0.0,0.0,0.00230154196664,-25.0,-0.00383606751517,-25.0,-0.0,-25.0,-0.0,-25.0,131250.0,0.0,0.0,0.0,0.0,0.0,0.0
1402753645989132046,3,-7.54757185955,-0.00591572024346,-0.878327320567,-0.122189614607,7.32741957566,0.10862951003,-0.00628671680594,0.0,-0.115318752515,0.0,0.0746579321341,0.0,1.60551020311,0.0,0.00801566574386,0.0,-0.00141428029184,0.0,0.00711761163689,0.0,0.0716479741439,0.0,0.0015611193958,0.0,0.0,0.0,0.0,-50.0,0.0,0.0,0.00230154196664,-25.0,-0.00383606751517,-25.0,-0.0,-25.0,-0.0,-25.0,131250.0,0.0,0.0,0.0,0.0,0.0,0.0
1402753646009285204,3,-7.54757185955,-0.00591572024346,-0.878327320567,-0.122189614607,7.32741957566,0.10862951003,-0.00628671680594,0.0,-0.115318752515,0.0,0.0746579321341,0.0,1.60551020311,0.0,0.00801566574386,0.0,-0.00141428029184,0.0,0.00711761163689,0.0,0.0716479741439,0.0,0.0015611193958,0.0,0.0,0.0,0.0,-50.0,0.0,0.0,0.00230154196664,-25.0,-0.00383606751517,-25.0,-0.0,-25.0,-0.0,-25.0,131250.0,0.0,0.0,0.0,0.0,0.0,0.0
1402753646029080860,3,-7.54644855116,-0.00591572024346,-0.878118979194,-0.122189614607,7.32403575891,0.10862951003,-0.00631680639405,0.0,-0.10775497647,0.0,0.0754657355126,0.0,1.60577568199,0.0,0.000879770264648,0.0,-0.00126145096926,0.0,0.0044567924396,0.0,0.0726310896553,0.0,0.00206647401818,0.0,0.0,0.0,0.0,-50.0,0.0,0.0,0.00230154196664,-25.0,-0.00383606751517,-25.0,-0.0,-25.0,-0.0,-25.0,131250.0,0.0,0.0,0.0,0.0,0.0,0.0
1402753646049741474,3,-7.54644855116,-0.00591572024346,-0.878118979194,-0.122189614607,7.32403575891,0.10862951003,-0.00631680639405,0.0,-0.10775497647,0.0,0.0754657355126,0.0,1.60577568199,0.0,0.000879770264648,0.0,-0.00126145096926,0.0,0.0044567924396,0.0,0.0726310896553,0.0,0.00206647401818,0.0,0.0,0.0,0.0,-50.0,0.0,0.0,0.00230154196664,-25.0,-0.00383606751517,-25.0,-0.0,-25.0,-0.0,-25.0,131250.0,0.0,0.0,0.0,0.0,0.0,0.0
1402753646069147980,3,-7.54816263651,-0.00591572024346,-0.886980585664,-0.122189614607,7.31690528141,0.10862951003,-0.00974313829702,0.0,-0.120260699523,0.0,0.0750513138599,0.0,1.60599759775,0.0,0.00490327602569,0.0,-0.00157016889432,0.0,0.00369481752854,0.0,0.0714427261065,0.0,0.00155180281212,0.0,0.0,0.0,0.0,-50.0,0.0,0.0,0.00230154196664,-25.0,-0.00383606751517,-25.0,-0.0,-25.0,-0.0,-25.0,131250.0,0.0,0.0,0.0,0.0,0.0,0.0
1402753646089079837,3,-7.54816263651,-0.00591572024346,-0.886980585664,-0.122189614607,7.31690528141,0.10862951003,-0.00974313829702,0.0,-0.120260699523,0.0,0.0750513138599,0.0,1.60599759775,0.0,0.00490327602569,0.0,-0.00157016889432,0.0,0.00369481752854,0.0,0.0714427261065,0.0,0.00155180281212,0.0,0.0,0.0,0.0,-50.0,0.0,0.0,0.00230154196664,-25.0,-0.00383606751517,-25.0,-0.0,-25.0,-0.0,-25.0,131250.0,0.0,0.0,0.0,0.0,0.0,0.0
1402753646109193316,3,-7.54848483064,-0.00591572024346,-0.890640744738,-0.122189614607,7.319214836,0.10862951003,-0.0102809205247,0.0,-0.122507644509,0.0,0.0762503148069,0.0,1.60608220082,0.0,0.00469205363966,0.0,-0.00154115299907,0.0,0.00452713791104,0.0,0.0713488948263,0.0,-9.604865785e-05,0.0,0.0,0.0,0.0,-50.0,0.0,0.0,0.00230154196664,-25.0,-0.00383606751517,-25.0,-0.0,-25.0,-0.0,-25.0,131250.0,0.0,0.0,0.0,0.0,0.0,0.0
1402753646129316764,3,-7.54458993778,-0.00591572024346,-0.896338010697,-0.122189614607,7.33564574087,0.10862951003,-0.00315606770789,0.0,-0.122810927286,0.0,0.0825027924609,0.0,1.60641900648,0.0,0.0116047821012,0.0,-0.00075719057423,0.0,0.00449560026374,0.0,0.0714294440742,0.0,0.00693721984959,0.0,0.0,0.0,0.0,-50.0,0.0,0.0,0.00230154196664,-25.0,-0.00383606751517,-25.0,-0.0,-25.0,-0.0,-25.0,131250.0,0.0,0.0,0.0,0.0,0.0,0.0
1402753646149187315,3,-7.54458993778,-0.00591572024346,-0.896338010697,-0.122189614607,7.33564574087,0.10862951003,-0.00315606770789,0.0,-0.122810927286,0.0,0.0825027924609,0.0,1.60641900648,0.0,0.0116047821012,0.0,-0.00075719057423,0.0,0.00449560026374,0.0,0.0714294440742,0.0,0.00693721984959,0.0,0.0,0.0,0.0,-50.0,0.0,0.0,0.00230154196664,-25.0,-0.00383606751517,-25.0,-0.0,-25.0,-0.0,-25.0,131250.0,0.0,0.0,0.0,0.0,0.0,0.0
1402753646169137188,3,-7.54467294871,-0.00591572024346,-0.898914521547,-0.122189614607,7.3374398725,0.10862951003,-0.00508268333593,0.0,-0.124429684105,0.0,0.0824828011274,0.0,1.60646386752,0.0,0.00146850863606,0.0,-0.000737489914696,0.0,0.00254277909196,0.0,0.0713978499358,0.0,-6.28510216334e-05,0.0,0.0,0.0,0.0,-50.0,0.0,0.0,0.00230154196664,-25.0,-0.00383606751517,-25.0,-0.0,-25.0,-0.0,-25.0,131250.0,0.0,0.0,0.0,0.0,0.0,0.0
1402753646189428466,3,-7.54467294871,-0.00591572024346,-0.898914521547,-0.122189614607,7.3374398725,0.10862951003,-0.00508268333593,0.0,-0.124429684105,0.0,0.0824828011274,0.0,1.60646386752,0.0,0.00146850863606,0.0,-0.000737489914696,0.0,0.00254277909196,0.0,0.0713978499358,0.0,-6.28510216334e-05,0.0,0.0,0.0,0.0,-50.0,0.0,0.0,0.00230154196664,-25.0,-0.00383606751517,-25.0,-0.0,-25.0,-0.0,-25.0,131250.0,0.0,0.0,0.0,0.0,0.0,0.0
1402753646209195272,3,-7.5448586294,-0.00591572024346,-0.90178423987,-0.122189614607,7.32833162729,0.10862951003,-0.00258415484636,0.0,-0.123842429167,0.0,0.0785681831428,0.0,1.60677038684,0.0,0.00739956550625,0.0,-0.000363023803147,0.0,0.00218542138806,0.0,0.0716266891347,0.0,0.00367540036984,0.0,0.0,0.0,0.0,-50.0,0.0,0.0,0.00230154196664,-25.0,-0.00383606751517,-25.0,-0.0,-25.0,-0.0,-25.0,131250.0,0.0,0.0,0.0,0.0,0.0,0.0
1402753646230179626,3,-7.5448586294,-0.00591572024346,-0.90178423987,-0.122189614607,7.32833162729,0.10862951003,-0.00258415484636,0.0,-0.123842429167,0.0,0.0785681831428,0.0,1.60677038684,0.0,0.00739956550625,0.0,-0.000363023803147,0.0,0.00218542138806,0.0,0.0716266891347,0.0,0.00367540036984,0.0,0.0,0.0,0.0,-50.0,0.0,0.0,0.00230154196664,-25.0,-0.00383606751517,-25.0,-0.0,-25.0,-0.0,-25.0,131250.0,0.0,0.0,0.0,0.0,0.0,0.0
1402753646249794064,3,-7.54712469481,-0.00591572024346,-0.910261851747,-0.122189614607,7.34227128069,0.10862951003,-0.0125658134612,0.0,-0.126991911852,0.0,0.0816788595192,0.0,1.60680762927,0.0,0.0111706264393,0.0,-0.00155650051752,0.0,0.00107032755446,0.0,0.0716506495603,0.0,0.000470843179384,0.0,0.0,0.0,0.0,-50.0,0.0,0.0,0.00230154196664,-25.0,-0.00383606751517,-25.0,-0.0,-25.0,-0.0,-25.0,131250.0,0.0,0.0,0.0,0.0,0.0,0.0
1402753646269241348,3,-7.54712469481,-0.00591572024346,-0.910261851747,-0.122189614607,7.34227128069,0.10862951003,-0.0125658134612,0.0,-0.126991911852,0.0,0.0816788595192,0.0,1.60680762927,0.0,0.0111706264393,0.0,-0.00155650051752,0.0,0.00107032755446,0.0,0.0716506495603,0.0,0.000470843179384,0.0,0.0,0.0,0.0,-50.0,0.0,0.0,0.00230154196664,-25.0,-0.00383606751517,-25.0,-0.0,-25.0,-0.0,-25.0,131250.0,0.0,0.0,0.0,0.0,0.0,0.0
1402753646289169754,3,-7.54650111808,-0.00591572024346,-0.916553631602,-0.122189614607,7.35050146353,0.10862951003,-0.012323586391,0.0,-0.127211735315,0.0,0.0813003608017,0.0,1.60702882243,0.0,0.00505948803029,0.0,-0.00142470575516,0.0,0.00300064775384,0.0,0.0719393683813,0.0,-0.00067195334354,0.0,0.0,0.0,0.0,-50.0,0.0,0.0,0.00230154196664,-25.0,-0.00383606751517,-25.0,-0.0,-25.0,-0.0,-25.0,131250.0,0.0,0.0,0.0,0.0,0.0,0.0
1402753646309127840,3,-7.54650111808,-0.00591572024346,-0.916553631602,-0.122189614607,7.35050146353,0.10862951003,-0.012323586391,0.0,-0.127211735315,0.0,0.0813003608017,0.0,1.60702882243,0.0,0.00505948803029,0.0,-0.00142470575516,0.0,0.00300064775384,0.0,0.0719393683813,0.0,-0.00067195334354,0.0,0.0,0.0,0.0,-50.0,0.0,0.0,0.00230154196664,-25.0,-0.00383606751517,-25.0,-0.0,-25.0,-0.0,-25.0,131250.0,0.0,0.0,0.0,0.0,0.0,0.0
1402753646329040134,3,-7.54734388949,-0.00591572024346,-0.925768932964,-0.122189614607,7.34255455204,0.10862951003,-0.0098567612843,0.0,-0.139504743426,0.0,0.0772490819025,0.0,1.60727106946,0.0,0.009985575911,0.0,-0.00103849393609,0.0,-0.00287626300127,0.0,0.0707220134571,0.0,-0.000210027027939,0.0,0.0,0.0,0.0,-50.0,0.0,0.0,0.00230154196664,-25.0,-0.00383606751517,-25.0,-0.0,-25.0,-0.0,-25.0,131250.0,0.0,0.0,0.0,0.0,0.0,0.0
1402753646349235929,3,-7.54734388949,-0.00591572024346,-0.925768932964,-0.122189614607,7.34255455204,0.10862951003,-0.0098567612843,0.0,-0.139504743426,0.0,0.0772490819025,0.0,1.60727106946,0.0,0.009985575911,0.0,-0.00103849393609,0.0,-0.00287626300127,0.0,0.0707220134571,0.0,-0.000210027027939,0.0,0.0,0.0,0.0,-50.0,0.0,0.0,0.00230154196664,-25.0,-0.00383606751517,-25.0,-0.0,-25.0,-0.0,-25.0,131250.0,0.0,0.0,0.0,0.0,0.0,0.0
1402753646368930496,3,-7.54777160793,-0.00591572024346,-0.931610584388,-0.122189614607,7.34566479502,0.10862951003,-0.0103511805611,0.0,-0.14302324813,0.0,0.0758617826435,0.0,1.60765021373,0.0,0.0143030537223,0.0,-0.00103067451739,0.0,-5.0822444712e-05,0.0,0.0708362909206,0.0,-0.0109901148058,0.0,0.0,0.0,0.0,-50.0,0.0,0.0,0.00230154196664,-25.0,-0.00383606751517,-25.0,-0.0,-25.0,-0.0,-25.0,131250.0,0.0,0.0,0.0,0.0,0.0,0.0
1402753646389078665,3,-7.54777160793,-0.00591572024346,-0.931610584388,-0.122189614607,7.34566479502,0.10862951003,-0.0103511805611,0.0,-0.14302324813,0.0,0.0758617826435,0.0,1.60765021373,0.0,0.0143030537223,0.0,-0.00103067451739,0.0,-5.0822444712e-05,0.0,0.0708362909206,0.0,-0.0109901148058,0.0,0.0,0.0,0.0,-50.0,0.0,0.0,0.00230154196664,-25.0,-0.00383606751517,-25.0,-0.0,-25.0,-0.0,-25.0,131250.0,0.0,0.0,0.0,0.0,0.0,0.0
1402753646408994345,3,-7.55102173899,-0.00591572024346,-0.936229898499,-0.122189614607,7.3504612188,0.10862951003,-0.0188022544446,0.0,-0.137920094683,0.0,0.0760798447886,0.0,1.60790613242,0.0,0.00892982184751,0.0,-0.00224918129022,0.0,-0.00523058810729,0.0,0.072040912207,0.0,0.000412769082729,0.0,0.0,0.0,0.0,-50.0,0.0,0.0,0.00230154196664,-25.0,-0.00383606751517,-25.0,-0.0,-25.0,-0.0,-25.0,131250.0,0.0,0.0,0.0,0.0,0.0,0.0
1402753646429435006,3,-7.55102173899,-0.00591572024346,-0.936229898499,-0.122189614607,7.3504612188,0.10862951003,-0.0188022544446,0.0,-0.137920094683,0.0,0.0760798447886,0.0,1.60790613242,0.0,0.00892982184751,0.0,-0.00224918129022,0.0,-0.00523058810729,0.0,0.072040912207,0.0,0.000412769082729,0.0,0.0,0.0,0.0,-50.0,0.0,0.0,0.00230154196664,-25.0,-0.00383606751517,-25.0,-0.0,-25.0,-0.0,-25.0,131250.0,0.0,0.0,0.0,0.0,0.0,0.0
1402753646449716532,3,-7.54617128259,-0.00591572024346,-0.945985801947,-0.122189614607,7.36038694029,0.10862951003,-0.00390720219802,0.0,-0.144416326934,0.0,0.0774979585525,0.0,1.60834627823,0.0,0.012307411351,0.0,-0.000412020508963,0.0,-0.00596374107615,0.0,0.0716823218142,0.0,-0.000263196716919,0.0,0.0,0.0,0.0,-50.0,0.0,0.0,0.00230154196664,-25.0,-0.00383606751517,-25.0,-0.0,-25.0,-0.0,-25.0,131250.0,0.0,0.0,0.0,0.0,0.0,0.0
1402753646469121830,3,-7.54617128259,-0.00591572024346,-0.945985801947,-0.122189614607,7.36038694029,0.10862951003,-0.00390720219802,0.0,-0.144416326934,0.0,0.0774979585525,0.0,1.60834627823,0.0,0.012307411351,0.0,-0.000412020508963,0.0,-0.00596374107615,0.0,0.0716823218142,0.0,-0.000263196716919,0.0,0.0,0.0,0.0,-50.0,0.0,0.0,0.00230154196664,-25.0,-0.00383606751517,-25.0,-0.0,-25.0,-0.0,-25.0,131250.0,0.0,0.0,0.0,0.0,0.0,0.0
1402753646489378456,3,-7.54846786853,-0.00591572024346,-0.948684825122,-0.122189614607,7.35413023803,0.10862951003,-0.00880416993815,0.0,-0.140254177897,0.0,0.0734285538818,0.0,1.60848179145,0.0,0.0133956039499,0.0,-0.00107543241265,0.0,-0.00141074358996,0.0,0.0726940753319,0.0,0.00476424657376,0.0,0.0,0.0,0.0,-50.0,0.0,0.0,0.00230154196664,-25.0,-0.00383606751517,-25.0,-0.0,-25.0,-0.0,-25.0,131250.0,0.0,0.0,0.0,0.0,0.0,0.0
1402753646509131943,3,-7.54846786853,-0.00591572024346,-0.948684825122,-0.122189614607,7.35413023803,0.10862951003,-0.00880416993815,0.0,-0.140254177897,0.0,0.0734285538818,0.0,1.60848179145,0.0,0.0133956039499,0.0,-0.00107543241265,0.0,-0.00141074358996,0.0,0.0726940753319,0.0,0.00476424657376,0.0,0.0,0.0,0.0,-50.0,0.0,0.0,0.00230154196664,-25.0,-0.00383606751517,-25.0,-0.0,-25.0,-0.0,-25.0,131250.0,0.0,0.0,0.0,0.0,0.0,0.0
1402753646529059037,3,-7.54888315392,-0.00591572024346,-0.954421691113,-0.122189614607,7.35721773625,0.10862951003,-0.00852485785363,0.0,-0.142478016653,0.0,0.0738710877262,0.0,1.60887903961,0.0,0.0135325173184,0.0,-0.000757079541121,0.0,-0.00228272557402,0.0,0.0727990043051,0.0,0.00740168710785,0.0,0.0,0.0,0.0,-50.0,0.0,0.0,0.00230154196664,-25.0,-0.00383606751517,-25.0,-0.0,-25.0,-0.0,-25.0,131250.0,0.0,0.0,0.0,0.0,0.0,0.0
1402753646549111929,3,-7.54888315392,-0.00591572024346,-0.954421691113,-0.122189614607,7.35721773625,0.10862951003,-0.00852485785363,0.0,-0.142478016653,0.0,0.0738710877262,0.0,1.60887903961,0.0,0.0135325173184,0.0,-0.000757079541121,0.0,-0.00228272557402,0.0,0.0727990043051,0.0,0.00740168710785,0.0,0.0,0.0,0.0,-50.0,0.0,0.0,0.00230154196664,-25.0,-0.00383606751517,-25.0,-0.0,-25.0,-0.0,-25.0,131250.0,0.0,0.0,0.0,0.0,0.0,0.0
1402753646571084060,3,-7.54884168163,-0.00591572024346,-0.970289420706,-0.122189614607,7.3765156802,0.10862951003,-0.0113283572092,0.0,-0.155992533341,0.0,0.0804015224914,0.0,1.60929681809,0.0,0.0111317398162,0.0,-0.000817985910481,0.0,-0.00424587269107,0.0,0.0718287111878,0.0,0.00381411472982,0.0,0.0,0.0,0.0,-50.0,0.0,0.0,0.00230154196664,-25.0,-0.00383606751517,-25.0,-0.0,-25.0,-0.0,-25.0,131250.0,0.0,0.0,0.0,0.0,0.0,0.0
1402753646589293354,3,-7.54884168163,-0.00591572024346,-0.970289420706,-0.122189614607,7.3765156802,0.10862951003,-0.0113283572092,0.0,-0.155992533341,0.0,0.0804015224914,0.0,1.60929681809,0.0,0.0111317398162,0.0,-0.000817985910481,0.0,-0.00424587269107,0.0,0.0718287111878,0.0,0.00381411472982,0.0,0.0,0.0,0.0,-50.0,0.0,0.0,0.00230154196664,-25.0,-0.00383606751517,-25.0,-0.0,-25.0,-0.0,-25.0,131250.0,0.0,0.0,0.0,0.0,0.0,0.0
1402753646609156783,3,-7.54828248352,-0.00591572024346,-0.980750178163,-0.122189614607,7.38307842962,0.10862951003,-0.0086329072179,0.0,-0.153577995221,0.0,0.0810767624053,0.0,1.61003293812,0.0,0.00670310178434,0.0,-0.000493891158565,0.0,-0.00239322584998,0.0,0.0727236199887,0.0,0.0129914832768,0.0,0.0,0.0,0.0,-50.0,0.0,0.0,0.00230154196664,-25.0,-0.00383606751517,-25.0,-0.0,-25.0,-0.0,-25.0,131250.0,0.0,0.0,0.0,0.0,0.0,0.0
1402753646628966735,3,-7.54828248352,-0.00591572024346,-0.980750178163,-0.122189614607,7.38307842962,0.10862951003,-0.0086329072179,0.0,-0.153577995221,0.0,0.0810767624053,0.0,1.61003293812,0.0,0.00670310178434,0.0,-0.000493891158565,0.0,-0.00239322584998,0.0,0.0727236199887,0.0,0.0129914832768,0.0,0.0,0.0,0.0,-50.0,0.0,0.0,0.00230154196664,-25.0,-0.00383606751517,-25.0,-0.0,-25.0,-0.0,-25.0,131250.0,0.0,0.0,0.0,0.0,0.0,0.0
1402753646649703232,3,-7.55145221296,-0.00591572024346,-0.991556163733,-0.122189614607,7.37534322994,0.10862951003,-0.0145217773751,0.0,-0.165803410676,0.0,0.0778648090809,0.0,1.61035867837,0.0,0.00678929750528,0.0,-0.00110487579904,0.0,-0.00314605746625,0.0,0.0718239455927,0.0,0.00110241415786,0.0,0.0,0.0,0.0,-50.0,0.0,0.0,0.00230154196664,-25.0,-0.00383606751517,-25.0,-0.0,-25.0,-0.0,-25.0,131250.0,0.0,0.0,0.0,0.0,0.0,0.0
1402753646669233649,3,-7.55145221296,-0.00591572024346,-0.991556163733,-0.122189614607,7.37534322994,0.10862951003,-0.0145217773751,0.0,-0.165803410676,0.0,0.0778648090809,0.0,1.61035867837,0.0,0.00678929750528,0.0,-0.00110487579904,0.0,-0.00314605746625,0.0,0.0718239455927,0.0,0.00110241415786,0.0,0.0,0.0,0.0,-50.0,0.0,0.0,0.00230154196664,-25.0,-0.00383606751517,-25.0,-0.0,-25.0,-0.0,-25.0,131250.0,0.0,0.0,0.0,0.0,0.0,0.0
1402753646689165590,3,-7.55112069421,-0.00591572024346,-1.0012719902,-0.122189614607,7.3783892537,0.10862951003,-0.0125786360856,0.0,-0.170677665561,0.0,0.0775198468932,0.0,1.61062785808,0.0,0.00783963210045,0.0,-0.000809937131795,0.0,-0.000627330049375,0.0,0.0715808013323,0.0,-0.00105142030328,0.0,0.0,0.0,0.0,-50.0,0.0,0.0,0.00230154196664,-25.0,-0.00383606751517,-25.0,-0.0,-25.0,-0.0,-25.0,131250.0,0.0,0.0,0.0,0.0,0.0,0.0
1402753646709836979,3,-7.55112069421,-0.00591572024346,-1.0012719902,-0.122189614607,7.3783892537,0.10862951003,-0.0125786360856,0.0,-0.170677665561,0.0,0.0775198468932,0.0,1.61062785808,0.0,0.00783963210045,0.0,-0.000809937131795,0.0,-0.000627330049375,0.0,0.0715808013323,0.0,-0.00105142030328,0.0,0.0,0.0,0.0,-50.0,0.0,0.0,0.00230154196664,-25.0,-0.00383606751517,-25.0,-0.0,-25.0,-0.0,-25.0,131250.0,0.0,0.0,0.0,0.0,0.0,0.0
1402753646729238024,3,-7.5509708358,-0.00591572024346,-1.01363530662,-0.122189614607,7.38727582467,0.10862951003,-0.0128973146129,0.0,-0.178419837159,0.0,0.0783254801896,0.0,1.61096489115,0.0,0.00646496020192,0.0,-0.000791805719872,0.0,0.00287888365478,0.0,0.0711079421135,0.0,-0.00023664704828,0.0,0.0,0.0,0.0,-50.0,0.0,0.0,0.00230154196664,-25.0,-0.00383606751517,-25.0,-0.0,-25.0,-0.0,-25.0,131250.0,0.0,0.0,0.0,0.0,0.0,0.0
1402753646749115070,3,-7.5509708358,-0.00591572024346,-1.01363530662,-0.122189614607,7.38727582467,0.10862951003,-0.0128973146129,0.0,-0.178419837159,0.0,0.0783254801896,0.0,1.61096489115,0.0,0.00646496020192,0.0,-0.000791805719872,0.0,0.00287888365478,0.0,0.0711079421135,0.0,-0.00023664704828,0.0,0.0,0.0,0.0,-50.0,0.0,0.0,0.00230154196664,-25.0,-0.00383606751517,-25.0,-0.0,-25.0,-0.0,-25.0,131250.0,0.0,0.0,0.0,0.0,0.0,0.0
1402753646769284075,3,-7.54958269811,-0.00591572024346,-1.01962468184,-0.122189614607,7.39797112698,0.10862951003,-0.0105124094985,0.0,-0.170971086979,0.0,0.080157402474,0.0,1.61121184035,0.0,0.0112395470731,0.0,-0.000727494437577,0.0,0.00364089634359,0.0,0.072250078161,0.0,0.0026971890089,0.0,0.0,0.0,0.0,-50.0,0.0,0.0,0.00230154196664,-25.0,-0.00383606751517,-25.0,-0.0,-25.0,-0.0,-25.0,131250.0,0.0,0.0,0.0,0.0,0.0,0.0
1402753646789293159,3,-7.54958269811,-0.00591572024346,-1.01962468184,-0.122189614607,7.39797112698,0.10862951003,-0.0105124094985,0.0,-0.170971086979,0.0,0.080157402474,0.0,1.61121184035,0.0,0.0112395470731,0.0,-0.000727494437577,0.0,0.00364089634359,0.0,0.072250078161,0.0,0.0026971890089,0.0,0.0,0.0,0.0,-50.0,0.0,0.0,0.00230154196664,-25.0,-0.00383606751517,-25.0,-0.0,-25.0,-0.0,-25.0,131250.0,0.0,0.0,0.0,0.0,0.0,0.0
1402753646809117261,3,-7.54937169803,-0.00591572024346,-1.0277535833,-0.122189614607,7.39241113832,0.10862951003,-0.00916419720125,0.0,-0.182308211807,0.0,0.0771698181102,0.0,1.61140324349,0.0,0.0157953124968,0.0,-0.000473593978148,0.0,0.00152308759384,0.0,0.0709873206246,0.0,-0.00228665844939,0.0,0.0,0.0,0.0,-50.0,0.0,0.0,0.00230154196664,-25.0,-0.00383606751517,-25.0,-0.0,-25.0,-0.0,-25.0,131250.0,0.0,0.0,0.0,0.0,0.0,0.0
1402753646830054137,3,-7.54937169803,-0.00591572024346,-1.0277535833,-0.122189614607,7.39241113832,0.10862951003,-0.00916419720125,0.0,-0.182308211807,0.0,0.0771698181102,0.0,1.61140324349,0.0,0.0157953124968,0.0,-0.000473593978148,0.0,0.00152308759384,0.0,0.0709873206246,0.0,-0.00228665844939,0.0,0.0,0.0,0.0,-50.0,0.0,0.0,0.00230154196664,-25.0,-0.00383606751517,-25.0,-0.0,-25.0,-0.0,-25.0,131250.0,0.0,0.0,0.0,0.0,0.0,0.0
1402753646849397157,3,-7.54947435477,-0.00591572024346,-1.03131623541,-0.122189614607,7.39376478661,0.10862951003,-0.00880999440944,0.0,-0.183460031806,0.0,0.0791856615295,0.0,1.61161325511,0.0,0.0138905504729,0.0,-0.000519897491412,0.0,-0.00170529761862,0.0,0.0709620441892,0.0,0.000992095379665,0.0,0.0,0.0,0.0,-50.0,0.0,0.0,0.00230154196664,-25.0,-0.00383606751517,-25.0,-0.0,-25.0,-0.0,-25.0,131250.0,0.0,0.0,0.0,0.0,0.0,0.0
1402753646869084783,3,-7.54947435477,-0.00591572024346,-1.03131623541,-0.122189614607,7.39376478661,0.10862951003,-0.00880999440944,0.0,-0.183460031806,0.0,0.0791856615295,0.0,1.61161325511,0.0,0.0138905504729,0.0,-0.000519897491412,0.0,-0.00170529761862,0.0,0.0709620441892,0.0,0.000992095379665,0.0,0.0,0.0,0.0,-50.0,0.0,0.0,0.00230154196664,-25.0,-0.00383606751517,-25.0,-0.0,-25.0,-0.0,-25.0,131250.0,0.0,0.0,0.0,0.0,0.0,0.0
1402753646889411429,3,-7.548920059,-0.00591572024346,-1.0395088479,-0.122189614607,7.40453757681,0.10862951003,-0.0128850936321,0.0,-0.184213260384,0.0,0.08155471546,0.0,1.6119569541,0.0,0.0096925892388,0.0,-0.00104620397585,0.0,0.00378299245246,0.0,0.0712718154107,0.0,-0.00351113845567,0.0,0.0,0.0,0.0,-50.0,0.0,0.0,0.00230154196664,-25.0,-0.00383606751517,-25.0,-0.0,-25.0,-0.0,-25.0,131250.0,0.0,0.0,0.0,0.0,0.0,0.0
1402753646909115137,3,-7.548920059,-0.00591572024346,-1.0395088479,-0.122189614607,7.40453757681,0.10862951003,-0.0128850936321,0.0,-0.184213260384,0.0,0.08155471546,0.0,1.6119569541,0.0,0.0096925892388,0.0,-0.00104620397585,0.0,0.00378299245246,0.0,0.0712718154107,0.0,-0.00351113845567,0.0,0.0,0.0,0.0,-50.0,0.0,0.0,0.00230154196664,-25.0,-0.00383606751517,-25.0,-0.0,-25.0,-0.0,-25.0,131250.0,0.0,0.0,0.0,0.0,0.0,0.0
1402753646929150216,3,-7.5495199557,-0.00591572024346,-1.04515675118,-0.122189614607,7.39968183129,0.10862951003,-0.0160315823949,0.0,-0.182828123057,0.0,0.0809099605771,0.0,1.61223797212,0.0,0.0110940703757,0.0,-0.00166464914174,0.0,0.00236415636585,0.0,0.0717494579735,0.0,-0.00146890070918,0.0,0.0,0.0,0.0,-50.0,0.0,0.0,0.00230154196664,-25.0,-0.00383606751517,-25.0,-0.0,-25.0,-0.0,-25.0,131250.0,0.0,0.0,0.0,0.0,0.0,0.0
1402753646949681698,3,-7.5495199557,-0.00591572024346,-1.04515675118,-0.122189614607,7.39968183129,0.10862951003,-0.0160315823949,0.0,-0.182828123057,0.0,0.0809099605771,0.0,1.61223797212,0.0,0.0110940703757,0.0,-0.00166464914174,0.0,0.00236415636585,0.0,0.0717494579735,0.0,-0.00146890070918,0.0,0.0,0.0,0.0,-50.0,0.0,0.0,0.00230154196664,-25.0,-0.00383606751517,-25.0,-0.0,-25.0,-0.0,-25.0,131250.0,0.0,0.0,0.0,0.0,0.0,0.0
1402753646969276153,3,-7.54997078213,-0.00591572024346,-1.05091669411,-0.122189614607,7.40237106814,0.10862951003,-0.0157972200454,0.0,-0.184665074009,0.0,0.0820739628123,0.0,1.6125762334,0.0,0.0176409450523,0.0,-0.00184357135812,0.0,0.00160594547254,0.0,0.0716689796131,0.0,-0.00479845436101,0.0,0.0,0.0,0.0,-50.0,0.0,0.0,0.00230154196664,-25.0,-0.00383606751517,-25.0,-0.0,-25.0,-0.0,-25.0,131250.0,0.0,0.0,0.0,0.0,0.0,0.0
1402753646989308756,3,-7.55007773966,-0.00591572024346,-1.0533670939,-0.122189614607,7.41343136257,0.10862951003,-0.0233172739138,0.0,-0.179971450432,0.0,0.0854153514477,0.0,1.61285866877,0.0,0.0109698494658,0.0,-0.00275146753597,0.0,0.00513451746803,0.0,0.0724903255103,0.0,-0.0071156375801,0.0,0.0,0.0,0.0,-50.0,0.0,0.0,0.00230154196664,-25.0,-0.00383606751517,-25.0,-0.0,-25.0,-0.0,-25.0,131250.0,0.0,0.0,0.0,0.0,0.0,0.0
1402753647008975544,3,-7.55007773966,-0.00591572024346,-1.0533670939,-0.122189614607,7.41343136257,0.10862951003,-0.0233172739138,0.0,-0.179971450432,0.0,0.0854153514477,0.0,1.61285866877,0.0,0.0109698494658,0.0,-0.00275146753597,0.0,0.00513451746803,0.0,0.0724903255103,0.0,-0.0071156375801,0.0,0.0,0.0,0.0,-50.0,0.0,0.0,0.00230154196664,-25.0,-0.00383606751517,-25.0,-0.0,-25.0,-0.0,-25.0,131250.0,0.0,0.0,0.0,0.0,0.0,0.0
1402753647029660933,3,-7.55042211675,-0.00591572024346,-1.05695600859,-0.122189614607,7.41508407033,0.10862951003,-0.0229651722723,0.0,-0.180411251991,0.0,0.085892993103,0.0,1.61312254137,0.0,0.0151262200764,0.0,-0.00279596963216,0.0,0.000252923286778,0.0,0.0724865413934,0.0,0.000850423188826,0.0,0.0,0.0,0.0,-50.0,0.0,0.0,0.00230154196664,-25.0,-0.00383606751517,-25.0,-0.0,-25.0,-0.0,-25.0,131250.0,0.0,0.0,0.0,0.0,0.0,0.0
1402753647049119568,3,-7.55042211675,-0.00591572024346,-1.05695600859,-0.122189614607,7.41508407033,0.10862951003,-0.0229651722723,0.0,-0.180411251991,0.0,0.085892993103,0.0,1.61312254137,0.0,0.0151262200764,0.0,-0.00279596963216,0.0,0.000252923286778,0.0,0.0724865413934,0.0,0.000850423188826,0.0,0.0,0.0,0.0,-50.0,0.0,0.0,0.00230154196664,-25.0,-0.00383606751517,-25.0,-0.0,-25.0,-0.0,-25.0,131250.0,0.0,0.0,0.0,0.0,0.0,0.0
1402753647069107333,3,-7.54628406979,-0.00591572024346,-1.06250376982,-0.122189614607,7.40540265536,0.10862951003,-0.0130471329658,0.0,-0.185335224519,0.0,0.082971115265,0.0,1.61370485849,0.0,0.0162451438594,0.0,-0.0017785681515,0.0,-0.000784876445714,0.0,0.0719019975879,0.0,-0.00555000215206,0.0,0.0,0.0,0.0,-50.0,0.0,0.0,0.00230154196664,-25.0,-0.00383606751517,-25.0,-0.0,-25.0,-0.0,-25.0,131250.0,0.0,0.0,0.0,0.0,0.0,0.0
1402753647089264754,3,-7.54628406979,-0.00591572024346,-1.06250376982,-0.122189614607,7.40540265536,0.10862951003,-0.0130471329658,0.0,-0.185335224519,0.0,0.082971115265,0.0,1.61370485849,0.0,0.0162451438594,0.0,-0.0017785681515,0.0,-0.000784876445714,0.0,0.0719019975879,0.0,-0.00555000215206,0.0,0.0,0.0,0.0,-50.0,0.0,0.0,0.00230154196664,-25.0,-0.00383606751517,-25.0,-0.0,-25.0,-0.0,-25.0,131250.0,0.0,0.0,0.0,0.0,0.0,0.0
1402753647109197744,3,-7.54765565827,-0.00591572024346,-1.06779066415,-0.122189614607,7.40583204035,0.10862951003,-0.0204536206818,0.0,-0.187437621061,0.0,0.0829395997217,0.0,1.61433701048,0.0,0.0186038745932,0.0,-0.00283538505884,0.0,0.00491977147445,0.0,0.0718981915443,0.0,-0.00247246920271,0.0,0.0,0.0,0.0,-50.0,0.0,0.0,0.00230154196664,-25.0,-0.00383606751517,-25.0,-0.0,-25.0,-0.0,-25.0,131250.0,0.0,0.0,0.0,0.0,0.0,0.0
1402753647129077576,3,-7.54765565827,-0.00591572024346,-1.06779066415,-0.122189614607,7.40583204035,0.10862951003,-0.0204536206818,0.0,-0.187437621061,0.0,0.0829395997217,0.0,1.61433701048,0.0,0.0186038745932,0.0,-0.00283538505884,0.0,0.00491977147445,0.0,0.0718981915443,0.0,-0.00247246920271,0.0,0.0,0.0,0.0,-50.0,0.0,0.0,0.00230154196664,-25.0,-0.00383606751517,-25.0,-0.0,-25.0,-0.0,-25.0,131250.0,0.0,0.0,0.0,0.0,0.0,0.0
1402753647149949766,3,-7.54291630076,-0.00591572024346,-1.0731920379,-0.122189614607,7.40005791338,0.10862951003,-0.01105911437,0.0,-0.193455810084,0.0,0.0811037109839,0.0,1.61483687901,0.0,0.00900297038496,0.0,-0.00166599099958,0.0,0.00400680938654,0.0,0.071245778379,0.0,0.00155844702438,0.0,0.0,0.0,0.0,-50.0,0.0,0.0,0.00230154196664,-25.0,-0.00383606751517,-25.0,-0.0,-25.0,-0.0,-25.0,131250.0,0.0,0.0,0.0,0.0,0.0,0.0
1402753647169148472,3,-7.54291630076,-0.00591572024346,-1.0731920379,-0.122189614607,7.40005791338,0.10862951003,-0.01105911437,0.0,-0.193455810084,0.0,0.0811037109839,0.0,1.61483687901,0.0,0.00900297038496,0.0,-0.00166599099958,0.0,0.00400680938654,0.0,0.071245778379,0.0,0.00155844702438,0.0,0.0,0.0,0.0,-50.0,0.0,0.0,0.00230154196664,-25.0,-0.00383606751517,-25.0,-0.0,-25.0,-0.0,-25.0,131250.0,0.0,0.0,0.0,0.0,0.0,0.0
1402753647189014490,3,-7.54204802323,-0.00591572024346,-1.07403903488,-0.122189614607,7.39431523349,0.10862951003,-0.0121618772522,0.0,-0.188221004802,0.0,0.0818876451481,0.0,1.61531420036,0.0,0.0122609295213,0.0,-0.00199866012338,0.0,0.000319416184161,0.0,0.0720669912834,0.0,0.00219313449239,0.0,0.0,0.0,0.0,-50.0,0.0,0.0,0.00230154196664,-25.0,-0.00383606751517,-25.0,-0.0,-25.0,-0.0,-25.0,131250.0,0.0,0.0,0.0,0.0,0.0,0.0
1402753647209151436,3,-7.54204802323,-0.00591572024346,-1.07403903488,-0.122189614607,7.39431523349,0.10862951003,-0.0121618772522,0.0,-0.188221004802,0.0,0.0818876451481,0.0,1.61531420036,0.0,0.0122609295213,0.0,-0.00199866012338,0.0,0.000319416184161,0.0,0.0720669912834,0.0,0.00219313449239,0.0,0.0,0.0,0.0,-50.0,0.0,0.0,0.00230154196664,-25.0,-0.00383606751517,-25.0,-0.0,-25.0,-0.0,-25.0,131250.0,0.0,0.0,0.0,0.0,0.0,0.0
1402753647229167454,3,-7.54247837098,-0.00591572024346,-1.08156098485,-0.122189614607,7.39751483584,0.10862951003,-0.0117210719553,0.0,-0.190117086816,0.0,0.0820006580116,0.0,1.61578077845,0.0,0.0139320871916,0.0,-0.00194326103797,0.0,0.00127303979272,0.0,0.0720233912013,0.0,0.00058285869331,0.0,0.0,0.0,0.0,-50.0,0.0,0.0,0.00230154196664,-25.0,-0.00383606751517,-25.0,-0.0,-25.0,-0.0,-25.0,131250.0,0.0,0.0,0.0,0.0,0.0,0.0
1402753647249296888,3,-7.54247837098,-0.00591572024346,-1.08156098485,-0.122189614607,7.39751483584,0.10862951003,-0.0117210719553,0.0,-0.190117086816,0.0,0.0820006580116,0.0,1.61578077845,0.0,0.0139320871916,0.0,-0.00194326103797,0.0,0.00127303979272,0.0,0.0720233912013,0.0,0.00058285869331,0.0,0.0,0.0,0.0,-50.0,0.0,0.0,0.00230154196664,-25.0,-0.00383606751517,-25.0,-0.0,-25.0,-0.0,-25.0,131250.0,0.0,0.0,0.0,0.0,0.0,0.0
1402753647269750104,3,-7.5425596452,-0.00591572024346,-1.08833579007,-0.122189614607,7.38683820485,0.10862951003,-0.0144124671771,0.0,-0.20134312798,0.0,0.0784032235293,0.0,1.61611013085,0.0,0.00637432848328,0.0,-0.00219196116458,0.0,0.00673798173478,0.0,0.0708557473935,0.0,-0.000165632660428,0.0,0.0,0.0,0.0,-50.0,0.0,0.0,0.00230154196664,-25.0,-0.00383606751517,-25.0,-0.0,-25.0,-0.0,-25.0,131250.0,0.0,0.0,0.0,0.0,0.0,0.0
1402753647289239771,3,-7.5425596452,-0.00591572024346,-1.08833579007,-0.122189614607,7.38683820485,0.10862951003,-0.0144124671771,0.0,-0.20134312798,0.0,0.0784032235293,0.0,1.61611013085,0.0,0.00637432848328,0.0,-0.00219196116458,0.0,0.00673798173478,0.0,0.0708557473935,0.0,-0.000165632660428,0.0,0.0,0.0,0.0,-50.0,0.0,0.0,0.00230154196664,-25.0,-0.00383606751517,-25.0,-0.0,-25.0,-0.0,-25.0,131250.0,0.0,0.0,0.0,0.0,0.0,0.0
1402753647309213351,3,-7.54075549577,-0.00591572024346,-1.09244418053,-0.122189614607,7.37525393281,0.10862951003,-0.0104157873685,0.0,-0.20267263382,0.0,0.076135746168,0.0,1.61642205861,0.0,0.00312792077992,0.0,-0.00158566251987,0.0,0.00154655682157,0.0,0.070750456435,0.0,-7.70761217797e-05,0.0,0.0,0.0,0.0,-50.0,0.0,0.0,0.00230154196664,-25.0,-0.00383606751517,-25.0,-0.0,-25.0,-0.0,-25.0,131250.0,0.0,0.0,0.0,0.0,0.0,0.0
1402753647329728421,3,-7.54075549577,-0.00591572024346,-1.09244418053,-0.122189614607,7.37525393281,0.10862951003,-0.0104157873685,0.0,-0.20267263382,0.0,0.076135746168,0.0,1.61642205861,0.0,0.00312792077992,0.0,-0.00158566251987,0.0,0.00154655682157,0.0,0.070750456435,0.0,-7.70761217797e-05,0.0,0.0,0.0,0.0,-50.0,0.0,0.0,0.00230154196664,-25.0,-0.00383606751517,-25.0,-0.0,-25.0,-0.0,-25.0,131250.0,0.0,0.0,0.0,0.0,0.0,0.0
1402753647349231810,3,-7.54016220488,-0.00591572024346,-1.10592362637,-0.122189614607,7.38274429833,0.10862951003,-0.0112734385637,0.0,-0.213199253763,0.0,0.0800519135325,0.0,1.61682638961,0.0,0.000452187668667,0.0,-0.00175454759223,0.0,-0.00411299650674,0.0,0.0700212568418,0.0,0.0124404565758,0.0,0.0,0.0,0.0,-50.0,0.0,0.0,0.00230154196664,-25.0,-0.00383606751517,-25.0,-0.0,-25.0,-0.0,-25.0,131250.0,0.0,0.0,0.0,0.0,0.0,0.0
1402753647369100733,3,-7.54016220488,-0.00591572024346,-1.10592362637,-0.122189614607,7.38274429833,0.10862951003,-0.0112734385637,0.0,-0.213199253763,0.0,0.0800519135325,0.0,1.61682638961,0.0,0.000452187668667,0.0,-0.00175454759223,0.0,-0.00411299650674,0.0,0.0700212568418,0.0,0.0124404565758,0.0,0.0,0.0,0.0,-50.0,0.0,0.0,0.00230154196664,-25.0,-0.00383606751517,-25.0,-0.0,-25.0,-0.0,-25.0,131250.0,0.0,0.0,0.0,0.0,0.0,0.0
1402753647389719058,3,-7.53757759909,-0.00591572024346,-1.11160063108,-0.122189614607,7.3713639934,0.10862951003,-0.00326479873515,0.0,-0.212388917278,0.0,0.0763127960097,0.0,1.61740925621,0.0,0.0173061566986,0.0,-0.000682243627545,0.0,-0.00235082630856,0.0,0.0705411986595,0.0,0.0027403954178,0.0,0.0,0.0,0.0,-50.0,0.0,0.0,0.00230154196664,-25.0,-0.00383606751517,-25.0,-0.0,-25.0,-0.0,-25.0,131250.0,0.0,0.0,0.0,0.0,0.0,0.0
