rosbagTimestamp,transforms,-,header,seq,stamp,secs,nsecs,frame_id,child_frame_id,transform,translation,x,y,z,rotation,x,y,z,w
1402416390677792792,,errorv,,0,,1402416390,677580223,base_link,/z_drive,,,0.0,0.0,0.0,,0.0,0.0,0.0,1.0
1402416390677865125,,errorv,,0,,1402416390,677605367,/z_drive,port,,,-0.3,0.3048,0.0,,0.0,0.0,0.0,1.0
1402416390677989926,,errorv,,0,,1402416390,677611755,/z_drive,starboard,,,-0.3,-0.3048,0.0,,0.0,0.0,0.0,1.0
1402416390695120368,,errorv,,0,,1402416390,635142087,/enu,/base_link,,,5.45911599218,24.047982381,-21.2752904502,,-0.0157997323149,0.00283027217918,0.929905639146,-0.367447765408
1402416390695150493,,errorv,,0,,1402416390,645138978,/enu,/base_link,,,5.46164958224,24.0440064285,-21.2788970722,,-0.0157370952254,0.0031562784918,0.930039713378,-0.367108312735
1402416390695178164,,errorv,,0,,1402416390,655226945,/enu,/base_link,,,5.46415265959,24.0398897536,-21.282477864,,-0.0157485667748,0.0029747558232,0.930176460488,-0.366762710517
1402416390697692393,,errorv,,0,,1402416390,697495215,base_link,/z_drive,,,0.0,0.0,0.0,,0.0,0.0,0.0,1.0
1402416390697718466,,errorv,,0,,1402416390,697515562,/z_drive,port,,,-0.3,0.3048,0.0,,0.0,0.0,0.0,1.0
1402416390697784991,,errorv,,0,,1402416390,697525045,/z_drive,starboard,,,-0.3,-0.3048,0.0,,0.0,0.0,0.0,1.0
1402416390697958750,,errorv,,0,,1402416390,797706104,/base_link,/gps,,,-0.84,0.0,-0.14,,0.0,0.0,0.0,1.0
1402416390698116435,,errorv,,0,,1402416390,797832606,base_link,imu,,,0.13,0.0,-0.1,,1.0,0.0,0.0,0.0
1402416390703285492,,errorv,,0,,1402416390,666102886,/enu,/base_link,,,5.4667448366,24.035711016,-21.2867298798,,-0.015709041211,0.00307031005101,0.930319264478,-0.366401235479
1402416390703323582,,errorv,,0,,1402416390,676103115,/enu,/base_link,,,5.46923819049,24.0317211749,-21.2904691147,,-0.0157440530787,0.00297342718214,0.930445368153,-0.366080183029
1402416390717791624,,errorv,,0,,1402416390,717489752,base_link,/z_drive,,,0.0,0.0,0.0,,0.0,0.0,0.0,1.0
1402416390717922403,,errorv,,0,,1402416390,717508950,/z_drive,port,,,-0.3,0.3048,0.0,,0.0,0.0,0.0,1.0
1402416390717949118,,errorv,,0,,1402416390,717518662,/z_drive,starboard,,,-0.3,-0.3048,0.0,,0.0,0.0,0.0,1.0
1402416390737826990,,errorv,,0,,1402416390,737578656,base_link,/z_drive,,,0.0,0.0,0.0,,0.0,0.0,0.0,1.0
1402416390737860810,,errorv,,0,,1402416390,737666978,/z_drive,port,,,-0.3,0.3048,0.0,,0.0,0.0,0.0,1.0
1402416390737895363,,errorv,,0,,1402416390,737680407,/z_drive,starboard,,,-0.3,-0.3048,0.0,,0.0,0.0,0.0,1.0
1402416390743054010,,errorv,,0,,1402416390,687102079,/enu,/base_link,,,5.4829808946,24.0015152191,-21.2193462871,,-0.0167893068839,0.00191433903562,0.930309495087,-0.366385995683
1402416390743080486,,errorv,,0,,1402416390,697078943,/enu,/base_link,,,5.48523698372,23.9973251161,-21.2230125833,,-0.0167408397136,0.00172376489208,0.930413282944,-0.366125519244
1402416390757713697,,errorv,,0,,1402416390,757513488,base_link,/z_drive,,,0.0,0.0,0.0,,0.0,0.0,0.0,1.0
1402416390757745558,,errorv,,0,,1402416390,757546181,/z_drive,port,,,-0.3,0.3048,0.0,,0.0,0.0,0.0,1.0
1402416390757769058,,errorv,,0,,1402416390,757560005,/z_drive,starboard,,,-0.3,-0.3048,0.0,,0.0,0.0,0.0,1.0
1402416390777730650,,errorv,,0,,1402416390,777585346,base_link,/z_drive,,,0.0,0.0,0.0,,0.0,0.0,0.0,1.0
1402416390777756480,,errorv,,0,,1402416390,777597342,/z_drive,port,,,-0.3,0.3048,0.0,,0.0,0.0,0.0,1.0
1402416390777858938,,errorv,,0,,1402416390,777601290,/z_drive,starboard,,,-0.3,-0.3048,0.0,,0.0,0.0,0.0,1.0
1402416390783176681,,errorv,,0,,1402416390,707073926,/enu,/base_link,,,5.48752734369,23.993120141,-21.2265229444,,-0.0167913748989,0.00203126419004,0.930527634354,-0.36583089727
1402416390783200561,,errorv,,0,,1402416390,718076944,/enu,/base_link,,,5.48989078515,23.9882805289,-21.230133316,,-0.0168259255947,0.00202102266963,0.930652455288,-0.365511711388
1402416390783219112,,errorv,,0,,1402416390,728065967,/enu,/base_link,,,5.49219422687,23.9840815638,-21.2337509957,,-0.0167538477437,0.00201194072207,0.930770503835,-0.365214361536
1402416390783368478,,errorv,,0,,1402416390,738105058,/enu,/base_link,,,5.49686228451,23.9678690512,-21.2107190748,,-0.0172100062172,0.00123805609866,0.930703912688,-0.365366268024
1402416390797718896,,errorv,,0,,1402416390,797526724,base_link,/z_drive,,,0.0,0.0,0.0,,0.0,0.0,0.0,1.0
1402416390798010875,,errorv,,0,,1402416390,897799193,/base_link,/gps,,,-0.84,0.0,-0.14,,0.0,0.0,0.0,1.0
1402416390798108711,,errorv,,0,,1402416390,797711535,/z_drive,port,,,-0.3,0.3048,0.0,,0.0,0.0,0.0,1.0
1402416390798133518,,errorv,,0,,1402416390,797785936,/z_drive,starboard,,,-0.3,-0.3048,0.0,,0.0,0.0,0.0,1.0
1402416390798239535,,errorv,,0,,1402416390,897932502,base_link,imu,,,0.13,0.0,-0.1,,1.0,0.0,0.0,0.0
1402416390817866348,,errorv,,0,,1402416390,817676770,base_link,/z_drive,,,0.0,0.0,0.0,,0.0,0.0,0.0,1.0
1402416390817898055,,errorv,,0,,1402416390,817701018,/z_drive,port,,,-0.3,0.3048,0.0,,0.0,0.0,0.0,1.0
1402416390817918961,,errorv,,0,,1402416390,817705877,/z_drive,starboard,,,-0.3,-0.3048,0.0,,0.0,0.0,0.0,1.0
1402416390823069778,,errorv,,0,,1402416390,749052047,/enu,/base_link,,,5.49901584693,23.9630392339,-21.214440783,,-0.0174856757993,0.00155863170031,0.930817746701,-0.365061836182
1402416390823213232,,errorv,,0,,1402416390,759099960,/enu,/base_link,,,5.50133353823,23.9585267931,-21.2179328657,,-0.0174536621807,0.00155443539289,0.930928992955,-0.364779609467
1402416390823369685,,errorv,,0,,1402416390,769038915,/enu,/base_link,,,5.50363238761,23.9541601821,-21.2215478337,,-0.017469177113,0.00163064963013,0.931028679265,-0.364524028314
1402416390823396570,,errorv,,0,,1402416390,780039072,/enu,/base_link,,,5.50563318458,23.9490880157,-21.2251173521,,-0.0177909048147,0.00185477512473,0.931164023621,-0.364161508989
1402416390837935325,,errorv,,0,,1402416390,837759349,base_link,/z_drive,,,0.0,0.0,0.0,,0.0,0.0,0.0,1.0
1402416390837967005,,errorv,,0,,1402416390,837789559,/z_drive,port,,,-0.3,0.3048,0.0,,0.0,0.0,0.0,1.0
1402416390837992057,,errorv,,0,,1402416390,837797348,/z_drive,starboard,,,-0.3,-0.3048,0.0,,0.0,0.0,0.0,1.0
1402416390857755249,,errorv,,0,,1402416390,857515823,base_link,/z_drive,,,0.0,0.0,0.0,,0.0,0.0,0.0,1.0
1402416390857821439,,errorv,,0,,1402416390,857631757,/z_drive,port,,,-0.3,0.3048,0.0,,0.0,0.0,0.0,1.0
1402416390857906931,,errorv,,0,,1402416390,857644512,/z_drive,starboard,,,-0.3,-0.3048,0.0,,0.0,0.0,0.0,1.0
1402416390863256281,,errorv,,0,,1402416390,790024995,/enu,/base_link,,,5.5185019758,23.9542441009,-21.1877528958,,-0.0164177596036,0.00245737906833,0.931514990189,-0.363323879633
1402416390863356057,,errorv,,0,,1402416390,800024986,/enu,/base_link,,,5.52072811337,23.9498299394,-21.190806752,,-0.0167932338134,0.00265175043645,0.931626938945,-0.363018184323
1402416390863381879,,errorv,,0,,1402416390,811024904,/enu,/base_link,,,5.52318972457,23.9451256938,-21.1943101166,,-0.0169735890165,0.00275623979398,0.931737581585,-0.36272493639
1402416390863404471,,errorv,,0,,1402416390,821022987,/enu,/base_link,,,5.5254431922,23.9409151798,-21.1975834738,,-0.0172277097991,0.00284856745364,0.931837969703,-0.362454259043
1402416390877816245,,errorv,,0,,1402416390,877514622,base_link,/z_drive,,,0.0,0.0,0.0,,0.0,0.0,0.0,1.0
1402416390877846821,,errorv,,0,,1402416390,877528104,/z_drive,port,,,-0.3,0.3048,0.0,,0.0,0.0,0.0,1.0
1402416390877872043,,errorv,,0,,1402416390,877532080,/z_drive,starboard,,,-0.3,-0.3048,0.0,,0.0,0.0,0.0,1.0
1402416390897768765,,errorv,,0,,1402416390,897508485,base_link,/z_drive,,,0.0,0.0,0.0,,0.0,0.0,0.0,1.0
1402416390897808481,,errorv,,0,,1402416390,897630251,/z_drive,port,,,-0.3,0.3048,0.0,,0.0,0.0,0.0,1.0
1402416390897830727,,errorv,,0,,1402416390,897643036,/z_drive,starboard,,,-0.3,-0.3048,0.0,,0.0,0.0,0.0,1.0
1402416390898126679,,errorv,,0,,1402416390,997914296,/base_link,/gps,,,-0.84,0.0,-0.14,,0.0,0.0,0.0,1.0
1402416390898216568,,errorv,,0,,1402416390,998032895,base_link,imu,,,0.13,0.0,-0.1,,1.0,0.0,0.0,0.0
1402416390903061787,,errorv,,0,,1402416390,831024885,/enu,/base_link,,,5.52786842327,23.936628127,-21.20091196,,-0.016932180982,0.00283260564723,0.931956037723,-0.362164632928
1402416390903295320,,errorv,,0,,1402416390,842025041,/enu,/base_link,,,5.53129651408,23.9923828791,-21.1740565254,,-0.0166003885497,0.00805413817376,0.932368255245,-0.36103877156
1402416390903323309,,errorv,,0,,1402416390,851999044,/enu,/base_link,,,5.53354589933,23.9892094369,-21.1770753533,,-0.0163183795817,0.00808068715763,0.93247635891,-0.360771746479
1402416390903341603,,errorv,,0,,1402416390,861994028,/enu,/base_link,,,5.53584577367,23.98617863,-21.1804513177,,-0.0165951954437,0.0080934801444,0.932565070424,-0.360529450242
1402416390903370114,,errorv,,0,,1402416390,872997045,/enu,/base_link,,,5.53824954743,23.9827993407,-21.1839818138,,-0.0167000571254,0.00815718157433,0.93267733773,-0.360232636176
1402416390917815511,,errorv,,0,,1402416390,917545948,base_link,/z_drive,,,0.0,0.0,0.0,,0.0,0.0,0.0,1.0
1402416390917842724,,errorv,,0,,1402416390,917579897,/z_drive,port,,,-0.3,0.3048,0.0,,0.0,0.0,0.0,1.0
1402416390917863501,,errorv,,0,,1402416390,917588714,/z_drive,starboard,,,-0.3,-0.3048,0.0,,0.0,0.0,0.0,1.0
1402416390937764927,,errorv,,0,,1402416390,937476722,base_link,/z_drive,,,0.0,0.0,0.0,,0.0,0.0,0.0,1.0
1402416390937793969,,errorv,,0,,1402416390,937497725,/z_drive,port,,,-0.3,0.3048,0.0,,0.0,0.0,0.0,1.0
1402416390937815032,,errorv,,0,,1402416390,937506629,/z_drive,starboard,,,-0.3,-0.3048,0.0,,0.0,0.0,0.0,1.0
1402416390943156273,,errorv,,0,,1402416390,882997035,/enu,/base_link,,,5.54028049845,23.9798805439,-21.1874260075,,-0.0171663066902,0.00818520993005,0.9327760569,-0.359954369228
1402416390943185954,,errorv,,0,,1402416390,893997907,/enu,/base_link,,,5.53676512569,23.9716025643,-21.2111986512,,-0.0175165159703,0.00776101110114,0.932738441666,-0.360044355341
1402416390943220853,,errorv,,0,,1402416390,903995990,/enu,/base_link,,,5.53899373919,23.9684673908,-21.2146527429,,-0.0178587100575,0.00770119791232,0.932837420952,-0.359772294787
1402416390951238856,,errorv,,0,,1402416390,913994073,/enu,/base_link,,,5.54101248853,23.9652728524,-21.217968647,,-0.0178609369905,0.00782936369738,0.932956467732,-0.359460592153
1402416390951261882,,errorv,,0,,1402416390,923996925,/enu,/base_link,,,5.54314038902,23.9620819719,-21.2213788853,,-0.0177462813408,0.00781650753726,0.933068721259,-0.359175073073
1402416390957779134,,errorv,,0,,1402416390,957549089,base_link,/z_drive,,,0.0,0.0,0.0,,0.0,0.0,0.0,1.0
1402416390957804244,,errorv,,0,,1402416390,957566206,/z_drive,port,,,-0.3,0.3048,0.0,,0.0,0.0,0.0,1.0
1402416390957832319,,errorv,,0,,1402416390,957575948,/z_drive,starboard,,,-0.3,-0.3048,0.0,,0.0,0.0,0.0,1.0
1402416390977920337,,errorv,,0,,1402416390,977571251,base_link,/z_drive,,,0.0,0.0,0.0,,0.0,0.0,0.0,1.0
1402416390977948184,,errorv,,0,,1402416390,977603974,/z_drive,port,,,-0.3,0.3048,0.0,,0.0,0.0,0.0,1.0
1402416390978088458,,errorv,,0,,1402416390,977611507,/z_drive,starboard,,,-0.3,-0.3048,0.0,,0.0,0.0,0.0,1.0
1402416390991132373,,errorv,,0,,1402416390,934997081,/enu,/base_link,,,5.52190631159,23.9684916753,-21.3227884491,,-0.0186241300442,0.00818200731361,0.933100821036,-0.359039070741
1402416390991160833,,errorv,,0,,1402416390,944997072,/enu,/base_link,,,5.52384231456,23.965478258,-21.3265306101,,-0.0182537250896,0.00823050077278,0.93322200927,-0.358741887422
1402416390997843584,,errorv,,0,,1402416390,997532091,base_link,/z_drive,,,0.0,0.0,0.0,,0.0,0.0,0.0,1.0
1402416390997872675,,errorv,,0,,1402416390,997554915,/z_drive,port,,,-0.3,0.3048,0.0,,0.0,0.0,0.0,1.0
1402416390997894845,,errorv,,0,,1402416390,997561541,/z_drive,starboard,,,-0.3,-0.3048,0.0,,0.0,0.0,0.0,1.0
1402416390998224073,,errorv,,0,,1402416391,98015261,/base_link,/gps,,,-0.84,0.0,-0.14,,0.0,0.0,0.0,1.0
1402416390998332615,,errorv,,0,,1402416391,98132020,base_link,imu,,,0.13,0.0,-0.1,,1.0,0.0,0.0,0.0
1402416391017723805,,errorv,,0,,1402416391,17542143,base_link,/z_drive,,,0.0,0.0,0.0,,0.0,0.0,0.0,1.0
1402416391017752251,,errorv,,0,,1402416391,17566634,/z_drive,port,,,-0.3,0.3048,0.0,,0.0,0.0,0.0,1.0
1402416391017878147,,errorv,,0,,1402416391,17571432,/z_drive,starboard,,,-0.3,-0.3048,0.0,,0.0,0.0,0.0,1.0
1402416391031143044,,errorv,,0,,1402416390,954998970,/enu,/base_link,,,5.52563328589,23.9624268441,-21.3300686743,,-0.0181151725892,0.00839752985872,0.933338761235,-0.358441178982
1402416391031170977,,errorv,,0,,1402416390,965995073,/enu,/base_link,,,5.52773049276,23.9589427528,-21.3336436988,,-0.0181408550377,0.00822135427866,0.933465856336,-0.358112850602
1402416391031194091,,errorv,,0,,1402416390,975992918,/enu,/base_link,,,5.52959936382,23.9559241127,-21.3370135735,,-0.0182872658643,0.00831330436603,0.933586698906,-0.357788122362
1402416391031238370,,errorv,,0,,1402416390,985997915,/enu,/base_link,,,5.50009521889,23.9652293643,-21.5258033986,,-0.0167012257555,0.00767661170788,0.934074037456,-0.356605988791
1402416391037637979,,errorv,,0,,1402416391,37484549,base_link,/z_drive,,,0.0,0.0,0.0,,0.0,0.0,0.0,1.0
1402416391037666947,,errorv,,0,,1402416391,37505089,/z_drive,port,,,-0.3,0.3048,0.0,,0.0,0.0,0.0,1.0
1402416391037692171,,errorv,,0,,1402416391,37514616,/z_drive,starboard,,,-0.3,-0.3048,0.0,,0.0,0.0,0.0,1.0
1402416391057700541,,errorv,,0,,1402416391,57495037,base_link,/z_drive,,,0.0,0.0,0.0,,0.0,0.0,0.0,1.0
1402416391057726064,,errorv,,0,,1402416391,57534382,/z_drive,port,,,-0.3,0.3048,0.0,,0.0,0.0,0.0,1.0
1402416391057791791,,errorv,,0,,1402416391,57545227,/z_drive,starboard,,,-0.3,-0.3048,0.0,,0.0,0.0,0.0,1.0
1402416391071210411,,errorv,,0,,1402416390,996999025,/enu,/base_link,,,5.5024254316,23.9620002991,-21.5300257958,,-0.0169197963766,0.00753697491871,0.934203775445,-0.356258642623
1402416391071236256,,errorv,,0,,1402416391,6997108,/enu,/base_link,,,5.50432471185,23.95898819,-21.5338412296,,-0.0167410787793,0.00771770350563,0.934339872811,-0.355906132862
1402416391071257650,,errorv,,0,,1402416391,17995119,/enu,/base_link,,,5.50635914409,23.9556081785,-21.5378975336,,-0.0167251104961,0.00738148738386,0.934480217071,-0.355545367325
1402416391071356513,,errorv,,0,,1402416391,27995109,/enu,/base_link,,,5.50843734184,23.9527475804,-21.5418020999,,-0.0167345349156,0.00759047738571,0.934607488789,-0.355205830319
1402416391077690529,,errorv,,0,,1402416391,77559096,base_link,/z_drive,,,0.0,0.0,0.0,,0.0,0.0,0.0,1.0
1402416391077890376,,errorv,,0,,1402416391,77583371,/z_drive,port,,,-0.3,0.3048,0.0,,0.0,0.0,0.0,1.0
1402416391077917904,,errorv,,0,,1402416391,77755680,/z_drive,starboard,,,-0.3,-0.3048,0.0,,0.0,0.0,0.0,1.0
1402416391097831107,,errorv,,0,,1402416391,97641268,base_link,/z_drive,,,0.0,0.0,0.0,,0.0,0.0,0.0,1.0
1402416391097868383,,errorv,,0,,1402416391,97659832,/z_drive,port,,,-0.3,0.3048,0.0,,0.0,0.0,0.0,1.0
1402416391097895894,,errorv,,0,,1402416391,97665313,/z_drive,starboard,,,-0.3,-0.3048,0.0,,0.0,0.0,0.0,1.0
1402416391098384889,,errorv,,0,,1402416391,198119680,/base_link,/gps,,,-0.84,0.0,-0.14,,0.0,0.0,0.0,1.0
1402416391098491019,,errorv,,0,,1402416391,198235718,base_link,imu,,,0.13,0.0,-0.1,,1.0,0.0,0.0,0.0
1402416391111021785,,errorv,,0,,1402416391,37995100,/enu,/base_link,,,5.44298579992,23.9627275054,-21.7435786019,,-0.0214537256756,0.00907974416845,0.933779133335,-0.357090781242
1402416391111233881,,errorv,,0,,1402416391,48995971,/enu,/base_link,,,5.44401100648,23.9593274818,-21.7481044988,,-0.0214184081691,0.00920311375754,0.933927810334,-0.356700714288
1402416391111263727,,errorv,,0,,1402416391,58938980,/enu,/base_link,,,5.44482069585,23.9562195093,-21.7521152596,,-0.0212736665295,0.00880791528385,0.934056658647,-0.356381831998
1402416391111284131,,errorv,,0,,1402416391,68999052,/enu,/base_link,,,5.4457533854,23.9531790068,-21.7562952074,,-0.0212712342043,0.00894954628401,0.934193105423,-0.356020620186
1402416391117710137,,errorv,,0,,1402416391,117497531,base_link,/z_drive,,,0.0,0.0,0.0,,0.0,0.0,0.0,1.0
1402416391117738370,,errorv,,0,,1402416391,117518627,/z_drive,port,,,-0.3,0.3048,0.0,,0.0,0.0,0.0,1.0
1402416391117758719,,errorv,,0,,1402416391,117530176,/z_drive,starboard,,,-0.3,-0.3048,0.0,,0.0,0.0,0.0,1.0
1402416391137694249,,errorv,,0,,1402416391,137486530,base_link,/z_drive,,,0.0,0.0,0.0,,0.0,0.0,0.0,1.0
1402416391137726018,,errorv,,0,,1402416391,137509843,/z_drive,port,,,-0.3,0.3048,0.0,,0.0,0.0,0.0,1.0
1402416391137750751,,errorv,,0,,1402416391,137520723,/z_drive,starboard,,,-0.3,-0.3048,0.0,,0.0,0.0,0.0,1.0
1402416391151173503,,errorv,,0,,1402416391,79914093,/enu,/base_link,,,5.44675903233,23.9499205798,-21.7608397413,,-0.021143431579,0.00862713314257,0.934334465094,-0.355665060433
1402416391151199976,,errorv,,0,,1402416391,89920043,/enu,/base_link,,,5.44768677706,23.946971,-21.7650618737,,-0.0210012951885,0.00856451878842,0.934473951462,-0.355308357145
1402416391151242968,,errorv,,0,,1402416391,99915027,/enu,/base_link,,,5.44840184824,23.9439282526,-21.7691047489,,-0.0210964870479,0.00854158437239,0.934598637496,-0.354975163021
1402416391151268274,,errorv,,0,,1402416391,110997915,/enu,/base_link,,,5.44910886375,23.9407128758,-21.7735564633,,-0.0212912106903,0.00865669805355,0.934729163975,-0.354616886148
1402416391151291260,,errorv,,0,,1402416391,120918989,/enu,/base_link,,,5.44987151872,23.9378511469,-21.7777511104,,-0.0209674893742,0.00833906865575,0.934874555321,-0.354260342315
1402416391157756252,,errorv,,0,,1402416391,157585378,base_link,/z_drive,,,0.0,0.0,0.0,,0.0,0.0,0.0,1.0
1402416391157784354,,errorv,,0,,1402416391,157602661,/z_drive,port,,,-0.3,0.3048,0.0,,0.0,0.0,0.0,1.0
1402416391157807739,,errorv,,0,,1402416391,157611216,/z_drive,starboard,,,-0.3,-0.3048,0.0,,0.0,0.0,0.0,1.0
1402416391177700891,,errorv,,0,,1402416391,177468073,base_link,/z_drive,,,0.0,0.0,0.0,,0.0,0.0,0.0,1.0
1402416391177733332,,errorv,,0,,1402416391,177485974,/z_drive,port,,,-0.3,0.3048,0.0,,0.0,0.0,0.0,1.0
1402416391177805381,,errorv,,0,,1402416391,177579258,/z_drive,starboard,,,-0.3,-0.3048,0.0,,0.0,0.0,0.0,1.0
1402416391191109220,,errorv,,0,,1402416391,131901025,/enu,/base_link,,,5.4508115776,23.9346760415,-21.7823518803,,-0.0208999767805,0.00819686487911,0.935030415078,-0.353856079863
1402416391191137878,,errorv,,0,,1402416391,141890048,/enu,/base_link,,,5.44936574921,23.9128220481,-21.8204358847,,-0.0207219761393,0.00572957392473,0.935206250899,-0.353450194465
1402416391191155952,,errorv,,0,,1402416391,151900053,/enu,/base_link,,,5.45053816373,23.909498021,-21.8248438432,,-0.0202642400257,0.00541166308144,0.935350740134,-0.353099231675
1402416391197669235,,errorv,,0,,1402416391,197485547,base_link,/z_drive,,,0.0,0.0,0.0,,0.0,0.0,0.0,1.0
1402416391197735101,,errorv,,0,,1402416391,197503910,/z_drive,port,,,-0.3,0.3048,0.0,,0.0,0.0,0.0,1.0
1402416391197760763,,errorv,,0,,1402416391,197512656,/z_drive,starboard,,,-0.3,-0.3048,0.0,,0.0,0.0,0.0,1.0
1402416391198395192,,errorv,,0,,1402416391,298223194,/base_link,/gps,,,-0.84,0.0,-0.14,,0.0,0.0,0.0,1.0
1402416391198521080,,errorv,,0,,1402416391,298340372,base_link,imu,,,0.13,0.0,-0.1,,1.0,0.0,0.0,0.0
1402416391199376528,,errorv,,0,,1402416391,162889957,/enu,/base_link,,,5.45149847,23.9058901906,-21.8294524421,,-0.020559745559,0.00538259559338,0.935496540553,-0.352696111605
1402416391199387087,,errorv,,0,,1402416391,172874927,/enu,/base_link,,,5.45227596309,23.9026263247,-21.8336157766,,-0.0206180289776,0.00521835481723,0.935628575125,-0.352344767327
1402416391217669138,,errorv,,0,,1402416391,217482667,base_link,/z_drive,,,0.0,0.0,0.0,,0.0,0.0,0.0,1.0
1402416391217696539,,errorv,,0,,1402416391,217500295,/z_drive,port,,,-0.3,0.3048,0.0,,0.0,0.0,0.0,1.0
1402416391217716206,,errorv,,0,,1402416391,217510026,/z_drive,starboard,,,-0.3,-0.3048,0.0,,0.0,0.0,0.0,1.0
1402416391237658142,,errorv,,0,,1402416391,237466924,base_link,/z_drive,,,0.0,0.0,0.0,,0.0,0.0,0.0,1.0
1402416391237752227,,errorv,,0,,1402416391,237481448,/z_drive,port,,,-0.3,0.3048,0.0,,0.0,0.0,0.0,1.0
1402416391237781733,,errorv,,0,,1402416391,237487751,/z_drive,starboard,,,-0.3,-0.3048,0.0,,0.0,0.0,0.0,1.0
1402416391239080823,,errorv,,0,,1402416391,183888912,/enu,/base_link,,,5.46708869706,23.8755400119,-21.7774999196,,-0.0208049783811,0.00300976825038,0.935694833792,-0.352183577391
1402416391239129053,,errorv,,0,,1402416391,193861007,/enu,/base_link,,,5.46817787355,23.8719459229,-21.7818295981,,-0.020381154866,0.00269908932559,0.935850330929,-0.351797500763
1402416391257714812,,errorv,,0,,1402416391,257500968,base_link,/z_drive,,,0.0,0.0,0.0,,0.0,0.0,0.0,1.0
1402416391257745204,,errorv,,0,,1402416391,257516373,/z_drive,port,,,-0.3,0.3048,0.0,,0.0,0.0,0.0,1.0
1402416391257778489,,errorv,,0,,1402416391,257522884,/z_drive,starboard,,,-0.3,-0.3048,0.0,,0.0,0.0,0.0,1.0
1402416391277739899,,errorv,,0,,1402416391,277507916,base_link,/z_drive,,,0.0,0.0,0.0,,0.0,0.0,0.0,1.0
1402416391277769263,,errorv,,0,,1402416391,277529234,/z_drive,port,,,-0.3,0.3048,0.0,,0.0,0.0,0.0,1.0
1402416391277793513,,errorv,,0,,1402416391,277539201,/z_drive,starboard,,,-0.3,-0.3048,0.0,,0.0,0.0,0.0,1.0
1402416391279196489,,errorv,,0,,1402416391,204862117,/enu,/base_link,,,5.46891654534,23.8679916385,-21.7864171684,,-0.0207461837849,0.00252716677866,0.936006247138,-0.351362369364
1402416391279226223,,errorv,,0,,1402416391,214863061,/enu,/base_link,,,5.4700597636,23.8644283421,-21.7906695725,,-0.0201885606948,0.00224710781911,0.936160953733,-0.350984388869
1402416391279244676,,errorv,,0,,1402416391,224862098,/enu,/base_link,,,5.47085332028,23.8606544706,-21.7945608569,,-0.0203395782974,0.00196718205517,0.936294924421,-0.350619802995
1402416391279294031,,errorv,,0,,1402416391,235856056,/enu,/base_link,,,5.47165768695,23.8567451448,-21.7992051073,,-0.0202564683224,0.00180610026667,0.936472321164,-0.350151403234
1402416391297730117,,errorv,,0,,1402416391,297549982,base_link,/z_drive,,,0.0,0.0,0.0,,0.0,0.0,0.0,1.0
1402416391297765169,,errorv,,0,,1402416391,297570415,/z_drive,port,,,-0.3,0.3048,0.0,,0.0,0.0,0.0,1.0
1402416391297790808,,errorv,,0,,1402416391,297579617,/z_drive,starboard,,,-0.3,-0.3048,0.0,,0.0,0.0,0.0,1.0
1402416391298510730,,errorv,,0,,1402416391,398329320,/base_link,/gps,,,-0.84,0.0,-0.14,,0.0,0.0,0.0,1.0
1402416391298655218,,errorv,,0,,1402416391,398444184,base_link,imu,,,0.13,0.0,-0.1,,1.0,0.0,0.0,0.0
1402416391317701275,,errorv,,0,,1402416391,317472066,base_link,/z_drive,,,0.0,0.0,0.0,,0.0,0.0,0.0,1.0
1402416391317732017,,errorv,,0,,1402416391,317496577,/z_drive,port,,,-0.3,0.3048,0.0,,0.0,0.0,0.0,1.0
1402416391317753048,,errorv,,0,,1402416391,317506457,/z_drive,starboard,,,-0.3,-0.3048,0.0,,0.0,0.0,0.0,1.0
1402416391319153809,,errorv,,0,,1402416391,245834112,/enu,/base_link,,,5.47249788061,23.8531617372,-21.8033159096,,-0.0204690623517,0.00155308195657,0.936615186834,-0.349757912298
1402416391319182171,,errorv,,0,,1402416391,255846977,/enu,/base_link,,,5.47347093988,23.849642659,-21.8075579414,,-0.019973820142,0.00131025464386,0.936780314694,-0.349345061142
1402416391319208506,,errorv,,0,,1402416391,266834020,/enu,/base_link,,,5.47423646894,23.8457141319,-21.8121204041,,-0.0201515743791,0.000855747680845,0.936925157316,-0.348947605428
1402416391319230606,,errorv,,0,,1402416391,276818037,/enu,/base_link,,,5.48182487777,23.8192864301,-21.8242187737,,-0.0190670324592,-0.0018833616627,0.937212438609,-0.348232316333
1402416391337707951,,errorv,,0,,1402416391,337503648,base_link,/z_drive,,,0.0,0.0,0.0,,0.0,0.0,0.0,1.0
1402416391337810147,,errorv,,0,,1402416391,337525698,/z_drive,port,,,-0.3,0.3048,0.0,,0.0,0.0,0.0,1.0
1402416391337837770,,errorv,,0,,1402416391,337534304,/z_drive,starboard,,,-0.3,-0.3048,0.0,,0.0,0.0,0.0,1.0
1402416391357789360,,errorv,,0,,1402416391,357492315,base_link,/z_drive,,,0.0,0.0,0.0,,0.0,0.0,0.0,1.0
1402416391357809575,,errorv,,0,,1402416391,357514884,/z_drive,port,,,-0.3,0.3048,0.0,,0.0,0.0,0.0,1.0
1402416391357831761,,errorv,,0,,1402416391,357553108,/z_drive,starboard,,,-0.3,-0.3048,0.0,,0.0,0.0,0.0,1.0
1402416391359106555,,errorv,,0,,1402416391,286819934,/enu,/base_link,,,5.48286343346,23.8151341997,-21.8282060311,,-0.0188926735475,-0.00236054686856,0.93735910673,-0.347843930139
1402416391359134377,,errorv,,0,,1402416391,297868967,/enu,/base_link,,,5.48381913553,23.8106829898,-21.8326773852,,-0.0189906128792,-0.00259596413222,0.93752316135,-0.347394501288
1402416391359150062,,errorv,,0,,1402416391,307792901,/enu,/base_link,,,5.48511326275,23.8070092711,-21.8373597228,,-0.0186314798276,-0.00279785763813,0.937674968355,-0.347002440441
1402416391359172729,,errorv,,0,,1402416391,318902969,/enu,/base_link,,,5.4898182589,23.7874214933,-21.8265208728,,-0.0185720398109,-0.00416014193634,0.937770817677,-0.346732845387
1402416391359217645,,errorv,,0,,1402416391,328807115,/enu,/base_link,,,5.49074322408,23.7831982429,-21.8307052466,,-0.0185085098472,-0.00469767757892,0.937902568392,-0.346372832497
1402416391377646315,,errorv,,0,,1402416391,377493730,base_link,/z_drive,,,0.0,0.0,0.0,,0.0,0.0,0.0,1.0
1402416391377715712,,errorv,,0,,1402416391,377507443,/z_drive,port,,,-0.3,0.3048,0.0,,0.0,0.0,0.0,1.0
1402416391377834991,,errorv,,0,,1402416391,377513515,/z_drive,starboard,,,-0.3,-0.3048,0.0,,0.0,0.0,0.0,1.0
1402416391397639953,,errorv,,0,,1402416391,397470114,base_link,/z_drive,,,0.0,0.0,0.0,,0.0,0.0,0.0,1.0
1402416391397668051,,errorv,,0,,1402416391,397485678,/z_drive,port,,,-0.3,0.3048,0.0,,0.0,0.0,0.0,1.0
1402416391397691808,,errorv,,0,,1402416391,397489649,/z_drive,starboard,,,-0.3,-0.3048,0.0,,0.0,0.0,0.0,1.0
1402416391398649495,,errorv,,0,,1402416391,498434813,/base_link,/gps,,,-0.84,0.0,-0.14,,0.0,0.0,0.0,1.0
1402416391398727003,,errorv,,0,,1402416391,498546495,base_link,imu,,,0.13,0.0,-0.1,,1.0,0.0,0.0,0.0
1402416391399036332,,errorv,,0,,1402416391,338777065,/enu,/base_link,,,5.49185323143,23.7789856085,-21.834875049,,-0.0184082629603,-0.00473000149007,0.938039750851,-0.346006053074
1402416391399103469,,errorv,,0,,1402416391,349805116,/enu,/base_link,,,5.49289421517,23.7743194157,-21.8396460386,,-0.0182366298648,-0.00508368265544,0.938193137274,-0.345594008447
1402416391399118681,,errorv,,0,,1402416391,359781026,/enu,/base_link,,,5.49835641024,23.7440462639,-21.8609295946,,-0.0177301514923,-0.00814942342694,0.938343443046,-0.345153315961
1402416391407227390,,errorv,,0,,1402416391,369796037,/enu,/base_link,,,5.49946968343,23.7393993764,-21.8654312481,,-0.0176762083533,-0.00814973704961,0.938497228949,-0.344737704204
1402416391407559058,,errorv,,0,,1402416391,380765914,/enu,/base_link,,,5.50102751719,23.7341222951,-21.870083775,,-0.0174895085605,-0.00874890743193,0.93865576614,-0.34430063375
1402416391417657151,,errorv,,0,,1402416391,417509180,base_link,/z_drive,,,0.0,0.0,0.0,,0.0,0.0,0.0,1.0
1402416391417693764,,errorv,,0,,1402416391,417528284,/z_drive,port,,,-0.3,0.3048,0.0,,0.0,0.0,0.0,1.0
1402416391417794057,,errorv,,0,,1402416391,417538045,/z_drive,starboard,,,-0.3,-0.3048,0.0,,0.0,0.0,0.0,1.0
1402416391437689302,,errorv,,0,,1402416391,437458357,base_link,/z_drive,,,0.0,0.0,0.0,,0.0,0.0,0.0,1.0
1402416391437720311,,errorv,,0,,1402416391,437478573,/z_drive,port,,,-0.3,0.3048,0.0,,0.0,0.0,0.0,1.0
1402416391437755152,,errorv,,0,,1402416391,437488278,/z_drive,starboard,,,-0.3,-0.3048,0.0,,0.0,0.0,0.0,1.0
1402416391447011790,,errorv,,0,,1402416391,391765117,/enu,/base_link,,,5.5021983537,23.7288678001,-21.8747820746,,-0.0173947512653,-0.00921053167687,0.938810581536,-0.343871023394
1402416391447106063,,errorv,,0,,1402416391,401751995,/enu,/base_link,,,5.4905723952,23.7367789463,-21.9390620808,,-0.0165053027094,-0.00898950634207,0.939115111503,-0.34308828471
1402416391457687075,,errorv,,0,,1402416391,457478210,base_link,/z_drive,,,0.0,0.0,0.0,,0.0,0.0,0.0,1.0
1402416391457718050,,errorv,,0,,1402416391,457495585,/z_drive,port,,,-0.3,0.3048,0.0,,0.0,0.0,0.0,1.0
1402416391457739728,,errorv,,0,,1402416391,457505274,/z_drive,starboard,,,-0.3,-0.3048,0.0,,0.0,0.0,0.0,1.0
1402416391477638846,,errorv,,0,,1402416391,477457739,base_link,/z_drive,,,0.0,0.0,0.0,,0.0,0.0,0.0,1.0
1402416391477666837,,errorv,,0,,1402416391,477474206,/z_drive,port,,,-0.3,0.3048,0.0,,0.0,0.0,0.0,1.0
1402416391477692956,,errorv,,0,,1402416391,477483872,/z_drive,starboard,,,-0.3,-0.3048,0.0,,0.0,0.0,0.0,1.0
1402416391487174892,,errorv,,0,,1402416391,411767959,/enu,/base_link,,,5.49165226866,23.7320475496,-21.9432637819,,-0.0166463989636,-0.00914751644124,0.939255564076,-0.342692581911
1402416391487343366,,errorv,,0,,1402416391,422765016,/enu,/base_link,,,5.49293599295,23.7270527954,-21.9483610139,,-0.0161764581144,-0.00964329537882,0.939408416038,-0.342282276687
1402416391487371226,,errorv,,0,,1402416391,432749032,/enu,/base_link,,,5.49406093597,23.7225373317,-21.9528103207,,-0.0163183862733,-0.009608091074,0.939552712611,-0.341880234996
1402416391487387516,,errorv,,0,,1402416391,443752050,/enu,/base_link,,,5.51811114132,23.6917333508,-21.8353884965,,-0.017057083674,-0.0114715103791,0.939425870173,-0.342135199586
1402416391497692678,,errorv,,0,,1402416391,497518206,base_link,/z_drive,,,0.0,0.0,0.0,,0.0,0.0,0.0,1.0
1402416391497720561,,errorv,,0,,1402416391,497536779,/z_drive,port,,,-0.3,0.3048,0.0,,0.0,0.0,0.0,1.0
1402416391497866082,,errorv,,0,,1402416391,497544422,/z_drive,starboard,,,-0.3,-0.3048,0.0,,0.0,0.0,0.0,1.0
1402416391498707878,,errorv,,0,,1402416391,598540737,/base_link,/gps,,,-0.84,0.0,-0.14,,0.0,0.0,0.0,1.0
1402416391498840227,,errorv,,0,,1402416391,598649633,base_link,imu,,,0.13,0.0,-0.1,,1.0,0.0,0.0,0.0
1402416391517829546,,errorv,,0,,1402416391,517522773,base_link,/z_drive,,,0.0,0.0,0.0,,0.0,0.0,0.0,1.0
1402416391517860546,,errorv,,0,,1402416391,517661656,/z_drive,port,,,-0.3,0.3048,0.0,,0.0,0.0,0.0,1.0
1402416391517882867,,errorv,,0,,1402416391,517675749,/z_drive,starboard,,,-0.3,-0.3048,0.0,,0.0,0.0,0.0,1.0
1402416391527337429,,errorv,,0,,1402416391,453753948,/enu,/base_link,,,5.51940685073,23.6868541122,-21.8396989866,,-0.0172502294844,-0.0115819727109,0.939559971217,-0.341753343769
1402416391527404796,,errorv,,0,,1402416391,463732004,/enu,/base_link,,,5.52064624233,23.681768682,-21.8439511783,,-0.0167597333893,-0.0118892325282,0.939700056844,-0.341381839959
1402416391527425934,,errorv,,0,,1402416391,474730014,/enu,/base_link,,,5.52165310474,23.6763356502,-21.8486274185,,-0.0171265499902,-0.0118713283332,0.939848797183,-0.340954529642
1402416391527446864,,errorv,,0,,1402416391,484709978,/enu,/base_link,,,5.53396893615,23.6494945751,-21.8257906135,,-0.0164859561572,-0.0140813920428,0.939920149214,-0.340705210922
1402416391537699543,,errorv,,0,,1402416391,537505859,base_link,/z_drive,,,0.0,0.0,0.0,,0.0,0.0,0.0,1.0
1402416391537783448,,errorv,,0,,1402416391,537541079,/z_drive,port,,,-0.3,0.3048,0.0,,0.0,0.0,0.0,1.0
1402416391537805954,,errorv,,0,,1402416391,537580267,/z_drive,starboard,,,-0.3,-0.3048,0.0,,0.0,0.0,0.0,1.0
1402416391557865519,,errorv,,0,,1402416391,557461288,base_link,/z_drive,,,0.0,0.0,0.0,,0.0,0.0,0.0,1.0
1402416391557890438,,errorv,,0,,1402416391,557473800,/z_drive,port,,,-0.3,0.3048,0.0,,0.0,0.0,0.0,1.0
1402416391557913292,,errorv,,0,,1402416391,557478007,/z_drive,starboard,,,-0.3,-0.3048,0.0,,0.0,0.0,0.0,1.0
1402416391567134970,,errorv,,0,,1402416391,495732069,/enu,/base_link,,,5.53519991881,23.6435081745,-21.8303590262,,-0.0165841095072,-0.0141835856991,0.940075689575,-0.34026679397
1402416391567164554,,errorv,,0,,1402416391,505733966,/enu,/base_link,,,5.53633655714,23.6381317797,-21.8345887418,,-0.0166712042264,-0.014312159257,0.940191482085,-0.339937067795
1402416391567393508,,errorv,,0,,1402416391,516732931,/enu,/base_link,,,5.53800571722,23.6321027291,-21.8390905652,,-0.0162055245597,-0.0144946226599,0.940341440924,-0.339536833597
1402416391567421229,,errorv,,0,,1402416391,526731967,/enu,/base_link,,,5.53923485424,23.6268450871,-21.8434790618,,-0.0157608608304,-0.014594719626,0.940469619839,-0.339198295374
1402416391567445348,,errorv,,0,,1402416391,537714004,/enu,/base_link,,,5.51352110507,23.6249034093,-21.9508841149,,-0.0162788199606,-0.0146214357008,0.940577517683,-0.338873349302
1402416391577672198,,errorv,,0,,1402416391,577500379,base_link,/z_drive,,,0.0,0.0,0.0,,0.0,0.0,0.0,1.0
1402416391577701427,,errorv,,0,,1402416391,577514533,/z_drive,port,,,-0.3,0.3048,0.0,,0.0,0.0,0.0,1.0
1402416391577724967,,errorv,,0,,1402416391,577525267,/z_drive,starboard,,,-0.3,-0.3048,0.0,,0.0,0.0,0.0,1.0
1402416391597703138,,errorv,,0,,1402416391,597503298,base_link,/z_drive,,,0.0,0.0,0.0,,0.0,0.0,0.0,1.0
1402416391597726172,,errorv,,0,,1402416391,597539142,/z_drive,port,,,-0.3,0.3048,0.0,,0.0,0.0,0.0,1.0
1402416391597791736,,errorv,,0,,1402416391,597612570,/z_drive,starboard,,,-0.3,-0.3048,0.0,,0.0,0.0,0.0,1.0
1402416391598840592,,errorv,,0,,1402416391,698646451,/base_link,/gps,,,-0.84,0.0,-0.14,,0.0,0.0,0.0,1.0
1402416391598946449,,errorv,,0,,1402416391,698752283,base_link,imu,,,0.13,0.0,-0.1,,1.0,0.0,0.0,0.0
1402416391607111882,,errorv,,0,,1402416391,547698020,/enu,/base_link,,,5.51463829461,23.6194629357,-21.95495362,,-0.0163125150961,-0.0146043084713,0.940701288973,-0.338528729875
1402416391607134816,,errorv,,0,,1402416391,557715892,/enu,/base_link,,,5.51582000963,23.6142807419,-21.9597373226,,-0.0160338520464,-0.0146971522783,0.940832320933,-0.338173702692
1402416391607151007,,errorv,,0,,1402416391,568702936,/enu,/base_link,,,5.51675632371,23.6082127171,-21.9640281446,,-0.0164851633258,-0.0147132849221,0.940959163985,-0.337798179909
1402416391615435864,,errorv,,0,,1402416391,578685998,/enu,/base_link,,,5.5179801895,23.6027539263,-21.9682110343,,-0.0160531164767,-0.0147141892902,0.941088367505,-0.337458848798
1402416391615460911,,errorv,,0,,1402416391,589687108,/enu,/base_link,,,5.51076363399,23.5912739709,-22.0565987433,,-0.0148342644954,-0.0161647676481,0.941404783305,-0.336564524057
1402416391617713679,,errorv,,0,,1402416391,617537717,base_link,/z_drive,,,0.0,0.0,0.0,,0.0,0.0,0.0,1.0
1402416391617743110,,errorv,,0,,1402416391,617576587,/z_drive,port,,,-0.3,0.3048,0.0,,0.0,0.0,0.0,1.0
1402416391617768455,,errorv,,0,,1402416391,617586727,/z_drive,starboard,,,-0.3,-0.3048,0.0,,0.0,0.0,0.0,1.0
1402416391637696947,,errorv,,0,,1402416391,637507370,base_link,/z_drive,,,0.0,0.0,0.0,,0.0,0.0,0.0,1.0
1402416391637731128,,errorv,,0,,1402416391,637523986,/z_drive,port,,,-0.3,0.3048,0.0,,0.0,0.0,0.0,1.0
1402416391637755839,,errorv,,0,,1402416391,637533488,/z_drive,starboard,,,-0.3,-0.3048,0.0,,0.0,0.0,0.0,1.0
1402416391655100385,,errorv,,0,,1402416391,599683046,/enu,/base_link,,,5.51215295398,23.5855141603,-22.0606060147,,-0.0147074552082,-0.0162853975315,0.941514723754,-0.336256600743
1402416391655128045,,errorv,,0,,1402416391,609672069,/enu,/base_link,,,5.51341095587,23.5799768816,-22.0647599872,,-0.0150101534243,-0.0162261931466,0.941626305026,-0.335933486917
1402416391657693449,,errorv,,0,,1402416391,657495491,base_link,/z_drive,,,0.0,0.0,0.0,,0.0,0.0,0.0,1.0
1402416391657715610,,errorv,,0,,1402416391,657511974,/z_drive,port,,,-0.3,0.3048,0.0,,0.0,0.0,0.0,1.0
1402416391657740905,,errorv,,0,,1402416391,657519892,/z_drive,starboard,,,-0.3,-0.3048,0.0,,0.0,0.0,0.0,1.0
1402416391677677071,,errorv,,0,,1402416391,677461883,base_link,/z_drive,,,0.0,0.0,0.0,,0.0,0.0,0.0,1.0
1402416391677706983,,errorv,,0,,1402416391,677473489,/z_drive,port,,,-0.3,0.3048,0.0,,0.0,0.0,0.0,1.0
1402416391679939828,,errorv,,0,,1402416391,677477518,/z_drive,starboard,,,-0.3,-0.3048,0.0,,0.0,0.0,0.0,1.0
1402416391695211650,,errorv,,0,,1402416391,620682001,/enu,/base_link,,,5.51496244526,23.5737584225,-22.0693641653,,-0.0146658233566,-0.0161450276987,0.941767678163,-0.335556093782
1402416391695239448,,errorv,,0,,1402416391,630671024,/enu,/base_link,,,5.51629565917,23.5683100853,-22.0736790704,,-0.0149382375815,-0.0162857175313,0.941878612668,-0.335225749996
1402416391695262232,,errorv,,0,,1402416391,640675067,/enu,/base_link,,,5.51742122527,23.5628137347,-22.0779517262,,-0.0148043383196,-0.0160479686842,0.942010663629,-0.334871921602
1402416391695284396,,errorv,,0,,1402416391,651674985,/enu,/base_link,,,5.51871947634,23.5565421483,-22.0823624381,,-0.0148540518962,-0.0162618985128,0.942132897295,-0.334515338413
1402416391697684114,,errorv,,0,,1402416391,697534330,base_link,/z_drive,,,0.0,0.0,0.0,,0.0,0.0,0.0,1.0
1402416391697762766,,errorv,,0,,1402416391,697553490,/z_drive,port,,,-0.3,0.3048,0.0,,0.0,0.0,0.0,1.0
1402416391697792181,,errorv,,0,,1402416391,697599089,/z_drive,starboard,,,-0.3,-0.3048,0.0,,0.0,0.0,0.0,1.0
1402416391698971924,,errorv,,0,,1402416391,798756244,/base_link,/gps,,,-0.84,0.0,-0.14,,0.0,0.0,0.0,1.0
1402416391699080401,,errorv,,0,,1402416391,798854978,base_link,imu,,,0.13,0.0,-0.1,,1.0,0.0,0.0,0.0
1402416391717666885,,errorv,,0,,1402416391,717519663,base_link,/z_drive,,,0.0,0.0,0.0,,0.0,0.0,0.0,1.0
1402416391717694147,,errorv,,0,,1402416391,717537000,/z_drive,port,,,-0.3,0.3048,0.0,,0.0,0.0,0.0,1.0
1402416391717767757,,errorv,,0,,1402416391,717543374,/z_drive,starboard,,,-0.3,-0.3048,0.0,,0.0,0.0,0.0,1.0
1402416391735262128,,errorv,,0,,1402416391,661712884,/enu,/base_link,,,5.52001844285,23.5510110042,-22.086480847,,-0.0149945295384,-0.0159775625505,0.942245326581,-0.334205963613
1402416391735449936,,errorv,,0,,1402416391,671689033,/enu,/base_link,,,5.52126293845,23.5456494049,-22.0908133701,,-0.0151868024607,-0.0159284667332,0.942355251368,-0.333889540413
1402416391735661474,,errorv,,0,,1402416391,682674884,/enu,/base_link,,,5.5226112324,23.5394927443,-22.0952113383,,-0.0152072087265,-0.0155913195349,0.942490003995,-0.33352397804
1402416391735685127,,errorv,,0,,1402416391,692646026,/enu,/base_link,,,5.52187294307,23.5272808017,-22.0931615471,,-0.0154201020568,-0.0163113721504,0.942543068987,-0.333329750691
1402416391737686801,,errorv,,0,,1402416391,737559453,base_link,/z_drive,,,0.0,0.0,0.0,,0.0,0.0,0.0,1.0
1402416391737772877,,errorv,,0,,1402416391,737579927,/z_drive,port,,,-0.3,0.3048,0.0,,0.0,0.0,0.0,1.0
1402416391737802256,,errorv,,0,,1402416391,737603379,/z_drive,starboard,,,-0.3,-0.3048,0.0,,0.0,0.0,0.0,1.0
1402416391757742044,,errorv,,0,,1402416391,757447423,base_link,/z_drive,,,0.0,0.0,0.0,,0.0,0.0,0.0,1.0
1402416391757768801,,errorv,,0,,1402416391,757554273,/z_drive,port,,,-0.3,0.3048,0.0,,0.0,0.0,0.0,1.0
1402416391757788943,,errorv,,0,,1402416391,757563375,/z_drive,starboard,,,-0.3,-0.3048,0.0,,0.0,0.0,0.0,1.0
1402416391775171381,,errorv,,0,,1402416391,703643083,/enu,/base_link,,,5.52310796342,23.5208578388,-22.0971929093,,-0.0154877099453,-0.015964375516,0.942688774067,-0.332931141234
1402416391775201793,,errorv,,0,,1402416391,713644027,/enu,/base_link,,,5.52435960319,23.5152131404,-22.1013202676,,-0.0155167869721,-0.0160365627586,0.942816701677,-0.33256386607
1402416391775242917,,errorv,,0,,1402416391,723647117,/enu,/base_link,,,5.52545603072,23.5095120218,-22.1053443679,,-0.0154647146209,-0.015931619373,0.942936692209,-0.332230974763
1402416391775268575,,errorv,,0,,1402416391,734647035,/enu,/base_link,,,5.53139432805,23.4991495221,-22.0836802099,,-0.015546115215,-0.0160355149444,0.94305294905,-0.331892024384
1402416391775306070,,errorv,,0,,1402416391,744647979,/enu,/base_link,,,5.53270019996,23.4934862937,-22.0877653693,,-0.0158035766328,-0.015667936985,0.943176156495,-0.331547131696
1402416391777782723,,errorv,,0,,1402416391,777635860,base_link,/z_drive,,,0.0,0.0,0.0,,0.0,0.0,0.0,1.0
1402416391777811144,,errorv,,0,,1402416391,777650948,/z_drive,port,,,-0.3,0.3048,0.0,,0.0,0.0,0.0,1.0
1402416391777877675,,errorv,,0,,1402416391,777657026,/z_drive,starboard,,,-0.3,-0.3048,0.0,,0.0,0.0,0.0,1.0
1402416391797962554,,errorv,,0,,1402416391,797749713,base_link,/z_drive,,,0.0,0.0,0.0,,0.0,0.0,0.0,1.0
1402416391797993692,,errorv,,0,,1402416391,797771107,/z_drive,port,,,-0.3,0.3048,0.0,,0.0,0.0,0.0,1.0
1402416391798062220,,errorv,,0,,1402416391,797777269,/z_drive,starboard,,,-0.3,-0.3048,0.0,,0.0,0.0,0.0,1.0
1402416391799058850,,errorv,,0,,1402416391,898850417,/base_link,/gps,,,-0.84,0.0,-0.14,,0.0,0.0,0.0,1.0
1402416391799196330,,errorv,,0,,1402416391,898957342,base_link,imu,,,0.13,0.0,-0.1,,1.0,0.0,0.0,0.0
1402416391815259493,,errorv,,0,,1402416391,755623102,/enu,/base_link,,,5.53395767101,23.4871720171,-22.0920822761,,-0.0157365734847,-0.0157361736777,0.943311470942,-0.331161896786
1402416391815289402,,errorv,,0,,1402416391,765605926,/enu,/base_link,,,5.53520677014,23.4815593899,-22.0962997115,,-0.0157848411475,-0.0155530079918,0.943440063525,-0.330801737099
1402416391815312156,,errorv,,0,,1402416391,775608062,/enu,/base_link,,,5.5362631185,23.4757417723,-22.1000078785,,-0.0160299744695,-0.0153569472429,0.943573833239,-0.330417350205
1402416391817724342,,errorv,,0,,1402416391,817484291,base_link,/z_drive,,,0.0,0.0,0.0,,0.0,0.0,0.0,1.0
1402416391817752377,,errorv,,0,,1402416391,817543695,/z_drive,port,,,-0.3,0.3048,0.0,,0.0,0.0,0.0,1.0
1402416391817773381,,errorv,,0,,1402416391,817552917,/z_drive,starboard,,,-0.3,-0.3048,0.0,,0.0,0.0,0.0,1.0
1402416391823403501,,errorv,,0,,1402416391,786602973,/enu,/base_link,,,5.54151605038,23.4522597692,-22.1109114467,,-0.0151569677334,-0.0171162976057,0.943663721813,-0.330115250813
1402416391823427019,,errorv,,0,,1402416391,796608924,/enu,/base_link,,,5.54272055215,23.4462622554,-22.1150114114,,-0.0155911374453,-0.0167396010063,0.943791152818,-0.329749847692
1402416391837783635,,errorv,,0,,1402416391,837530930,base_link,/z_drive,,,0.0,0.0,0.0,,0.0,0.0,0.0,1.0
1402416391837926227,,errorv,,0,,1402416391,837571106,/z_drive,port,,,-0.3,0.3048,0.0,,0.0,0.0,0.0,1.0
1402416391837953132,,errorv,,0,,1402416391,837582570,/z_drive,starboard,,,-0.3,-0.3048,0.0,,0.0,0.0,0.0,1.0
1402416391857707661,,errorv,,0,,1402416391,857444892,base_link,/z_drive,,,0.0,0.0,0.0,,0.0,0.0,0.0,1.0
1402416391857732020,,errorv,,0,,1402416391,857482184,/z_drive,port,,,-0.3,0.3048,0.0,,0.0,0.0,0.0,1.0
1402416391857796515,,errorv,,0,,1402416391,857491467,/z_drive,starboard,,,-0.3,-0.3048,0.0,,0.0,0.0,0.0,1.0
1402416391863103983,,errorv,,0,,1402416391,807609081,/enu,/base_link,,,5.54444926888,23.4394663838,-22.1190835025,,-0.0158221574241,-0.0164683068967,0.943937721507,-0.329332707333
1402416391863177411,,errorv,,0,,1402416391,817744016,/enu,/base_link,,,5.5458219684,23.4333778311,-22.1232560757,,-0.015959540457,-0.0162836234511,0.944067373024,-0.328963420258
1402416391877693724,,errorv,,0,,1402416391,877510656,base_link,/z_drive,,,0.0,0.0,0.0,,0.0,0.0,0.0,1.0
1402416391877722017,,errorv,,0,,1402416391,877534192,/z_drive,port,,,-0.3,0.3048,0.0,,0.0,0.0,0.0,1.0
1402416391877789828,,errorv,,0,,1402416391,877567866,/z_drive,starboard,,,-0.3,-0.3048,0.0,,0.0,0.0,0.0,1.0
1402416391897655475,,errorv,,0,,1402416391,897487918,base_link,/z_drive,,,0.0,0.0,0.0,,0.0,0.0,0.0,1.0
1402416391897683608,,errorv,,0,,1402416391,897514337,/z_drive,port,,,-0.3,0.3048,0.0,,0.0,0.0,0.0,1.0
1402416391897710196,,errorv,,0,,1402416391,897523153,/z_drive,starboard,,,-0.3,-0.3048,0.0,,0.0,0.0,0.0,1.0
1402416391899133015,,errorv,,0,,1402416391,998947851,/base_link,/gps,,,-0.84,0.0,-0.14,,0.0,0.0,0.0,1.0
1402416391899267250,,errorv,,0,,1402416391,999059854,base_link,imu,,,0.13,0.0,-0.1,,1.0,0.0,0.0,0.0
1402416391903191123,,errorv,,0,,1402416391,827584981,/enu,/base_link,,,5.54730607968,23.4273683537,-22.12715252,,-0.0157426977047,-0.0161715296278,0.944195331079,-0.328611968538
1402416391903221371,,errorv,,0,,1402416391,838572978,/enu,/base_link,,,5.54873744809,23.4207341305,-22.131471478,,-0.0162507891537,-0.0158569616908,0.944331447699,-0.328211190402
1402416391903245211,,errorv,,0,,1402416391,848572969,/enu,/base_link,,,5.55024847929,23.414789218,-22.1357299753,,-0.0159108177712,-0.0157300389837,0.944456610585,-0.327873637967
1402416391903269271,,errorv,,0,,1402416391,858581066,/enu,/base_link,,,5.55159364661,23.4085471445,-22.1393791607,,-0.0162621517226,-0.0156056127628,0.944575372222,-0.327520035209
1402416391917705231,,errorv,,0,,1402416391,917525727,base_link,/z_drive,,,0.0,0.0,0.0,,0.0,0.0,0.0,1.0
1402416391917923994,,errorv,,0,,1402416391,917551515,/z_drive,port,,,-0.3,0.3048,0.0,,0.0,0.0,0.0,1.0
1402416391917954235,,errorv,,0,,1402416391,917590514,/z_drive,starboard,,,-0.3,-0.3048,0.0,,0.0,0.0,0.0,1.0
1402416391937690810,,errorv,,0,,1402416391,937489370,base_link,/z_drive,,,0.0,0.0,0.0,,0.0,0.0,0.0,1.0
1402416391937722988,,errorv,,0,,1402416391,937511336,/z_drive,port,,,-0.3,0.3048,0.0,,0.0,0.0,0.0,1.0
1402416391937827336,,errorv,,0,,1402416391,937521302,/z_drive,starboard,,,-0.3,-0.3048,0.0,,0.0,0.0,0.0,1.0
1402416391943183694,,errorv,,0,,1402416391,868577957,/enu,/base_link,,,5.5528850609,23.4025191573,-22.1434005906,,-0.0162323045226,-0.0153608645208,0.944705642979,-0.327157155287
1402416391943400901,,errorv,,0,,1402416391,879580020,/enu,/base_link,,,5.55448512569,23.3955736273,-22.1475011602,,-0.0161328103987,-0.0152861187226,0.944825653117,-0.326818836994
1402416391943429879,,errorv,,0,,1402416391,889549970,/enu,/base_link,,,5.54067513002,23.3919478727,-22.1640949142,,-0.0168002035789,-0.0145317758033,0.944903967852,-0.326593129427
1402416391943452495,,errorv,,0,,1402416391,899569988,/enu,/base_link,,,5.54181820765,23.3859571686,-22.1683421016,,-0.0171683326821,-0.0145131795229,0.945016956289,-0.32624771003
1402416391957911981,,errorv,,0,,1402416391,957519977,base_link,/z_drive,,,0.0,0.0,0.0,,0.0,0.0,0.0,1.0
1402416391957965523,,errorv,,0,,1402416391,957541561,/z_drive,port,,,-0.3,0.3048,0.0,,0.0,0.0,0.0,1.0
1402416391957979808,,errorv,,0,,1402416391,957577921,/z_drive,starboard,,,-0.3,-0.3048,0.0,,0.0,0.0,0.0,1.0
1402416391977631991,,errorv,,0,,1402416391,977424150,base_link,/z_drive,,,0.0,0.0,0.0,,0.0,0.0,0.0,1.0
1402416391977659875,,errorv,,0,,1402416391,977467068,/z_drive,port,,,-0.3,0.3048,0.0,,0.0,0.0,0.0,1.0
1402416391977730023,,errorv,,0,,1402416391,977499211,/z_drive,starboard,,,-0.3,-0.3048,0.0,,0.0,0.0,0.0,1.0
1402416391983386608,,errorv,,0,,1402416391,909542083,/enu,/base_link,,,5.54293563714,23.3799585642,-22.1726340004,,-0.0170085466327,-0.0142873373893,0.945140521474,-0.325907925647
1402416391983449152,,errorv,,0,,1402416391,920559883,/enu,/base_link,,,5.54426330146,23.3729762086,-22.17684749,,-0.0170679818706,-0.0143061219212,0.945264158824,-0.325545217924
1402416391983475775,,errorv,,0,,1402416391,930522918,/enu,/base_link,,,5.54542309991,23.3670031479,-22.181067969,,-0.0173321153174,-0.0139675539548,0.9453719314,-0.325232865092
1402416391983529953,,errorv,,0,,1402416391,940548896,/enu,/base_link,,,5.56915486211,23.3342095233,-22.1485633361,,-0.0160122437659,-0.0164186244568,0.945405754543,-0.325087674478
1402416391997860698,,errorv,,0,,1402416391,997560158,base_link,/z_drive,,,0.0,0.0,0.0,,0.0,0.0,0.0,1.0
1402416391997893374,,errorv,,0,,1402416391,997588888,/z_drive,port,,,-0.3,0.3048,0.0,,0.0,0.0,0.0,1.0
1402416391997936531,,errorv,,0,,1402416391,997593593,/z_drive,starboard,,,-0.3,-0.3048,0.0,,0.0,0.0,0.0,1.0
1402416391999245781,,errorv,,0,,1402416392,99056137,/base_link,/gps,,,-0.84,0.0,-0.14,,0.0,0.0,0.0,1.0
1402416391999378669,,errorv,,0,,1402416392,99172476,base_link,imu,,,0.13,0.0,-0.1,,1.0,0.0,0.0,0.0
1402416392017682012,,errorv,,0,,1402416392,17471083,base_link,/z_drive,,,0.0,0.0,0.0,,0.0,0.0,0.0,1.0
1402416392017793523,,errorv,,0,,1402416392,17491560,/z_drive,port,,,-0.3,0.3048,0.0,,0.0,0.0,0.0,1.0
1402416392017810604,,errorv,,0,,1402416392,17497360,/z_drive,starboard,,,-0.3,-0.3048,0.0,,0.0,0.0,0.0,1.0
1402416392023230118,,errorv,,0,,1402416391,951539039,/enu,/base_link,,,5.57082068947,23.3267763002,-22.1526509992,,-0.0163935717372,-0.0162709967241,0.945523364601,-0.324733848658
1402416392023256761,,errorv,,0,,1402416391,961543083,/enu,/base_link,,,5.5724051002,23.3197334457,-22.156078082,,-0.0165797572381,-0.0162952110942,0.945628983168,-0.324415480423
1402416392023278477,,errorv,,0,,1402416391,971501111,/enu,/base_link,,,5.57384270819,23.3131588696,-22.1599855571,,-0.0166337441748,-0.0159405676585,0.945735832087,-0.324118732512
1402416392023316278,,errorv,,0,,1402416391,982501029,/enu,/base_link,,,5.57579345034,23.3059758555,-22.164660773,,-0.0165365821007,-0.0158840864575,0.945857147382,-0.323772287259
1402416392023348339,,errorv,,0,,1402416391,992497920,/enu,/base_link,,,5.56530891068,23.3046585561,-22.1472660518,,-0.0180950520759,-0.0147063735045,0.945965849924,-0.323426811576
1402416392037685668,,errorv,,0,,1402416392,37521499,base_link,/z_drive,,,0.0,0.0,0.0,,0.0,0.0,0.0,1.0
1402416392037835192,,errorv,,0,,1402416392,37548019,/z_drive,port,,,-0.3,0.3048,0.0,,0.0,0.0,0.0,1.0
1402416392037864711,,errorv,,0,,1402416392,37689174,/z_drive,starboard,,,-0.3,-0.3048,0.0,,0.0,0.0,0.0,1.0
1402416392057610996,,errorv,,0,,1402416392,57468409,base_link,/z_drive,,,0.0,0.0,0.0,,0.0,0.0,0.0,1.0
1402416392057681978,,errorv,,0,,1402416392,57485411,/z_drive,port,,,-0.3,0.3048,0.0,,0.0,0.0,0.0,1.0
1402416392057750197,,errorv,,0,,1402416392,57494948,/z_drive,starboard,,,-0.3,-0.3048,0.0,,0.0,0.0,0.0,1.0
1402416392063033313,,errorv,,0,,1402416392,2501964,/enu,/base_link,,,5.56664002061,23.2979636874,-22.1510683294,,-0.0179913811079,-0.0144072353341,0.946085388211,-0.323096239517
1402416392063102813,,errorv,,0,,1402416392,13470888,/enu,/base_link,,,5.5680409596,23.2905539929,-22.1553093474,,-0.0181386504244,-0.0144785817117,0.946208217658,-0.322724912066
1402416392063126435,,errorv,,0,,1402416392,23474931,/enu,/base_link,,,5.56948747391,23.2839897295,-22.1591890348,,-0.0181888674894,-0.0140310259991,0.946324533375,-0.322400640417
1402416392071391339,,errorv,,0,,1402416392,33473968,/enu,/base_link,,,5.57089010351,23.2771349632,-22.1627863671,,-0.0182389271204,-0.0137943997149,0.94643975016,-0.322069643697
1402416392071414382,,errorv,,0,,1402416392,44471979,/enu,/base_link,,,5.55096963331,23.2649281427,-22.1003748434,,-0.0216075005816,-0.012403827283,0.946535393977,-0.321636454613
1402416392077685324,,errorv,,0,,1402416392,77511979,base_link,/z_drive,,,0.0,0.0,0.0,,0.0,0.0,0.0,1.0
1402416392077713188,,errorv,,0,,1402416392,77530159,/z_drive,port,,,-0.3,0.3048,0.0,,0.0,0.0,0.0,1.0
1402416392077873391,,errorv,,0,,1402416392,77538273,/z_drive,starboard,,,-0.3,-0.3048,0.0,,0.0,0.0,0.0,1.0
1402416392097814331,,errorv,,0,,1402416392,97633967,base_link,/z_drive,,,0.0,0.0,0.0,,0.0,0.0,0.0,1.0
1402416392097838453,,errorv,,0,,1402416392,97653835,/z_drive,port,,,-0.3,0.3048,0.0,,0.0,0.0,0.0,1.0
1402416392097902530,,errorv,,0,,1402416392,97660045,/z_drive,starboard,,,-0.3,-0.3048,0.0,,0.0,0.0,0.0,1.0
1402416392099338465,,errorv,,0,,1402416392,199164579,/base_link,/gps,,,-0.84,0.0,-0.14,,0.0,0.0,0.0,1.0
1402416392099473435,,errorv,,0,,1402416392,199276590,base_link,imu,,,0.13,0.0,-0.1,,1.0,0.0,0.0,0.0
1402416392111089163,,errorv,,0,,1402416392,54442882,/enu,/base_link,,,5.55149617857,23.2581406336,-22.1040776796,,-0.0215947351141,-0.0123755198744,0.946638368422,-0.321335204038
1402416392111119330,,errorv,,0,,1402416392,65443992,/enu,/base_link,,,5.5521524431,23.2507486839,-22.1080581475,,-0.0217735679487,-0.0119325044385,0.946771500897,-0.320947428976
1402416392117883975,,errorv,,0,,1402416392,117746811,base_link,/z_drive,,,0.0,0.0,0.0,,0.0,0.0,0.0,1.0
1402416392117914458,,errorv,,0,,1402416392,117765018,/z_drive,port,,,-0.3,0.3048,0.0,,0.0,0.0,0.0,1.0
1402416392118034056,,errorv,,0,,1402416392,117772046,/z_drive,starboard,,,-0.3,-0.3048,0.0,,0.0,0.0,0.0,1.0
1402416392137682720,,errorv,,0,,1402416392,137496571,base_link,/z_drive,,,0.0,0.0,0.0,,0.0,0.0,0.0,1.0
1402416392137782809,,errorv,,0,,1402416392,137532278,/z_drive,port,,,-0.3,0.3048,0.0,,0.0,0.0,0.0,1.0
1402416392137806192,,errorv,,0,,1402416392,137645079,/z_drive,starboard,,,-0.3,-0.3048,0.0,,0.0,0.0,0.0,1.0
1402416392151022448,,errorv,,0,,1402416392,75458049,/enu,/base_link,,,5.55272310491,23.2437575358,-22.1114411025,,-0.0216980028312,-0.0120016448037,0.946878334343,-0.320634647453
1402416392151230973,,errorv,,0,,1402416392,85427999,/enu,/base_link,,,5.57006034164,23.2209987474,-21.976419223,,-0.0230311894286,-0.0120612457743,0.946915174425,-0.320430558949
1402416392151258925,,errorv,,0,,1402416392,96419095,/enu,/base_link,,,5.5703829234,23.2132954995,-21.9800607984,,-0.0230915482237,-0.0119834767031,0.947030200145,-0.320089013713
1402416392151294020,,errorv,,0,,1402416392,106427907,/enu,/base_link,,,5.57097132667,23.2063611283,-21.9833039647,,-0.0234232986817,-0.0116713142115,0.947138405385,-0.319756111041
1402416392157655024,,errorv,,0,,1402416392,157521716,base_link,/z_drive,,,0.0,0.0,0.0,,0.0,0.0,0.0,1.0
1402416392157764476,,errorv,,0,,1402416392,157538028,/z_drive,port,,,-0.3,0.3048,0.0,,0.0,0.0,0.0,1.0
1402416392157792108,,errorv,,0,,1402416392,157579646,/z_drive,starboard,,,-0.3,-0.3048,0.0,,0.0,0.0,0.0,1.0
1402416392177653900,,errorv,,0,,1402416392,177474696,base_link,/z_drive,,,0.0,0.0,0.0,,0.0,0.0,0.0,1.0
1402416392177678046,,errorv,,0,,1402416392,177491162,/z_drive,port,,,-0.3,0.3048,0.0,,0.0,0.0,0.0,1.0
1402416392177743287,,errorv,,0,,1402416392,177499938,/z_drive,starboard,,,-0.3,-0.3048,0.0,,0.0,0.0,0.0,1.0
1402416392191109000,,errorv,,0,,1402416392,116417884,/enu,/base_link,,,5.57127553339,23.1993005398,-21.9868582076,,-0.0231132934596,-0.0117692809716,0.947247598767,-0.319451477255
1402416392191132120,,errorv,,0,,1402416392,126420021,/enu,/base_link,,,5.57168190266,23.1923214581,-21.9902328552,,-0.0233964264831,-0.0114689964266,0.947351937649,-0.319132222724
1402416392191159058,,errorv,,0,,1402416392,137418985,/enu,/base_link,,,5.58687859281,23.1670463882,-21.8324402945,,-0.0250798014424,-0.0114369490883,0.947430021622,-0.318773515031
1402416392191331041,,errorv,,0,,1402416392,147393941,/enu,/base_link,,,5.58720138916,23.1600059714,-21.8357523309,,-0.0250821917366,-0.0112671035853,0.947532525591,-0.318474565674
1402416392197682206,,errorv,,0,,1402416392,197513345,base_link,/z_drive,,,0.0,0.0,0.0,,0.0,0.0,0.0,1.0
1402416392197707483,,errorv,,0,,1402416392,197529728,/z_drive,port,,,-0.3,0.3048,0.0,,0.0,0.0,0.0,1.0
1402416392197772749,,errorv,,0,,1402416392,197537805,/z_drive,starboard,,,-0.3,-0.3048,0.0,,0.0,0.0,0.0,1.0
1402416392199448395,,errorv,,0,,1402416392,299260301,/base_link,/gps,,,-0.84,0.0,-0.14,,0.0,0.0,0.0,1.0
1402416392199558886,,errorv,,0,,1402416392,299392316,base_link,imu,,,0.13,0.0,-0.1,,1.0,0.0,0.0,0.0
1402416392217762406,,errorv,,0,,1402416392,217464686,base_link,/z_drive,,,0.0,0.0,0.0,,0.0,0.0,0.0,1.0
1402416392217786444,,errorv,,0,,1402416392,217495311,/z_drive,port,,,-0.3,0.3048,0.0,,0.0,0.0,0.0,1.0
1402416392217823273,,errorv,,0,,1402416392,217503609,/z_drive,starboard,,,-0.3,-0.3048,0.0,,0.0,0.0,0.0,1.0
1402416392231216861,,errorv,,0,,1402416392,158387899,/enu,/base_link,,,5.58719782374,23.1520063429,-21.8388881814,,-0.0254732032299,-0.01093039756,0.947644776858,-0.318121076352
1402416392231341358,,errorv,,0,,1402416392,168399095,/enu,/base_link,,,5.5873398619,23.1446912862,-21.8419454218,,-0.0250946511728,-0.010936231259,0.94775599532,-0.317819493839
1402416392231364850,,errorv,,0,,1402416392,178385972,/enu,/base_link,,,5.58745443241,23.1373988909,-21.8448064683,,-0.0255310074975,-0.0107064530555,0.947855888003,-0.317494496169
1402416392231425008,,errorv,,0,,1402416392,188369035,/enu,/base_link,,,5.59921087105,23.1324243516,-21.6747118882,,-0.0275137426468,-0.00888039950131,0.948047916682,-0.316811111147
1402416392237782293,,errorv,,0,,1402416392,237501561,base_link,/z_drive,,,0.0,0.0,0.0,,0.0,0.0,0.0,1.0
1402416392237812007,,errorv,,0,,1402416392,237517855,/z_drive,port,,,-0.3,0.3048,0.0,,0.0,0.0,0.0,1.0
1402416392237873406,,errorv,,0,,1402416392,237525734,/z_drive,starboard,,,-0.3,-0.3048,0.0,,0.0,0.0,0.0,1.0
1402416392257728257,,errorv,,0,,1402416392,257480077,base_link,/z_drive,,,0.0,0.0,0.0,,0.0,0.0,0.0,1.0
1402416392257758662,,errorv,,0,,1402416392,257496702,/z_drive,port,,,-0.3,0.3048,0.0,,0.0,0.0,0.0,1.0
1402416392257812893,,errorv,,0,,1402416392,257504987,/z_drive,starboard,,,-0.3,-0.3048,0.0,,0.0,0.0,0.0,1.0
1402416392271158750,,errorv,,0,,1402416392,199381113,/enu,/base_link,,,5.59874596086,23.1246424999,-21.677450615,,-0.0278371640312,-0.00860078695134,0.948153494461,-0.316474437678
1402416392271187394,,errorv,,0,,1402416392,209371089,/enu,/base_link,,,5.59855529795,23.1174536289,-21.6798906151,,-0.0275079638722,-0.00847735297616,0.948263671032,-0.316176306213
1402416392271211320,,errorv,,0,,1402416392,220370054,/enu,/base_link,,,5.5979196749,23.1095400664,-21.6823323686,,-0.0279962344681,-0.0082627833255,0.948372928312,-0.315811219104
1402416392271234144,,errorv,,0,,1402416392,230372905,/enu,/base_link,,,5.59762252381,23.1024818738,-21.6849564513,,-0.0277146703337,-0.00809993997323,0.948480328381,-0.315517598074
1402416392271297563,,errorv,,0,,1402416392,240369081,/enu,/base_link,,,5.59729998895,23.095088524,-21.6868782311,,-0.0278673155702,-0.00808689853615,0.948568934044,-0.315237992891
1402416392277673497,,errorv,,0,,1402416392,277484046,base_link,/z_drive,,,0.0,0.0,0.0,,0.0,0.0,0.0,1.0
1402416392277702968,,errorv,,0,,1402416392,277498863,/z_drive,port,,,-0.3,0.3048,0.0,,0.0,0.0,0.0,1.0
1402416392277827099,,errorv,,0,,1402416392,277503131,/z_drive,starboard,,,-0.3,-0.3048,0.0,,0.0,0.0,0.0,1.0
1402416392297722057,,errorv,,0,,1402416392,297497504,base_link,/z_drive,,,0.0,0.0,0.0,,0.0,0.0,0.0,1.0
1402416392297771772,,errorv,,0,,1402416392,297518618,/z_drive,port,,,-0.3,0.3048,0.0,,0.0,0.0,0.0,1.0
1402416392297797326,,errorv,,0,,1402416392,297526595,/z_drive,starboard,,,-0.3,-0.3048,0.0,,0.0,0.0,0.0,1.0
1402416392299528676,,errorv,,0,,1402416392,399353833,/base_link,/gps,,,-0.84,0.0,-0.14,,0.0,0.0,0.0,1.0
1402416392299677868,,errorv,,0,,1402416392,399489948,base_link,imu,,,0.13,0.0,-0.1,,1.0,0.0,0.0,0.0
1402416392311124956,,errorv,,0,,1402416392,251346111,/enu,/base_link,,,5.59661300468,23.0873356245,-21.6896775617,,-0.0279900597274,-0.00786392297694,0.94866913656,-0.314931079142
1402416392311152496,,errorv,,0,,1402416392,261373996,/enu,/base_link,,,5.59603481879,23.0800847424,-21.69196202,,-0.0283579263302,-0.00782076469177,0.948753990286,-0.314643495992
1402416392311216736,,errorv,,0,,1402416392,271363019,/enu,/base_link,,,5.59575344612,23.0729769441,-21.6944456628,,-0.0280764779136,-0.00762384657032,0.94885057467,-0.314382212125
1402416392317862626,,errorv,,0,,1402416392,317733091,base_link,/z_drive,,,0.0,0.0,0.0,,0.0,0.0,0.0,1.0
1402416392317998052,,errorv,,0,,1402416392,317750825,/z_drive,port,,,-0.3,0.3048,0.0,,0.0,0.0,0.0,1.0
1402416392318021191,,errorv,,0,,1402416392,317777290,/z_drive,starboard,,,-0.3,-0.3048,0.0,,0.0,0.0,0.0,1.0
1402416392319309336,,errorv,,0,,1402416392,282330036,/enu,/base_link,,,5.56200822174,23.0304900912,-21.6324023029,,-0.0327909332468,-0.00817798068795,0.948838152348,-0.313949097749
1402416392319342647,,errorv,,0,,1402416392,292330026,/enu,/base_link,,,5.56068405165,23.0229235941,-21.6349705826,,-0.0327538762341,-0.00792927870424,0.948930205579,-0.313681008465
1402416392337755807,,errorv,,0,,1402416392,337598053,base_link,/z_drive,,,0.0,0.0,0.0,,0.0,0.0,0.0,1.0
1402416392337785257,,errorv,,0,,1402416392,337622875,/z_drive,port,,,-0.3,0.3048,0.0,,0.0,0.0,0.0,1.0
1402416392337809638,,errorv,,0,,1402416392,337633086,/z_drive,starboard,,,-0.3,-0.3048,0.0,,0.0,0.0,0.0,1.0
1402416392357739457,,errorv,,0,,1402416392,357518602,base_link,/z_drive,,,0.0,0.0,0.0,,0.0,0.0,0.0,1.0
1402416392357767987,,errorv,,0,,1402416392,357538251,/z_drive,port,,,-0.3,0.3048,0.0,,0.0,0.0,0.0,1.0
1402416392357833260,,errorv,,0,,1402416392,357547691,/z_drive,starboard,,,-0.3,-0.3048,0.0,,0.0,0.0,0.0,1.0
1402416392359057769,,errorv,,0,,1402416392,302330970,/enu,/base_link,,,5.55892656425,23.0149783876,-21.6369504225,,-0.0327446969299,-0.00800789652117,0.949023232618,-0.313398408368
1402416392359085734,,errorv,,0,,1402416392,313330888,/enu,/base_link,,,5.55750273421,23.0064320276,-21.6392953142,,-0.0329813679134,-0.00796113343843,0.949121546856,-0.313076889947
1402416392377795913,,errorv,,0,,1402416392,377630484,base_link,/z_drive,,,0.0,0.0,0.0,,0.0,0.0,0.0,1.0
