rosbagTimestamp,control_method,x_current,x_desired,y_current,y_desired,x_velocity_current,x_velocity_desired,y_velocity_current,y_velocity_desired,yaw_current,yaw_desired,required_force_x,required_force_y,required_moment_z,resultant_force_x,resultant_force_y,resultant_moment_z,current_port_servo_angle,current_port_thruster_force,current_starboard_servo_angle,current_starboard_thruster_force,estimated_port_servo_angle,estimated_port_thruster_force,estimated_starboard_servo_angle,estimated_starboard_thruster_force,cost_value,step,user_defined_1,user_defined_2,user_defined_3,user_defined_4,user_defined_5
1402599400364568041,0,1.29489280588,-0.114322152727,-0.500225118009,0.043815185726,0.271200373335,0.0,-0.56405993719,0.0,1.91582573197,0.0,0.0,0.0,0.0,-200.0,-0.0,0.0,-0.00690451462821,-100.0,0.00537022749826,-100.0,0.0,-100.0,0.0,-100.0,2100000.0,0.0,0.0,0.0,0.0,0.0,0.0
1402599400384637324,0,1.29489280588,-0.114322152727,-0.500225118009,0.043815185726,0.271200373335,0.0,-0.56405993719,0.0,1.91582573197,0.0,0.0,0.0,0.0,-200.0,-0.0,0.0,-0.00690451462821,-100.0,0.00537022749826,-100.0,0.0,-100.0,0.0,-100.0,2100000.0,0.0,0.0,0.0,0.0,0.0,0.0
1402599400404004441,0,1.30755968994,-0.114322152727,-0.52465300514,0.043815185726,0.290193823246,0.0,-0.594059671134,0.0,1.91892931336,0.0,0.0,0.0,0.0,-200.0,-0.0,0.0,-0.00690451462821,-100.0,0.00537022749826,-100.0,0.0,-100.0,0.0,-100.0,2100000.0,0.0,0.0,0.0,0.0,0.0,0.0
1402599400424659023,0,1.30755968994,-0.114322152727,-0.52465300514,0.043815185726,0.290193823246,0.0,-0.594059671134,0.0,1.91892931336,0.0,0.0,0.0,0.0,-200.0,-0.0,0.0,-0.00690451462821,-100.0,0.00537022749826,-100.0,0.0,-100.0,0.0,-100.0,2100000.0,0.0,0.0,0.0,0.0,0.0,0.0
1402599400444075875,0,1.32278328192,-0.114322152727,-0.559198242376,0.043815185726,0.301166178772,0.0,-0.635113907557,0.0,1.9203599376,0.0,0.0,0.0,0.0,-200.0,-0.0,0.0,-0.00690451462821,-100.0,0.00537022749826,-100.0,0.0,-100.0,0.0,-100.0,2100000.0,0.0,0.0,0.0,0.0,0.0,0.0
1402599400464059066,0,1.32278328192,-0.114322152727,-0.559198242376,0.043815185726,0.301166178772,0.0,-0.635113907557,0.0,1.9203599376,0.0,0.0,0.0,0.0,-200.0,-0.0,0.0,-0.00690451462821,-100.0,0.00690445105478,-100.0,0.0,-100.0,0.0,-100.0,2100000.0,0.0,0.0,0.0,0.0,0.0,0.0
1402599400484762674,0,1.3337464532,-0.114322152727,-0.59507102783,0.043815185726,0.287280964617,0.0,-0.670637138007,0.0,1.91898864053,0.0,0.0,0.0,0.0,-200.0,-0.0,0.0,-0.00690451462821,-100.0,0.00537022749826,-100.0,0.0,-100.0,0.0,-100.0,2100000.0,0.0,0.0,0.0,0.0,0.0,0.0
1402599400504057954,0,1.3337464532,-0.114322152727,-0.59507102783,0.043815185726,0.287280964617,0.0,-0.670637138007,0.0,1.91898864053,0.0,0.0,0.0,0.0,-200.0,-0.0,0.0,-0.00690451462821,-100.0,0.00690445105478,-100.0,0.0,-100.0,0.0,-100.0,2100000.0,0.0,0.0,0.0,0.0,0.0,0.0
1402599400524717632,0,1.3393425232,-0.114322152727,-0.608684747874,0.043815185726,0.291799114946,0.0,-0.681333988527,0.0,1.9198911131,0.0,0.0,0.0,0.0,-200.0,-0.0,0.0,-0.00690451462821,-100.0,0.00537022749826,-100.0,0.0,-100.0,0.0,-100.0,2100000.0,0.0,0.0,0.0,0.0,0.0,0.0
1402599400544064431,0,1.3393425232,-0.114322152727,-0.608684747874,0.043815185726,0.291799114946,0.0,-0.681333988527,0.0,1.9198911131,0.0,0.0,0.0,0.0,-200.0,-0.0,0.0,-0.00690451462821,-100.0,0.00537022749826,-100.0,0.0,-100.0,0.0,-100.0,2100000.0,0.0,0.0,0.0,0.0,0.0,0.0
1402599400564911247,0,1.35159200415,-0.114322152727,-0.636939949435,0.043815185726,0.301393916452,0.0,-0.703358673483,0.0,1.92189679274,0.0,0.0,0.0,0.0,-200.0,-0.0,0.0,-0.00690451462821,-100.0,0.00537022749826,-100.0,0.0,-100.0,0.0,-100.0,2100000.0,0.0,0.0,0.0,0.0,0.0,0.0
1402599400584041588,0,1.35159200415,-0.114322152727,-0.636939949435,0.043815185726,0.301393916452,0.0,-0.703358673483,0.0,1.92189679274,0.0,0.0,0.0,0.0,-200.0,-0.0,0.0,-0.00690451462821,-100.0,0.00537022749826,-100.0,0.0,-100.0,0.0,-100.0,2100000.0,0.0,0.0,0.0,0.0,0.0,0.0
1402599400604655635,0,1.35801793676,-0.114322152727,-0.657101485601,0.043815185726,0.300796425091,0.0,-0.703032898759,0.0,1.92361413599,0.0,0.0,0.0,0.0,-200.0,-0.0,0.0,-0.00690451462821,-100.0,0.00537022749826,-100.0,0.0,-100.0,0.0,-100.0,2100000.0,0.0,0.0,0.0,0.0,0.0,0.0
1402599400624049110,0,1.35801793676,-0.114322152727,-0.657101485601,0.043815185726,0.300796425091,0.0,-0.703032898759,0.0,1.92361413599,0.0,0.0,0.0,0.0,-200.0,-0.0,0.0,-0.00690451462821,-100.0,0.00690445105478,-100.0,0.0,-100.0,0.0,-100.0,2100000.0,0.0,0.0,0.0,0.0,0.0,0.0
1402599400644615359,0,1.3770244074,-0.114322152727,-0.686345726311,0.043815185726,0.338835200443,0.0,-0.726704339957,0.0,1.92850127671,0.0,0.0,0.0,0.0,-200.0,-0.0,0.0,-0.00690451462821,-100.0,0.00537022749826,-100.0,0.0,-100.0,0.0,-100.0,2100000.0,0.0,0.0,0.0,0.0,0.0,0.0
1402599400663826234,0,1.3770244074,-0.114322152727,-0.686345726311,0.043815185726,0.338835200443,0.0,-0.726704339957,0.0,1.92850127671,0.0,0.0,0.0,0.0,-200.0,-0.0,0.0,-0.00690451462821,-100.0,0.00537022749826,-100.0,0.0,-100.0,0.0,-100.0,2100000.0,0.0,0.0,0.0,0.0,0.0,0.0
1402599400684501316,0,1.39121805992,-0.114322152727,-0.71664716379,0.043815185726,0.350981654244,0.0,-0.749545209989,0.0,1.93042868047,0.0,0.0,0.0,0.0,-200.0,-0.0,0.0,-0.00690451462821,-100.0,0.00537022749826,-100.0,0.0,-100.0,0.0,-100.0,2100000.0,0.0,0.0,0.0,0.0,0.0,0.0
1402599400703884579,0,1.39121805992,-0.114322152727,-0.71664716379,0.043815185726,0.350981654244,0.0,-0.749545209989,0.0,1.93042868047,0.0,0.0,0.0,0.0,-200.0,-0.0,0.0,-0.00690451462821,-100.0,0.00537022749826,-100.0,0.0,-100.0,0.0,-100.0,2100000.0,0.0,0.0,0.0,0.0,0.0,0.0
1402599400724560261,0,1.40138917197,-0.114322152727,-0.751207648291,0.043815185726,0.343731781902,0.0,-0.765637411787,0.0,1.93125845443,0.0,0.0,0.0,0.0,-200.0,-0.0,0.0,-0.00690451462821,-100.0,0.00537022749826,-100.0,0.0,-100.0,0.0,-100.0,2100000.0,0.0,0.0,0.0,0.0,0.0,0.0
1402599400744005906,0,1.40138917197,-0.114322152727,-0.751207648291,0.043815185726,0.343731781902,0.0,-0.765637411787,0.0,1.93125845443,0.0,0.0,0.0,0.0,-200.0,-0.0,0.0,-0.00690451462821,-100.0,0.00537022749826,-100.0,0.0,-100.0,0.0,-100.0,2100000.0,0.0,0.0,0.0,0.0,0.0,0.0
1402599400764615084,0,1.41665290105,-0.114322152727,-0.781076594576,0.043815185726,0.360582835082,0.0,-0.79560100348,0.0,1.93280023551,0.0,0.0,0.0,0.0,-200.0,-0.0,0.0,-0.00690451462821,-100.0,0.00537022749826,-100.0,0.0,-100.0,0.0,-100.0,2100000.0,0.0,0.0,0.0,0.0,0.0,0.0
1402599400784046075,0,1.42618990519,-0.114322152727,-0.80218023202,0.043815185726,0.371735604875,0.0,-0.809811424209,0.0,1.93389442434,0.0,0.0,0.0,0.0,-200.0,-0.0,0.0,-0.00690451462821,-100.0,0.00537022749826,-100.0,0.0,-100.0,0.0,-100.0,2100000.0,0.0,0.0,0.0,0.0,0.0,0.0
1402599400804099706,0,1.42618990519,-0.114322152727,-0.80218023202,0.043815185726,0.371735604875,0.0,-0.809811424209,0.0,1.93389442434,0.0,0.0,0.0,0.0,-200.0,-0.0,0.0,-0.00690451462821,-100.0,0.00537022749826,-100.0,0.0,-100.0,0.0,-100.0,2100000.0,0.0,0.0,0.0,0.0,0.0,0.0
1402599400824718801,0,1.42503492543,-0.114322152727,-0.806558933189,0.043815185726,0.371466433782,0.0,-0.805116778776,0.0,1.93471019117,0.0,0.0,0.0,0.0,-200.0,-0.0,0.0,-0.00690451462821,-100.0,0.00537022749826,-100.0,0.0,-100.0,0.0,-100.0,2100000.0,0.0,0.0,0.0,0.0,0.0,0.0
1402599400844063445,0,1.42503492543,-0.114322152727,-0.806558933189,0.043815185726,0.371466433782,0.0,-0.805116778776,0.0,1.93471019117,0.0,0.0,0.0,0.0,-200.0,-0.0,0.0,-0.00690451462821,-100.0,0.00690445105478,-100.0,0.0,-100.0,0.0,-100.0,2100000.0,0.0,0.0,0.0,0.0,0.0,0.0
1402599400864532907,0,1.43488871696,-0.114322152727,-0.837334220959,0.043815185726,0.375170378067,0.0,-0.822914502083,0.0,1.93598009754,0.0,0.0,0.0,0.0,-200.0,-0.0,0.0,-0.00843897660331,-100.0,0.00537022749826,-100.0,0.0,-100.0,0.0,-100.0,2100000.0,0.0,0.0,0.0,0.0,0.0,0.0
1402599400884014081,0,1.43488871696,-0.114322152727,-0.837334220959,0.043815185726,0.375170378067,0.0,-0.822914502083,0.0,1.93598009754,0.0,0.0,0.0,0.0,-200.0,-0.0,0.0,-0.00690451462821,-100.0,0.00537022749826,-100.0,0.0,-100.0,0.0,-100.0,2100000.0,0.0,0.0,0.0,0.0,0.0,0.0
1402599400904716062,0,1.45375179189,-0.114322152727,-0.877484889511,0.043815185726,0.38736972444,0.0,-0.860083801646,0.0,1.93732031652,0.0,0.0,0.0,0.0,-200.0,-0.0,0.0,-0.00690451462821,-100.0,0.00537022749826,-100.0,0.0,-100.0,0.0,-100.0,2100000.0,0.0,0.0,0.0,0.0,0.0,0.0
1402599400924118975,0,1.45375179189,-0.114322152727,-0.877484889511,0.043815185726,0.38736972444,0.0,-0.860083801646,0.0,1.93732031652,0.0,0.0,0.0,0.0,-200.0,-0.0,0.0,-0.00690451462821,-100.0,0.00690445105478,-100.0,0.0,-100.0,0.0,-100.0,2100000.0,0.0,0.0,0.0,0.0,0.0,0.0
1402599400944695380,0,1.47535267647,-0.114322152727,-0.917799814074,0.043815185726,0.406238879336,0.0,-0.871339790784,0.0,1.93964551257,0.0,0.0,0.0,0.0,-200.0,-0.0,0.0,-0.00690451462821,-100.0,0.00690445105478,-100.0,0.0,-100.0,0.0,-100.0,2100000.0,0.0,0.0,0.0,0.0,0.0,0.0
1402599400964019790,0,1.47535267647,-0.114322152727,-0.917799814074,0.043815185726,0.406238879336,0.0,-0.871339790784,0.0,1.93964551257,0.0,0.0,0.0,0.0,-200.0,-0.0,0.0,-0.00690451462821,-100.0,0.00537022749826,-100.0,0.0,-100.0,0.0,-100.0,2100000.0,0.0,0.0,0.0,0.0,0.0,0.0
1402599400984684424,0,1.48845964017,-0.114322152727,-0.965555679132,0.043815185726,0.404961990837,0.0,-0.910419810305,0.0,1.94149327558,0.0,0.0,0.0,0.0,-200.0,-0.0,0.0,-0.00690451462821,-100.0,0.00690445105478,-100.0,0.0,-100.0,0.0,-100.0,2100000.0,0.0,0.0,0.0,0.0,0.0,0.0
1402599401004050807,0,1.48845964017,-0.114322152727,-0.965555679132,0.043815185726,0.404961990837,0.0,-0.910419810305,0.0,1.94149327558,0.0,0.0,0.0,0.0,-200.0,-0.0,0.0,-0.00690451462821,-100.0,0.00690445105478,-100.0,0.0,-100.0,0.0,-100.0,2100000.0,0.0,0.0,0.0,0.0,0.0,0.0
1402599401024713272,0,1.49733357757,-0.114322152727,-0.984712283044,0.043815185726,0.409529803021,0.0,-0.916197816906,0.0,1.9423644762,0.0,0.0,0.0,0.0,-200.0,-0.0,0.0,-0.00690451462821,-100.0,0.00690445105478,-100.0,0.0,-100.0,0.0,-100.0,2100000.0,0.0,0.0,0.0,0.0,0.0,0.0
1402599401044138202,0,1.49733357757,-0.114322152727,-0.984712283044,0.043815185726,0.409529803021,0.0,-0.916197816906,0.0,1.9423644762,0.0,0.0,0.0,0.0,-200.0,-0.0,0.0,-0.00843897660331,-100.0,0.00690445105478,-100.0,0.0,-100.0,0.0,-100.0,2100000.0,0.0,0.0,0.0,0.0,0.0,0.0
1402599401064735331,0,1.51973436569,-0.114322152727,-1.02062696136,0.043815185726,0.426120590846,0.0,-0.922410751878,0.0,1.94412669267,0.0,0.0,0.0,0.0,-200.0,-0.0,0.0,-0.00690451462821,-100.0,0.00690445105478,-100.0,0.0,-100.0,0.0,-100.0,2100000.0,0.0,0.0,0.0,0.0,0.0,0.0
1402599401084099422,0,1.51973436569,-0.114322152727,-1.02062696136,0.043815185726,0.426120590846,0.0,-0.922410751878,0.0,1.94412669267,0.0,0.0,0.0,0.0,-200.0,-0.0,0.0,-0.00843897660331,-100.0,0.00537022749826,-100.0,0.0,-100.0,0.0,-100.0,2100000.0,0.0,0.0,0.0,0.0,0.0,0.0
1402599401104744874,0,1.53249348762,-0.114322152727,-1.05789149788,0.043815185726,0.425400651516,0.0,-0.937979571153,0.0,1.94578398162,0.0,0.0,0.0,0.0,-200.0,-0.0,0.0,-0.00843897660331,-100.0,0.00690445105478,-100.0,0.0,-100.0,0.0,-100.0,2100000.0,0.0,0.0,0.0,0.0,0.0,0.0
1402599401124123037,0,1.53249348762,-0.114322152727,-1.05789149788,0.043815185726,0.425400651516,0.0,-0.937979571153,0.0,1.94578398162,0.0,0.0,0.0,0.0,-200.0,-0.0,0.0,-0.00690451462821,-100.0,0.00537022749826,-100.0,0.0,-100.0,0.0,-100.0,2100000.0,0.0,0.0,0.0,0.0,0.0,0.0
1402599401144723474,0,1.54852732136,-0.114322152727,-1.09768924807,0.043815185726,0.427519694395,0.0,-0.953242052458,0.0,1.94751647621,0.0,0.0,0.0,0.0,-200.0,-0.0,0.0,-0.00843897660331,-100.0,0.00537022749826,-100.0,0.0,-100.0,0.0,-100.0,2100000.0,0.0,0.0,0.0,0.0,0.0,0.0
1402599401164080786,0,1.54852732136,-0.114322152727,-1.09768924807,0.043815185726,0.427519694395,0.0,-0.953242052458,0.0,1.94751647621,0.0,0.0,0.0,0.0,-200.0,-0.0,0.0,-0.00843897660331,-100.0,0.00537022749826,-100.0,0.0,-100.0,0.0,-100.0,2100000.0,0.0,0.0,0.0,0.0,0.0,0.0
1402599401184774459,0,1.56946535211,-0.114322152727,-1.13469502354,0.043815185726,0.44956637464,0.0,-0.962243859759,0.0,1.9485513002,0.0,0.0,0.0,0.0,-200.0,-0.0,0.0,-0.00843897660331,-100.0,0.00537022749826,-100.0,0.0,-100.0,0.0,-100.0,2100000.0,0.0,0.0,0.0,0.0,0.0,0.0
1402599401203962070,0,1.56946535211,-0.114322152727,-1.13469502354,0.043815185726,0.44956637464,0.0,-0.962243859759,0.0,1.9485513002,0.0,0.0,0.0,0.0,-200.0,-0.0,0.0,-0.00843897660331,-100.0,0.00537022749826,-100.0,0.0,-100.0,0.0,-100.0,2100000.0,0.0,0.0,0.0,0.0,0.0,0.0
1402599401224751519,0,1.5875155562,-0.114322152727,-1.17324967541,0.043815185726,0.454287742407,0.0,-0.96970673593,0.0,1.95011579072,0.0,0.0,0.0,0.0,-200.0,-0.0,0.0,-0.00843897660331,-100.0,0.00537022749826,-100.0,0.0,-100.0,0.0,-100.0,2100000.0,0.0,0.0,0.0,0.0,0.0,0.0
1402599401244071348,0,1.5875155562,-0.114322152727,-1.17324967541,0.043815185726,0.454287742407,0.0,-0.96970673593,0.0,1.95011579072,0.0,0.0,0.0,0.0,-200.0,-0.0,0.0,-0.00690451462821,-100.0,0.00537022749826,-100.0,0.0,-100.0,0.0,-100.0,2100000.0,0.0,0.0,0.0,0.0,0.0,0.0
1402599401264777328,0,1.59343673539,-0.114322152727,-1.21181012333,0.043815185726,0.426350775005,0.0,-0.97969245569,0.0,1.95328635493,0.0,0.0,0.0,0.0,-200.0,-0.0,0.0,-0.00690451462821,-100.0,0.00537022749826,-100.0,0.0,-100.0,0.0,-100.0,2100000.0,0.0,0.0,0.0,0.0,0.0,0.0
1402599401284048640,0,1.59343673539,-0.114322152727,-1.21181012333,0.043815185726,0.426350775005,0.0,-0.97969245569,0.0,1.95328635493,0.0,0.0,0.0,0.0,-200.0,-0.0,0.0,-0.00690451462821,-100.0,0.00537022749826,-100.0,0.0,-100.0,0.0,-100.0,2100000.0,0.0,0.0,0.0,0.0,0.0,0.0
1402599401304659159,0,1.6157737924,-0.114322152727,-1.25674335503,0.043815185726,0.428034918891,0.0,-1.00422308243,0.0,1.95544140562,0.0,0.0,0.0,0.0,-200.0,-0.0,0.0,-0.00843897660331,-100.0,0.00537022749826,-100.0,0.0,-100.0,0.0,-100.0,2100000.0,0.0,0.0,0.0,0.0,0.0,0.0
1402599401324754132,0,1.6157737924,-0.114322152727,-1.25674335503,0.043815185726,0.428034918891,0.0,-1.00422308243,0.0,1.95544140562,0.0,0.0,0.0,0.0,-200.0,-0.0,0.0,-0.00843897660331,-100.0,0.00537022749826,-100.0,0.0,-100.0,0.0,-100.0,2100000.0,0.0,0.0,0.0,0.0,0.0,0.0
1402599401344292821,0,1.63150840869,-0.114322152727,-1.2877790163,0.043815185726,0.426632730981,0.0,-0.986496424143,0.0,1.95619225801,0.0,0.0,0.0,0.0,-200.0,-0.0,0.0,-0.00843897660331,-100.0,0.00537022749826,-100.0,0.0,-100.0,0.0,-100.0,2100000.0,0.0,0.0,0.0,0.0,0.0,0.0
1402599401364661410,0,1.63150840869,-0.114322152727,-1.2877790163,0.043815185726,0.426632730981,0.0,-0.986496424143,0.0,1.95619225801,0.0,0.0,0.0,0.0,-200.0,-0.0,0.0,-0.00843897660331,-100.0,0.00690445105478,-100.0,0.0,-100.0,0.0,-100.0,2100000.0,0.0,0.0,0.0,0.0,0.0,0.0
1402599401384118395,0,1.64716210417,-0.114322152727,-1.32448397915,0.043815185726,0.429166875439,0.0,-0.994337380212,0.0,1.9577126632,0.0,0.0,0.0,0.0,-200.0,-0.0,0.0,-0.00843897660331,-100.0,0.00537022749826,-100.0,0.0,-100.0,0.0,-100.0,2100000.0,0.0,0.0,0.0,0.0,0.0,0.0
1402599401404621169,0,1.64716210417,-0.114322152727,-1.32448397915,0.043815185726,0.429166875439,0.0,-0.994337380212,0.0,1.9577126632,0.0,0.0,0.0,0.0,-200.0,-0.0,0.0,-0.00690451462821,-100.0,0.00537022749826,-100.0,0.0,-100.0,0.0,-100.0,2100000.0,0.0,0.0,0.0,0.0,0.0,0.0
1402599401424404523,0,1.66440016849,-0.114322152727,-1.36429078864,0.043815185726,0.427385522427,0.0,-1.00266230167,0.0,1.9596969867,0.0,0.0,0.0,0.0,-200.0,-0.0,0.0,-0.00690451462821,-100.0,0.00537022749826,-100.0,0.0,-100.0,0.0,-100.0,2100000.0,0.0,0.0,0.0,0.0,0.0,0.0
1402599401444649994,0,1.66440016849,-0.114322152727,-1.36429078864,0.043815185726,0.427385522427,0.0,-1.00266230167,0.0,1.9596969867,0.0,0.0,0.0,0.0,-200.0,-0.0,0.0,-0.00690451462821,-100.0,0.00537022749826,-100.0,0.0,-100.0,0.0,-100.0,2100000.0,0.0,0.0,0.0,0.0,0.0,0.0
1402599401464080062,0,1.67762404742,-0.114322152727,-1.40499373826,0.043815185726,0.412025759488,0.0,-1.01126932323,0.0,1.9633555494,0.0,0.0,0.0,0.0,-200.0,-0.0,0.0,-0.00843897660331,-100.0,0.00690445105478,-100.0,0.0,-100.0,0.0,-100.0,2100000.0,0.0,0.0,0.0,0.0,0.0,0.0
1402599401484637454,0,1.67762404742,-0.114322152727,-1.40499373826,0.043815185726,0.412025759488,0.0,-1.01126932323,0.0,1.9633555494,0.0,0.0,0.0,0.0,-200.0,-0.0,0.0,-0.00843897660331,-100.0,0.00537022749826,-100.0,0.0,-100.0,0.0,-100.0,2100000.0,0.0,0.0,0.0,0.0,0.0,0.0
1402599401503854332,0,1.70316647536,-0.114322152727,-1.44090763064,0.043815185726,0.435505668936,0.0,-1.01189379189,0.0,1.96266057568,0.0,0.0,0.0,0.0,-200.0,-0.0,0.0,-0.00843897660331,-100.0,0.00537022749826,-100.0,0.0,-100.0,0.0,-100.0,2100000.0,0.0,0.0,0.0,0.0,0.0,0.0
1402599401524712620,0,1.70316647536,-0.114322152727,-1.44090763064,0.043815185726,0.435505668936,0.0,-1.01189379189,0.0,1.96266057568,0.0,0.0,0.0,0.0,-200.0,-0.0,0.0,-0.00843897660331,-100.0,0.00690445105478,-100.0,0.0,-100.0,0.0,-100.0,2100000.0,0.0,0.0,0.0,0.0,0.0,0.0
1402599401543939937,0,1.72556364921,-0.114322152727,-1.49287358913,0.043815185726,0.43978008394,0.0,-1.02202714779,0.0,1.96521201901,0.0,0.0,0.0,0.0,-200.0,-0.0,0.0,-0.00843897660331,-100.0,0.00537022749826,-100.0,0.0,-100.0,0.0,-100.0,2100000.0,0.0,0.0,0.0,0.0,0.0,0.0
1402599401564505180,0,1.72556364921,-0.114322152727,-1.49287358913,0.043815185726,0.43978008394,0.0,-1.02202714779,0.0,1.96521201901,0.0,0.0,0.0,0.0,-200.0,-0.0,0.0,-0.00843897660331,-100.0,0.00537022749826,-100.0,0.0,-100.0,0.0,-100.0,2100000.0,0.0,0.0,0.0,0.0,0.0,0.0
1402599401584066398,0,1.74022264518,-0.114322152727,-1.53884652574,0.043815185726,0.434104199527,0.0,-1.0214935108,0.0,1.96824413389,0.0,0.0,0.0,0.0,-200.0,-0.0,0.0,-0.00843897660331,-100.0,0.00537022749826,-100.0,0.0,-100.0,0.0,-100.0,2100000.0,0.0,0.0,0.0,0.0,0.0,0.0
1402599401604524443,0,1.74022264518,-0.114322152727,-1.53884652574,0.043815185726,0.434104199527,0.0,-1.0214935108,0.0,1.96824413389,0.0,0.0,0.0,0.0,-200.0,-0.0,0.0,-0.00690451462821,-100.0,0.00537022749826,-100.0,0.0,-100.0,0.0,-100.0,2100000.0,0.0,0.0,0.0,0.0,0.0,0.0
1402599401624088305,0,1.74910797981,-0.114322152727,-1.55931246617,0.043815185726,0.435989589934,0.0,-1.02676431391,0.0,1.9691021705,0.0,0.0,0.0,0.0,-200.0,-0.0,0.0,-0.00843897660331,-100.0,0.00537022749826,-100.0,0.0,-100.0,0.0,-100.0,2100000.0,0.0,0.0,0.0,0.0,0.0,0.0
1402599401644654851,0,1.74910797981,-0.114322152727,-1.55931246617,0.043815185726,0.435989589934,0.0,-1.02676431391,0.0,1.9691021705,0.0,0.0,0.0,0.0,-200.0,-0.0,0.0,-0.00690451462821,-100.0,0.00537022749826,-100.0,0.0,-100.0,0.0,-100.0,2100000.0,0.0,0.0,0.0,0.0,0.0,0.0
1402599401664008583,0,1.7746339989,-0.114322152727,-1.59970502417,0.043815185726,0.453884417652,0.0,-1.03225716647,0.0,1.96961598173,0.0,0.0,0.0,0.0,-200.0,-0.0,0.0,-0.00843897660331,-100.0,0.00537022749826,-100.0,0.0,-100.0,0.0,-100.0,2100000.0,0.0,0.0,0.0,0.0,0.0,0.0
1402599401684615847,0,1.7746339989,-0.114322152727,-1.59970502417,0.043815185726,0.453884417652,0.0,-1.03225716647,0.0,1.96961598173,0.0,0.0,0.0,0.0,-200.0,-0.0,0.0,-0.00843897660331,-100.0,0.00537022749826,-100.0,0.0,-100.0,0.0,-100.0,2100000.0,0.0,0.0,0.0,0.0,0.0,0.0
1402599401703989241,0,1.7927746056,-0.114322152727,-1.63914908725,0.043815185726,0.454490849202,0.0,-1.03519340558,0.0,1.97130466619,0.0,0.0,0.0,0.0,-200.0,-0.0,0.0,-0.00843897660331,-100.0,0.00537022749826,-100.0,0.0,-100.0,0.0,-100.0,2100000.0,0.0,0.0,0.0,0.0,0.0,0.0
1402599401724366495,0,1.7927746056,-0.114322152727,-1.63914908725,0.043815185726,0.454490849202,0.0,-1.03519340558,0.0,1.97130466619,0.0,0.0,0.0,0.0,-200.0,-0.0,0.0,-0.00843897660331,-100.0,0.00537022749826,-100.0,0.0,-100.0,0.0,-100.0,2100000.0,0.0,0.0,0.0,0.0,0.0,0.0
1402599401744134330,0,1.80977239667,-0.114322152727,-1.67995259711,0.043815185726,0.455793003868,0.0,-1.04305299653,0.0,1.97340940853,0.0,0.0,0.0,0.0,-200.0,-0.0,0.0,-0.00843897660331,-100.0,0.00537022749826,-100.0,0.0,-100.0,0.0,-100.0,2100000.0,0.0,0.0,0.0,0.0,0.0,0.0
1402599401764662411,0,1.80977239667,-0.114322152727,-1.67995259711,0.043815185726,0.455793003868,0.0,-1.04305299653,0.0,1.97340940853,0.0,0.0,0.0,0.0,-200.0,-0.0,0.0,-0.00843897660331,-100.0,0.00537022749826,-100.0,0.0,-100.0,0.0,-100.0,2100000.0,0.0,0.0,0.0,0.0,0.0,0.0
1402599401784133893,0,1.83346131374,-0.114322152727,-1.72398731021,0.043815185726,0.463045654088,0.0,-1.05099087134,0.0,1.97507171245,0.0,0.0,0.0,0.0,-200.0,-0.0,0.0,-0.00843897660331,-100.0,0.00690445105478,-100.0,0.0,-100.0,0.0,-100.0,2100000.0,0.0,0.0,0.0,0.0,0.0,0.0
1402599401804162067,0,1.83346131374,-0.114322152727,-1.72398731021,0.043815185726,0.463045654088,0.0,-1.05099087134,0.0,1.97507171245,0.0,0.0,0.0,0.0,-200.0,-0.0,0.0,-0.00843897660331,-100.0,0.00537022749826,-100.0,0.0,-100.0,0.0,-100.0,2100000.0,0.0,0.0,0.0,0.0,0.0,0.0
1402599401824808598,0,1.84590803132,-0.114322152727,-1.76544487022,0.043815185726,0.454450862985,0.0,-1.05749776416,0.0,1.97784648018,0.0,0.0,0.0,0.0,-200.0,-0.0,0.0,-0.00843897660331,-100.0,0.00537022749826,-100.0,0.0,-100.0,0.0,-100.0,2100000.0,0.0,0.0,0.0,0.0,0.0,0.0
1402599401844050143,0,1.84590803132,-0.114322152727,-1.76544487022,0.043815185726,0.454450862985,0.0,-1.05749776416,0.0,1.97784648018,0.0,0.0,0.0,0.0,-200.0,-0.0,0.0,-0.00843897660331,-100.0,0.00537022749826,-100.0,0.0,-100.0,0.0,-100.0,2100000.0,0.0,0.0,0.0,0.0,0.0,0.0
1402599401864762957,0,1.87282173049,-0.114322152727,-1.80763332989,0.043815185726,0.470151615795,0.0,-1.05821816657,0.0,1.97858237438,0.0,0.0,0.0,0.0,-200.0,-0.0,0.0,-0.00843897660331,-100.0,0.00537022749826,-100.0,0.0,-100.0,0.0,-100.0,2100000.0,0.0,0.0,0.0,0.0,0.0,0.0
1402599401884110918,0,1.87282173049,-0.114322152727,-1.80763332989,0.043815185726,0.470151615795,0.0,-1.05821816657,0.0,1.97858237438,0.0,0.0,0.0,0.0,-200.0,-0.0,0.0,-0.00843897660331,-100.0,0.00690445105478,-100.0,0.0,-100.0,0.0,-100.0,2100000.0,0.0,0.0,0.0,0.0,0.0,0.0
1402599401904800623,0,1.89673390744,-0.114322152727,-1.84873505944,0.043815185726,0.48199218889,0.0,-1.0537489621,0.0,1.97961963836,0.0,0.0,0.0,0.0,-200.0,-0.0,0.0,-0.00843897660331,-100.0,0.00537022749826,-100.0,0.0,-100.0,0.0,-100.0,2100000.0,0.0,0.0,0.0,0.0,0.0,0.0
1402599401924151769,0,1.89673390744,-0.114322152727,-1.84873505944,0.043815185726,0.48199218889,0.0,-1.0537489621,0.0,1.97961963836,0.0,0.0,0.0,0.0,-200.0,-0.0,0.0,-0.00843897660331,-100.0,0.00537022749826,-100.0,0.0,-100.0,0.0,-100.0,2100000.0,0.0,0.0,0.0,0.0,0.0,0.0
1402599401944737374,0,1.91818723247,-0.114322152727,-1.90010341129,0.043815185726,0.473036775269,0.0,-1.0489403678,0.0,1.98228663834,0.0,0.0,0.0,0.0,-200.0,-0.0,0.0,-0.00843897660331,-100.0,0.00537022749826,-100.0,0.0,-100.0,0.0,-100.0,2100000.0,0.0,0.0,0.0,0.0,0.0,0.0
1402599401964230726,0,1.91818723247,-0.114322152727,-1.90010341129,0.043815185726,0.473036775269,0.0,-1.0489403678,0.0,1.98228663834,0.0,0.0,0.0,0.0,-200.0,-0.0,0.0,-0.00843897660331,-100.0,0.00537022749826,-100.0,0.0,-100.0,0.0,-100.0,2100000.0,0.0,0.0,0.0,0.0,0.0,0.0
1402599401984775542,0,1.93667185683,-0.114322152727,-1.93160922678,0.043815185726,0.476916248599,0.0,-1.04540833448,0.0,1.98318200345,0.0,0.0,0.0,0.0,-200.0,-0.0,0.0,-0.00843897660331,-100.0,0.00537022749826,-100.0,0.0,-100.0,0.0,-100.0,2100000.0,0.0,0.0,0.0,0.0,0.0,0.0
1402599402004064991,0,1.94628910993,-0.114322152727,-1.95249716783,0.043815185726,0.477420647788,0.0,-1.04698160365,0.0,1.98391196143,0.0,0.0,0.0,0.0,-200.0,-0.0,0.0,-0.00843897660331,-100.0,0.00537022749826,-100.0,0.0,-100.0,0.0,-100.0,2100000.0,0.0,0.0,0.0,0.0,0.0,0.0
1402599402024129005,0,1.94628910993,-0.114322152727,-1.95249716783,0.043815185726,0.477420647788,0.0,-1.04698160365,0.0,1.98391196143,0.0,0.0,0.0,0.0,-200.0,-0.0,0.0,-0.00843897660331,-100.0,0.00537022749826,-100.0,0.0,-100.0,0.0,-100.0,2100000.0,0.0,0.0,0.0,0.0,0.0,0.0
1402599402044570991,0,1.95778593295,-0.114322152727,-1.97492770272,0.043815185726,0.481961138434,0.0,-1.05212010471,0.0,1.98450210751,0.0,0.0,0.0,0.0,-200.0,-0.0,0.0,-0.00843897660331,-100.0,0.00537022749826,-100.0,0.0,-100.0,0.0,-100.0,2100000.0,0.0,0.0,0.0,0.0,0.0,0.0
1402599402064061531,0,1.95778593295,-0.114322152727,-1.97492770272,0.043815185726,0.481961138434,0.0,-1.05212010471,0.0,1.98450210751,0.0,0.0,0.0,0.0,-200.0,-0.0,0.0,-0.00843897660331,-100.0,0.00537022749826,-100.0,0.0,-100.0,0.0,-100.0,2100000.0,0.0,0.0,0.0,0.0,0.0,0.0
1402599402084724697,0,1.97751362128,-0.114322152727,-2.01786447196,0.043815185726,0.484337059376,0.0,-1.0554596422,0.0,1.98579334735,0.0,0.0,0.0,0.0,-200.0,-0.0,0.0,-0.00843897660331,-100.0,0.00537022749826,-100.0,0.0,-100.0,0.0,-100.0,2100000.0,0.0,0.0,0.0,0.0,0.0,0.0
1402599402104093707,0,1.97751362128,-0.114322152727,-2.01786447196,0.043815185726,0.484337059376,0.0,-1.0554596422,0.0,1.98579334735,0.0,0.0,0.0,0.0,-200.0,-0.0,0.0,-0.00843897660331,-100.0,0.00537022749826,-100.0,0.0,-100.0,0.0,-100.0,2100000.0,0.0,0.0,0.0,0.0,0.0,0.0
1402599402124811972,0,1.99358123906,-0.114322152727,-2.05784059898,0.043815185726,0.48210913048,0.0,-1.05609359077,0.0,1.98737072052,0.0,0.0,0.0,0.0,-200.0,-0.0,0.0,-0.00843897660331,-100.0,0.00537022749826,-100.0,0.0,-100.0,0.0,-100.0,2100000.0,0.0,0.0,0.0,0.0,0.0,0.0
1402599402144110001,0,1.99358123906,-0.114322152727,-2.05784059898,0.043815185726,0.48210913048,0.0,-1.05609359077,0.0,1.98737072052,0.0,0.0,0.0,0.0,-200.0,-0.0,0.0,-0.00843897660331,-100.0,0.00537022749826,-100.0,0.0,-100.0,0.0,-100.0,2100000.0,0.0,0.0,0.0,0.0,0.0,0.0
1402599402164729994,0,2.01279142865,-0.114322152727,-2.1025116523,0.043815185726,0.482836616782,0.0,-1.06297558746,0.0,1.98930278139,0.0,0.0,0.0,0.0,-200.0,-0.0,0.0,-0.00843897660331,-100.0,0.00537022749826,-100.0,0.0,-100.0,0.0,-100.0,2100000.0,0.0,0.0,0.0,0.0,0.0,0.0
1402599402184061143,0,2.01279142865,-0.114322152727,-2.1025116523,0.043815185726,0.482836616782,0.0,-1.06297558746,0.0,1.98930278139,0.0,0.0,0.0,0.0,-200.0,-0.0,0.0,-0.00843897660331,-100.0,0.00537022749826,-100.0,0.0,-100.0,0.0,-100.0,2100000.0,0.0,0.0,0.0,0.0,0.0,0.0
1402599402204727391,0,2.03577918702,-0.114322152727,-2.14236141712,0.043815185726,0.484245844787,0.0,-1.0600525777,0.0,1.9904978013,0.0,0.0,0.0,0.0,-200.0,-0.0,0.0,-0.00843897660331,-100.0,0.00537022749826,-100.0,0.0,-100.0,0.0,-100.0,2100000.0,0.0,0.0,0.0,0.0,0.0,0.0
1402599402224013108,0,2.03577918702,-0.114322152727,-2.14236141712,0.043815185726,0.484245844787,0.0,-1.0600525777,0.0,1.9904978013,0.0,0.0,0.0,0.0,-200.0,-0.0,0.0,-0.00843897660331,-100.0,0.00537022749826,-100.0,0.0,-100.0,0.0,-100.0,2100000.0,0.0,0.0,0.0,0.0,0.0,0.0
1402599402244604300,0,2.06479650488,-0.114322152727,-2.18652131715,0.043815185726,0.503841134707,0.0,-1.07201358978,0.0,1.99096321615,0.0,0.0,0.0,0.0,-200.0,-0.0,0.0,-0.00843897660331,-100.0,0.00537022749826,-100.0,0.0,-100.0,0.0,-100.0,2100000.0,0.0,0.0,0.0,0.0,0.0,0.0
1402599402264140649,0,2.06479650488,-0.114322152727,-2.18652131715,0.043815185726,0.503841134707,0.0,-1.07201358978,0.0,1.99096321615,0.0,0.0,0.0,0.0,-200.0,-0.0,0.0,-0.00843897660331,-100.0,0.00537022749826,-100.0,0.0,-100.0,0.0,-100.0,2100000.0,0.0,0.0,0.0,0.0,0.0,0.0
1402599402284680389,0,2.08491178648,-0.114322152727,-2.22958590259,0.043815185726,0.502577931625,0.0,-1.07708199023,0.0,1.9928827643,0.0,0.0,0.0,0.0,-200.0,-0.0,0.0,-0.00843897660331,-100.0,0.00537022749826,-100.0,0.0,-100.0,0.0,-100.0,2100000.0,0.0,0.0,0.0,0.0,0.0,0.0
1402599402304022176,0,2.08491178648,-0.114322152727,-2.22958590259,0.043815185726,0.502577931625,0.0,-1.07708199023,0.0,1.9928827643,0.0,0.0,0.0,0.0,-200.0,-0.0,0.0,-0.00843897660331,-100.0,0.00537022749826,-100.0,0.0,-100.0,0.0,-100.0,2100000.0,0.0,0.0,0.0,0.0,0.0,0.0
1402599402325514344,0,2.10143060542,-0.114322152727,-2.27306717252,0.043815185726,0.494177869345,0.0,-1.07811807213,0.0,1.99565069737,0.0,0.0,0.0,0.0,-200.0,-0.0,0.0,-0.00843897660331,-100.0,0.00537022749826,-100.0,0.0,-100.0,0.0,-100.0,2100000.0,0.0,0.0,0.0,0.0,0.0,0.0
1402599402344105916,0,2.10143060542,-0.114322152727,-2.27306717252,0.043815185726,0.494177869345,0.0,-1.07811807213,0.0,1.99565069737,0.0,0.0,0.0,0.0,-200.0,-0.0,0.0,-0.00843897660331,-100.0,0.00537022749826,-100.0,0.0,-100.0,0.0,-100.0,2100000.0,0.0,0.0,0.0,0.0,0.0,0.0
1402599402364729838,0,2.12458359178,-0.114322152727,-2.31560909527,0.043815185726,0.497786175316,0.0,-1.07680963428,0.0,1.99752753803,0.0,0.0,0.0,0.0,-200.0,-0.0,0.0,-0.00843897660331,-100.0,0.00537022749826,-100.0,0.0,-100.0,0.0,-100.0,2100000.0,0.0,0.0,0.0,0.0,0.0,0.0
1402599402384000536,0,2.12458359178,-0.114322152727,-2.31560909527,0.043815185726,0.497786175316,0.0,-1.07680963428,0.0,1.99752753803,0.0,0.0,0.0,0.0,-200.0,-0.0,0.0,-0.00843897660331,-100.0,0.00537022749826,-100.0,0.0,-100.0,0.0,-100.0,2100000.0,0.0,0.0,0.0,0.0,0.0,0.0
1402599402404652733,0,2.14427192492,-0.114322152727,-2.36281212625,0.043815185726,0.50013489477,0.0,-1.0884078394,0.0,2.00012829462,0.0,0.0,0.0,0.0,-200.0,-0.0,0.0,-0.00843897660331,-100.0,0.00537022749826,-100.0,0.0,-100.0,0.0,-100.0,2100000.0,0.0,0.0,0.0,0.0,0.0,0.0
1402599402424183339,0,2.14427192492,-0.114322152727,-2.36281212625,0.043815185726,0.50013489477,0.0,-1.0884078394,0.0,2.00012829462,0.0,0.0,0.0,0.0,-200.0,-0.0,0.0,-0.00843897660331,-100.0,0.00537022749826,-100.0,0.0,-100.0,0.0,-100.0,2100000.0,0.0,0.0,0.0,0.0,0.0,0.0
1402599402444587628,0,2.16752974828,-0.114322152727,-2.40746680381,0.043815185726,0.508640198704,0.0,-1.08801206454,0.0,2.00238638777,0.0,0.0,0.0,0.0,-200.0,-0.0,0.0,-0.00843897660331,-100.0,0.00537022749826,-100.0,0.0,-100.0,0.0,-100.0,2100000.0,0.0,0.0,0.0,0.0,0.0,0.0
1402599402464118982,0,2.16752974828,-0.114322152727,-2.40746680381,0.043815185726,0.508640198704,0.0,-1.08801206454,0.0,2.00238638777,0.0,0.0,0.0,0.0,-200.0,-0.0,0.0,-0.00843897660331,-100.0,0.00537022749826,-100.0,0.0,-100.0,0.0,-100.0,2100000.0,0.0,0.0,0.0,0.0,0.0,0.0
1402599402484664456,0,2.18931578788,-0.114322152727,-2.44648649548,0.043815185726,0.510096186074,0.0,-1.07419834058,0.0,2.0049334429,0.0,0.0,0.0,0.0,-200.0,-0.0,0.0,-0.00843897660331,-100.0,0.00537022749826,-100.0,0.0,-100.0,0.0,-100.0,2100000.0,0.0,0.0,0.0,0.0,0.0,0.0
1402599402504084121,0,2.18931578788,-0.114322152727,-2.44648649548,0.043815185726,0.510096186074,0.0,-1.07419834058,0.0,2.0049334429,0.0,0.0,0.0,0.0,-200.0,-0.0,0.0,-0.00843897660331,-100.0,0.00537022749826,-100.0,0.0,-100.0,0.0,-100.0,2100000.0,0.0,0.0,0.0,0.0,0.0,0.0
1402599402524666876,0,2.2157310277,-0.114322152727,-2.5024071518,0.043815185726,0.514016025758,0.0,-1.07365969136,0.0,2.00823591001,0.0,0.0,0.0,0.0,-200.0,-0.0,0.0,-0.00843897660331,-100.0,0.00537022749826,-100.0,0.0,-100.0,0.0,-100.0,2100000.0,0.0,0.0,0.0,0.0,0.0,0.0
1402599402544067867,0,2.2157310277,-0.114322152727,-2.5024071518,0.043815185726,0.514016025758,0.0,-1.07365969136,0.0,2.00823591001,0.0,0.0,0.0,0.0,-200.0,-0.0,0.0,-0.00843897660331,-100.0,0.00537022749826,-100.0,0.0,-100.0,0.0,-100.0,2100000.0,0.0,0.0,0.0,0.0,0.0,0.0
1402599402564759862,0,2.23786245764,-0.114322152727,-2.55692165894,0.043815185726,0.515664184185,0.0,-1.07272164682,0.0,2.01179093823,0.0,0.0,0.0,0.0,-200.0,-0.0,0.0,-0.00843897660331,-100.0,0.00537022749826,-100.0,0.0,-100.0,0.0,-100.0,2100000.0,0.0,0.0,0.0,0.0,0.0,0.0
1402599402584118507,0,2.23786245764,-0.114322152727,-2.55692165894,0.043815185726,0.515664184185,0.0,-1.07272164682,0.0,2.01179093823,0.0,0.0,0.0,0.0,-200.0,-0.0,0.0,-0.00843897660331,-100.0,0.00537022749826,-100.0,0.0,-100.0,0.0,-100.0,2100000.0,0.0,0.0,0.0,0.0,0.0,0.0
1402599402604739358,0,2.2479913731,-0.114322152727,-2.57860393329,0.043815185726,0.515722874143,0.0,-1.07535170461,0.0,2.01294395774,0.0,0.0,0.0,0.0,-200.0,-0.0,0.0,-0.00843897660331,-100.0,0.00537022749826,-100.0,0.0,-100.0,0.0,-100.0,2100000.0,0.0,0.0,0.0,0.0,0.0,0.0
1402599402624062669,0,2.2479913731,-0.114322152727,-2.57860393329,0.043815185726,0.515722874143,0.0,-1.07535170461,0.0,2.01294395774,0.0,0.0,0.0,0.0,-200.0,-0.0,0.0,-0.00843897660331,-100.0,0.00537022749826,-100.0,0.0,-100.0,0.0,-100.0,2100000.0,0.0,0.0,0.0,0.0,0.0,0.0
1402599402644699514,0,2.28207439682,-0.114322152727,-2.62121825612,0.043815185726,0.548178752828,0.0,-1.0787100102,0.0,2.01393926742,0.0,0.0,0.0,0.0,-200.0,-0.0,0.0,-0.00843897660331,-100.0,0.00383600394174,-100.0,0.0,-100.0,0.0,-100.0,2100000.0,0.0,0.0,0.0,0.0,0.0,0.0
1402599402664072265,0,2.28207439682,-0.114322152727,-2.62121825612,0.043815185726,0.548178752828,0.0,-1.0787100102,0.0,2.01393926742,0.0,0.0,0.0,0.0,-200.0,-0.0,0.0,-0.00843897660331,-100.0,0.00383600394174,-100.0,0.0,-100.0,0.0,-100.0,2100000.0,0.0,0.0,0.0,0.0,0.0,0.0
1402599402684707976,0,2.29846704172,-0.114322152727,-2.66375848088,0.043815185726,0.542752418914,0.0,-1.08049344127,0.0,2.01697360163,0.0,0.0,0.0,0.0,-200.0,-0.0,0.0,-0.00843897660331,-100.0,0.00537022749826,-100.0,0.0,-100.0,0.0,-100.0,2100000.0,0.0,0.0,0.0,0.0,0.0,0.0
1402599402704069469,0,2.29846704172,-0.114322152727,-2.66375848088,0.043815185726,0.542752418914,0.0,-1.08049344127,0.0,2.01697360163,0.0,0.0,0.0,0.0,-200.0,-0.0,0.0,-0.00843897660331,-100.0,0.00383600394174,-100.0,0.0,-100.0,0.0,-100.0,2100000.0,0.0,0.0,0.0,0.0,0.0,0.0
1402599402724736119,0,2.32625342201,-0.114322152727,-2.7110630736,0.043815185726,0.554496593823,0.0,-1.09091024364,0.0,2.01929416216,0.0,0.0,0.0,0.0,-200.0,-0.0,0.0,-0.00843897660331,-100.0,0.00537022749826,-100.0,0.0,-100.0,0.0,-100.0,2100000.0,0.0,0.0,0.0,0.0,0.0,0.0
1402599402743979786,0,2.32625342201,-0.114322152727,-2.7110630736,0.043815185726,0.554496593823,0.0,-1.09091024364,0.0,2.01929416216,0.0,0.0,0.0,0.0,-200.0,-0.0,0.0,-0.00997320015982,-100.0,0.00383600394174,-100.0,0.0,-100.0,0.0,-100.0,2100000.0,0.0,0.0,0.0,0.0,0.0,0.0
1402599402764452490,0,2.3479448715,-0.114322152727,-2.75081307873,0.043815185726,0.554058621929,0.0,-1.08462907373,0.0,2.02217367935,0.0,0.0,0.0,0.0,-200.0,-0.0,0.0,-0.00997320015982,-100.0,0.00537022749826,-100.0,0.0,-100.0,0.0,-100.0,2100000.0,0.0,0.0,0.0,0.0,0.0,0.0
1402599402784091540,0,2.3479448715,-0.114322152727,-2.75081307873,0.043815185726,0.554058621929,0.0,-1.08462907373,0.0,2.02217367935,0.0,0.0,0.0,0.0,-200.0,-0.0,0.0,-0.00997320015982,-100.0,0.00383600394174,-100.0,0.0,-100.0,0.0,-100.0,2100000.0,0.0,0.0,0.0,0.0,0.0,0.0
1402599402804682429,0,2.36521677591,-0.114322152727,-2.7931826037,0.043815185726,0.547276049986,0.0,-1.08203536828,0.0,2.02566044109,0.0,0.0,0.0,0.0,-200.0,-0.0,0.0,-0.00997320015982,-100.0,0.00537022749826,-100.0,0.0,-100.0,0.0,-100.0,2100000.0,0.0,0.0,0.0,0.0,0.0,0.0
1402599402824245433,0,2.36521677591,-0.114322152727,-2.7931826037,0.043815185726,0.547276049986,0.0,-1.08203536828,0.0,2.02566044109,0.0,0.0,0.0,0.0,-200.0,-0.0,0.0,-0.00997320015982,-100.0,0.00537022749826,-100.0,0.0,-100.0,0.0,-100.0,2100000.0,0.0,0.0,0.0,0.0,0.0,0.0
1402599402844585600,0,2.39169040977,-0.114322152727,-2.83433254809,0.043815185726,0.562120523264,0.0,-1.07950543019,0.0,2.02819126406,0.0,0.0,0.0,0.0,-200.0,-0.0,0.0,-0.00997320015982,-100.0,0.00383600394174,-100.0,0.0,-100.0,0.0,-100.0,2100000.0,0.0,0.0,0.0,0.0,0.0,0.0
1402599402864058975,0,2.39169040977,-0.114322152727,-2.83433254809,0.043815185726,0.562120523264,0.0,-1.07950543019,0.0,2.02819126406,0.0,0.0,0.0,0.0,-200.0,-0.0,0.0,-0.00997320015982,-100.0,0.00537022749826,-100.0,0.0,-100.0,0.0,-100.0,2100000.0,0.0,0.0,0.0,0.0,0.0,0.0
1402599402884675512,0,2.4106119413,-0.114322152727,-2.87662509547,0.043815185726,0.563855944652,0.0,-1.07679699888,0.0,2.03171906876,0.0,0.0,0.0,0.0,-200.0,-0.0,0.0,-0.00843897660331,-100.0,0.00383600394174,-100.0,0.0,-100.0,0.0,-100.0,2100000.0,0.0,0.0,0.0,0.0,0.0,0.0
1402599402904037621,0,2.4106119413,-0.114322152727,-2.87662509547,0.043815185726,0.563855944652,0.0,-1.07679699888,0.0,2.03171906876,0.0,0.0,0.0,0.0,-200.0,-0.0,0.0,-0.00997320015982,-100.0,0.00537022749826,-100.0,0.0,-100.0,0.0,-100.0,2100000.0,0.0,0.0,0.0,0.0,0.0,0.0
1402599402924768060,0,2.43745289389,-0.114322152727,-2.9329624758,0.043815185726,0.561956015364,0.0,-1.07352870125,0.0,2.0363185879,0.0,0.0,0.0,0.0,-200.0,-0.0,0.0,-0.00843897660331,-100.0,0.00537022749826,-100.0,0.0,-100.0,0.0,-100.0,2100000.0,0.0,0.0,0.0,0.0,0.0,0.0
1402599402944046548,0,2.43745289389,-0.114322152727,-2.9329624758,0.043815185726,0.561956015364,0.0,-1.07352870125,0.0,2.0363185879,0.0,0.0,0.0,0.0,-200.0,-0.0,0.0,-0.00843897660331,-100.0,0.00383600394174,-100.0,0.0,-100.0,0.0,-100.0,2100000.0,0.0,0.0,0.0,0.0,0.0,0.0
1402599402964721950,0,2.4544005399,-0.114322152727,-2.96502777069,0.043815185726,0.562973772047,0.0,-1.06819087218,0.0,2.03902612771,0.0,0.0,0.0,0.0,-200.0,-0.0,0.0,-0.00997320015982,-100.0,0.00537022749826,-100.0,0.0,-100.0,0.0,-100.0,2100000.0,0.0,0.0,0.0,0.0,0.0,0.0
1402599402984098056,0,2.47063787568,-0.114322152727,-2.98859385442,0.043815185726,0.569846378704,0.0,-1.06946311987,0.0,2.04039081513,0.0,0.0,0.0,0.0,-200.0,-0.0,0.0,-0.00997320015982,-100.0,0.00383600394174,-100.0,0.0,-100.0,0.0,-100.0,2100000.0,0.0,0.0,0.0,0.0,0.0,0.0
1402599403004709228,0,2.47063787568,-0.114322152727,-2.98859385442,0.043815185726,0.569846378704,0.0,-1.06946311987,0.0,2.04039081513,0.0,0.0,0.0,0.0,-200.0,-0.0,0.0,-0.00843897660331,-100.0,0.00537022749826,-100.0,0.0,-100.0,0.0,-100.0,2100000.0,0.0,0.0,0.0,0.0,0.0,0.0
1402599403024085103,0,2.48203824485,-0.114322152727,-3.00981432793,0.043815185726,0.570397260981,0.0,-1.06436939456,0.0,2.04208457925,0.0,0.0,0.0,0.0,-200.0,-0.0,0.0,-0.00843897660331,-100.0,0.00383600394174,-100.0,0.0,-100.0,0.0,-100.0,2100000.0,0.0,0.0,0.0,0.0,0.0,0.0
1402599403044566731,0,2.48203824485,-0.114322152727,-3.00981432793,0.043815185726,0.570397260981,0.0,-1.06436939456,0.0,2.04208457925,0.0,0.0,0.0,0.0,-200.0,-0.0,0.0,-0.00997320015982,-100.0,0.00537022749826,-100.0,0.0,-100.0,0.0,-100.0,2100000.0,0.0,0.0,0.0,0.0,0.0,0.0
1402599403064010420,0,2.49939073972,-0.114322152727,-3.04874550731,0.043815185726,0.559225708463,0.0,-1.04541366025,0.0,2.0463393672,0.0,0.0,0.0,0.0,-200.0,-0.0,0.0,-0.00997320015982,-100.0,0.00537022749826,-100.0,0.0,-100.0,0.0,-100.0,2100000.0,0.0,0.0,0.0,0.0,0.0,0.0
1402599403084714177,0,2.49939073972,-0.114322152727,-3.04874550731,0.043815185726,0.559225708463,0.0,-1.04541366025,0.0,2.0463393672,0.0,0.0,0.0,0.0,-200.0,-0.0,0.0,-0.00843897660331,-100.0,0.00383600394174,-100.0,0.0,-100.0,0.0,-100.0,2100000.0,0.0,0.0,0.0,0.0,0.0,0.0
1402599403104043800,0,2.52614055585,-0.114322152727,-3.09449959485,0.043815185726,0.568673224628,0.0,-1.05329321463,0.0,2.0492226405,0.0,0.0,0.0,0.0,-200.0,-0.0,0.0,-0.00843897660331,-100.0,0.00537022749826,-100.0,0.0,-100.0,0.0,-100.0,2100000.0,0.0,0.0,0.0,0.0,0.0,0.0
1402599403125003117,0,2.52614055585,-0.114322152727,-3.09449959485,0.043815185726,0.568673224628,0.0,-1.05329321463,0.0,2.0492226405,0.0,0.0,0.0,0.0,-200.0,-0.0,0.0,-0.00997320015982,-100.0,0.00383600394174,-100.0,0.0,-100.0,0.0,-100.0,2100000.0,0.0,0.0,0.0,0.0,0.0,0.0
1402599403144062934,0,2.55045820711,-0.114322152727,-3.1357952715,0.043815185726,0.572918845538,0.0,-1.04538226347,0.0,2.05254558153,0.0,0.0,0.0,0.0,-200.0,-0.0,0.0,-0.00997320015982,-100.0,0.00537022749826,-100.0,0.0,-100.0,0.0,-100.0,2100000.0,0.0,0.0,0.0,0.0,0.0,0.0
1402599403164568616,0,2.55045820711,-0.114322152727,-3.1357952715,0.043815185726,0.572918845538,0.0,-1.04538226347,0.0,2.05254558153,0.0,0.0,0.0,0.0,-200.0,-0.0,0.0,-0.00997320015982,-100.0,0.00537022749826,-100.0,0.0,-100.0,0.0,-100.0,2100000.0,0.0,0.0,0.0,0.0,0.0,0.0
1402599403184106666,0,2.57453582718,-0.114322152727,-3.17951040826,0.043815185726,0.577211763879,0.0,-1.04209120535,0.0,2.0559182507,0.0,0.0,0.0,0.0,-200.0,-0.0,0.0,-0.00997320015982,-100.0,0.00537022749826,-100.0,0.0,-100.0,0.0,-100.0,2100000.0,0.0,0.0,0.0,0.0,0.0,0.0
1402599403204706992,0,2.57453582718,-0.114322152727,-3.17951040826,0.043815185726,0.577211763879,0.0,-1.04209120535,0.0,2.0559182507,0.0,0.0,0.0,0.0,-200.0,-0.0,0.0,-0.00997320015982,-100.0,0.00537022749826,-100.0,0.0,-100.0,0.0,-100.0,2100000.0,0.0,0.0,0.0,0.0,0.0,0.0
1402599403224129619,0,2.59121633435,-0.114322152727,-3.2187796634,0.043815185726,0.573730848411,0.0,-1.03506464103,0.0,2.05964004165,0.0,0.0,0.0,0.0,-200.0,-0.0,0.0,-0.00997320015982,-100.0,0.00383600394174,-100.0,0.0,-100.0,0.0,-100.0,2100000.0,0.0,0.0,0.0,0.0,0.0,0.0
1402599403244610159,0,2.59121633435,-0.114322152727,-3.2187796634,0.043815185726,0.573730848411,0.0,-1.03506464103,0.0,2.05964004165,0.0,0.0,0.0,0.0,-200.0,-0.0,0.0,-0.00843897660331,-100.0,0.00537022749826,-100.0,0.0,-100.0,0.0,-100.0,2100000.0,0.0,0.0,0.0,0.0,0.0,0.0
1402599403264075215,0,2.6280770248,-0.114322152727,-3.27616400836,0.043815185726,0.592962033246,0.0,-1.04914576527,0.0,2.06340536003,0.0,0.0,0.0,0.0,-200.0,-0.0,0.0,-0.00843897660331,-100.0,0.00383600394174,-100.0,0.0,-100.0,0.0,-100.0,2100000.0,0.0,0.0,0.0,0.0,0.0,0.0
1402599403284516580,0,2.6280770248,-0.114322152727,-3.27616400836,0.043815185726,0.592962033246,0.0,-1.04914576527,0.0,2.06340536003,0.0,0.0,0.0,0.0,-200.0,-0.0,0.0,-0.00997320015982,-100.0,0.00537022749826,-100.0,0.0,-100.0,0.0,-100.0,2100000.0,0.0,0.0,0.0,0.0,0.0,0.0
1402599403304302462,0,2.66364690754,-0.114322152727,-3.32911114151,0.043815185726,0.605735989356,0.0,-1.04363628046,0.0,2.06812827709,0.0,0.0,0.0,0.0,-200.0,-0.0,0.0,-0.00997320015982,-100.0,0.00383600394174,-100.0,0.0,-100.0,0.0,-100.0,2100000.0,0.0,0.0,0.0,0.0,0.0,0.0
1402599403324684675,0,2.66364690754,-0.114322152727,-3.32911114151,0.043815185726,0.605735989356,0.0,-1.04363628046,0.0,2.06812827709,0.0,0.0,0.0,0.0,-200.0,-0.0,0.0,-0.00997320015982,-100.0,0.00383600394174,-100.0,0.0,-100.0,0.0,-100.0,2100000.0,0.0,0.0,0.0,0.0,0.0,0.0
1402599403344088974,0,2.67151424351,-0.114322152727,-3.35372216717,0.043815185726,0.589117643292,0.0,-1.04674212169,0.0,2.07092904869,0.0,0.0,0.0,0.0,-200.0,-0.0,0.0,-0.00843897660331,-100.0,0.00383600394174,-100.0,0.0,-100.0,0.0,-100.0,2100000.0,0.0,0.0,0.0,0.0,0.0,0.0
1402599403364653262,0,2.67151424351,-0.114322152727,-3.35372216717,0.043815185726,0.589117643292,0.0,-1.04674212169,0.0,2.07092904869,0.0,0.0,0.0,0.0,-200.0,-0.0,0.0,-0.00997320015982,-100.0,0.00383600394174,-100.0,0.0,-100.0,0.0,-100.0,2100000.0,0.0,0.0,0.0,0.0,0.0,0.0
1402599403384079661,0,2.69221732746,-0.114322152727,-3.39295046278,0.043815185726,0.595011488678,0.0,-1.04349385616,0.0,2.07515152547,0.0,0.0,0.0,0.0,-200.0,-0.0,0.0,-0.00843897660331,-100.0,0.00537022749826,-100.0,0.0,-100.0,0.0,-100.0,2100000.0,0.0,0.0,0.0,0.0,0.0,0.0
1402599403404623957,0,2.69221732746,-0.114322152727,-3.39295046278,0.043815185726,0.595011488678,0.0,-1.04349385616,0.0,2.07515152547,0.0,0.0,0.0,0.0,-200.0,-0.0,0.0,-0.00843897660331,-100.0,0.00383600394174,-100.0,0.0,-100.0,0.0,-100.0,2100000.0,0.0,0.0,0.0,0.0,0.0,0.0
1402599403424062350,0,2.71699325186,-0.114322152727,-3.43579302089,0.043815185726,0.600895583509,0.0,-1.04489194777,0.0,2.07963924475,0.0,0.0,0.0,0.0,-200.0,-0.0,0.0,-0.00843897660331,-100.0,0.00537022749826,-100.0,0.0,-100.0,0.0,-100.0,2100000.0,0.0,0.0,0.0,0.0,0.0,0.0
1402599403444752521,0,2.71699325186,-0.114322152727,-3.43579302089,0.043815185726,0.600895583509,0.0,-1.04489194777,0.0,2.07963924475,0.0,0.0,0.0,0.0,-200.0,-0.0,0.0,-0.00997320015982,-100.0,0.00537022749826,-100.0,0.0,-100.0,0.0,-100.0,2100000.0,0.0,0.0,0.0,0.0,0.0,0.0
1402599403464370711,0,2.74739974641,-0.114322152727,-3.48505185011,0.043815185726,0.620515103286,0.0,-1.0601922686,0.0,2.08364814547,0.0,0.0,0.0,0.0,-200.0,-0.0,0.0,-0.00843897660331,-100.0,0.00537022749826,-100.0,0.0,-100.0,0.0,-100.0,2100000.0,0.0,0.0,0.0,0.0,0.0,0.0
1402599403484782435,0,2.74739974641,-0.114322152727,-3.48505185011,0.043815185726,0.620515103286,0.0,-1.0601922686,0.0,2.08364814547,0.0,0.0,0.0,0.0,-200.0,-0.0,0.0,-0.00843897660331,-100.0,0.00537022749826,-100.0,0.0,-100.0,0.0,-100.0,2100000.0,0.0,0.0,0.0,0.0,0.0,0.0
1402599403503893035,0,2.76347225427,-0.114322152727,-3.52307445388,0.043815185726,0.606752073764,0.0,-1.04704085108,0.0,2.08929249294,0.0,0.0,0.0,0.0,-200.0,-0.0,0.0,-0.00843897660331,-100.0,0.00383600394174,-100.0,0.0,-100.0,0.0,-100.0,2100000.0,0.0,0.0,0.0,0.0,0.0,0.0
1402599403524430919,0,2.76347225427,-0.114322152727,-3.52307445388,0.043815185726,0.606752073764,0.0,-1.04704085108,0.0,2.08929249294,0.0,0.0,0.0,0.0,-200.0,-0.0,0.0,-0.00997320015982,-100.0,0.00537022749826,-100.0,0.0,-100.0,0.0,-100.0,2100000.0,0.0,0.0,0.0,0.0,0.0,0.0
1402599403544251482,0,2.79460365941,-0.114322152727,-3.57648650258,0.043815185726,0.616807592028,0.0,-1.04636822862,0.0,2.09504780824,0.0,0.0,0.0,0.0,-200.0,-0.0,0.0,-0.00843897660331,-100.0,0.00383600394174,-100.0,0.0,-100.0,0.0,-100.0,2100000.0,0.0,0.0,0.0,0.0,0.0,0.0
1402599403564684887,0,2.79460365941,-0.114322152727,-3.57648650258,0.043815185726,0.616807592028,0.0,-1.04636822862,0.0,2.09504780824,0.0,0.0,0.0,0.0,-200.0,-0.0,0.0,-0.00843897660331,-100.0,0.00537022749826,-100.0,0.0,-100.0,0.0,-100.0,2100000.0,0.0,0.0,0.0,0.0,0.0,0.0
1402599403584126785,0,2.82919823361,-0.114322152727,-3.62543795566,0.043815185726,0.634878168202,0.0,-1.03463542366,0.0,2.10078118906,0.0,0.0,0.0,0.0,-200.0,-0.0,0.0,-0.00843897660331,-100.0,0.00383600394174,-100.0,0.0,-100.0,0.0,-100.0,2100000.0,0.0,0.0,0.0,0.0,0.0,0.0
1402599403604553670,0,2.82919823361,-0.114322152727,-3.62543795566,0.043815185726,0.634878168202,0.0,-1.03463542366,0.0,2.10078118906,0.0,0.0,0.0,0.0,-200.0,-0.0,0.0,-0.00997320015982,-100.0,0.00537022749826,-100.0,0.0,-100.0,0.0,-100.0,2100000.0,0.0,0.0,0.0,0.0,0.0,0.0
1402599403624057477,0,2.84179700507,-0.114322152727,-3.64616610766,0.043815185726,0.639678336073,0.0,-1.03416222935,0.0,2.10297114571,0.0,0.0,0.0,0.0,-200.0,-0.0,0.0,-0.00843897660331,-100.0,0.00537022749826,-100.0,0.0,-100.0,0.0,-100.0,2100000.0,0.0,0.0,0.0,0.0,0.0,0.0
1402599403644636082,0,2.84179700507,-0.114322152727,-3.64616610766,0.043815185726,0.639678336073,0.0,-1.03416222935,0.0,2.10297114571,0.0,0.0,0.0,0.0,-200.0,-0.0,0.0,-0.00843897660331,-100.0,0.00537022749826,-100.0,0.0,-100.0,0.0,-100.0,2100000.0,0.0,0.0,0.0,0.0,0.0,0.0
1402599403664039236,0,2.8682215027,-0.114322152727,-3.69114260915,0.043815185726,0.646970738753,0.0,-1.04122338893,0.0,2.10692359031,0.0,0.0,0.0,0.0,-200.0,-0.0,0.0,-0.00997320015982,-100.0,0.00537022749826,-100.0,0.0,-100.0,0.0,-100.0,2100000.0,0.0,0.0,0.0,0.0,0.0,0.0
1402599403684702953,0,2.8682215027,-0.114322152727,-3.69114260915,0.043815185726,0.646970738753,0.0,-1.04122338893,0.0,2.10692359031,0.0,0.0,0.0,0.0,-200.0,-0.0,0.0,-0.00843897660331,-100.0,0.00537022749826,-100.0,0.0,-100.0,0.0,-100.0,2100000.0,0.0,0.0,0.0,0.0,0.0,0.0
1402599403704129915,0,2.88752810012,-0.114322152727,-3.73123298649,0.043815185726,0.645983354995,0.0,-1.04228473238,0.0,2.1112183984,0.0,0.0,0.0,0.0,-200.0,-0.0,0.0,-0.00997320015982,-100.0,0.00537022749826,-100.0,0.0,-100.0,0.0,-100.0,2100000.0,0.0,0.0,0.0,0.0,0.0,0.0
1402599403724673704,0,2.88752810012,-0.114322152727,-3.73123298649,0.043815185726,0.645983354995,0.0,-1.04228473238,0.0,2.1112183984,0.0,0.0,0.0,0.0,-200.0,-0.0,0.0,-0.00997320015982,-100.0,0.00537022749826,-100.0,0.0,-100.0,0.0,-100.0,2100000.0,0.0,0.0,0.0,0.0,0.0,0.0
1402599403744111999,0,2.91351239575,-0.114322152727,-3.77333007502,0.043815185726,0.65356859682,0.0,-1.04334541654,0.0,2.11562730257,0.0,0.0,0.0,0.0,-200.0,-0.0,0.0,-0.00997320015982,-100.0,0.00537022749826,-100.0,0.0,-100.0,0.0,-100.0,2100000.0,0.0,0.0,0.0,0.0,0.0,0.0
1402599403764733881,0,2.91351239575,-0.114322152727,-3.77333007502,0.043815185726,0.65356859682,0.0,-1.04334541654,0.0,2.11562730257,0.0,0.0,0.0,0.0,-200.0,-0.0,0.0,-0.00843897660331,-100.0,0.00537022749826,-100.0,0.0,-100.0,0.0,-100.0,2100000.0,0.0,0.0,0.0,0.0,0.0,0.0
1402599403784142051,0,2.93706767297,-0.114322152727,-3.81717653415,0.043815185726,0.656534220838,0.0,-1.0549484733,0.0,2.1198181127,0.0,0.0,0.0,0.0,-200.0,-0.0,0.0,-0.00997320015982,-100.0,0.00537022749826,-100.0,0.0,-100.0,0.0,-100.0,2100000.0,0.0,0.0,0.0,0.0,0.0,0.0
1402599403804593059,0,2.93706767297,-0.114322152727,-3.81717653415,0.043815185726,0.656534220838,0.0,-1.0549484733,0.0,2.1198181127,0.0,0.0,0.0,0.0,-200.0,-0.0,0.0,-0.00997320015982,-100.0,0.00537022749826,-100.0,0.0,-100.0,0.0,-100.0,2100000.0,0.0,0.0,0.0,0.0,0.0,0.0
1402599403824042748,0,2.9643062088,-0.114322152727,-3.86038280848,0.043815185726,0.660672848994,0.0,-1.05585148846,0.0,2.12469202764,0.0,0.0,0.0,0.0,-200.0,-0.0,0.0,-0.00843897660331,-100.0,0.00383600394174,-100.0,0.0,-100.0,0.0,-100.0,2100000.0,0.0,0.0,0.0,0.0,0.0,0.0
1402599403844713860,0,2.9643062088,-0.114322152727,-3.86038280848,0.043815185726,0.660672848994,0.0,-1.05585148846,0.0,2.12469202764,0.0,0.0,0.0,0.0,-200.0,-0.0,0.0,-0.00997320015982,-100.0,0.00537022749826,-100.0,0.0,-100.0,0.0,-100.0,2100000.0,0.0,0.0,0.0,0.0,0.0,0.0
1402599403864191321,0,2.99348539267,-0.114322152727,-3.90200419622,0.043815185726,0.667580744824,0.0,-1.04808934531,0.0,2.12991878655,0.0,0.0,0.0,0.0,-200.0,-0.0,0.0,-0.00997320015982,-100.0,0.00537022749826,-100.0,0.0,-100.0,0.0,-100.0,2100000.0,0.0,0.0,0.0,0.0,0.0,0.0
1402599403884605293,0,2.99348539267,-0.114322152727,-3.90200419622,0.043815185726,0.667580744824,0.0,-1.04808934531,0.0,2.12991878655,0.0,0.0,0.0,0.0,-200.0,-0.0,0.0,-0.00843897660331,-100.0,0.00537022749826,-100.0,0.0,-100.0,0.0,-100.0,2100000.0,0.0,0.0,0.0,0.0,0.0,0.0
1402599403904086151,0,3.01614414427,-0.114322152727,-3.94393187498,0.043815185726,0.664369708541,0.0,-1.04490113162,0.0,2.13501809472,0.0,0.0,0.0,0.0,-200.0,-0.0,0.0,-0.00997320015982,-100.0,0.00537022749826,-100.0,0.0,-100.0,0.0,-100.0,2100000.0,0.0,0.0,0.0,0.0,0.0,0.0
1402599403924719127,0,3.01614414427,-0.114322152727,-3.94393187498,0.043815185726,0.664369708541,0.0,-1.04490113162,0.0,2.13501809472,0.0,0.0,0.0,0.0,-200.0,-0.0,0.0,-0.00997320015982,-100.0,0.00537022749826,-100.0,0.0,-100.0,0.0,-100.0,2100000.0,0.0,0.0,0.0,0.0,0.0,0.0
1402599403944080872,0,3.05026542782,-0.114322152727,-3.99600405564,0.043815185726,0.670384728944,0.0,-1.03815763386,0.0,2.14136211928,0.0,0.0,0.0,0.0,-200.0,-0.0,0.0,-0.00997320015982,-100.0,0.00537022749826,-100.0,0.0,-100.0,0.0,-100.0,2100000.0,0.0,0.0,0.0,0.0,0.0,0.0
1402599403964710244,0,3.05026542782,-0.114322152727,-3.99600405564,0.043815185726,0.670384728944,0.0,-1.03815763386,0.0,2.14136211928,0.0,0.0,0.0,0.0,-200.0,-0.0,0.0,-0.00843897660331,-100.0,0.00537022749826,-100.0,0.0,-100.0,0.0,-100.0,2100000.0,0.0,0.0,0.0,0.0,0.0,0.0
1402599403984070477,0,3.06944151403,-0.114322152727,-4.02638193061,0.043815185726,0.675980851407,0.0,-1.03453037767,0.0,2.14504991536,0.0,0.0,0.0,0.0,-200.0,-0.0,0.0,-0.00843897660331,-100.0,0.00383600394174,-100.0,0.0,-100.0,0.0,-100.0,2100000.0,0.0,0.0,0.0,0.0,0.0,0.0
1402599404004645301,0,3.08300618209,-0.114322152727,-4.04722725233,0.043815185726,0.677449764125,0.0,-1.03283475206,0.0,2.14752968026,0.0,0.0,0.0,0.0,-200.0,-0.0,0.0,-0.00843897660331,-100.0,0.00537022749826,-100.0,0.0,-100.0,0.0,-100.0,2100000.0,0.0,0.0,0.0,0.0,0.0,0.0
1402599404023953705,0,3.08300618209,-0.114322152727,-4.04722725233,0.043815185726,0.677449764125,0.0,-1.03283475206,0.0,2.14752968026,0.0,0.0,0.0,0.0,-200.0,-0.0,0.0,-0.00843897660331,-100.0,0.00383600394174,-100.0,0.0,-100.0,0.0,-100.0,2100000.0,0.0,0.0,0.0,0.0,0.0,0.0
1402599404044747441,0,3.08959509529,-0.114322152727,-4.06649900981,0.043815185726,0.672450040545,0.0,-1.03651984065,0.0,2.15002430519,0.0,0.0,0.0,0.0,-200.0,-0.0,0.0,-0.00997320015982,-100.0,0.00537022749826,-100.0,0.0,-100.0,0.0,-100.0,2100000.0,0.0,0.0,0.0,0.0,0.0,0.0
1402599404064032565,0,3.08959509529,-0.114322152727,-4.06649900981,0.043815185726,0.672450040545,0.0,-1.03651984065,0.0,2.15002430519,0.0,0.0,0.0,0.0,-200.0,-0.0,0.0,-0.00843897660331,-100.0,0.00383600394174,-100.0,0.0,-100.0,0.0,-100.0,2100000.0,0.0,0.0,0.0,0.0,0.0,0.0
1402599404084688157,0,3.11737205493,-0.114322152727,-4.10883489699,0.043815185726,0.67496807389,0.0,-1.03132765865,0.0,2.15496675487,0.0,0.0,0.0,0.0,-200.0,-0.0,0.0,-0.00843897660331,-100.0,0.00537022749826,-100.0,0.0,-100.0,0.0,-100.0,2100000.0,0.0,0.0,0.0,0.0,0.0,0.0
1402599404104010957,0,3.11737205493,-0.114322152727,-4.10883489699,0.043815185726,0.67496807389,0.0,-1.03132765865,0.0,2.15496675487,0.0,0.0,0.0,0.0,-200.0,-0.0,0.0,-0.00843897660331,-100.0,0.00383600394174,-100.0,0.0,-100.0,0.0,-100.0,2100000.0,0.0,0.0,0.0,0.0,0.0,0.0
1402599404124649848,0,3.14785951942,-0.114322152727,-4.14934044041,0.043815185726,0.685970813602,0.0,-1.01756677752,0.0,2.15988984651,0.0,0.0,0.0,0.0,-200.0,-0.0,0.0,-0.00997320015982,-100.0,0.00383600394174,-100.0,0.0,-100.0,0.0,-100.0,2100000.0,0.0,0.0,0.0,0.0,0.0,0.0
1402599404144029858,0,3.14785951942,-0.114322152727,-4.14934044041,0.043815185726,0.685970813602,0.0,-1.01756677752,0.0,2.15988984651,0.0,0.0,0.0,0.0,-200.0,-0.0,0.0,-0.00843897660331,-100.0,0.00537022749826,-100.0,0.0,-100.0,0.0,-100.0,2100000.0,0.0,0.0,0.0,0.0,0.0,0.0
1402599404164685722,0,3.17498812826,-0.114322152727,-4.18623975097,0.043815185726,0.680316096492,0.0,-0.990881487048,0.0,2.1653134453,0.0,0.0,0.0,0.0,-200.0,-0.0,0.0,-0.00997320015982,-100.0,0.00537022749826,-100.0,0.0,-100.0,0.0,-100.0,2100000.0,0.0,0.0,0.0,0.0,0.0,0.0
1402599404184132552,0,3.17498812826,-0.114322152727,-4.18623975097,0.043815185726,0.680316096492,0.0,-0.990881487048,0.0,2.1653134453,0.0,0.0,0.0,0.0,-200.0,-0.0,0.0,-0.00997320015982,-100.0,0.00537022749826,-100.0,0.0,-100.0,0.0,-100.0,2100000.0,0.0,0.0,0.0,0.0,0.0,0.0
1402599404204602067,0,3.20758773677,-0.114322152727,-4.23083100436,0.043815185726,0.692203999174,0.0,-0.992121451097,0.0,2.17046251154,0.0,0.0,0.0,0.0,-200.0,-0.0,0.0,-0.00843897660331,-100.0,0.00383600394174,-100.0,0.0,-100.0,0.0,-100.0,2100000.0,0.0,0.0,0.0,0.0,0.0,0.0
1402599404224045705,0,3.20758773677,-0.114322152727,-4.23083100436,0.043815185726,0.692203999174,0.0,-0.992121451097,0.0,2.17046251154,0.0,0.0,0.0,0.0,-200.0,-0.0,0.0,-0.00843897660331,-100.0,0.00537022749826,-100.0,0.0,-100.0,0.0,-100.0,2100000.0,0.0,0.0,0.0,0.0,0.0,0.0
1402599404244633246,0,3.22795929217,-0.114322152727,-4.27090136063,0.043815185726,0.681106721537,0.0,-0.992588614683,0.0,2.17627519029,0.0,0.0,0.0,0.0,-200.0,-0.0,0.0,-0.00843897660331,-100.0,0.00383600394174,-100.0,0.0,-100.0,0.0,-100.0,2100000.0,0.0,0.0,0.0,0.0,0.0,0.0
1402599404264091984,0,3.22795929217,-0.114322152727,-4.27090136063,0.043815185726,0.681106721537,0.0,-0.992588614683,0.0,2.17627519029,0.0,0.0,0.0,0.0,-200.0,-0.0,0.0,-0.00997320015982,-100.0,0.00383600394174,-100.0,0.0,-100.0,0.0,-100.0,2100000.0,0.0,0.0,0.0,0.0,0.0,0.0
1402599404284683299,0,3.2558375053,-0.114322152727,-4.31104373583,0.043815185726,0.691113817786,0.0,-0.990415316653,0.0,2.18155665114,0.0,0.0,0.0,0.0,-200.0,-0.0,0.0,-0.00997320015982,-100.0,0.00383600394174,-100.0,0.0,-100.0,0.0,-100.0,2100000.0,0.0,0.0,0.0,0.0,0.0,0.0
1402599404303871513,0,3.2558375053,-0.114322152727,-4.31104373583,0.043815185726,0.691113817786,0.0,-0.990415316653,0.0,2.18155665114,0.0,0.0,0.0,0.0,-200.0,-0.0,0.0,-0.00997320015982,-100.0,0.00537022749826,-100.0,0.0,-100.0,0.0,-100.0,2100000.0,0.0,0.0,0.0,0.0,0.0,0.0
1402599404324632929,0,3.28436212867,-0.114322152727,-4.35157064648,0.043815185726,0.696676177448,0.0,-0.987203095606,0.0,2.18704321075,0.0,0.0,0.0,0.0,-200.0,-0.0,0.0,-0.00997320015982,-100.0,0.00537022749826,-100.0,0.0,-100.0,0.0,-100.0,2100000.0,0.0,0.0,0.0,0.0,0.0,0.0
1402599404344083201,0,3.28436212867,-0.114322152727,-4.35157064648,0.043815185726,0.696676177448,0.0,-0.987203095606,0.0,2.18704321075,0.0,0.0,0.0,0.0,-200.0,-0.0,0.0,-0.00997320015982,-100.0,0.00383600394174,-100.0,0.0,-100.0,0.0,-100.0,2100000.0,0.0,0.0,0.0,0.0,0.0,0.0
1402599404364777034,0,3.31705934247,-0.114322152727,-4.39703546773,0.043815185726,0.69745314105,0.0,-0.970488065384,0.0,2.1938835045,0.0,0.0,0.0,0.0,-200.0,-0.0,0.0,-0.00997320015982,-100.0,0.00383600394174,-100.0,0.0,-100.0,0.0,-100.0,2100000.0,0.0,0.0,0.0,0.0,0.0,0.0
1402599404384105479,0,3.31705934247,-0.114322152727,-4.39703546773,0.043815185726,0.69745314105,0.0,-0.970488065384,0.0,2.1938835045,0.0,0.0,0.0,0.0,-200.0,-0.0,0.0,-0.00997320015982,-100.0,0.00383600394174,-100.0,0.0,-100.0,0.0,-100.0,2100000.0,0.0,0.0,0.0,0.0,0.0,0.0
1402599404404584753,0,3.35293014139,-0.114322152727,-4.44816142301,0.043815185726,0.70839112756,0.0,-0.977869371403,0.0,2.20037711407,0.0,0.0,0.0,0.0,-200.0,-0.0,0.0,-0.00997320015982,-100.0,0.00537022749826,-100.0,0.0,-100.0,0.0,-100.0,2100000.0,0.0,0.0,0.0,0.0,0.0,0.0
1402599404424224048,0,3.35293014139,-0.114322152727,-4.44816142301,0.043815185726,0.70839112756,0.0,-0.977869371403,0.0,2.20037711407,0.0,0.0,0.0,0.0,-200.0,-0.0,0.0,-0.00997320015982,-100.0,0.00383600394174,-100.0,0.0,-100.0,0.0,-100.0,2100000.0,0.0,0.0,0.0,0.0,0.0,0.0
1402599404444634044,0,3.36857910936,-0.114322152727,-4.46389350953,0.043815185726,0.71603030492,0.0,-0.967143602297,0.0,2.20274004727,0.0,0.0,0.0,0.0,-200.0,-0.0,0.0,-0.00997320015982,-100.0,0.00383600394174,-100.0,0.0,-100.0,0.0,-100.0,2100000.0,0.0,0.0,0.0,0.0,0.0,0.0
1402599404464076194,0,3.36857910936,-0.114322152727,-4.46389350953,0.043815185726,0.71603030492,0.0,-0.967143602297,0.0,2.20274004727,0.0,0.0,0.0,0.0,-200.0,-0.0,0.0,-0.00997320015982,-100.0,0.00537022749826,-100.0,0.0,-100.0,0.0,-100.0,2100000.0,0.0,0.0,0.0,0.0,0.0,0.0
1402599404484762378,0,3.3934748891,-0.114322152727,-4.50506995965,0.043815185726,0.71307986268,0.0,-0.972516346899,0.0,2.20824374627,0.0,0.0,0.0,0.0,-200.0,-0.0,0.0,-0.00997320015982,-100.0,0.00537022749826,-100.0,0.0,-100.0,0.0,-100.0,2100000.0,0.0,0.0,0.0,0.0,0.0,0.0
1402599404504044748,0,3.3934748891,-0.114322152727,-4.50506995965,0.043815185726,0.71307986268,0.0,-0.972516346899,0.0,2.20824374627,0.0,0.0,0.0,0.0,-200.0,-0.0,0.0,-0.00997320015982,-100.0,0.00383600394174,-100.0,0.0,-100.0,0.0,-100.0,2100000.0,0.0,0.0,0.0,0.0,0.0,0.0
1402599404524774135,0,3.42397202367,-0.114322152727,-4.54568618874,0.043815185726,0.718818887136,0.0,-0.971610189458,0.0,2.21377785172,0.0,0.0,0.0,0.0,-200.0,-0.0,0.0,-0.00997320015982,-100.0,0.00537022749826,-100.0,0.0,-100.0,0.0,-100.0,2100000.0,0.0,0.0,0.0,0.0,0.0,0.0
1402599404544071143,0,3.42397202367,-0.114322152727,-4.54568618874,0.043815185726,0.718818887136,0.0,-0.971610189458,0.0,2.21377785172,0.0,0.0,0.0,0.0,-200.0,-0.0,0.0,-0.00997320015982,-100.0,0.00383600394174,-100.0,0.0,-100.0,0.0,-100.0,2100000.0,0.0,0.0,0.0,0.0,0.0,0.0
1402599404564660879,0,3.45322549206,-0.114322152727,-4.58548988933,0.043815185726,0.720733985424,0.0,-0.970359249079,0.0,2.21936301959,0.0,0.0,0.0,0.0,-200.0,-0.0,0.0,-0.00843897660331,-100.0,0.00537022749826,-100.0,0.0,-100.0,0.0,-100.0,2100000.0,0.0,0.0,0.0,0.0,0.0,0.0
1402599404584017931,0,3.45322549206,-0.114322152727,-4.58548988933,0.043815185726,0.720733985424,0.0,-0.970359249079,0.0,2.21936301959,0.0,0.0,0.0,0.0,-200.0,-0.0,0.0,-0.00997320015982,-100.0,0.00537022749826,-100.0,0.0,-100.0,0.0,-100.0,2100000.0,0.0,0.0,0.0,0.0,0.0,0.0
1402599404604665516,0,3.48069386071,-0.114322152727,-4.6316353258,0.043815185726,0.729172892445,0.0,-0.994076303692,0.0,2.22505137607,0.0,0.0,0.0,0.0,-200.0,-0.0,0.0,-0.00997320015982,-100.0,0.00537022749826,-100.0,0.0,-100.0,0.0,-100.0,2100000.0,0.0,0.0,0.0,0.0,0.0,0.0
1402599404624028000,0,3.48069386071,-0.114322152727,-4.6316353258,0.043815185726,0.729172892445,0.0,-0.994076303692,0.0,2.22505137607,0.0,0.0,0.0,0.0,-200.0,-0.0,0.0,-0.00997320015982,-100.0,0.00537022749826,-100.0,0.0,-100.0,0.0,-100.0,2100000.0,0.0,0.0,0.0,0.0,0.0,0.0
1402599404644641474,0,3.51601559287,-0.114322152727,-4.69624911443,0.043815185726,0.75590847011,0.0,-1.05909493008,0.0,2.23106671719,0.0,0.0,0.0,0.0,-200.0,-0.0,0.0,-0.00997320015982,-100.0,0.00537022749826,-100.0,0.0,-100.0,0.0,-100.0,2100000.0,0.0,0.0,0.0,0.0,0.0,0.0
1402599404664060495,0,3.51601559287,-0.114322152727,-4.69624911443,0.043815185726,0.75590847011,0.0,-1.05909493008,0.0,2.23106671719,0.0,0.0,0.0,0.0,-200.0,-0.0,0.0,-0.00997320015982,-100.0,0.00537022749826,-100.0,0.0,-100.0,0.0,-100.0,2100000.0,0.0,0.0,0.0,0.0,0.0,0.0
1402599404684680321,0,3.5449804497,-0.114322152727,-4.73652538332,0.043815185726,0.781495804317,0.0,-1.08740149463,0.0,2.23507302507,0.0,0.0,0.0,0.0,-200.0,-0.0,0.0,-0.00997320015982,-100.0,0.00537022749826,-100.0,0.0,-100.0,0.0,-100.0,2100000.0,0.0,0.0,0.0,0.0,0.0,0.0
1402599404704091200,0,3.55865106649,-0.114322152727,-4.75230390773,0.043815185726,0.772537822133,0.0,-1.06054920618,0.0,2.23854038185,0.0,0.0,0.0,0.0,-200.0,-0.0,0.0,-0.00843897660331,-100.0,0.00537022749826,-100.0,0.0,-100.0,0.0,-100.0,2100000.0,0.0,0.0,0.0,0.0,0.0,0.0
