rosbagTimestamp,control_method,x_current,x_desired,y_current,y_desired,z_current,z_desired,x_velocity_current,x_velocity_desired,y_velocity_current,y_velocity_desired,z_velocity_current,z_velocity_desired,yaw_current,yaw_desired,yaw_velocity_current,yaw_velocity_desired,roll_current,roll_desired,roll_velocity_current,roll_velocity_desired,pitch_current,pitch_desired,pitch_velocity_current,pitch_velocity_desired,required_force_x,required_force_y,required_moment_z,resultant_force_x,resultant_force_y,resultant_moment_z,current_port_servo_angle,current_port_thruster_force,current_starboard_servo_angle,current_starboard_thruster_force,estimated_port_servo_angle,estimated_port_thruster_force,estimated_starboard_servo_angle,estimated_starboard_thruster_force,cost_value,step,user_defined_1,user_defined_2,user_defined_3,user_defined_4,user_defined_5
1402753188928405971,3,-7.60037210098,-0.00591572024346,-1.65340286447,-0.122189614607,5.46634441813,0.10862951003,-0.00543286973633,0.0,-0.0342685365715,0.0,0.0616701157687,0.0,-1.35188371923,0.0,0.0166433189483,0.0,0.00118794416551,0.0,-0.000715911223391,0.0,0.0732975100521,0.0,0.00483233246088,0.0,0.0,0.0,0.0,50.0,-0.0,0.0,0.00230154196664,0.0,0.00230154196664,0.0,-0.0,25.0,-0.0,25.0,131250.0,0.0,0.0,0.0,0.0,0.0,0.0
1402753188947579836,3,-7.60044245478,-0.00591572024346,-1.65404539373,-0.122189614607,5.46748246989,0.10862951003,-0.00459074568111,0.0,-0.0342316689975,0.0,0.0630108624771,0.0,-1.35178350568,0.0,0.00991212464607,0.0,0.00108405901034,0.0,-0.000133305155733,0.0,0.0733146486028,0.0,0.00682970238541,0.0,0.0,0.0,0.0,50.0,-0.0,0.0,0.00230154196664,0.0,0.00230154196664,0.0,-0.0,25.0,-0.0,25.0,131250.0,0.0,0.0,0.0,0.0,0.0,0.0
1402753188967518402,3,-7.60044245478,-0.00591572024346,-1.65404539373,-0.122189614607,5.46748246989,0.10862951003,-0.00459074568111,0.0,-0.0342316689975,0.0,0.0630108624771,0.0,-1.35178350568,0.0,0.00991212464607,0.0,0.00108405901034,0.0,-0.000133305155733,0.0,0.0733146486028,0.0,0.00682970238541,0.0,0.0,0.0,0.0,50.0,-0.0,0.0,0.00230154196664,0.0,0.00230154196664,0.0,-0.0,25.0,-0.0,25.0,131250.0,0.0,0.0,0.0,0.0,0.0,0.0
1402753188988266888,3,-7.59953565208,-0.00591572024346,-1.6528076027,-0.122189614607,5.47420158614,0.10862951003,-0.00698944842738,0.0,-0.0280108487193,0.0,0.0669967325892,0.0,-1.35159312088,0.0,0.0112197922325,0.0,0.00103569133468,0.0,-0.00084751773598,0.0,0.0725068409352,0.0,0.00646782265475,0.0,0.0,0.0,0.0,50.0,-0.0,0.0,0.00230154196664,0.0,0.00230154196664,0.0,-0.0,25.0,-0.0,25.0,131250.0,0.0,0.0,0.0,0.0,0.0,0.0
1402753189007684376,3,-7.59953565208,-0.00591572024346,-1.6528076027,-0.122189614607,5.47420158614,0.10862951003,-0.00698944842738,0.0,-0.0280108487193,0.0,0.0669967325892,0.0,-1.35159312088,0.0,0.0112197922325,0.0,0.00103569133468,0.0,-0.00084751773598,0.0,0.0725068409352,0.0,0.00646782265475,0.0,0.0,0.0,0.0,50.0,-0.0,0.0,0.00230154196664,0.0,0.00230154196664,0.0,-0.0,25.0,-0.0,25.0,131250.0,0.0,0.0,0.0,0.0,0.0,0.0
1402753189027656259,3,-7.59993525767,-0.00591572024346,-1.65401729314,-0.122189614607,5.47703445491,0.10862951003,-0.0075723841735,0.0,-0.0274086169784,0.0,0.0686018429506,0.0,-1.35118835708,0.0,0.013352095253,0.0,0.000700013967592,0.0,-0.0084159585243,0.0,0.0723872134297,0.0,0.00995436418131,0.0,0.0,0.0,0.0,50.0,-0.0,0.0,0.00230154196664,0.0,0.00230154196664,0.0,-0.0,25.0,-0.0,25.0,131250.0,0.0,0.0,0.0,0.0,0.0,0.0
1402753189047911145,3,-7.59993525767,-0.00591572024346,-1.65401729314,-0.122189614607,5.47703445491,0.10862951003,-0.0075723841735,0.0,-0.0274086169784,0.0,0.0686018429506,0.0,-1.35118835708,0.0,0.013352095253,0.0,0.000700013967592,0.0,-0.0084159585243,0.0,0.0723872134297,0.0,0.00995436418131,0.0,0.0,0.0,0.0,50.0,-0.0,0.0,0.00230154196664,0.0,0.00230154196664,0.0,-0.0,25.0,-0.0,25.0,131250.0,0.0,0.0,0.0,0.0,0.0,0.0
1402753189067597712,3,-7.59762472624,-0.00591572024346,-1.65544226913,-0.122189614607,5.46932632507,0.10862951003,-0.00551653343154,0.0,-0.0341725743614,0.0,0.0670706685099,0.0,-1.35088408933,0.0,0.01204575493,0.0,0.000200533828936,0.0,-0.00865620076055,0.0,0.0730134105077,0.0,0.00851359394382,0.0,0.0,0.0,0.0,50.0,-0.0,0.0,0.00230154196664,0.0,0.00230154196664,0.0,-0.0,25.0,-0.0,25.0,131250.0,0.0,0.0,0.0,0.0,0.0,0.0
1402753189087707485,3,-7.59762472624,-0.00591572024346,-1.65544226913,-0.122189614607,5.46932632507,0.10862951003,-0.00551653343154,0.0,-0.0341725743614,0.0,0.0670706685099,0.0,-1.35088408933,0.0,0.01204575493,0.0,0.000200533828936,0.0,-0.00865620076055,0.0,0.0730134105077,0.0,0.00851359394382,0.0,0.0,0.0,0.0,50.0,-0.0,0.0,0.00230154196664,0.0,0.00230154196664,0.0,-0.0,25.0,-0.0,25.0,131250.0,0.0,0.0,0.0,0.0,0.0,0.0
1402753189107778106,3,-7.59740653309,-0.00591572024346,-1.65458175521,-0.122189614607,5.46745125832,0.10862951003,-0.0108365483241,0.0,-0.0317640850433,0.0,0.0675582221582,0.0,-1.35036809938,0.0,0.0177216813766,0.0,0.00036190282907,0.0,-0.0127512019445,0.0,0.0721898639042,0.0,0.00502506113438,0.0,0.0,0.0,0.0,50.0,-0.0,0.0,0.00230154196664,0.0,0.00230154196664,0.0,-0.0,25.0,-0.0,25.0,131250.0,0.0,0.0,0.0,0.0,0.0,0.0
1402753189127881746,3,-7.59740653309,-0.00591572024346,-1.65458175521,-0.122189614607,5.46745125832,0.10862951003,-0.0108365483241,0.0,-0.0317640850433,0.0,0.0675582221582,0.0,-1.35036809938,0.0,0.0177216813766,0.0,0.00036190282907,0.0,-0.0127512019445,0.0,0.0721898639042,0.0,0.00502506113438,0.0,0.0,0.0,0.0,50.0,-0.0,0.0,0.00230154196664,0.0,0.00230154196664,0.0,-0.0,25.0,-0.0,25.0,131250.0,0.0,0.0,0.0,0.0,0.0,0.0
1402753189147489282,3,-7.59171477772,-0.00591572024346,-1.65001956535,-0.122189614607,5.46038557936,0.10862951003,-0.0025735285442,0.0,-0.0257680666444,0.0,0.0657350616625,0.0,-1.35009358976,0.0,0.0166338888602,0.0,-0.00112545332552,0.0,-0.0146242213677,0.0,0.0714409982939,0.0,-0.00165968193069,0.0,0.0,0.0,0.0,50.0,-0.0,0.0,0.00230154196664,0.0,0.00230154196664,0.0,-0.0,25.0,-0.0,25.0,131250.0,0.0,0.0,0.0,0.0,0.0,0.0
1402753189167518940,3,-7.59171477772,-0.00591572024346,-1.65001956535,-0.122189614607,5.46038557936,0.10862951003,-0.0025735285442,0.0,-0.0257680666444,0.0,0.0657350616625,0.0,-1.35009358976,0.0,0.0166338888602,0.0,-0.00112545332552,0.0,-0.0146242213677,0.0,0.0714409982939,0.0,-0.00165968193069,0.0,0.0,0.0,0.0,50.0,-0.0,0.0,0.00230154196664,0.0,0.00230154196664,0.0,-0.0,25.0,-0.0,25.0,131250.0,0.0,0.0,0.0,0.0,0.0,0.0
1402753189188362778,3,-7.59512691628,-0.00591572024346,-1.65295795854,-0.122189614607,5.43661631492,0.10862951003,-0.0178528798246,0.0,-0.0443721841363,0.0,0.0581566694108,0.0,-1.34942519882,0.0,0.0185038714217,0.0,0.000949253914965,0.0,-0.0115269778116,0.0,0.0726155029083,0.0,-0.00703566522455,0.0,0.0,0.0,0.0,50.0,-0.0,0.0,0.00230154196664,0.0,0.00230154196664,0.0,-0.0,25.0,-0.0,25.0,131250.0,0.0,0.0,0.0,0.0,0.0,0.0
1402753189207536790,3,-7.59512691628,-0.00591572024346,-1.65295795854,-0.122189614607,5.43661631492,0.10862951003,-0.0178528798246,0.0,-0.0443721841363,0.0,0.0581566694108,0.0,-1.34942519882,0.0,0.0185038714217,0.0,0.000949253914965,0.0,-0.0115269778116,0.0,0.0726155029083,0.0,-0.00703566522455,0.0,0.0,0.0,0.0,50.0,-0.0,0.0,0.00230154196664,0.0,0.00230154196664,0.0,-0.0,25.0,-0.0,25.0,131250.0,0.0,0.0,0.0,0.0,0.0,0.0
1402753189227946472,3,-7.58950015813,-0.00591572024346,-1.65015449332,-0.122189614607,5.44402478189,0.10862951003,-0.00909225741343,0.0,-0.0355918971188,0.0,0.063080722529,0.0,-1.34899453349,0.0,0.0141746002789,0.0,-0.000327154107107,0.0,-0.0138295398423,0.0,0.0712292194086,0.0,-0.00324360851806,0.0,0.0,0.0,0.0,50.0,-0.0,0.0,0.00230154196664,0.0,0.00230154196664,0.0,-0.0,25.0,-0.0,25.0,131250.0,0.0,0.0,0.0,0.0,0.0,0.0
1402753189247535144,3,-7.58950015813,-0.00591572024346,-1.65015449332,-0.122189614607,5.44402478189,0.10862951003,-0.00909225741343,0.0,-0.0355918971188,0.0,0.063080722529,0.0,-1.34899453349,0.0,0.0141746002789,0.0,-0.000327154107107,0.0,-0.0138295398423,0.0,0.0712292194086,0.0,-0.00324360851806,0.0,0.0,0.0,0.0,50.0,-0.0,0.0,0.00230154196664,0.0,0.00230154196664,0.0,-0.0,25.0,-0.0,25.0,131250.0,0.0,0.0,0.0,0.0,0.0,0.0
1402753189267668343,3,-7.58602784073,-0.00591572024346,-1.64696986612,-0.122189614607,5.44379561456,0.10862951003,-0.00858935139857,0.0,-0.0314161472597,0.0,0.0651311796296,0.0,-1.34863547029,0.0,0.0114173442892,0.0,-0.000325717008599,0.0,-0.00591315421235,0.0,0.0701822294329,0.0,-0.00771659202551,0.0,0.0,0.0,0.0,50.0,-0.0,0.0,0.00230154196664,0.0,0.00230154196664,0.0,-0.0,25.0,-0.0,25.0,131250.0,0.0,0.0,0.0,0.0,0.0,0.0
1402753189287835460,3,-7.58602784073,-0.00591572024346,-1.64696986612,-0.122189614607,5.44379561456,0.10862951003,-0.00858935139857,0.0,-0.0314161472597,0.0,0.0651311796296,0.0,-1.34863547029,0.0,0.0114173442892,0.0,-0.000325717008599,0.0,-0.00591315421235,0.0,0.0701822294329,0.0,-0.00771659202551,0.0,0.0,0.0,0.0,50.0,-0.0,0.0,0.00230154196664,0.0,0.00230154196664,0.0,-0.0,25.0,-0.0,25.0,131250.0,0.0,0.0,0.0,0.0,0.0,0.0
1402753189307818800,3,-7.586237702,-0.00591572024346,-1.64753661238,-0.122189614607,5.44485744358,0.10862951003,-0.00876584679134,0.0,-0.0317121078353,0.0,0.0651663315403,0.0,-1.34840777429,0.0,0.0129579234397,0.0,-0.000262165776714,0.0,-0.00504518080611,0.0,0.0700381061964,0.0,-0.00604191283362,0.0,0.0,0.0,0.0,50.0,-0.0,0.0,0.00230154196664,0.0,0.00230154196664,0.0,-0.0,25.0,-0.0,25.0,131250.0,0.0,0.0,0.0,0.0,0.0,0.0
1402753189327757606,3,-7.586237702,-0.00591572024346,-1.64753661238,-0.122189614607,5.44485744358,0.10862951003,-0.00876584679134,0.0,-0.0317121078353,0.0,0.0651663315403,0.0,-1.34840777429,0.0,0.0129579234397,0.0,-0.000262165776714,0.0,-0.00504518080611,0.0,0.0700381061964,0.0,-0.00604191283362,0.0,0.0,0.0,0.0,50.0,-0.0,0.0,0.00230154196664,0.0,0.00230154196664,0.0,-0.0,25.0,-0.0,25.0,131250.0,0.0,0.0,0.0,0.0,0.0,0.0
1402753189347720758,3,-7.58138995292,-0.00591572024346,-1.64306751033,-0.122189614607,5.43036722351,0.10862951003,-0.00619013878361,0.0,-0.032452044733,0.0,0.0615935091455,0.0,-1.34800446892,0.0,0.0139084520169,0.0,-0.000360776892616,0.0,0.0027385120766,0.0,0.0701153334985,0.0,-0.0113889184677,0.0,0.0,0.0,0.0,50.0,-0.0,0.0,0.00230154196664,0.0,0.00230154196664,0.0,-0.0,25.0,-0.0,25.0,131250.0,0.0,0.0,0.0,0.0,0.0,0.0
1402753189367423343,3,-7.58138995292,-0.00591572024346,-1.64306751033,-0.122189614607,5.43036722351,0.10862951003,-0.00619013878361,0.0,-0.032452044733,0.0,0.0615935091455,0.0,-1.34800446892,0.0,0.0139084520169,0.0,-0.000360776892616,0.0,0.0027385120766,0.0,0.0701153334985,0.0,-0.0113889184677,0.0,0.0,0.0,0.0,50.0,-0.0,0.0,0.00230154196664,0.0,0.00230154196664,0.0,-0.0,25.0,-0.0,25.0,131250.0,0.0,0.0,0.0,0.0,0.0,0.0
1402753189387957093,3,-7.57989271457,-0.00591572024346,-1.64288587865,-0.122189614607,5.43213930232,0.10862951003,-0.00881116437063,0.0,-0.0331157556617,0.0,0.0628207604646,0.0,-1.34756155872,0.0,0.0135147202497,0.0,0.000303150797457,0.0,0.0093431682816,0.0,0.0700623751459,0.0,-0.0140613623511,0.0,0.0,0.0,0.0,50.0,-0.0,0.0,0.00230154196664,0.0,0.00230154196664,0.0,-0.0,25.0,-0.0,25.0,131250.0,0.0,0.0,0.0,0.0,0.0,0.0
1402753189407695575,3,-7.57989271457,-0.00591572024346,-1.64288587865,-0.122189614607,5.43213930232,0.10862951003,-0.00881116437063,0.0,-0.0331157556617,0.0,0.0628207604646,0.0,-1.34756155872,0.0,0.0135147202497,0.0,0.000303150797457,0.0,0.0093431682816,0.0,0.0700623751459,0.0,-0.0140613623511,0.0,0.0,0.0,0.0,50.0,-0.0,0.0,0.00230154196664,0.0,0.00230154196664,0.0,-0.0,25.0,-0.0,25.0,131250.0,0.0,0.0,0.0,0.0,0.0,0.0
1402753189427595250,3,-7.57710920816,-0.00591572024346,-1.6407413044,-0.122189614607,5.42119092152,0.10862951003,-0.00807983959821,0.0,-0.0354874371484,0.0,0.0582659047096,0.0,-1.34696685295,0.0,0.0102947392978,0.0,0.000685028609818,0.0,0.00282414959637,0.0,0.0706988335263,0.0,-0.00430246210008,0.0,0.0,0.0,0.0,50.0,-0.0,0.0,0.00230154196664,0.0,0.00230154196664,0.0,-0.0,25.0,-0.0,25.0,131250.0,0.0,0.0,0.0,0.0,0.0,0.0
1402753189447483814,3,-7.57710920816,-0.00591572024346,-1.6407413044,-0.122189614607,5.42119092152,0.10862951003,-0.00807983959821,0.0,-0.0354874371484,0.0,0.0582659047096,0.0,-1.34696685295,0.0,0.0102947392978,0.0,0.000685028609818,0.0,0.00282414959637,0.0,0.0706988335263,0.0,-0.00430246210008,0.0,0.0,0.0,0.0,50.0,-0.0,0.0,0.00230154196664,0.0,0.00230154196664,0.0,-0.0,25.0,-0.0,25.0,131250.0,0.0,0.0,0.0,0.0,0.0,0.0
1402753189467357506,3,-7.57524546687,-0.00591572024346,-1.64163068466,-0.122189614607,5.42049369282,0.10862951003,-0.00902852021074,0.0,-0.0404860436967,0.0,0.0590422508658,0.0,-1.34634687047,0.0,0.0153067449352,0.0,0.00117251025899,0.0,0.0127220417683,0.0,0.0714589386335,0.0,-0.00650688911666,0.0,0.0,0.0,0.0,50.0,-0.0,0.0,0.00230154196664,0.0,0.00230154196664,0.0,-0.0,25.0,-0.0,25.0,131250.0,0.0,0.0,0.0,0.0,0.0,0.0
1402753189488055478,3,-7.57524546687,-0.00591572024346,-1.64163068466,-0.122189614607,5.42049369282,0.10862951003,-0.00902852021074,0.0,-0.0404860436967,0.0,0.0590422508658,0.0,-1.34634687047,0.0,0.0153067449352,0.0,0.00117251025899,0.0,0.0127220417683,0.0,0.0714589386335,0.0,-0.00650688911666,0.0,0.0,0.0,0.0,50.0,-0.0,0.0,0.00230154196664,0.0,0.00230154196664,0.0,-0.0,25.0,-0.0,25.0,131250.0,0.0,0.0,0.0,0.0,0.0,0.0
1402753189507608896,3,-7.57542344258,-0.00591572024346,-1.64250351283,-0.122189614607,5.42172696803,0.10862951003,-0.00741161109116,0.0,-0.0402262675356,0.0,0.0592791118657,0.0,-1.34615675194,0.0,0.0108861254573,0.0,0.00111363393498,0.0,0.00962389201113,0.0,0.0717461078468,0.0,0.00560304337814,0.0,0.0,0.0,0.0,50.0,-0.0,0.0,0.00230154196664,0.0,0.00230154196664,0.0,-0.0,25.0,-0.0,25.0,131250.0,0.0,0.0,0.0,0.0,0.0,0.0
1402753189527481535,3,-7.57542344258,-0.00591572024346,-1.64250351283,-0.122189614607,5.42172696803,0.10862951003,-0.00741161109116,0.0,-0.0402262675356,0.0,0.0592791118657,0.0,-1.34615675194,0.0,0.0108861254573,0.0,0.00111363393498,0.0,0.00962389201113,0.0,0.0717461078468,0.0,0.00560304337814,0.0,0.0,0.0,0.0,50.0,-0.0,0.0,0.00230154196664,25.0,0.00230154196664,25.0,-0.0,25.0,-0.0,25.0,131250.0,0.0,0.0,0.0,0.0,0.0,0.0
1402753189547384950,3,-7.57575617877,-0.00591572024346,-1.64412343297,-0.122189614607,5.42408449574,0.10862951003,-0.00842711557506,0.0,-0.0409328695297,0.0,0.0603287490965,0.0,-1.34563324851,0.0,0.0173089222984,0.0,0.00131483702701,0.0,0.0137998617288,0.0,0.072249767667,0.0,0.000175422070413,0.0,0.0,0.0,0.0,50.0,-0.0,0.0,0.00230154196664,25.0,0.00230154196664,25.0,-0.0,25.0,-0.0,25.0,131250.0,0.0,0.0,0.0,0.0,0.0,0.0
1402753189567455978,3,-7.57575617877,-0.00591572024346,-1.64412343297,-0.122189614607,5.42408449574,0.10862951003,-0.00842711557506,0.0,-0.0409328695297,0.0,0.0603287490965,0.0,-1.34563324851,0.0,0.0173089222984,0.0,0.00131483702701,0.0,0.0137998617288,0.0,0.072249767667,0.0,0.000175422070413,0.0,0.0,0.0,0.0,50.0,-0.0,0.0,0.00230154196664,25.0,0.00230154196664,25.0,-0.0,25.0,-0.0,25.0,131250.0,0.0,0.0,0.0,0.0,0.0,0.0
1402753189587561612,3,-7.57655680357,-0.00591572024346,-1.64028827032,-0.122189614607,5.41551151697,0.10862951003,-0.0157928726143,0.0,-0.0359160852459,0.0,0.0583282169729,0.0,-1.34521894745,0.0,0.0134490909187,0.0,0.00217025425651,0.0,0.00745443628559,0.0,0.0718692930189,0.0,0.011513606668,0.0,0.0,0.0,0.0,50.0,-0.0,0.0,0.00230154196664,25.0,0.00230154196664,25.0,-0.0,25.0,-0.0,25.0,131250.0,0.0,0.0,0.0,0.0,0.0,0.0
1402753189607946202,3,-7.57655680357,-0.00591572024346,-1.64028827032,-0.122189614607,5.41551151697,0.10862951003,-0.0157928726143,0.0,-0.0359160852459,0.0,0.0583282169729,0.0,-1.34521894745,0.0,0.0134490909187,0.0,0.00217025425651,0.0,0.00745443628559,0.0,0.0718692930189,0.0,0.011513606668,0.0,0.0,0.0,0.0,50.0,-0.0,0.0,0.00230154196664,25.0,0.00230154196664,25.0,-0.0,25.0,-0.0,25.0,131250.0,0.0,0.0,0.0,0.0,0.0,0.0
1402753189627316388,3,-7.56791291851,-0.00591572024346,-1.640912561,-0.122189614607,5.41451096636,0.10862951003,0.000307689624094,0.0,-0.0420215723894,0.0,0.0605899830693,0.0,-1.34516680777,0.0,0.0141791630658,0.0,0.00014503720205,0.0,0.00492773718024,0.0,0.0734624580764,0.0,0.00881399018005,0.0,0.0,0.0,0.0,50.0,-0.0,0.0,0.00230154196664,25.0,0.00230154196664,25.0,-0.0,25.0,-0.0,25.0,131250.0,0.0,0.0,0.0,0.0,0.0,0.0
1402753189647837793,3,-7.56791291851,-0.00591572024346,-1.640912561,-0.122189614607,5.41451096636,0.10862951003,0.000307689624094,0.0,-0.0420215723894,0.0,0.0605899830693,0.0,-1.34516680777,0.0,0.0141791630658,0.0,0.00014503720205,0.0,0.00492773718024,0.0,0.0734624580764,0.0,0.00881399018005,0.0,0.0,0.0,0.0,50.0,-0.0,0.0,0.00230154196664,25.0,0.00230154196664,25.0,-0.0,25.0,-0.0,25.0,131250.0,0.0,0.0,0.0,0.0,0.0,0.0
1402753189667699330,3,-7.56817642361,-0.00591572024346,-1.63789748701,-0.122189614607,5.40137644514,0.10862951003,-0.00907711877816,0.0,-0.0420356720206,0.0,0.0581718802683,0.0,-1.34465988836,0.0,0.0156051865669,0.0,0.000835578709192,0.0,0.00345381323217,0.0,0.0732904401218,0.0,0.00825904199602,0.0,0.0,0.0,0.0,50.0,-0.0,0.0,0.00230154196664,25.0,-0.00230160554007,25.0,-0.0,25.0,-0.0,25.0,131250.0,0.0,0.0,0.0,0.0,0.0,0.0
1402753189687405767,3,-7.56817642361,-0.00591572024346,-1.63789748701,-0.122189614607,5.40137644514,0.10862951003,-0.00907711877816,0.0,-0.0420356720206,0.0,0.0581718802683,0.0,-1.34465988836,0.0,0.0156051865669,0.0,0.000835578709192,0.0,0.00345381323217,0.0,0.0732904401218,0.0,0.00825904199602,0.0,0.0,0.0,0.0,50.0,-0.0,0.0,0.00230154196664,25.0,-0.00537029107169,25.0,-0.0,25.0,-0.0,25.0,131250.0,0.0,0.0,0.0,0.0,0.0,0.0
1402753189707843766,3,-7.5618054627,-0.00591572024346,-1.63470845651,-0.122189614607,5.40128857463,0.10862951003,0.00178154007285,0.0,-0.0393750758554,0.0,0.0624264653165,0.0,-1.3445119488,0.0,0.00444497159485,0.0,-0.000618292083828,0.0,-0.0048229512299,0.0,0.0729581086269,0.0,0.00833353082228,0.0,0.0,0.0,0.0,50.0,-0.0,0.0,0.00230154196664,25.0,-0.00537029107169,25.0,-0.0,25.0,-0.0,25.0,131250.0,0.0,0.0,0.0,0.0,0.0,0.0
1402753189727938769,3,-7.5618054627,-0.00591572024346,-1.63470845651,-0.122189614607,5.40128857463,0.10862951003,0.00178154007285,0.0,-0.0393750758554,0.0,0.0624264653165,0.0,-1.3445119488,0.0,0.00444497159485,0.0,-0.000618292083828,0.0,-0.0048229512299,0.0,0.0729581086269,0.0,0.00833353082228,0.0,0.0,0.0,0.0,50.0,-0.0,0.0,0.00230154196664,25.0,-0.00537029107169,25.0,-0.0,25.0,-0.0,25.0,131250.0,0.0,0.0,0.0,0.0,0.0,0.0
1402753189747690406,3,-7.56081558148,-0.00591572024346,-1.63227794573,-0.122189614607,5.40206144394,0.10862951003,-0.00569087447148,0.0,-0.044021233163,0.0,0.069384410351,0.0,-1.34417236166,0.0,0.0090673965606,0.0,-0.000416352914306,0.0,-0.0188347005061,0.0,0.071954333754,0.0,-0.0110328454829,0.0,0.0,0.0,0.0,50.0,-0.0,0.0,0.00230154196664,25.0,-0.00383606751517,25.0,-0.0,25.0,-0.0,25.0,131250.0,0.0,0.0,0.0,0.0,0.0,0.0
1402753189767413037,3,-7.56081558148,-0.00591572024346,-1.63227794573,-0.122189614607,5.40206144394,0.10862951003,-0.00569087447148,0.0,-0.044021233163,0.0,0.069384410351,0.0,-1.34417236166,0.0,0.0090673965606,0.0,-0.000416352914306,0.0,-0.0188347005061,0.0,0.071954333754,0.0,-0.0110328454829,0.0,0.0,0.0,0.0,50.0,-0.0,0.0,0.00230154196664,25.0,-0.00383606751517,25.0,-0.0,25.0,-0.0,25.0,131250.0,0.0,0.0,0.0,0.0,0.0,0.0
1402753189787542513,3,-7.55171552465,-0.00591572024346,-1.62720329967,-0.122189614607,5.39670741942,0.10862951003,0.00824929064514,0.0,-0.0436748024323,0.0,0.0728473948205,0.0,-1.34372551015,0.0,0.0133535689027,0.0,-0.00218491672779,0.0,-0.0157498102734,0.0,0.0712944324497,0.0,0.0159568359087,0.0,0.0,0.0,0.0,50.0,-0.0,0.0,0.00230154196664,25.0,-0.00383606751517,25.0,-0.0,25.0,-0.0,25.0,131250.0,0.0,0.0,0.0,0.0,0.0,0.0
1402753189807589409,3,-7.55171552465,-0.00591572024346,-1.62720329967,-0.122189614607,5.39670741942,0.10862951003,0.00824929064514,0.0,-0.0436748024323,0.0,0.0728473948205,0.0,-1.34372551015,0.0,0.0133535689027,0.0,-0.00218491672779,0.0,-0.0157498102734,0.0,0.0712944324497,0.0,0.0159568359087,0.0,0.0,0.0,0.0,50.0,-0.0,0.0,0.00230154196664,25.0,-0.00383606751517,25.0,-0.0,25.0,-0.0,25.0,131250.0,0.0,0.0,0.0,0.0,0.0,0.0
1402753189827463623,3,-7.55462902731,-0.00591572024346,-1.62743704147,-0.122189614607,5.37790576836,0.10862951003,-0.0124018239066,0.0,-0.0601958974449,0.0,0.0672808822231,0.0,-1.34359927834,0.0,0.013422772619,0.0,6.40592633401e-05,0.0,-0.0186353219689,0.0,0.0715327923597,0.0,0.00232230563842,0.0,0.0,0.0,0.0,50.0,-0.0,0.0,0.00230154196664,25.0,-0.00383606751517,25.0,-0.0,25.0,-0.0,25.0,131250.0,0.0,0.0,0.0,0.0,0.0,0.0
1402753189847513944,3,-7.55462902731,-0.00591572024346,-1.62743704147,-0.122189614607,5.37790576836,0.10862951003,-0.0124018239066,0.0,-0.0601958974449,0.0,0.0672808822231,0.0,-1.34359927834,0.0,0.013422772619,0.0,6.40592633401e-05,0.0,-0.0186353219689,0.0,0.0715327923597,0.0,0.00232230563842,0.0,0.0,0.0,0.0,50.0,-0.0,0.0,0.00230154196664,25.0,-0.00537029107169,25.0,-0.0,25.0,-0.0,25.0,131250.0,0.0,0.0,0.0,0.0,0.0,0.0
1402753189867255078,3,-7.54583353088,-0.00591572024346,-1.61902065713,-0.122189614607,5.36714533943,0.10862951003,-0.00364194834937,0.0,-0.0550465342053,0.0,0.0653192701265,0.0,-1.34305643504,0.0,0.0162203909079,0.0,-0.00134210615531,0.0,-0.0153136760898,0.0,0.0698857489122,0.0,0.00176742878268,0.0,0.0,0.0,0.0,50.0,-0.0,0.0,0.00230154196664,25.0,-0.00383606751517,25.0,-0.0,25.0,-0.0,25.0,131250.0,0.0,0.0,0.0,0.0,0.0,0.0
1402753189887468974,3,-7.54583353088,-0.00591572024346,-1.61902065713,-0.122189614607,5.36714533943,0.10862951003,-0.00364194834937,0.0,-0.0550465342053,0.0,0.0653192701265,0.0,-1.34305643504,0.0,0.0162203909079,0.0,-0.00134210615531,0.0,-0.0153136760898,0.0,0.0698857489122,0.0,0.00176742878268,0.0,0.0,0.0,0.0,50.0,-0.0,0.0,0.00230154196664,25.0,-0.00383606751517,25.0,-0.0,25.0,-0.0,25.0,131250.0,0.0,0.0,0.0,0.0,0.0,0.0
1402753189908225670,3,-7.54590156469,-0.00591572024346,-1.62100408646,-0.122189614607,5.36949249956,0.10862951003,-0.00402252853297,0.0,-0.0589200763713,0.0,0.0669683008449,0.0,-1.34280295634,0.0,0.0112793546972,0.0,-0.00150478561152,0.0,-0.00915104557516,0.0,0.069543975939,0.0,-0.0091771110256,0.0,0.0,0.0,0.0,50.0,-0.0,0.0,0.00230154196664,25.0,-0.00383606751517,25.0,-0.0,25.0,-0.0,25.0,131250.0,0.0,0.0,0.0,0.0,0.0,0.0
1402753189927466743,3,-7.53972427018,-0.00591572024346,-1.61414792676,-0.122189614607,5.35873762353,0.10862951003,-0.00025580499743,0.0,-0.0559022379026,0.0,0.0631215557023,0.0,-1.34257911674,0.0,0.0153317400752,0.0,-0.00195558154752,0.0,-0.018259820012,0.0,0.0688864165957,0.0,-0.00407271242262,0.0,0.0,0.0,0.0,50.0,-0.0,0.0,0.00230154196664,25.0,-0.00383606751517,25.0,-0.0,25.0,-0.0,25.0,131250.0,0.0,0.0,0.0,0.0,0.0,0.0
1402753189948059227,3,-7.53972427018,-0.00591572024346,-1.61414792676,-0.122189614607,5.35873762353,0.10862951003,-0.00025580499743,0.0,-0.0559022379026,0.0,0.0631215557023,0.0,-1.34257911674,0.0,0.0153317400752,0.0,-0.00195558154752,0.0,-0.018259820012,0.0,0.0688864165957,0.0,-0.00407271242262,0.0,0.0,0.0,0.0,50.0,-0.0,0.0,0.00230154196664,25.0,-0.00383606751517,25.0,-0.0,25.0,-0.0,25.0,131250.0,0.0,0.0,0.0,0.0,0.0,0.0
1402753189968078019,3,-7.53976028033,-0.00591572024346,-1.6154050563,-0.122189614607,5.3602214912,0.10862951003,-0.000987577389744,0.0,-0.0586006548377,0.0,0.0638061639774,0.0,-1.34233699661,0.0,0.0151634517426,0.0,-0.00190929589897,0.0,-0.0135131791511,0.0,0.0685575539085,0.0,-0.0103446210673,0.0,0.0,0.0,0.0,50.0,-0.0,0.0,0.00230154196664,25.0,-0.00383606751517,25.0,-0.0,25.0,-0.0,25.0,131250.0,0.0,0.0,0.0,0.0,0.0,0.0
1402753189987462643,3,-7.53976028033,-0.00591572024346,-1.6154050563,-0.122189614607,5.3602214912,0.10862951003,-0.000987577389744,0.0,-0.0586006548377,0.0,0.0638061639774,0.0,-1.34233699661,0.0,0.0151634517426,0.0,-0.00190929589897,0.0,-0.0135131791511,0.0,0.0685575539085,0.0,-0.0103446210673,0.0,0.0,0.0,0.0,50.0,-0.0,0.0,0.00230154196664,25.0,-0.00537029107169,25.0,-0.0,25.0,-0.0,25.0,131250.0,0.0,0.0,0.0,0.0,0.0,0.0
1402753190007594167,3,-7.53182196417,-0.00591572024346,-1.61303997539,-0.122189614607,5.35191701526,0.10862951003,0.0073955012716,0.0,-0.0686272095115,0.0,0.0630123540212,0.0,-1.34188275353,0.0,0.0126888543562,0.0,-0.00244241153234,0.0,-0.00682539452831,0.0,0.0689663780453,0.0,-0.0141943048289,0.0,0.0,0.0,0.0,50.0,-0.0,0.0,0.00230154196664,25.0,-0.00383606751517,25.0,-0.0,25.0,-0.0,25.0,131250.0,0.0,0.0,0.0,0.0,0.0,0.0
1402753190027333929,3,-7.53182196417,-0.00591572024346,-1.61303997539,-0.122189614607,5.35191701526,0.10862951003,0.0073955012716,0.0,-0.0686272095115,0.0,0.0630123540212,0.0,-1.34188275353,0.0,0.0126888543562,0.0,-0.00244241153234,0.0,-0.00682539452831,0.0,0.0689663780453,0.0,-0.0141943048289,0.0,0.0,0.0,0.0,50.0,-0.0,0.0,0.00230154196664,25.0,-0.00383606751517,25.0,-0.0,25.0,-0.0,25.0,131250.0,0.0,0.0,0.0,0.0,0.0,0.0
1402753190047693054,3,-7.52885387855,-0.00591572024346,-1.61103993884,-0.122189614607,5.34370249274,0.10862951003,0.00266281982359,0.0,-0.0777177515044,0.0,0.0625728750117,0.0,-1.34174218624,0.0,0.0158833521593,0.0,-0.00132346098064,0.0,-0.00051889351618,0.0,0.0688730503073,0.0,-0.00772164849918,0.0,0.0,0.0,0.0,50.0,-0.0,0.0,0.00230154196664,25.0,-0.00383606751517,25.0,-0.0,25.0,-0.0,25.0,131250.0,0.0,0.0,0.0,0.0,0.0,0.0
1402753190068190282,3,-7.52885387855,-0.00591572024346,-1.61103993884,-0.122189614607,5.34370249274,0.10862951003,0.00266281982359,0.0,-0.0777177515044,0.0,0.0625728750117,0.0,-1.34174218624,0.0,0.0158833521593,0.0,-0.00132346098064,0.0,-0.00051889351618,0.0,0.0688730503073,0.0,-0.00772164849918,0.0,0.0,0.0,0.0,50.0,-0.0,0.0,0.00230154196664,25.0,-0.00383606751517,25.0,-0.0,25.0,-0.0,25.0,131250.0,0.0,0.0,0.0,0.0,0.0,0.0
1402753190087520266,3,-7.52606939171,-0.00591572024346,-1.6083687489,-0.122189614607,5.33521035281,0.10862951003,-0.00276228842103,0.0,-0.0838281042428,0.0,0.0613343271359,0.0,-1.34174099641,0.0,0.0110947596379,0.0,-0.000216878294292,0.0,4.63125467578e-05,0.0,0.0686258521899,0.0,-0.00633887418771,0.0,0.0,0.0,0.0,50.0,-0.0,0.0,0.00230154196664,25.0,-0.00383606751517,25.0,-0.0,25.0,-0.0,25.0,131250.0,0.0,0.0,0.0,0.0,0.0,0.0
1402753190107622806,3,-7.52606939171,-0.00591572024346,-1.6083687489,-0.122189614607,5.33521035281,0.10862951003,-0.00276228842103,0.0,-0.0838281042428,0.0,0.0613343271359,0.0,-1.34174099641,0.0,0.0110947596379,0.0,-0.000216878294292,0.0,4.63125467578e-05,0.0,0.0686258521899,0.0,-0.00633887418771,0.0,0.0,0.0,0.0,50.0,-0.0,0.0,0.00230154196664,25.0,-0.00383606751517,25.0,-0.0,25.0,-0.0,25.0,131250.0,0.0,0.0,0.0,0.0,0.0,0.0
1402753190127335505,3,-7.5262193583,-0.00591572024346,-1.61190529699,-0.122189614607,5.3376402411,0.10862951003,-0.0022340717702,0.0,-0.0888616378493,0.0,0.0599382730793,0.0,-1.34153674284,0.0,0.00933994182596,0.0,0.000288852648261,0.0,0.00308571278698,0.0,0.0686312084431,0.0,-0.0086892108447,0.0,0.0,0.0,0.0,50.0,-0.0,0.0,0.00230154196664,25.0,-0.00383606751517,25.0,-0.0,25.0,-0.0,25.0,131250.0,0.0,0.0,0.0,0.0,0.0,0.0
1402753190147630992,3,-7.5262193583,-0.00591572024346,-1.61190529699,-0.122189614607,5.3376402411,0.10862951003,-0.0022340717702,0.0,-0.0888616378493,0.0,0.0599382730793,0.0,-1.34153674284,0.0,0.00933994182596,0.0,0.000288852648261,0.0,0.00308571278698,0.0,0.0686312084431,0.0,-0.0086892108447,0.0,0.0,0.0,0.0,50.0,-0.0,0.0,0.00230154196664,25.0,-0.00383606751517,25.0,-0.0,25.0,-0.0,25.0,131250.0,0.0,0.0,0.0,0.0,0.0,0.0
1402753190167944593,3,-7.52163143914,-0.00591572024346,-1.60506516837,-0.122189614607,5.32639289696,0.10862951003,-0.0055876344841,0.0,-0.0870207800121,0.0,0.0586677257834,0.0,-1.34137655431,0.0,0.010916374985,0.0,0.000856893439041,0.0,0.00829742788377,0.0,0.0679797580515,0.0,-0.00723468016954,0.0,0.0,0.0,0.0,50.0,-0.0,0.0,0.00230154196664,25.0,-0.00383606751517,25.0,-0.0,25.0,-0.0,25.0,131250.0,0.0,0.0,0.0,0.0,0.0,0.0
1402753190187490230,3,-7.52163143914,-0.00591572024346,-1.60506516837,-0.122189614607,5.32639289696,0.10862951003,-0.0055876344841,0.0,-0.0870207800121,0.0,0.0586677257834,0.0,-1.34137655431,0.0,0.010916374985,0.0,0.000856893439041,0.0,0.00829742788377,0.0,0.0679797580515,0.0,-0.00723468016954,0.0,0.0,0.0,0.0,50.0,-0.0,0.0,0.00230154196664,25.0,-0.00383606751517,25.0,-0.0,25.0,-0.0,25.0,131250.0,0.0,0.0,0.0,0.0,0.0,0.0
1402753190207570953,3,-7.52107948141,-0.00591572024346,-1.59946962748,-0.122189614607,5.31476943798,0.10862951003,-0.0184716931906,0.0,-0.0866319492837,0.0,0.058281001499,0.0,-1.3414581309,0.0,0.00942067390135,0.0,0.00261462654609,0.0,0.0101695555746,0.0,0.0672907369395,0.0,-0.00464135663612,0.0,0.0,0.0,0.0,50.0,-0.0,0.0,0.00230154196664,25.0,-0.00383606751517,25.0,-0.0,25.0,-0.0,25.0,131250.0,0.0,0.0,0.0,0.0,0.0,0.0
1402753190227408573,3,-7.52107948141,-0.00591572024346,-1.59946962748,-0.122189614607,5.31476943798,0.10862951003,-0.0184716931906,0.0,-0.0866319492837,0.0,0.058281001499,0.0,-1.3414581309,0.0,0.00942067390135,0.0,0.00261462654609,0.0,0.0101695555746,0.0,0.0672907369395,0.0,-0.00464135663612,0.0,0.0,0.0,0.0,50.0,-0.0,0.0,0.00230154196664,25.0,-0.00383606751517,25.0,-0.0,25.0,-0.0,25.0,131250.0,0.0,0.0,0.0,0.0,0.0,0.0
1402753190247564791,3,-7.50878025975,-0.00591572024346,-1.58814914493,-0.122189614607,5.2948532526,0.10862951003,-0.00187105249242,0.0,-0.0816717811864,0.0,0.0556052121652,0.0,-1.34093259305,0.0,0.00519623310345,0.0,0.000981481343084,0.0,0.00908891928428,0.0,0.067274222413,0.0,0.00347610637237,0.0,0.0,0.0,0.0,50.0,-0.0,0.0,0.00230154196664,25.0,-0.00537029107169,25.0,-0.0,25.0,-0.0,25.0,131250.0,0.0,0.0,0.0,0.0,0.0,0.0
1402753190267618509,3,-7.50878025975,-0.00591572024346,-1.58814914493,-0.122189614607,5.2948532526,0.10862951003,-0.00187105249242,0.0,-0.0816717811864,0.0,0.0556052121652,0.0,-1.34093259305,0.0,0.00519623310345,0.0,0.000981481343084,0.0,0.00908891928428,0.0,0.067274222413,0.0,0.00347610637237,0.0,0.0,0.0,0.0,50.0,-0.0,0.0,0.00230154196664,25.0,-0.00383606751517,25.0,-0.0,25.0,-0.0,25.0,131250.0,0.0,0.0,0.0,0.0,0.0,0.0
1402753190287360423,3,-7.50021987718,-0.00591572024346,-1.5840307717,-0.122189614607,5.27939017995,0.10862951003,0.00456731872274,0.0,-0.0934293600278,0.0,0.0556486063271,0.0,-1.34049586432,0.0,0.00958332477668,0.0,0.000500700531314,0.0,0.0122571979413,0.0,0.0688814549867,0.0,-0.00132638575108,0.0,0.0,0.0,0.0,50.0,-0.0,0.0,0.00230154196664,25.0,-0.00383606751517,25.0,-0.0,25.0,-0.0,25.0,131250.0,0.0,0.0,0.0,0.0,0.0,0.0
1402753190307546706,3,-7.50021987718,-0.00591572024346,-1.5840307717,-0.122189614607,5.27939017995,0.10862951003,0.00456731872274,0.0,-0.0934293600278,0.0,0.0556486063271,0.0,-1.34049586432,0.0,0.00958332477668,0.0,0.000500700531314,0.0,0.0122571979413,0.0,0.0688814549867,0.0,-0.00132638575108,0.0,0.0,0.0,0.0,50.0,-0.0,0.0,0.00230154196664,25.0,-0.00383606751517,25.0,-0.0,25.0,-0.0,25.0,131250.0,0.0,0.0,0.0,0.0,0.0,0.0
1402753190327516610,3,-7.49999651377,-0.00591572024346,-1.58799207245,-0.122189614607,5.28169440025,0.10862951003,0.00548447235734,0.0,-0.0967696551327,0.0,0.056646024832,0.0,-1.34013115793,0.0,0.0110088034972,0.0,0.000658786555056,0.0,0.0104949862803,0.0,0.0692975842572,0.0,0.00134258390478,0.0,0.0,0.0,0.0,50.0,-0.0,0.0,0.00230154196664,25.0,-0.00537029107169,25.0,-0.0,25.0,-0.0,25.0,131250.0,0.0,0.0,0.0,0.0,0.0,0.0
1402753190347455720,3,-7.49999651377,-0.00591572024346,-1.58799207245,-0.122189614607,5.28169440025,0.10862951003,0.00548447235734,0.0,-0.0967696551327,0.0,0.056646024832,0.0,-1.34013115793,0.0,0.0110088034972,0.0,0.000658786555056,0.0,0.0104949862803,0.0,0.0692975842572,0.0,0.00134258390478,0.0,0.0,0.0,0.0,50.0,-0.0,0.0,0.00230154196664,25.0,-0.00383606751517,25.0,-0.0,25.0,-0.0,25.0,131250.0,0.0,0.0,0.0,0.0,0.0,0.0
1402753190368032654,3,-7.4885315418,-0.00591572024346,-1.57297562638,-0.122189614607,5.24433305686,0.10862951003,0.0058631727487,0.0,-0.100947506562,0.0,0.0548804446778,0.0,-1.34049565451,0.0,0.00587324191839,0.0,0.000846480612679,0.0,0.00452422554859,0.0,0.069880597171,0.0,0.00746557339817,0.0,0.0,0.0,0.0,50.0,-0.0,0.0,0.00230154196664,25.0,-0.00383606751517,25.0,-0.0,25.0,-0.0,25.0,131250.0,0.0,0.0,0.0,0.0,0.0,0.0
1402753190387509180,3,-7.4885315418,-0.00591572024346,-1.57297562638,-0.122189614607,5.24433305686,0.10862951003,0.0058631727487,0.0,-0.100947506562,0.0,0.0548804446778,0.0,-1.34049565451,0.0,0.00587324191839,0.0,0.000846480612679,0.0,0.00452422554859,0.0,0.069880597171,0.0,0.00746557339817,0.0,0.0,0.0,0.0,50.0,-0.0,0.0,0.00230154196664,25.0,-0.00383606751517,25.0,-0.0,25.0,-0.0,25.0,131250.0,0.0,0.0,0.0,0.0,0.0,0.0
1402753190407572042,3,-7.48833320644,-0.00591572024346,-1.5782641506,-0.122189614607,5.2470225998,0.10862951003,0.00580891411527,0.0,-0.105037724539,0.0,0.056582653398,0.0,-1.34006916683,0.0,0.0119924498499,0.0,0.000638156743778,0.0,0.000543634657091,0.0,0.0701200823782,0.0,0.007000209179,0.0,0.0,0.0,0.0,50.0,-0.0,0.0,0.00230154196664,25.0,-0.00383606751517,25.0,-0.0,25.0,-0.0,25.0,131250.0,0.0,0.0,0.0,0.0,0.0,0.0
1402753190427479021,3,-7.48833320644,-0.00591572024346,-1.5782641506,-0.122189614607,5.2470225998,0.10862951003,0.00580891411527,0.0,-0.105037724539,0.0,0.056582653398,0.0,-1.34006916683,0.0,0.0119924498499,0.0,0.000638156743778,0.0,0.000543634657091,0.0,0.0701200823782,0.0,0.007000209179,0.0,0.0,0.0,0.0,50.0,-0.0,0.0,0.00230154196664,25.0,-0.00383606751517,25.0,-0.0,25.0,-0.0,25.0,131250.0,0.0,0.0,0.0,0.0,0.0,0.0
1402753190447500465,3,-7.48595061757,-0.00591572024346,-1.57477666483,-0.122189614607,5.22565615992,0.10862951003,-0.00334559042601,0.0,-0.116815011005,0.0,0.0535230359774,0.0,-1.34023594685,0.0,0.00979730319416,0.0,0.00185016713608,0.0,-0.0036530755192,0.0,0.0710443937345,0.0,0.00309255584638,0.0,0.0,0.0,0.0,50.0,-0.0,0.0,0.00230154196664,25.0,-0.00383606751517,25.0,-0.0,25.0,-0.0,25.0,131250.0,0.0,0.0,0.0,0.0,0.0,0.0
1402753190467562243,3,-7.48595061757,-0.00591572024346,-1.57477666483,-0.122189614607,5.22565615992,0.10862951003,-0.00334559042601,0.0,-0.116815011005,0.0,0.0535230359774,0.0,-1.34023594685,0.0,0.00979730319416,0.0,0.00185016713608,0.0,-0.0036530755192,0.0,0.0710443937345,0.0,0.00309255584638,0.0,0.0,0.0,0.0,50.0,-0.0,0.0,0.00230154196664,25.0,-0.00383606751517,25.0,-0.0,25.0,-0.0,25.0,131250.0,0.0,0.0,0.0,0.0,0.0,0.0
1402753190487987252,3,-7.48091775779,-0.00591572024346,-1.57377840472,-0.122189614607,5.22502590691,0.10862951003,-0.0045262319269,0.0,-0.122822692238,0.0,0.0623588332669,0.0,-1.34008200774,0.0,0.0085912749443,0.0,0.00171666205604,0.0,-0.00108885695761,0.0,0.0712398351438,0.0,0.00378084314152,0.0,0.0,0.0,0.0,50.0,-0.0,0.0,0.00230154196664,25.0,-0.00383606751517,25.0,-0.0,25.0,-0.0,25.0,131250.0,0.0,0.0,0.0,0.0,0.0,0.0
1402753190507494550,3,-7.48091775779,-0.00591572024346,-1.57377840472,-0.122189614607,5.22502590691,0.10862951003,-0.0045262319269,0.0,-0.122822692238,0.0,0.0623588332669,0.0,-1.34008200774,0.0,0.0085912749443,0.0,0.00171666205604,0.0,-0.00108885695761,0.0,0.0712398351438,0.0,0.00378084314152,0.0,0.0,0.0,0.0,50.0,-0.0,0.0,0.00230154196664,25.0,-0.00383606751517,25.0,-0.0,25.0,-0.0,25.0,131250.0,0.0,0.0,0.0,0.0,0.0,0.0
1402753190527437068,3,-7.48102243861,-0.00591572024346,-1.57886400436,-0.122189614607,5.22753311049,0.10862951003,-0.00512507111264,0.0,-0.127220863697,0.0,0.0660327615355,0.0,-1.33989324466,0.0,0.00885004218241,0.0,0.00163838566678,0.0,0.00456476144658,0.0,0.0712875397245,0.0,-0.00241680462606,0.0,0.0,0.0,0.0,50.0,-0.0,0.0,0.00230154196664,25.0,-0.00383606751517,25.0,-0.0,25.0,-0.0,25.0,131250.0,0.0,0.0,0.0,0.0,0.0,0.0
1402753190547542160,3,-7.48102243861,-0.00591572024346,-1.57886400436,-0.122189614607,5.22753311049,0.10862951003,-0.00512507111264,0.0,-0.127220863697,0.0,0.0660327615355,0.0,-1.33989324466,0.0,0.00885004218241,0.0,0.00163838566678,0.0,0.00456476144658,0.0,0.0712875397245,0.0,-0.00241680462606,0.0,0.0,0.0,0.0,50.0,-0.0,0.0,0.00230154196664,25.0,-0.00383606751517,25.0,-0.0,25.0,-0.0,25.0,131250.0,0.0,0.0,0.0,0.0,0.0,0.0
1402753190568092334,3,-7.47222327039,-0.00591572024346,-1.57258478414,-0.122189614607,5.21239022301,0.10862951003,0.000274811027735,0.0,-0.124409463877,0.0,0.0660515712583,0.0,-1.33965138552,0.0,0.0081775837002,0.0,0.000802170400292,0.0,-0.0052449672676,0.0,0.0707916865039,0.0,0.00169950445464,0.0,0.0,0.0,0.0,50.0,-0.0,0.0,0.00230154196664,25.0,-0.00383606751517,25.0,-0.0,25.0,-0.0,25.0,131250.0,0.0,0.0,0.0,0.0,0.0,0.0
1402753190587988793,3,-7.47222327039,-0.00591572024346,-1.57258478414,-0.122189614607,5.21239022301,0.10862951003,0.000274811027735,0.0,-0.124409463877,0.0,0.0660515712583,0.0,-1.33965138552,0.0,0.0081775837002,0.0,0.000802170400292,0.0,-0.0052449672676,0.0,0.0707916865039,0.0,0.00169950445464,0.0,0.0,0.0,0.0,50.0,-0.0,0.0,0.00230154196664,25.0,-0.00383606751517,25.0,-0.0,25.0,-0.0,25.0,131250.0,0.0,0.0,0.0,0.0,0.0,0.0
1402753190607650632,3,-7.47214068734,-0.00591572024346,-1.57757549567,-0.122189614607,5.21492304741,0.10862951003,0.000326321791292,0.0,-0.12766227078,0.0,0.0682628784221,0.0,-1.3395387341,0.0,0.00465320379324,0.0,0.00072302294532,0.0,-0.003579379536,0.0,0.0706361811374,0.0,0.00234860646864,0.0,0.0,0.0,0.0,50.0,-0.0,0.0,0.00230154196664,25.0,-0.00383606751517,25.0,-0.0,25.0,-0.0,25.0,131250.0,0.0,0.0,0.0,0.0,0.0,0.0
1402753190627631732,3,-7.47214068734,-0.00591572024346,-1.57757549567,-0.122189614607,5.21492304741,0.10862951003,0.000326321791292,0.0,-0.12766227078,0.0,0.0682628784221,0.0,-1.3395387341,0.0,0.00465320379324,0.0,0.00072302294532,0.0,-0.003579379536,0.0,0.0706361811374,0.0,0.00234860646864,0.0,0.0,0.0,0.0,50.0,-0.0,0.0,0.00230154196664,25.0,-0.00383606751517,25.0,-0.0,25.0,-0.0,25.0,131250.0,0.0,0.0,0.0,0.0,0.0,0.0
1402753190647506588,3,-7.4685975686,-0.00591572024346,-1.57457150368,-0.122189614607,5.18888177529,0.10862951003,-0.0073665005472,0.0,-0.138880716919,0.0,0.0651129801499,0.0,-1.33969831377,0.0,0.00248232882641,0.0,0.00167756352358,0.0,0.0021157021335,0.0,0.0711912669583,0.0,0.00418625919748,0.0,0.0,0.0,0.0,50.0,-0.0,0.0,0.00230154196664,25.0,-0.00383606751517,25.0,-0.0,25.0,-0.0,25.0,131250.0,0.0,0.0,0.0,0.0,0.0,0.0
1402753190667510773,3,-7.4685975686,-0.00591572024346,-1.57457150368,-0.122189614607,5.18888177529,0.10862951003,-0.0073665005472,0.0,-0.138880716919,0.0,0.0651129801499,0.0,-1.33969831377,0.0,0.00248232882641,0.0,0.00167756352358,0.0,0.0021157021335,0.0,0.0711912669583,0.0,0.00418625919748,0.0,0.0,0.0,0.0,50.0,-0.0,0.0,0.00230154196664,25.0,-0.00383606751517,25.0,-0.0,25.0,-0.0,25.0,131250.0,0.0,0.0,0.0,0.0,0.0,0.0
1402753190687498076,3,-7.45502142634,-0.00591572024346,-1.56373351292,-0.122189614607,5.15701726235,0.10862951003,-0.00538311748335,0.0,-0.14394257441,0.0,0.0654913973235,0.0,-1.33967144274,0.0,0.00808229577966,0.0,0.00134404166728,0.0,0.00148895136783,0.0,0.0713564651816,0.0,-0.0013777616032,0.0,0.0,0.0,0.0,50.0,-0.0,0.0,0.00230154196664,25.0,-0.00383606751517,25.0,-0.0,25.0,-0.0,25.0,131250.0,0.0,0.0,0.0,0.0,0.0,0.0
1402753190707591457,3,-7.45502142634,-0.00591572024346,-1.56373351292,-0.122189614607,5.15701726235,0.10862951003,-0.00538311748335,0.0,-0.14394257441,0.0,0.0654913973235,0.0,-1.33967144274,0.0,0.00808229577966,0.0,0.00134404166728,0.0,0.00148895136783,0.0,0.0713564651816,0.0,-0.0013777616032,0.0,0.0,0.0,0.0,50.0,-0.0,0.0,0.00230154196664,25.0,-0.00383606751517,25.0,-0.0,25.0,-0.0,25.0,131250.0,0.0,0.0,0.0,0.0,0.0,0.0
1402753190727567688,3,-7.45520568163,-0.00591572024346,-1.56827424601,-0.122189614607,5.1590548755,0.10862951003,-0.00523851859476,0.0,-0.146979498501,0.0,0.0656962779531,0.0,-1.33966002017,0.0,0.00107957335309,0.0,0.00134328047663,0.0,0.00375884193573,0.0,0.0713456175067,0.0,-0.00760961706645,0.0,0.0,0.0,0.0,50.0,-0.0,0.0,0.00230154196664,25.0,-0.00383606751517,25.0,-0.0,25.0,-0.0,25.0,131250.0,0.0,0.0,0.0,0.0,0.0,0.0
1402753190747482246,3,-7.4475116621,-0.00591572024346,-1.55962543246,-0.122189614607,5.1302710992,0.10862951003,-0.00326994181318,0.0,-0.149807618365,0.0,0.0619231176199,0.0,-1.33980274695,0.0,0.00380475828897,0.0,0.00130714390312,0.0,0.00473952509232,0.0,0.0716706013208,0.0,-0.00166558100288,0.0,0.0,0.0,0.0,50.0,-0.0,0.0,0.00230154196664,25.0,-0.00383606751517,25.0,-0.0,25.0,-0.0,25.0,131250.0,0.0,0.0,0.0,0.0,0.0,0.0
1402753190767672202,3,-7.4475116621,-0.00591572024346,-1.55962543246,-0.122189614607,5.1302710992,0.10862951003,-0.00326994181318,0.0,-0.149807618365,0.0,0.0619231176199,0.0,-1.33980274695,0.0,0.00380475828897,0.0,0.00130714390312,0.0,0.00473952509232,0.0,0.0716706013208,0.0,-0.00166558100288,0.0,0.0,0.0,0.0,50.0,-0.0,0.0,0.00230154196664,25.0,-0.00383606751517,25.0,-0.0,25.0,-0.0,25.0,131250.0,0.0,0.0,0.0,0.0,0.0,0.0
1402753190787539952,3,-7.44752639404,-0.00591572024346,-1.56279188648,-0.122189614607,5.13153968464,0.10862951003,-0.00334801121728,0.0,-0.151404803686,0.0,0.0610588724352,0.0,-1.33983986164,0.0,0.00147830175821,0.0,0.0013859979339,0.0,0.000966381249912,0.0,0.0716917039634,0.0,-0.00249521772107,0.0,0.0,0.0,0.0,50.0,-0.0,0.0,0.00230154196664,25.0,-0.00383606751517,25.0,-0.0,25.0,-0.0,25.0,131250.0,0.0,0.0,0.0,0.0,0.0,0.0
1402753190807528239,3,-7.44752639404,-0.00591572024346,-1.56279188648,-0.122189614607,5.13153968464,0.10862951003,-0.00334801121728,0.0,-0.151404803686,0.0,0.0610588724352,0.0,-1.33983986164,0.0,0.00147830175821,0.0,0.0013859979339,0.0,0.000966381249912,0.0,0.0716917039634,0.0,-0.00249521772107,0.0,0.0,0.0,0.0,50.0,-0.0,0.0,0.00230154196664,25.0,-0.00383606751517,25.0,-0.0,25.0,-0.0,25.0,131250.0,0.0,0.0,0.0,0.0,0.0,0.0
1402753190827738922,3,-7.44651561513,-0.00591572024346,-1.56094994646,-0.122189614607,5.12278438577,0.10862951003,-0.0159540732577,0.0,-0.154479343528,0.0,0.0653608192285,0.0,-1.33992333965,0.0,0.00601677628126,0.0,0.00285196414214,0.0,-0.000695662941939,0.0,0.0711491144019,0.0,-0.00128447586888,0.0,0.0,0.0,0.0,50.0,-0.0,0.0,0.00230154196664,25.0,-0.00383606751517,25.0,-0.0,25.0,-0.0,25.0,131250.0,0.0,0.0,0.0,0.0,0.0,0.0
1402753190847623509,3,-7.44651561513,-0.00591572024346,-1.56094994646,-0.122189614607,5.12278438577,0.10862951003,-0.0159540732577,0.0,-0.154479343528,0.0,0.0653608192285,0.0,-1.33992333965,0.0,0.00601677628126,0.0,0.00285196414214,0.0,-0.000695662941939,0.0,0.0711491144019,0.0,-0.00128447586888,0.0,0.0,0.0,0.0,50.0,-0.0,0.0,0.00230154196664,25.0,-0.00383606751517,25.0,-0.0,25.0,-0.0,25.0,131250.0,0.0,0.0,0.0,0.0,0.0,0.0
1402753190867478027,3,-7.43606287131,-0.00591572024346,-1.55708976563,-0.122189614607,5.09746004672,0.10862951003,-0.00599546141404,0.0,-0.161445667257,0.0,0.0605459838685,0.0,-1.3398462715,0.0,0.0084805913911,0.0,0.00180897315106,0.0,-0.000670643376463,0.0,0.0719821167137,0.0,-0.000896953723313,0.0,0.0,0.0,0.0,50.0,-0.0,0.0,0.00230154196664,25.0,-0.00537029107169,25.0,-0.0,25.0,-0.0,25.0,131250.0,0.0,0.0,0.0,0.0,0.0,0.0
1402753190887483877,3,-7.43606287131,-0.00591572024346,-1.55708976563,-0.122189614607,5.09746004672,0.10862951003,-0.00599546141404,0.0,-0.161445667257,0.0,0.0605459838685,0.0,-1.3398462715,0.0,0.0084805913911,0.0,0.00180897315106,0.0,-0.000670643376463,0.0,0.0719821167137,0.0,-0.000896953723313,0.0,0.0,0.0,0.0,50.0,-0.0,0.0,0.00230154196664,25.0,-0.00383606751517,25.0,-0.0,25.0,-0.0,25.0,131250.0,0.0,0.0,0.0,0.0,0.0,0.0
1402753190908089091,3,-7.42914329531,-0.00591572024346,-1.55347414488,-0.122189614607,5.08385271717,0.10862951003,-0.00391412429337,0.0,-0.161532467861,0.0,0.0612150034306,0.0,-1.33981408429,0.0,0.0110773116955,0.0,0.00142547498798,0.0,-0.00329423375403,0.0,0.0715193029703,0.0,0.00398670724006,0.0,0.0,0.0,0.0,50.0,-0.0,0.0,0.00230154196664,25.0,-0.00383606751517,25.0,-0.0,25.0,-0.0,25.0,131250.0,0.0,0.0,0.0,0.0,0.0,0.0
1402753190927493744,3,-7.42914329531,-0.00591572024346,-1.55347414488,-0.122189614607,5.08385271717,0.10862951003,-0.00391412429337,0.0,-0.161532467861,0.0,0.0612150034306,0.0,-1.33981408429,0.0,0.0110773116955,0.0,0.00142547498798,0.0,-0.00329423375403,0.0,0.0715193029703,0.0,0.00398670724006,0.0,0.0,0.0,0.0,50.0,-0.0,0.0,0.00230154196664,25.0,-0.00383606751517,25.0,-0.0,25.0,-0.0,25.0,131250.0,0.0,0.0,0.0,0.0,0.0,0.0
1402753190947645227,3,-7.42809988071,-0.00591572024346,-1.5529170361,-0.122189614607,5.07595993888,0.10862951003,-0.0158331353996,0.0,-0.164516294231,0.0,0.0637754086557,0.0,-1.33981664719,0.0,0.00923440383997,0.0,0.00258019948374,0.0,-0.00151058624012,0.0,0.0709119291901,0.0,0.000224181741506,0.0,0.0,0.0,0.0,50.0,-0.0,0.0,0.00230154196664,25.0,-0.00383606751517,25.0,-0.0,25.0,-0.0,25.0,131250.0,0.0,0.0,0.0,0.0,0.0,0.0
1402753190967545007,3,-7.42809988071,-0.00591572024346,-1.5529170361,-0.122189614607,5.07595993888,0.10862951003,-0.0158331353996,0.0,-0.164516294231,0.0,0.0637754086557,0.0,-1.33981664719,0.0,0.00923440383997,0.0,0.00258019948374,0.0,-0.00151058624012,0.0,0.0709119291901,0.0,0.000224181741506,0.0,0.0,0.0,0.0,50.0,-0.0,0.0,0.00230154196664,25.0,-0.00383606751517,25.0,-0.0,25.0,-0.0,25.0,131250.0,0.0,0.0,0.0,0.0,0.0,0.0
1402753190987960969,3,-7.41710295432,-0.00591572024346,-1.54705760253,-0.122189614607,5.05389709883,0.10862951003,-0.00283177057251,0.0,-0.164812192161,0.0,0.061735221763,0.0,-1.33963350058,0.0,0.0067538999466,0.0,0.00101562911374,0.0,0.00288102443387,0.0,0.070960637568,0.0,0.0100842486667,0.0,0.0,0.0,0.0,50.0,-0.0,0.0,0.00230154196664,25.0,-0.00383606751517,25.0,-0.0,25.0,-0.0,25.0,131250.0,0.0,0.0,0.0,0.0,0.0,0.0
1402753191007859732,3,-7.41710295432,-0.00591572024346,-1.54705760253,-0.122189614607,5.05389709883,0.10862951003,-0.00283177057251,0.0,-0.164812192161,0.0,0.061735221763,0.0,-1.33963350058,0.0,0.0067538999466,0.0,0.00101562911374,0.0,0.00288102443387,0.0,0.070960637568,0.0,0.0100842486667,0.0,0.0,0.0,0.0,50.0,-0.0,0.0,0.00230154196664,25.0,-0.00383606751517,25.0,-0.0,25.0,-0.0,25.0,131250.0,0.0,0.0,0.0,0.0,0.0,0.0
1402753191027574047,3,-7.41717910528,-0.00591572024346,-1.55396345843,-0.122189614607,5.05651081811,0.10862951003,-0.00384301014066,0.0,-0.168939413214,0.0,0.0630545286295,0.0,-1.33944944067,0.0,0.00628252755878,0.0,0.000958259614841,0.0,0.0028902241035,0.0,0.0710850417707,0.0,0.00329559445874,0.0,0.0,0.0,0.0,50.0,-0.0,0.0,0.00230154196664,25.0,-0.00383606751517,25.0,-0.0,25.0,-0.0,25.0,131250.0,0.0,0.0,0.0,0.0,0.0,0.0
1402753191047519057,3,-7.41717910528,-0.00591572024346,-1.55396345843,-0.122189614607,5.05651081811,0.10862951003,-0.00384301014066,0.0,-0.168939413214,0.0,0.0630545286295,0.0,-1.33944944067,0.0,0.00628252755878,0.0,0.000958259614841,0.0,0.0028902241035,0.0,0.0710850417707,0.0,0.00329559445874,0.0,0.0,0.0,0.0,50.0,-0.0,0.0,0.00230154196664,25.0,-0.00383606751517,25.0,-0.0,25.0,-0.0,25.0,131250.0,0.0,0.0,0.0,0.0,0.0,0.0
1402753191067754318,3,-7.40614520505,-0.00591572024346,-1.54832094554,-0.122189614607,5.03152729811,0.10862951003,0.00474613311193,0.0,-0.171546053367,0.0,0.0604549327035,0.0,-1.3393222999,0.0,0.0111663499109,0.0,-4.80394710099e-05,0.0,0.00452860802425,0.0,0.0714756776878,0.0,0.00070456688253,0.0,0.0,0.0,0.0,50.0,-0.0,0.0,0.00230154196664,25.0,-0.00383606751517,25.0,-0.0,25.0,-0.0,25.0,131250.0,0.0,0.0,0.0,0.0,0.0,0.0
1402753191087440522,3,-7.40614520505,-0.00591572024346,-1.54832094554,-0.122189614607,5.03152729811,0.10862951003,0.00474613311193,0.0,-0.171546053367,0.0,0.0604549327035,0.0,-1.3393222999,0.0,0.0111663499109,0.0,-4.80394710099e-05,0.0,0.00452860802425,0.0,0.0714756776878,0.0,0.00070456688253,0.0,0.0,0.0,0.0,50.0,-0.0,0.0,0.00230154196664,25.0,-0.00383606751517,25.0,-0.0,25.0,-0.0,25.0,131250.0,0.0,0.0,0.0,0.0,0.0,0.0
1402753191107586954,3,-7.40734469111,-0.00591572024346,-1.54824496228,-0.122189614607,5.02429336103,0.10862951003,-0.0114523060178,0.0,-0.175160240107,0.0,0.0651570241322,0.0,-1.33949866617,0.0,0.0019157635951,0.0,0.0017804999984,0.0,0.00183484042465,0.0,0.0708383726239,0.0,0.00393490914907,0.0,0.0,0.0,0.0,50.0,-0.0,0.0,0.00230154196664,25.0,-0.00383606751517,25.0,-0.0,25.0,-0.0,25.0,131250.0,0.0,0.0,0.0,0.0,0.0,0.0
1402753191128088681,3,-7.40734469111,-0.00591572024346,-1.54824496228,-0.122189614607,5.02429336103,0.10862951003,-0.0114523060178,0.0,-0.175160240107,0.0,0.0651570241322,0.0,-1.33949866617,0.0,0.0019157635951,0.0,0.0017804999984,0.0,0.00183484042465,0.0,0.0708383726239,0.0,0.00393490914907,0.0,0.0,0.0,0.0,50.0,-0.0,0.0,0.00230154196664,25.0,-0.00383606751517,25.0,-0.0,25.0,-0.0,25.0,131250.0,0.0,0.0,0.0,0.0,0.0,0.0
1402753191147635294,3,-7.39459985799,-0.00591572024346,-1.54036121944,-0.122189614607,5.01009698044,0.10862951003,0.00422194843336,0.0,-0.164237388678,0.0,0.0676884986646,0.0,-1.33954984907,0.0,-0.000818746038147,0.0,-0.000371506952341,0.0,0.00536232540862,0.0,0.0699664129837,0.0,0.000528911437866,0.0,0.0,0.0,0.0,50.0,-0.0,0.0,0.00230154196664,25.0,-0.00383606751517,25.0,-0.0,25.0,-0.0,25.0,131250.0,0.0,0.0,0.0,0.0,0.0,0.0
1402753191167684786,3,-7.39459985799,-0.00591572024346,-1.54036121944,-0.122189614607,5.01009698044,0.10862951003,0.00422194843336,0.0,-0.164237388678,0.0,0.0676884986646,0.0,-1.33954984907,0.0,-0.000818746038147,0.0,-0.000371506952341,0.0,0.00536232540862,0.0,0.0699664129837,0.0,0.000528911437866,0.0,0.0,0.0,0.0,50.0,-0.0,0.0,0.00230154196664,25.0,-0.00383606751517,25.0,-0.0,25.0,-0.0,25.0,131250.0,0.0,0.0,0.0,0.0,0.0,0.0
1402753191187506891,3,-7.39215746768,-0.00591572024346,-1.54586390258,-0.122189614607,4.99665423396,0.10862951003,-0.00356384328019,0.0,-0.188136117531,0.0,0.0692152048848,0.0,-1.339481379,0.0,0.00280790534686,0.0,0.000898073394929,0.0,0.00390140292559,0.0,0.0721945708778,0.0,0.00287463284191,0.0,0.0,0.0,0.0,50.0,-0.0,0.0,0.00230154196664,25.0,-0.00383606751517,25.0,-0.0,25.0,-0.0,25.0,131250.0,0.0,0.0,0.0,0.0,0.0,0.0
1402753191207477062,3,-7.39215746768,-0.00591572024346,-1.54586390258,-0.122189614607,4.99665423396,0.10862951003,-0.00356384328019,0.0,-0.188136117531,0.0,0.0692152048848,0.0,-1.339481379,0.0,0.00280790534686,0.0,0.000898073394929,0.0,0.00390140292559,0.0,0.0721945708778,0.0,0.00287463284191,0.0,0.0,0.0,0.0,50.0,-0.0,0.0,0.00230154196664,25.0,-0.00383606751517,25.0,-0.0,25.0,-0.0,25.0,131250.0,0.0,0.0,0.0,0.0,0.0,0.0
1402753191227531901,3,-7.38523521846,-0.00591572024346,-1.5454282076,-0.122189614607,4.97567561172,0.10862951003,-0.00105099200326,0.0,-0.19290223206,0.0,0.0678074180203,0.0,-1.33961778417,0.0,0.00112986665311,0.0,0.000780677413311,0.0,0.00430700745821,0.0,0.0725110472555,0.0,0.00115996553977,0.0,0.0,0.0,0.0,50.0,-0.0,0.0,0.00230154196664,25.0,-0.00383606751517,25.0,-0.0,25.0,-0.0,25.0,131250.0,0.0,0.0,0.0,0.0,0.0,0.0
1402753191247483870,3,-7.38523521846,-0.00591572024346,-1.5454282076,-0.122189614607,4.97567561172,0.10862951003,-0.00105099200326,0.0,-0.19290223206,0.0,0.0678074180203,0.0,-1.33961778417,0.0,0.00112986665311,0.0,0.000780677413311,0.0,0.00430700745821,0.0,0.0725110472555,0.0,0.00115996553977,0.0,0.0,0.0,0.0,50.0,-0.0,0.0,0.00230154196664,25.0,-0.00383606751517,25.0,-0.0,25.0,-0.0,25.0,131250.0,0.0,0.0,0.0,0.0,0.0,0.0
1402753191267737034,3,-7.37545421325,-0.00591572024346,-1.54281003684,-0.122189614607,4.95552945357,0.10862951003,0.00906390135182,0.0,-0.18995042255,0.0,0.0650592324904,0.0,-1.33968271135,0.0,-0.0018288636358,0.0,-0.000163606662039,0.0,-0.000417957492641,0.0,0.0721406079033,0.0,-0.00576064783628,0.0,0.0,0.0,0.0,50.0,-0.0,0.0,0.00230154196664,25.0,-0.00383606751517,25.0,-0.0,25.0,-0.0,25.0,131250.0,0.0,0.0,0.0,0.0,0.0,0.0
1402753191287703661,3,-7.37545421325,-0.00591572024346,-1.54281003684,-0.122189614607,4.95552945357,0.10862951003,0.00906390135182,0.0,-0.18995042255,0.0,0.0650592324904,0.0,-1.33968271135,0.0,-0.0018288636358,0.0,-0.000163606662039,0.0,-0.000417957492641,0.0,0.0721406079033,0.0,-0.00576064783628,0.0,0.0,0.0,0.0,50.0,-0.0,0.0,0.00230154196664,25.0,-0.00383606751517,25.0,-0.0,25.0,-0.0,25.0,131250.0,0.0,0.0,0.0,0.0,0.0,0.0
1402753191307585610,3,-7.37533247633,-0.00591572024346,-1.54683142243,-0.122189614607,4.95708182119,0.10862951003,0.00889609883743,0.0,-0.191532245422,0.0,0.0647851711633,0.0,-1.33971280563,0.0,-0.00127672365634,0.0,-5.92887636802e-05,0.0,-0.00302163543293,0.0,0.0721094746847,0.0,-0.00482159510143,0.0,0.0,0.0,0.0,50.0,-0.0,0.0,0.00230154196664,25.0,-0.00383606751517,25.0,-0.0,25.0,-0.0,25.0,131250.0,0.0,0.0,0.0,0.0,0.0,0.0
1402753191328032194,3,-7.37533247633,-0.00591572024346,-1.54683142243,-0.122189614607,4.95708182119,0.10862951003,0.00889609883743,0.0,-0.191532245422,0.0,0.0647851711633,0.0,-1.33971280563,0.0,-0.00127672365634,0.0,-5.92887636802e-05,0.0,-0.00302163543293,0.0,0.0721094746847,0.0,-0.00482159510143,0.0,0.0,0.0,0.0,50.0,-0.0,0.0,0.00230154196664,25.0,-0.00383606751517,25.0,-0.0,25.0,-0.0,25.0,131250.0,0.0,0.0,0.0,0.0,0.0,0.0
1402753191348335240,3,-7.37100988129,-0.00591572024346,-1.55080863464,-0.122189614607,4.9450058106,0.10862951003,0.00856720736595,0.0,-0.201855415602,0.0,0.0646589593291,0.0,-1.33971168769,0.0,0.00223873280024,0.0,0.000183158503833,0.0,-0.00719824077798,0.0,0.0728395785387,0.0,-0.00925262201599,0.0,0.0,0.0,0.0,50.0,-0.0,0.0,0.00230154196664,25.0,-0.00383606751517,25.0,-0.0,25.0,-0.0,25.0,131250.0,0.0,0.0,0.0,0.0,0.0,0.0
1402753191367395019,3,-7.37100988129,-0.00591572024346,-1.55080863464,-0.122189614607,4.9450058106,0.10862951003,0.00856720736595,0.0,-0.201855415602,0.0,0.0646589593291,0.0,-1.33971168769,0.0,0.00223873280024,0.0,0.000183158503833,0.0,-0.00719824077798,0.0,0.0728395785387,0.0,-0.00925262201599,0.0,0.0,0.0,0.0,50.0,-0.0,0.0,0.00230154196664,25.0,-0.00383606751517,25.0,-0.0,25.0,-0.0,25.0,131250.0,0.0,0.0,0.0,0.0,0.0,0.0
1402753191387480946,3,-7.3679019384,-0.00591572024346,-1.55430671903,-0.122189614607,4.94069160815,0.10862951003,0.00832525369495,0.0,-0.203873891591,0.0,0.0663749004068,0.0,-1.33989272545,0.0,-0.00196225173469,0.0,0.000376563860659,0.0,-0.00202131111823,0.0,0.0724042342046,0.0,-0.00328318716135,0.0,0.0,0.0,0.0,50.0,-0.0,0.0,0.00230154196664,25.0,-0.00383606751517,25.0,-0.0,25.0,-0.0,25.0,131250.0,0.0,0.0,0.0,0.0,0.0,0.0
1402753191407499200,3,-7.3679019384,-0.00591572024346,-1.55430671903,-0.122189614607,4.94069160815,0.10862951003,0.00832525369495,0.0,-0.203873891591,0.0,0.0663749004068,0.0,-1.33989272545,0.0,-0.00196225173469,0.0,0.000376563860659,0.0,-0.00202131111823,0.0,0.0724042342046,0.0,-0.00328318716135,0.0,0.0,0.0,0.0,50.0,-0.0,0.0,0.00230154196664,25.0,-0.00383606751517,25.0,-0.0,25.0,-0.0,25.0,131250.0,0.0,0.0,0.0,0.0,0.0,0.0
1402753191427732366,3,-7.36750476128,-0.00591572024346,-1.56261529897,-0.122189614607,4.94344315229,0.10862951003,0.00831648804267,0.0,-0.207492314001,0.0,0.06808271259,0.0,-1.33995492787,0.0,0.0014297363838,0.0,0.000470935005101,0.0,0.000259695650689,0.0,0.0723033664932,0.0,-0.00334073311434,0.0,0.0,0.0,0.0,50.0,-0.0,0.0,0.00230154196664,25.0,-0.00383606751517,25.0,-0.0,25.0,-0.0,25.0,131250.0,0.0,0.0,0.0,0.0,0.0,0.0
1402753191447962205,3,-7.36750476128,-0.00591572024346,-1.56261529897,-0.122189614607,4.94344315229,0.10862951003,0.00831648804267,0.0,-0.207492314001,0.0,0.06808271259,0.0,-1.33995492787,0.0,0.0014297363838,0.0,0.000470935005101,0.0,0.000259695650689,0.0,0.0723033664932,0.0,-0.00334073311434,0.0,0.0,0.0,0.0,50.0,-0.0,0.0,0.00230154196664,25.0,-0.00383606751517,25.0,-0.0,25.0,-0.0,25.0,131250.0,0.0,0.0,0.0,0.0,0.0,0.0
1402753191467863396,3,-7.36434101163,-0.00591572024346,-1.5630217176,-0.122189614607,4.93694952581,0.10862951003,0.00844206629527,0.0,-0.198965181183,0.0,0.0669424710007,0.0,-1.34003175292,0.0,0.00208959326311,0.0,0.000377229503493,0.0,-0.00562159782519,0.0,0.0707879795291,0.0,0.00478626183102,0.0,0.0,0.0,0.0,50.0,-0.0,0.0,0.00230154196664,25.0,-0.00383606751517,25.0,-0.0,25.0,-0.0,25.0,131250.0,0.0,0.0,0.0,0.0,0.0,0.0
1402753191487551458,3,-7.36434101163,-0.00591572024346,-1.5630217176,-0.122189614607,4.93694952581,0.10862951003,0.00844206629527,0.0,-0.198965181183,0.0,0.0669424710007,0.0,-1.34003175292,0.0,0.00208959326311,0.0,0.000377229503493,0.0,-0.00562159782519,0.0,0.0707879795291,0.0,0.00478626183102,0.0,0.0,0.0,0.0,50.0,-0.0,0.0,0.00230154196664,25.0,-0.00383606751517,25.0,-0.0,25.0,-0.0,25.0,131250.0,0.0,0.0,0.0,0.0,0.0,0.0
1402753191507507048,3,-7.36515749666,-0.00591572024346,-1.57573516858,-0.122189614607,4.93909275541,0.10862951003,0.00241776500765,0.0,-0.217183708845,0.0,0.0680544080755,0.0,-1.34011793357,0.0,0.00235578073435,0.0,0.00131067561254,0.0,-0.00774827399777,0.0,0.0722464519946,0.0,0.0017618248109,0.0,0.0,0.0,0.0,50.0,-0.0,0.0,0.00230154196664,25.0,-0.00383606751517,25.0,-0.0,25.0,-0.0,25.0,131250.0,0.0,0.0,0.0,0.0,0.0,0.0
1402753191527580023,3,-7.36515749666,-0.00591572024346,-1.57573516858,-0.122189614607,4.93909275541,0.10862951003,0.00241776500765,0.0,-0.217183708845,0.0,0.0680544080755,0.0,-1.34011793357,0.0,0.00235578073435,0.0,0.00131067561254,0.0,-0.00774827399777,0.0,0.0722464519946,0.0,0.0017618248109,0.0,0.0,0.0,0.0,50.0,-0.0,0.0,0.00230154196664,25.0,-0.00383606751517,25.0,-0.0,25.0,-0.0,25.0,131250.0,0.0,0.0,0.0,0.0,0.0,0.0
1402753191547580565,3,-7.36506153148,-0.00591572024346,-1.58485362432,-0.122189614607,4.94206591046,0.10862951003,0.00155517598097,0.0,-0.22171224519,0.0,0.0688696815399,0.0,-1.34018906646,0.0,0.00162846798317,0.0,0.00151143241022,0.0,-0.00334479790338,0.0,0.0721289762993,0.0,-0.00442935625868,0.0,0.0,0.0,0.0,50.0,-0.0,0.0,0.00230154196664,25.0,-0.00383606751517,25.0,-0.0,25.0,-0.0,25.0,131250.0,0.0,0.0,0.0,0.0,0.0,0.0
1402753191567659750,3,-7.36506153148,-0.00591572024346,-1.58485362432,-0.122189614607,4.94206591046,0.10862951003,0.00155517598097,0.0,-0.22171224519,0.0,0.0688696815399,0.0,-1.34018906646,0.0,0.00162846798317,0.0,0.00151143241022,0.0,-0.00334479790338,0.0,0.0721289762993,0.0,-0.00442935625868,0.0,0.0,0.0,0.0,50.0,-0.0,0.0,0.00230154196664,25.0,-0.00383606751517,25.0,-0.0,25.0,-0.0,25.0,131250.0,0.0,0.0,0.0,0.0,0.0,0.0
1402753191587533834,3,-7.36179268003,-0.00591572024346,-1.58751295711,-0.122189614607,4.92899027504,0.10862951003,0.00325628163681,0.0,-0.221754478289,0.0,0.0640853364799,0.0,-1.34037067127,0.0,-0.00187391951615,0.0,0.00134084902349,0.0,-0.00382079726175,0.0,0.0716588080627,0.0,0.00390808006589,0.0,0.0,0.0,0.0,50.0,-0.0,0.0,0.00230154196664,25.0,-0.00383606751517,25.0,-0.0,25.0,-0.0,25.0,131250.0,0.0,0.0,0.0,0.0,0.0,0.0
1402753191607401851,3,-7.36179268003,-0.00591572024346,-1.58751295711,-0.122189614607,4.92899027504,0.10862951003,0.00325628163681,0.0,-0.221754478289,0.0,0.0640853364799,0.0,-1.34037067127,0.0,-0.00187391951615,0.0,0.00134084902349,0.0,-0.00382079726175,0.0,0.0716588080627,0.0,0.00390808006589,0.0,0.0,0.0,0.0,50.0,-0.0,0.0,0.00230154196664,25.0,-0.00383606751517,25.0,-0.0,25.0,-0.0,25.0,131250.0,0.0,0.0,0.0,0.0,0.0,0.0
1402753191627523171,3,-7.36056210366,-0.00591572024346,-1.59253554628,-0.122189614607,4.93327920941,0.10862951003,0.000396059722178,0.0,-0.218056290163,0.0,0.0660348268615,0.0,-1.34049126594,0.0,0.00262120785036,0.0,0.00137310897002,0.0,-0.00198591295824,0.0,0.0705062930748,0.0,-0.00588413678558,0.0,0.0,0.0,0.0,50.0,-0.0,0.0,0.00230154196664,25.0,-0.00383606751517,25.0,-0.0,25.0,-0.0,25.0,131250.0,0.0,0.0,0.0,0.0,0.0,0.0
1402753191647441936,3,-7.36056210366,-0.00591572024346,-1.59253554628,-0.122189614607,4.93327920941,0.10862951003,0.000396059722178,0.0,-0.218056290163,0.0,0.0660348268615,0.0,-1.34049126594,0.0,0.00262120785036,0.0,0.00137310897002,0.0,-0.00198591295824,0.0,0.0705062930748,0.0,-0.00588413678558,0.0,0.0,0.0,0.0,50.0,-0.0,0.0,0.00230154196664,25.0,-0.00383606751517,25.0,-0.0,25.0,-0.0,25.0,131250.0,0.0,0.0,0.0,0.0,0.0,0.0
1402753191667625214,3,-7.36207413468,-0.00591572024346,-1.59801612381,-0.122189614607,4.92762297218,0.10862951003,-0.00763783017529,0.0,-0.220231473602,0.0,0.0658966817459,0.0,-1.34066571595,0.0,-0.00592742070494,0.0,0.0024676481504,0.0,0.00512008624991,0.0,0.0701062077906,0.0,0.00162937755156,0.0,0.0,0.0,0.0,50.0,-0.0,0.0,0.00230154196664,25.0,-0.00383606751517,25.0,-0.0,25.0,-0.0,25.0,131250.0,0.0,0.0,0.0,0.0,0.0,0.0
1402753191687558162,3,-7.36207413468,-0.00591572024346,-1.59801612381,-0.122189614607,4.92762297218,0.10862951003,-0.00763783017529,0.0,-0.220231473602,0.0,0.0658966817459,0.0,-1.34066571595,0.0,-0.00592742070494,0.0,0.0024676481504,0.0,0.00512008624991,0.0,0.0701062077906,0.0,0.00162937755156,0.0,0.0,0.0,0.0,50.0,-0.0,0.0,0.00230154196664,25.0,-0.00383606751517,25.0,-0.0,25.0,-0.0,25.0,131250.0,0.0,0.0,0.0,0.0,0.0,0.0
