rosbagTimestamp,control_method,x_current,x_desired,y_current,y_desired,x_velocity_current,x_velocity_desired,y_velocity_current,y_velocity_desired,yaw_current,yaw_desired,required_force_x,required_force_y,required_moment_z,resultant_force_x,resultant_force_y,resultant_moment_z,current_port_servo_angle,current_port_thruster_force,current_starboard_servo_angle,current_starboard_thruster_force,estimated_port_servo_angle,estimated_port_thruster_force,estimated_starboard_servo_angle,estimated_starboard_thruster_force,cost_value,step,user_defined_1,user_defined_2,user_defined_3,user_defined_4,user_defined_5
1402598628923748043,0,6.58414069149,-0.114322152727,-13.5645581412,0.043815185726,-0.0394431258622,0.0,0.0343239213078,0.0,-0.563160993673,0.0,0.0,0.0,0.0,-0.38948445027,-8.81732339869,-54.4584247312,0.00537022749826,100.0,-0.000767381983555,-0.0,-0.0882878863065,100.0,0.0,-100.0,1621740.19301,0.0,0.0,0.0,0.0,0.0,0.0
1402598628943182873,0,6.58414069149,-0.114322152727,-13.5645581412,0.043815185726,-0.0394431258622,0.0,0.0343239213078,0.0,-0.563160993673,0.0,0.0,0.0,0.0,-0.444702499433,-9.4203364894,-54.0050730935,0.00230154196664,100.0,-0.000767381983555,-100.0,-0.0943432553369,100.0,0.0,-100.0,1602655.21777,0.0,0.0,0.0,0.0,0.0,0.0
1402598628964016627,0,6.57989526509,-0.114322152727,-13.5641881332,0.043815185726,-0.0382015194819,0.0,0.0305058718458,0.0,-0.564737591265,0.0,0.0,0.0,0.0,-0.444702499433,-9.4203364894,-54.0050730935,-0.0145763476665,100.0,-0.00230160554007,-100.0,-0.0943432553369,100.0,0.0,-100.0,1602655.21775,0.0,0.0,0.0,0.0,0.0,0.0
1402598628982976493,0,6.57989526509,-0.114322152727,-13.5641881332,0.043815185726,-0.0382015194819,0.0,0.0305058718458,0.0,-0.564737591265,0.0,0.0,0.0,0.0,-0.568473296657,-10.6476052445,-53.0789279027,-0.0360573848064,100.0,-0.00230160554007,-100.0,-0.106678274994,100.0,0.0,-100.0,1565388.20049,0.0,0.0,0.0,0.0,0.0,0.0
1402598629003484760,0,6.57896536088,-0.114322152727,-13.5634410831,0.043815185726,-0.0367613968136,0.0,0.0309958012303,0.0,-0.565818515687,0.0,0.0,0.0,0.0,-0.568473296657,-10.6476052445,-53.0789279027,-0.0529355128582,100.0,-0.00383606751517,-100.0,-0.106678274994,100.0,0.0,-100.0,1565388.20048,0.0,0.0,0.0,0.0,0.0,0.0
1402598629023176051,0,6.57377623747,-0.114322152727,-13.5610558939,0.043815185726,-0.0428956091759,0.0,0.0345775971586,0.0,-0.566427210831,0.0,0.0,0.0,0.0,-0.568473296657,-10.6476052445,-53.0789279027,-0.0728818496044,100.0,-0.00690451462821,-100.0,-0.106678274994,100.0,0.0,-100.0,1565388.20047,0.0,0.0,0.0,0.0,0.0,0.0
1402598629043727565,0,6.57377623747,-0.114322152727,-13.5610558939,0.043815185726,-0.0428956091759,0.0,0.0345775971586,0.0,-0.566427210831,0.0,0.0,0.0,0.0,-0.568473296657,-10.6476052445,-53.0789279027,-0.0912942012127,100.0,-0.00537029107169,-100.0,-0.106678274994,100.0,0.0,-100.0,1565388.20047,0.0,0.0,0.0,0.0,0.0,0.0
1402598629063037945,0,6.57286506959,-0.114322152727,-13.5603581462,0.043815185726,-0.0392497226294,0.0,0.0312949496833,0.0,-0.567262899497,0.0,0.0,0.0,0.0,-0.568473296657,-10.6476052445,-53.0789279027,-0.0974315722759,100.0,-0.00537029107169,-100.0,-0.106678274994,100.0,0.0,-100.0,1565388.20047,0.0,0.0,0.0,0.0,0.0,0.0
1402598629083572116,0,6.57286506959,-0.114322152727,-13.5603581462,0.043815185726,-0.0392497226294,0.0,0.0312949496833,0.0,-0.567262899497,0.0,0.0,0.0,0.0,-0.568473296657,-10.6476052445,-53.0789279027,-0.0974315722759,100.0,-0.00690451462821,-100.0,-0.106678274994,100.0,0.0,-100.0,1565388.20047,0.0,0.0,0.0,0.0,0.0,0.0
1402598629103018224,0,6.57092729188,-0.114322152727,-13.5591443243,0.043815185726,-0.0179047470189,0.0,0.0125624651577,0.0,-0.569520688647,0.0,0.0,0.0,0.0,-0.568473296657,-10.6476052445,-53.0789279027,-0.0974315722759,100.0,-0.00690451462821,-100.0,-0.106678274994,100.0,0.0,-100.0,1565388.20047,0.0,0.0,0.0,0.0,0.0,0.0
1402598629123794816,0,6.57092729188,-0.114322152727,-13.5591443243,0.043815185726,-0.0179047470189,0.0,0.0125624651577,0.0,-0.569520688647,0.0,0.0,0.0,0.0,-0.568473296657,-10.6476052445,-53.0789279027,-0.0974315722759,100.0,-0.00690451462821,-100.0,-0.106678274994,100.0,0.0,-100.0,1565388.20047,0.0,0.0,0.0,0.0,0.0,0.0
1402598629142962587,0,6.56837342275,-0.114322152727,-13.560764379,0.043815185726,-0.00850097229475,0.0,-0.0122990721619,0.0,-0.573623660262,0.0,0.0,0.0,0.0,-0.568473296657,-10.6476052445,-53.0789279027,-0.0974315722759,100.0,-0.00843897660331,-100.0,-0.106678274994,100.0,0.0,-100.0,1565388.20047,0.0,0.0,0.0,0.0,0.0,0.0
1402598629163341319,0,6.56837342275,-0.114322152727,-13.560764379,0.043815185726,-0.00850097229475,0.0,-0.0122990721619,0.0,-0.573623660262,0.0,0.0,0.0,0.0,-0.568473296657,-10.6476052445,-53.0789279027,-0.0974315722759,100.0,-0.00843897660331,-100.0,-0.106678274994,100.0,0.0,-100.0,1565388.20047,0.0,0.0,0.0,0.0,0.0,0.0
1402598629182956792,0,6.56318497759,-0.114322152727,-13.5614950917,0.043815185726,-0.00983911080387,0.0,-0.0367541196405,0.0,-0.581582569378,0.0,0.0,0.0,0.0,-0.568473296657,-10.6476052445,-53.0789279027,-0.0974315722759,100.0,-0.00843897660331,-100.0,-0.106678274994,100.0,0.0,-100.0,1565388.20047,0.0,0.0,0.0,0.0,0.0,0.0
1402598629203462839,0,6.56318497759,-0.114322152727,-13.5614950917,0.043815185726,-0.00983911080387,0.0,-0.0367541196405,0.0,-0.581582569378,0.0,0.0,0.0,0.0,-0.568473296657,-10.6476052445,-53.0789279027,-0.0974315722759,100.0,-0.00690451462821,-100.0,-0.106678274994,100.0,0.0,-100.0,1565388.20047,0.0,0.0,0.0,0.0,0.0,0.0
1402598629223033347,0,6.56855338705,-0.114322152727,-13.563249555,0.043815185726,0.0132227712381,0.0,-0.0539536178524,0.0,-0.592892840955,0.0,0.0,0.0,0.0,-0.568473296657,-10.6476052445,-53.0789279027,-0.0974315722759,100.0,-0.00843897660331,-100.0,-0.106678274994,100.0,0.0,-100.0,1565388.20047,0.0,0.0,0.0,0.0,0.0,0.0
1402598629243216044,0,6.56855338705,-0.114322152727,-13.563249555,0.043815185726,0.0132227712381,0.0,-0.0539536178524,0.0,-0.592892840955,0.0,0.0,0.0,0.0,-0.568473296657,-10.6476052445,-53.0789279027,-0.0974315722759,100.0,-0.00843897660331,-100.0,-0.106678274994,100.0,0.0,-100.0,1565388.20047,0.0,0.0,0.0,0.0,0.0,0.0
1402598629262937088,0,6.56879964913,-0.114322152727,-13.5643306544,0.043815185726,0.0126484444489,0.0,-0.0628020591446,0.0,-0.598432858643,0.0,0.0,0.0,0.0,-0.568473296657,-10.6476052445,-53.0789279027,-0.0974315722759,100.0,-0.00843897660331,-100.0,-0.106678274994,100.0,0.0,-100.0,1565388.20047,0.0,0.0,0.0,0.0,0.0,0.0
1402598629283757168,0,6.56879964913,-0.114322152727,-13.5643306544,0.043815185726,0.0126484444489,0.0,-0.0628020591446,0.0,-0.598432858643,0.0,0.0,0.0,0.0,-0.568473296657,-10.6476052445,-53.0789279027,-0.098966034251,100.0,-0.00997320015982,-100.0,-0.106678274994,100.0,0.0,-100.0,1565388.20047,0.0,0.0,0.0,0.0,0.0,0.0
1402598629303035943,0,6.56497014009,-0.114322152727,-13.5655194459,0.043815185726,0.0115597410296,0.0,-0.0741844720763,0.0,-0.609426920317,0.0,0.0,0.0,0.0,-0.568473296657,-10.6476052445,-53.0789279027,-0.0974315722759,100.0,-0.00997320015982,-100.0,-0.106678274994,100.0,0.0,-100.0,1565388.20047,0.0,0.0,0.0,0.0,0.0,0.0
1402598629323520664,0,6.56497014009,-0.114322152727,-13.5655194459,0.043815185726,0.0115597410296,0.0,-0.0741844720763,0.0,-0.609426920317,0.0,0.0,0.0,0.0,-0.568473296657,-10.6476052445,-53.0789279027,-0.0974315722759,100.0,-0.00997320015982,-100.0,-0.106678274994,100.0,0.0,-100.0,1565388.20047,0.0,0.0,0.0,0.0,0.0,0.0
1402598629343058584,0,6.56645874126,-0.114322152727,-13.569253063,0.043815185726,0.0272111238699,0.0,-0.0891640957827,0.0,-0.622984354891,0.0,0.0,0.0,0.0,-0.568473296657,-10.6476052445,-53.0789279027,-0.0974315722759,100.0,-0.00997320015982,-100.0,-0.106678274994,100.0,0.0,-100.0,1565388.20047,0.0,0.0,0.0,0.0,0.0,0.0
1402598629363500745,0,6.56645874126,-0.114322152727,-13.569253063,0.043815185726,0.0272111238699,0.0,-0.0891640957827,0.0,-0.622984354891,0.0,0.0,0.0,0.0,-0.568473296657,-10.6476052445,-53.0789279027,-0.098966034251,100.0,-0.00997320015982,-100.0,-0.106678274994,100.0,0.0,-100.0,1565388.20047,0.0,0.0,0.0,0.0,0.0,0.0
1402598629382966514,0,6.56785591819,-0.114322152727,-13.5729164628,0.043815185726,0.0355075538053,0.0,-0.106156441631,0.0,-0.639761676187,0.0,0.0,0.0,0.0,-0.568473296657,-10.6476052445,-53.0789279027,-0.098966034251,100.0,-0.00997320015982,-100.0,-0.106678274994,100.0,0.0,-100.0,1565388.20047,0.0,0.0,0.0,0.0,0.0,0.0
1402598629403627995,0,6.56785591819,-0.114322152727,-13.5729164628,0.043815185726,0.0355075538053,0.0,-0.106156441631,0.0,-0.639761676187,0.0,0.0,0.0,0.0,-0.568473296657,-10.6476052445,-53.0789279027,-0.098966034251,100.0,-0.00997320015982,-100.0,-0.106678274994,100.0,0.0,-100.0,1565388.20047,0.0,0.0,0.0,0.0,0.0,0.0
1402598629423038038,0,6.5672740735,-0.114322152727,-13.5843612864,0.043815185726,0.0479993837429,0.0,-0.132380896067,0.0,-0.656360108024,0.0,0.0,0.0,0.0,-0.568473296657,-10.6476052445,-53.0789279027,-0.0974315722759,100.0,-0.0115079005535,-100.0,-0.106678274994,100.0,0.0,-100.0,1565388.20047,0.0,0.0,0.0,0.0,0.0,0.0
1402598629443559449,0,6.56827004211,-0.114322152727,-13.587024674,0.043815185726,0.0468502853134,0.0,-0.143950153429,0.0,-0.664027542858,0.0,0.0,0.0,0.0,-0.568473296657,-10.6476052445,-53.0789279027,-0.098966034251,100.0,-0.0115079005535,-100.0,-0.106678274994,100.0,0.0,-100.0,1565388.20047,0.0,0.0,0.0,0.0,0.0,0.0
1402598629463069198,0,6.56827004211,-0.114322152727,-13.587024674,0.043815185726,0.0468502853134,0.0,-0.143950153429,0.0,-0.664027542858,0.0,0.0,0.0,0.0,-0.568473296657,-10.6476052445,-53.0789279027,-0.098966034251,100.0,-0.01304212411,-100.0,-0.106678274994,100.0,0.0,-100.0,1565388.20047,0.0,0.0,0.0,0.0,0.0,0.0
1402598629483562092,0,6.56936994392,-0.114322152727,-13.5901267431,0.043815185726,0.0474305214847,0.0,-0.152806275409,0.0,-0.672255929018,0.0,0.0,0.0,0.0,-0.568473296657,-10.6476052445,-53.0789279027,-0.098966034251,100.0,-0.01304212411,-100.0,-0.106678274994,100.0,0.0,-100.0,1565388.20047,0.0,0.0,0.0,0.0,0.0,0.0
1402598629502980308,0,6.56936994392,-0.114322152727,-13.5901267431,0.043815185726,0.0474305214847,0.0,-0.152806275409,0.0,-0.672255929018,0.0,0.0,0.0,0.0,-0.568473296657,-10.6476052445,-53.0789279027,-0.098966034251,100.0,-0.01304212411,-100.0,-0.106678274994,100.0,0.0,-100.0,1565388.20047,0.0,0.0,0.0,0.0,0.0,0.0
1402598629523681568,0,6.57442952793,-0.114322152727,-13.5962489437,0.043815185726,0.062241732183,0.0,-0.170096564932,0.0,-0.689094975061,0.0,0.0,0.0,0.0,-0.568473296657,-10.6476052445,-53.0789279027,-0.098966034251,100.0,-0.01304212411,-100.0,-0.106678274994,100.0,0.0,-100.0,1565388.20047,0.0,0.0,0.0,0.0,0.0,0.0
1402598629542952794,0,6.57442952793,-0.114322152727,-13.5962489437,0.043815185726,0.062241732183,0.0,-0.170096564932,0.0,-0.689094975061,0.0,0.0,0.0,0.0,-0.568473296657,-10.6476052445,-53.0789279027,-0.098966034251,100.0,-0.0115079005535,-100.0,-0.106678274994,100.0,0.0,-100.0,1565388.20047,0.0,0.0,0.0,0.0,0.0,0.0
1402598629563638667,0,6.57713308532,-0.114322152727,-13.6036288363,0.043815185726,0.0639069001457,0.0,-0.186935508861,0.0,-0.707477938835,0.0,0.0,0.0,0.0,-0.568473296657,-10.6476052445,-53.0789279027,-0.098966034251,100.0,-0.0115079005535,-100.0,-0.106678274994,100.0,0.0,-100.0,1565388.20047,0.0,0.0,0.0,0.0,0.0,0.0
1402598629582908319,0,6.57713308532,-0.114322152727,-13.6036288363,0.043815185726,0.0639069001457,0.0,-0.186935508861,0.0,-0.707477938835,0.0,0.0,0.0,0.0,-0.568473296657,-10.6476052445,-53.0789279027,-0.098966034251,100.0,-0.0115079005535,-100.0,-0.106678274994,100.0,0.0,-100.0,1565388.20047,0.0,0.0,0.0,0.0,0.0,0.0
1402598629603657433,0,6.57383866441,-0.114322152727,-13.611208812,0.043815185726,0.0502141943351,0.0,-0.202657627079,0.0,-0.730272593699,0.0,0.0,0.0,0.0,-0.568473296657,-10.6476052445,-53.0789279027,-0.098966034251,100.0,-0.01304212411,-100.0,-0.106678274994,100.0,0.0,-100.0,1565388.20047,0.0,0.0,0.0,0.0,0.0,0.0
1402598629622949018,0,6.57383866441,-0.114322152727,-13.611208812,0.043815185726,0.0502141943351,0.0,-0.202657627079,0.0,-0.730272593699,0.0,0.0,0.0,0.0,-0.568473296657,-10.6476052445,-53.0789279027,-0.098966034251,100.0,-0.01304212411,-100.0,-0.106678274994,100.0,0.0,-100.0,1565388.20047,0.0,0.0,0.0,0.0,0.0,0.0
1402598629643615472,0,6.57919010484,-0.114322152727,-13.6207285541,0.043815185726,0.0628706150641,0.0,-0.214783175758,0.0,-0.755386228451,0.0,0.0,0.0,0.0,-0.568473296657,-10.6476052445,-53.0789279027,-0.098966034251,100.0,-0.01304212411,-100.0,-0.106678274994,100.0,0.0,-100.0,1565388.20047,0.0,0.0,0.0,0.0,0.0,0.0
1402598629663212925,0,6.57919010484,-0.114322152727,-13.6207285541,0.043815185726,0.0628706150641,0.0,-0.214783175758,0.0,-0.755386228451,0.0,0.0,0.0,0.0,-0.568473296657,-10.6476052445,-53.0789279027,-0.100500257808,100.0,-0.01304212411,-100.0,-0.106678274994,100.0,0.0,-100.0,1565388.20047,0.0,0.0,0.0,0.0,0.0,0.0
1402598629683501184,0,6.57729086686,-0.114322152727,-13.6301700764,0.043815185726,0.0637212923357,0.0,-0.231449813467,0.0,-0.768184833872,0.0,0.0,0.0,0.0,-0.568473296657,-10.6476052445,-53.0789279027,-0.100500257808,100.0,-0.01304212411,-100.0,-0.106678274994,100.0,0.0,-100.0,1565388.20047,0.0,0.0,0.0,0.0,0.0,0.0
1402598629703270282,0,6.57729086686,-0.114322152727,-13.6301700764,0.043815185726,0.0637212923357,0.0,-0.231449813467,0.0,-0.768184833872,0.0,0.0,0.0,0.0,-0.568473296657,-10.6476052445,-53.0789279027,-0.098966034251,100.0,-0.0115079005535,-100.0,-0.106678274994,100.0,0.0,-100.0,1565388.20047,0.0,0.0,0.0,0.0,0.0,0.0
1402598629723767909,0,6.58016190806,-0.114322152727,-13.6405104465,0.043815185726,0.0637850116086,0.0,-0.245285214746,0.0,-0.791036306234,0.0,0.0,0.0,0.0,-0.568473296657,-10.6476052445,-53.0789279027,-0.098966034251,100.0,-0.01304212411,-100.0,-0.106678274994,100.0,0.0,-100.0,1565388.20047,0.0,0.0,0.0,0.0,0.0,0.0
1402598629742970497,0,6.58016190806,-0.114322152727,-13.6405104465,0.043815185726,0.0637850116086,0.0,-0.245285214746,0.0,-0.791036306234,0.0,0.0,0.0,0.0,-0.568473296657,-10.6476052445,-53.0789279027,-0.100500257808,100.0,-0.01304212411,-100.0,-0.106678274994,100.0,0.0,-100.0,1565388.20047,0.0,0.0,0.0,0.0,0.0,0.0
1402598629763725079,0,6.57821237405,-0.114322152727,-13.6510751998,0.043815185726,0.054195663843,0.0,-0.25762217883,0.0,-0.81501841248,0.0,0.0,0.0,0.0,-0.568473296657,-10.6476052445,-53.0789279027,-0.098966034251,100.0,-0.01304212411,-100.0,-0.106678274994,100.0,0.0,-100.0,1565388.20047,0.0,0.0,0.0,0.0,0.0,0.0
1402598629782999071,0,6.57821237405,-0.114322152727,-13.6510751998,0.043815185726,0.054195663843,0.0,-0.25762217883,0.0,-0.81501841248,0.0,0.0,0.0,0.0,-0.568473296657,-10.6476052445,-53.0789279027,-0.098966034251,100.0,-0.01304212411,-100.0,-0.106678274994,100.0,0.0,-100.0,1565388.20047,0.0,0.0,0.0,0.0,0.0,0.0
1402598629803568641,0,6.58277530185,-0.114322152727,-13.6612417303,0.043815185726,0.055896498735,0.0,-0.259385269823,0.0,-0.845199557678,0.0,0.0,0.0,0.0,-0.568473296657,-10.6476052445,-53.0789279027,-0.098966034251,100.0,-0.01304212411,-100.0,-0.106678274994,100.0,0.0,-100.0,1565388.20047,0.0,0.0,0.0,0.0,0.0,0.0
1402598629823065582,0,6.58277530185,-0.114322152727,-13.6612417303,0.043815185726,0.055896498735,0.0,-0.259385269823,0.0,-0.845199557678,0.0,0.0,0.0,0.0,-0.568473296657,-10.6476052445,-53.0789279027,-0.100500257808,100.0,-0.01304212411,-100.0,-0.106678274994,100.0,0.0,-100.0,1565388.20047,0.0,0.0,0.0,0.0,0.0,0.0
1402598629843518784,0,6.58517191184,-0.114322152727,-13.673207987,0.043815185726,0.0577717450487,0.0,-0.279260124194,0.0,-0.865109511466,0.0,0.0,0.0,0.0,-0.568473296657,-10.6476052445,-53.0789279027,-0.098966034251,100.0,-0.01304212411,-100.0,-0.106678274994,100.0,0.0,-100.0,1565388.20047,0.0,0.0,0.0,0.0,0.0,0.0
1402598629863036396,0,6.58644352831,-0.114322152727,-13.6789152449,0.043815185726,0.0636351002016,0.0,-0.280090577471,0.0,-0.877972181679,0.0,0.0,0.0,0.0,-0.568473296657,-10.6476052445,-53.0789279027,-0.100500257808,100.0,-0.01304212411,-100.0,-0.106678274994,100.0,0.0,-100.0,1565388.20047,0.0,0.0,0.0,0.0,0.0,0.0
1402598629883566324,0,6.58644352831,-0.114322152727,-13.6789152449,0.043815185726,0.0636351002016,0.0,-0.280090577471,0.0,-0.877972181679,0.0,0.0,0.0,0.0,-0.568473296657,-10.6476052445,-53.0789279027,-0.100500257808,100.0,-0.01304212411,-100.0,-0.106678274994,100.0,0.0,-100.0,1565388.20047,0.0,0.0,0.0,0.0,0.0,0.0
1402598629903089814,0,6.5899647765,-0.114322152727,-13.6837712646,0.043815185726,0.0594746387141,0.0,-0.2897116569,0.0,-0.890603995063,0.0,0.0,0.0,0.0,-0.568473296657,-10.6476052445,-53.0789279027,-0.100500257808,100.0,-0.01304212411,-100.0,-0.106678274994,100.0,0.0,-100.0,1565388.20047,0.0,0.0,0.0,0.0,0.0,0.0
1402598629923561238,0,6.5899647765,-0.114322152727,-13.6837712646,0.043815185726,0.0594746387141,0.0,-0.2897116569,0.0,-0.890603995063,0.0,0.0,0.0,0.0,-0.568473296657,-10.6476052445,-53.0789279027,-0.100500257808,100.0,-0.0115079005535,-100.0,-0.106678274994,100.0,0.0,-100.0,1565388.20047,0.0,0.0,0.0,0.0,0.0,0.0
1402598629943029274,0,6.58881494189,-0.114322152727,-13.6968364733,0.043815185726,0.0549694401357,0.0,-0.294775418582,0.0,-0.917303445849,0.0,0.0,0.0,0.0,-0.568473296657,-10.6476052445,-53.0789279027,-0.100500257808,100.0,-0.01304212411,-100.0,-0.106678274994,100.0,0.0,-100.0,1565388.20047,0.0,0.0,0.0,0.0,0.0,0.0
1402598629963940861,0,6.58881494189,-0.114322152727,-13.6968364733,0.043815185726,0.0549694401357,0.0,-0.294775418582,0.0,-0.917303445849,0.0,0.0,0.0,0.0,-0.568473296657,-10.6476052445,-53.0789279027,-0.100500257808,100.0,-0.01304212411,-100.0,-0.106678274994,100.0,0.0,-100.0,1565388.20047,0.0,0.0,0.0,0.0,0.0,0.0
1402598629983975227,0,6.59084363216,-0.114322152727,-13.7093434372,0.043815185726,0.0469174845241,0.0,-0.309433310245,0.0,-0.943671458643,0.0,0.0,0.0,0.0,-0.568473296657,-10.6476052445,-53.0789279027,-0.100500257808,100.0,-0.01304212411,-100.0,-0.106678274994,100.0,0.0,-100.0,1565388.20047,0.0,0.0,0.0,0.0,0.0,0.0
1402598630004668931,0,6.59084363216,-0.114322152727,-13.7093434372,0.043815185726,0.0469174845241,0.0,-0.309433310245,0.0,-0.943671458643,0.0,0.0,0.0,0.0,-0.568473296657,-10.6476052445,-53.0789279027,-0.098966034251,100.0,-0.01304212411,-100.0,-0.106678274994,100.0,0.0,-100.0,1565388.20047,0.0,0.0,0.0,0.0,0.0,0.0
1402598630023271567,0,6.60053496457,-0.114322152727,-13.7225078188,0.043815185726,0.0547057604662,0.0,-0.326465566241,0.0,-0.969883465449,0.0,0.0,0.0,0.0,-0.568473296657,-10.6476052445,-53.0789279027,-0.100500257808,100.0,-0.01304212411,-100.0,-0.106678274994,100.0,0.0,-100.0,1565388.20047,0.0,0.0,0.0,0.0,0.0,0.0
1402598630043605571,0,6.60053496457,-0.114322152727,-13.7225078188,0.043815185726,0.0547057604662,0.0,-0.326465566241,0.0,-0.969883465449,0.0,0.0,0.0,0.0,-0.568473296657,-10.6476052445,-53.0789279027,-0.100500257808,100.0,-0.01304212411,-100.0,-0.106678274994,100.0,0.0,-100.0,1565388.20047,0.0,0.0,0.0,0.0,0.0,0.0
1402598630062961803,0,6.6025267469,-0.114322152727,-13.7362231046,0.043815185726,0.0417091124657,0.0,-0.339231400649,0.0,-0.996829558883,0.0,0.0,0.0,0.0,-0.568473296657,-10.6476052445,-53.0789279027,-0.100500257808,100.0,-0.01304212411,-100.0,-0.106678274994,100.0,0.0,-100.0,1565388.20047,0.0,0.0,0.0,0.0,0.0,0.0
1402598630083601349,0,6.6025267469,-0.114322152727,-13.7362231046,0.043815185726,0.0417091124657,0.0,-0.339231400649,0.0,-0.996829558883,0.0,0.0,0.0,0.0,-0.568473296657,-10.6476052445,-53.0789279027,-0.100500257808,100.0,-0.01304212411,-100.0,-0.106678274994,100.0,0.0,-100.0,1565388.20047,0.0,0.0,0.0,0.0,0.0,0.0
1402598630103021254,0,6.58726139865,-0.114322152727,-13.7493758259,0.043815185726,0.0123220889944,0.0,-0.342178834163,0.0,-1.03319165884,0.0,0.0,0.0,0.0,-0.568473296657,-10.6476052445,-53.0789279027,-0.100500257808,100.0,-0.01304212411,-100.0,-0.106678274994,100.0,0.0,-100.0,1565388.20047,0.0,0.0,0.0,0.0,0.0,0.0
1402598630123696710,0,6.58726139865,-0.114322152727,-13.7493758259,0.043815185726,0.0123220889944,0.0,-0.342178834163,0.0,-1.03319165884,0.0,0.0,0.0,0.0,-0.568473296657,-10.6476052445,-53.0789279027,-0.100500257808,100.0,-0.01304212411,-100.0,-0.106678274994,100.0,0.0,-100.0,1565388.20047,0.0,0.0,0.0,0.0,0.0,0.0
1402598630143042934,0,6.59156013306,-0.114322152727,-13.7699147116,0.043815185726,0.0124746633508,0.0,-0.362380132658,0.0,-1.06712682115,0.0,0.0,0.0,0.0,-0.568473296657,-10.6476052445,-53.0789279027,-0.100500257808,100.0,-0.0145763476665,-100.0,-0.106678274994,100.0,0.0,-100.0,1565388.20047,0.0,0.0,0.0,0.0,0.0,0.0
1402598630163772303,0,6.59156013306,-0.114322152727,-13.7699147116,0.043815185726,0.0124746633508,0.0,-0.362380132658,0.0,-1.06712682115,0.0,0.0,0.0,0.0,-0.568473296657,-10.6476052445,-53.0789279027,-0.100500257808,100.0,-0.01304212411,-100.0,-0.106678274994,100.0,0.0,-100.0,1565388.20047,0.0,0.0,0.0,0.0,0.0,0.0
1402598630182988327,0,6.59342149648,-0.114322152727,-13.7776363445,0.043815185726,0.0136383360384,0.0,-0.368772455088,0.0,-1.08055834269,0.0,0.0,0.0,0.0,-0.568473296657,-10.6476052445,-53.0789279027,-0.100500257808,100.0,-0.0145763476665,-100.0,-0.106678274994,100.0,0.0,-100.0,1565388.20047,0.0,0.0,0.0,0.0,0.0,0.0
1402598630203534452,0,6.59342149648,-0.114322152727,-13.7776363445,0.043815185726,0.0136383360384,0.0,-0.368772455088,0.0,-1.08055834269,0.0,0.0,0.0,0.0,-0.568473296657,-10.6476052445,-53.0789279027,-0.100500257808,100.0,-0.01304212411,-100.0,-0.106678274994,100.0,0.0,-100.0,1565388.20047,0.0,0.0,0.0,0.0,0.0,0.0
1402598630223483124,0,6.59381972813,-0.114322152727,-13.793160744,0.043815185726,0.000879665123905,0.0,-0.375422904597,0.0,-1.10930077526,0.0,0.0,0.0,0.0,-0.568473296657,-10.6476052445,-53.0789279027,-0.100500257808,100.0,-0.01304212411,-100.0,-0.106678274994,100.0,0.0,-100.0,1565388.20047,0.0,0.0,0.0,0.0,0.0,0.0
1402598630243608950,0,6.59381972813,-0.114322152727,-13.793160744,0.043815185726,0.000879665123905,0.0,-0.375422904597,0.0,-1.10930077526,0.0,0.0,0.0,0.0,-0.568473296657,-10.6476052445,-53.0789279027,-0.100500257808,100.0,-0.0145763476665,-100.0,-0.106678274994,100.0,0.0,-100.0,1565388.20047,0.0,0.0,0.0,0.0,0.0,0.0
1402598630263323964,0,6.58922886169,-0.114322152727,-13.8086738053,0.043815185726,-0.0113110745353,0.0,-0.381552742248,0.0,-1.13839838656,0.0,0.0,0.0,0.0,-0.568473296657,-10.6476052445,-53.0789279027,-0.102034719783,100.0,-0.0145763476665,-100.0,-0.106678274994,100.0,0.0,-100.0,1565388.20047,0.0,0.0,0.0,0.0,0.0,0.0
1402598630283316225,0,6.58922886169,-0.114322152727,-13.8086738053,0.043815185726,-0.0113110745353,0.0,-0.381552742248,0.0,-1.13839838656,0.0,0.0,0.0,0.0,-0.568473296657,-10.6476052445,-53.0789279027,-0.100500257808,100.0,-0.0145763476665,-100.0,-0.106678274994,100.0,0.0,-100.0,1565388.20047,0.0,0.0,0.0,0.0,0.0,0.0
1402598630303127055,0,6.5867040403,-0.114322152727,-13.8277486297,0.043815185726,-0.0142184441913,0.0,-0.394732718673,0.0,-1.17521814936,0.0,0.0,0.0,0.0,-0.568473296657,-10.6476052445,-53.0789279027,-0.100500257808,100.0,-0.0145763476665,-100.0,-0.106678274994,100.0,0.0,-100.0,1565388.20047,0.0,0.0,0.0,0.0,0.0,0.0
1402598630323904176,0,6.5867040403,-0.114322152727,-13.8277486297,0.043815185726,-0.0142184441913,0.0,-0.394732718673,0.0,-1.17521814936,0.0,0.0,0.0,0.0,-0.568473296657,-10.6476052445,-53.0789279027,-0.100500257808,100.0,-0.0145763476665,-100.0,-0.106678274994,100.0,0.0,-100.0,1565388.20047,0.0,0.0,0.0,0.0,0.0,0.0
1402598630343221002,0,6.58483271747,-0.114322152727,-13.8522376441,0.043815185726,-0.0290025604691,0.0,-0.411629046823,0.0,-1.21274557034,0.0,0.0,0.0,0.0,-0.568473296657,-10.6476052445,-53.0789279027,-0.100500257808,100.0,-0.0145763476665,-100.0,-0.106678274994,100.0,0.0,-100.0,1565388.20047,0.0,0.0,0.0,0.0,0.0,0.0
1402598630363789108,0,6.58483271747,-0.114322152727,-13.8522376441,0.043815185726,-0.0290025604691,0.0,-0.411629046823,0.0,-1.21274557034,0.0,0.0,0.0,0.0,-0.568473296657,-10.6476052445,-53.0789279027,-0.100500257808,100.0,-0.0145763476665,-100.0,-0.106678274994,100.0,0.0,-100.0,1565388.20047,0.0,0.0,0.0,0.0,0.0,0.0
1402598630382982785,0,6.59025155994,-0.114322152727,-13.8631760382,0.043815185726,-0.0185573207679,0.0,-0.422787032529,0.0,-1.22672377657,0.0,0.0,0.0,0.0,-0.568473296657,-10.6476052445,-53.0789279027,-0.100500257808,100.0,-0.0145763476665,-100.0,-0.106678274994,100.0,0.0,-100.0,1565388.20047,0.0,0.0,0.0,0.0,0.0,0.0
1402598630403592863,0,6.59025155994,-0.114322152727,-13.8631760382,0.043815185726,-0.0185573207679,0.0,-0.422787032529,0.0,-1.22672377657,0.0,0.0,0.0,0.0,-0.568473296657,-10.6476052445,-53.0789279027,-0.102034719783,100.0,-0.0145763476665,-100.0,-0.106678274994,100.0,0.0,-100.0,1565388.20047,0.0,0.0,0.0,0.0,0.0,0.0
1402598630423058284,0,6.58510669254,-0.114322152727,-13.884928653,0.043815185726,-0.0335231916193,0.0,-0.435511859283,0.0,-1.25749757066,0.0,0.0,0.0,0.0,-0.568473296657,-10.6476052445,-53.0789279027,-0.100500257808,100.0,-0.0161108096416,-100.0,-0.106678274994,100.0,0.0,-100.0,1565388.20047,0.0,0.0,0.0,0.0,0.0,0.0
1402598630443614053,0,6.58510669254,-0.114322152727,-13.884928653,0.043815185726,-0.0335231916193,0.0,-0.435511859283,0.0,-1.25749757066,0.0,0.0,0.0,0.0,-0.568473296657,-10.6476052445,-53.0789279027,-0.102034719783,100.0,-0.0145763476665,-100.0,-0.106678274994,100.0,0.0,-100.0,1565388.20047,0.0,0.0,0.0,0.0,0.0,0.0
1402598630463119167,0,6.58382041439,-0.114322152727,-13.9030114816,0.043815185726,-0.0418322863856,0.0,-0.44253129819,0.0,-1.2882875283,0.0,0.0,0.0,0.0,-0.568473296657,-10.6476052445,-53.0789279027,-0.102034719783,100.0,-0.0161108096416,-100.0,-0.106678274994,100.0,0.0,-100.0,1565388.20047,0.0,0.0,0.0,0.0,0.0,0.0
1402598630483607377,0,6.58382041439,-0.114322152727,-13.9030114816,0.043815185726,-0.0418322863856,0.0,-0.44253129819,0.0,-1.2882875283,0.0,0.0,0.0,0.0,-0.568473296657,-10.6476052445,-53.0789279027,-0.102034719783,100.0,-0.0145763476665,-100.0,-0.106678274994,100.0,0.0,-100.0,1565388.20047,0.0,0.0,0.0,0.0,0.0,0.0
1402598630503049714,0,6.57754908595,-0.114322152727,-13.9191970271,0.043815185726,-0.0555009831658,0.0,-0.443174942055,0.0,-1.32010412002,0.0,0.0,0.0,0.0,-0.568473296657,-10.6476052445,-53.0789279027,-0.102034719783,100.0,-0.0145763476665,-100.0,-0.106678274994,100.0,0.0,-100.0,1565388.20047,0.0,0.0,0.0,0.0,0.0,0.0
1402598630523617112,0,6.57754908595,-0.114322152727,-13.9191970271,0.043815185726,-0.0555009831658,0.0,-0.443174942055,0.0,-1.32010412002,0.0,0.0,0.0,0.0,-0.568473296657,-10.6476052445,-53.0789279027,-0.102034719783,100.0,-0.0145763476665,-100.0,-0.106678274994,100.0,0.0,-100.0,1565388.20047,0.0,0.0,0.0,0.0,0.0,0.0
1402598630543094946,0,6.57452444086,-0.114322152727,-13.9424125814,0.043815185726,-0.0621358194837,0.0,-0.443169498753,0.0,-1.35951391136,0.0,0.0,0.0,0.0,-0.568473296657,-10.6476052445,-53.0789279027,-0.102034719783,100.0,-0.0145763476665,-100.0,-0.106678274994,100.0,0.0,-100.0,1565388.20047,0.0,0.0,0.0,0.0,0.0,0.0
1402598630563713553,0,6.57452444086,-0.114322152727,-13.9424125814,0.043815185726,-0.0621358194837,0.0,-0.443169498753,0.0,-1.35951391136,0.0,0.0,0.0,0.0,-0.568473296657,-10.6476052445,-53.0789279027,-0.102034719783,100.0,-0.0161108096416,-100.0,-0.106678274994,100.0,0.0,-100.0,1565388.20047,0.0,0.0,0.0,0.0,0.0,0.0
1402598630583156607,0,6.56774620789,-0.114322152727,-13.9525605003,0.043815185726,-0.0647146268216,0.0,-0.439608778256,0.0,-1.38404448207,0.0,0.0,0.0,0.0,-0.568473296657,-10.6476052445,-53.0789279027,-0.102034719783,100.0,-0.0145763476665,-100.0,-0.106678274994,100.0,0.0,-100.0,1565388.20047,0.0,0.0,0.0,0.0,0.0,0.0
1402598630603671613,0,6.56650100882,-0.114322152727,-13.9618440583,0.043815185726,-0.0675664209772,0.0,-0.441237303188,0.0,-1.39985991091,0.0,0.0,0.0,0.0,-0.568473296657,-10.6476052445,-53.0789279027,-0.102034719783,100.0,-0.0145763476665,-100.0,-0.106678274994,100.0,0.0,-100.0,1565388.20047,0.0,0.0,0.0,0.0,0.0,0.0
1402598630622990418,0,6.56650100882,-0.114322152727,-13.9618440583,0.043815185726,-0.0675664209772,0.0,-0.441237303188,0.0,-1.39985991091,0.0,0.0,0.0,0.0,-0.568473296657,-10.6476052445,-53.0789279027,-0.102034719783,100.0,-0.0145763476665,-100.0,-0.106678274994,100.0,0.0,-100.0,1565388.20047,0.0,0.0,0.0,0.0,0.0,0.0
1402598630643633685,0,6.56718554804,-0.114322152727,-13.9699720094,0.043815185726,-0.0694789364472,0.0,-0.445818262249,0.0,-1.41443539703,0.0,0.0,0.0,0.0,-0.568473296657,-10.6476052445,-53.0789279027,-0.102034719783,100.0,-0.0145763476665,-100.0,-0.106678274994,100.0,0.0,-100.0,1565388.20047,0.0,0.0,0.0,0.0,0.0,0.0
1402598630662973741,0,6.56718554804,-0.114322152727,-13.9699720094,0.043815185726,-0.0694789364472,0.0,-0.445818262249,0.0,-1.41443539703,0.0,0.0,0.0,0.0,-0.568473296657,-10.6476052445,-53.0789279027,-0.102034719783,100.0,-0.0145763476665,-100.0,-0.106678274994,100.0,0.0,-100.0,1565388.20047,0.0,0.0,0.0,0.0,0.0,0.0
1402598630683522126,0,6.56339904535,-0.114322152727,-13.9939229934,0.043815185726,-0.0819087727852,0.0,-0.459016083226,0.0,-1.44421116276,0.0,0.0,0.0,0.0,-0.568473296657,-10.6476052445,-53.0789279027,-0.102034719783,100.0,-0.0145763476665,-100.0,-0.106678274994,100.0,0.0,-100.0,1565388.20047,0.0,0.0,0.0,0.0,0.0,0.0
1402598630703115201,0,6.56339904535,-0.114322152727,-13.9939229934,0.043815185726,-0.0819087727852,0.0,-0.459016083226,0.0,-1.44421116276,0.0,0.0,0.0,0.0,-0.568473296657,-10.6476052445,-53.0789279027,-0.102034719783,100.0,-0.0145763476665,-100.0,-0.106678274994,100.0,0.0,-100.0,1565388.20047,0.0,0.0,0.0,0.0,0.0,0.0
1402598630723598899,0,6.55755235528,-0.114322152727,-14.0137117052,0.043815185726,-0.0898203797963,0.0,-0.461147930281,0.0,-1.47628723076,0.0,0.0,0.0,0.0,-0.568473296657,-10.6476052445,-53.0789279027,-0.102034719783,100.0,-0.0145763476665,-100.0,-0.106678274994,100.0,0.0,-100.0,1565388.20047,0.0,0.0,0.0,0.0,0.0,0.0
1402598630743269867,0,6.55755235528,-0.114322152727,-14.0137117052,0.043815185726,-0.0898203797963,0.0,-0.461147930281,0.0,-1.47628723076,0.0,0.0,0.0,0.0,-0.568473296657,-10.6476052445,-53.0789279027,-0.102034719783,100.0,-0.0161108096416,-100.0,-0.106678274994,100.0,0.0,-100.0,1565388.20047,0.0,0.0,0.0,0.0,0.0,0.0
1402598630763680236,0,6.55408174205,-0.114322152727,-14.0313363481,0.043815185726,-0.09633382817,0.0,-0.452290147022,0.0,-1.5072008328,0.0,0.0,0.0,0.0,-0.568473296657,-10.6476052445,-53.0789279027,-0.102034719783,100.0,-0.0145763476665,-100.0,-0.106678274994,100.0,0.0,-100.0,1565388.20047,0.0,0.0,0.0,0.0,0.0,0.0
1402598630782802115,0,6.55408174205,-0.114322152727,-14.0313363481,0.043815185726,-0.09633382817,0.0,-0.452290147022,0.0,-1.5072008328,0.0,0.0,0.0,0.0,-0.568473296657,-10.6476052445,-53.0789279027,-0.102034719783,100.0,-0.0145763476665,-100.0,-0.106678274994,100.0,0.0,-100.0,1565388.20047,0.0,0.0,0.0,0.0,0.0,0.0
1402598630803548574,0,6.54532288841,-0.114322152727,-14.0492690337,0.043815185726,-0.12247402553,0.0,-0.448677630378,0.0,-1.53889464974,0.0,0.0,0.0,0.0,-0.568473296657,-10.6476052445,-53.0789279027,-0.102034719783,100.0,-0.0145763476665,-100.0,-0.106678274994,100.0,0.0,-100.0,1565388.20047,0.0,0.0,0.0,0.0,0.0,0.0
1402598630822978484,0,6.54532288841,-0.114322152727,-14.0492690337,0.043815185726,-0.12247402553,0.0,-0.448677630378,0.0,-1.53889464974,0.0,0.0,0.0,0.0,-0.568473296657,-10.6476052445,-53.0789279027,-0.102034719783,100.0,-0.0161108096416,-100.0,-0.106678274994,100.0,0.0,-100.0,1565388.20047,0.0,0.0,0.0,0.0,0.0,0.0
1402598630843647157,0,6.53584127714,-0.114322152727,-14.0753968218,0.043815185726,-0.14464556872,0.0,-0.459057179411,0.0,-1.57708550249,0.0,0.0,0.0,0.0,-0.568473296657,-10.6476052445,-53.0789279027,-0.102034719783,100.0,-0.0161108096416,-100.0,-0.106678274994,100.0,0.0,-100.0,1565388.20047,0.0,0.0,0.0,0.0,0.0,0.0
1402598630862941048,0,6.53584127714,-0.114322152727,-14.0753968218,0.043815185726,-0.14464556872,0.0,-0.459057179411,0.0,-1.57708550249,0.0,0.0,0.0,0.0,-0.568473296657,-10.6476052445,-53.0789279027,-0.102034719783,100.0,-0.0161108096416,-100.0,-0.106678274994,100.0,0.0,-100.0,1565388.20047,0.0,0.0,0.0,0.0,0.0,0.0
1402598630883520790,0,6.52935192408,-0.114322152727,-14.1031889869,0.043815185726,-0.165050502346,0.0,-0.463534518733,0.0,-1.61393524199,0.0,0.0,0.0,0.0,-0.568473296657,-10.6476052445,-53.0789279027,-0.102034719783,100.0,-0.0161108096416,-100.0,-0.106678274994,100.0,0.0,-100.0,1565388.20047,0.0,0.0,0.0,0.0,0.0,0.0
1402598630903236224,0,6.52935192408,-0.114322152727,-14.1031889869,0.043815185726,-0.165050502346,0.0,-0.463534518733,0.0,-1.61393524199,0.0,0.0,0.0,0.0,-0.568473296657,-10.6476052445,-53.0789279027,-0.102034719783,100.0,-0.0145763476665,-100.0,-0.106678274994,100.0,0.0,-100.0,1565388.20047,0.0,0.0,0.0,0.0,0.0,0.0
1402598630923490270,0,6.52595195762,-0.114322152727,-14.1123527892,0.043815185726,-0.170406624536,0.0,-0.46358244284,0.0,-1.62914537277,0.0,0.0,0.0,0.0,-0.568473296657,-10.6476052445,-53.0789279027,-0.102034719783,100.0,-0.0161108096416,-100.0,-0.106678274994,100.0,0.0,-100.0,1565388.20047,0.0,0.0,0.0,0.0,0.0,0.0
1402598630944180443,0,6.52595195762,-0.114322152727,-14.1123527892,0.043815185726,-0.170406624536,0.0,-0.46358244284,0.0,-1.62914537277,0.0,0.0,0.0,0.0,-0.568473296657,-10.6476052445,-53.0789279027,-0.102034719783,100.0,-0.0161108096416,-100.0,-0.106678274994,100.0,0.0,-100.0,1565388.20047,0.0,0.0,0.0,0.0,0.0,0.0
1402598630963449974,0,6.51695448557,-0.114322152727,-14.1389451069,0.043815185726,-0.204650137513,0.0,-0.474415702357,0.0,-1.65883558115,0.0,0.0,0.0,0.0,-0.568473296657,-10.6476052445,-53.0789279027,-0.100500257808,100.0,-0.0176450331982,-100.0,-0.106678274994,100.0,0.0,-100.0,1565388.20047,0.0,0.0,0.0,0.0,0.0,0.0
1402598630983031332,0,6.51695448557,-0.114322152727,-14.1389451069,0.043815185726,-0.204650137513,0.0,-0.474415702357,0.0,-1.65883558115,0.0,0.0,0.0,0.0,-0.568473296657,-10.6476052445,-53.0789279027,-0.102034719783,100.0,-0.0176450331982,-100.0,-0.106678274994,100.0,0.0,-100.0,1565388.20047,0.0,0.0,0.0,0.0,0.0,0.0
1402598631003676710,0,6.51029334124,-0.114322152727,-14.1607144936,0.043815185726,-0.218392588131,0.0,-0.480246886583,0.0,-1.69007546721,0.0,0.0,0.0,0.0,-0.568473296657,-10.6476052445,-53.0789279027,-0.102034719783,100.0,-0.0145763476665,-100.0,-0.106678274994,100.0,0.0,-100.0,1565388.20047,0.0,0.0,0.0,0.0,0.0,0.0
1402598631022995198,0,6.51029334124,-0.114322152727,-14.1607144936,0.043815185726,-0.218392588131,0.0,-0.480246886583,0.0,-1.69007546721,0.0,0.0,0.0,0.0,-0.568473296657,-10.6476052445,-53.0789279027,-0.102034719783,100.0,-0.0145763476665,-100.0,-0.106678274994,100.0,0.0,-100.0,1565388.20047,0.0,0.0,0.0,0.0,0.0,0.0
1402598631043798840,0,6.49826895363,-0.114322152727,-14.1813200724,0.043815185726,-0.224421268357,0.0,-0.485196645997,0.0,-1.72225262556,0.0,0.0,0.0,0.0,-0.568473296657,-10.6476052445,-53.0789279027,-0.102034719783,100.0,-0.0145763476665,-100.0,-0.106678274994,100.0,0.0,-100.0,1565388.20047,0.0,0.0,0.0,0.0,0.0,0.0
1402598631063013614,0,6.49826895363,-0.114322152727,-14.1813200724,0.043815185726,-0.224421268357,0.0,-0.485196645997,0.0,-1.72225262556,0.0,0.0,0.0,0.0,-0.568473296657,-10.6476052445,-53.0789279027,-0.102034719783,100.0,-0.0161108096416,-100.0,-0.106678274994,100.0,0.0,-100.0,1565388.20047,0.0,0.0,0.0,0.0,0.0,0.0
1402598631083646649,0,6.48900122754,-0.114322152727,-14.2011692642,0.043815185726,-0.227796781483,0.0,-0.486115451675,0.0,-1.75420902202,0.0,0.0,0.0,0.0,-0.568473296657,-10.6476052445,-53.0789279027,-0.102034719783,100.0,-0.0161108096416,-100.0,-0.106678274994,100.0,0.0,-100.0,1565388.20047,0.0,0.0,0.0,0.0,0.0,0.0
1402598631103036879,0,6.48900122754,-0.114322152727,-14.2011692642,0.043815185726,-0.227796781483,0.0,-0.486115451675,0.0,-1.75420902202,0.0,0.0,0.0,0.0,-0.568473296657,-10.6476052445,-53.0789279027,-0.102034719783,100.0,-0.0161108096416,-100.0,-0.106678274994,100.0,0.0,-100.0,1565388.20047,0.0,0.0,0.0,0.0,0.0,0.0
1402598631123588774,0,6.47417745695,-0.114322152727,-14.2303017775,0.043815185726,-0.244179567338,0.0,-0.476837603203,0.0,-1.80132905899,0.0,0.0,0.0,0.0,-0.568473296657,-10.6476052445,-53.0789279027,-0.102034719783,100.0,-0.0176450331982,-100.0,-0.106678274994,100.0,0.0,-100.0,1565388.20047,0.0,0.0,0.0,0.0,0.0,0.0
1402598631143064540,0,6.47417745695,-0.114322152727,-14.2303017775,0.043815185726,-0.244179567338,0.0,-0.476837603203,0.0,-1.80132905899,0.0,0.0,0.0,0.0,-0.568473296657,-10.6476052445,-53.0789279027,-0.102034719783,100.0,-0.0161108096416,-100.0,-0.106678274994,100.0,0.0,-100.0,1565388.20047,0.0,0.0,0.0,0.0,0.0,0.0
1402598631163585074,0,6.45468743841,-0.114322152727,-14.249977232,0.043815185726,-0.263583489797,0.0,-0.478721326575,0.0,-1.83354042995,0.0,0.0,0.0,0.0,-0.568473296657,-10.6476052445,-53.0789279027,-0.102034719783,100.0,-0.0145763476665,-100.0,-0.106678274994,100.0,0.0,-100.0,1565388.20047,0.0,0.0,0.0,0.0,0.0,0.0
1402598631182917088,0,6.45468743841,-0.114322152727,-14.249977232,0.043815185726,-0.263583489797,0.0,-0.478721326575,0.0,-1.83354042995,0.0,0.0,0.0,0.0,-0.568473296657,-10.6476052445,-53.0789279027,-0.102034719783,100.0,-0.0145763476665,-100.0,-0.106678274994,100.0,0.0,-100.0,1565388.20047,0.0,0.0,0.0,0.0,0.0,0.0
1402598631203565780,0,6.44963087543,-0.114322152727,-14.2595567661,0.043815185726,-0.259131593872,0.0,-0.480136489476,0.0,-1.84862608378,0.0,0.0,0.0,0.0,-0.568473296657,-10.6476052445,-53.0789279027,-0.102034719783,100.0,-0.0161108096416,-100.0,-0.106678274994,100.0,0.0,-100.0,1565388.20047,0.0,0.0,0.0,0.0,0.0,0.0
1402598631223037686,0,6.44963087543,-0.114322152727,-14.2595567661,0.043815185726,-0.259131593872,0.0,-0.480136489476,0.0,-1.84862608378,0.0,0.0,0.0,0.0,-0.568473296657,-10.6476052445,-53.0789279027,-0.102034719783,100.0,-0.0161108096416,-100.0,-0.106678274994,100.0,0.0,-100.0,1565388.20047,0.0,0.0,0.0,0.0,0.0,0.0
1402598631243573697,0,6.44113334243,-0.114322152727,-14.2956631165,0.043815185726,-0.270992256301,0.0,-0.498704127588,0.0,-1.88211527078,0.0,0.0,0.0,0.0,-0.568473296657,-10.6476052445,-53.0789279027,-0.102034719783,100.0,-0.0161108096416,-100.0,-0.106678274994,100.0,0.0,-100.0,1565388.20047,0.0,0.0,0.0,0.0,0.0,0.0
1402598631263642693,0,6.44113334243,-0.114322152727,-14.2956631165,0.043815185726,-0.270992256301,0.0,-0.498704127588,0.0,-1.88211527078,0.0,0.0,0.0,0.0,-0.568473296657,-10.6476052445,-53.0789279027,-0.102034719783,100.0,-0.0161108096416,-100.0,-0.106678274994,100.0,0.0,-100.0,1565388.20047,0.0,0.0,0.0,0.0,0.0,0.0
1402598631283509211,0,6.42633896846,-0.114322152727,-14.3060768995,0.043815185726,-0.290213645053,0.0,-0.483752195507,0.0,-1.90709324364,0.0,0.0,0.0,0.0,-0.568473296657,-10.6476052445,-53.0789279027,-0.102034719783,100.0,-0.0145763476665,-100.0,-0.106678274994,100.0,0.0,-100.0,1565388.20047,0.0,0.0,0.0,0.0,0.0,0.0
1402598631302868178,0,6.4203346628,-0.114322152727,-14.3162297102,0.043815185726,-0.288942514252,0.0,-0.486185752916,0.0,-1.92276329706,0.0,0.0,0.0,0.0,-0.568473296657,-10.6476052445,-53.0789279027,-0.102034719783,100.0,-0.0145763476665,-100.0,-0.106678274994,100.0,0.0,-100.0,1565388.20047,0.0,0.0,0.0,0.0,0.0,0.0
1402598631323637534,0,6.4203346628,-0.114322152727,-14.3162297102,0.043815185726,-0.288942514252,0.0,-0.486185752916,0.0,-1.92276329706,0.0,0.0,0.0,0.0,-0.568473296657,-10.6476052445,-53.0789279027,-0.102034719783,100.0,-0.0145763476665,-100.0,-0.106678274994,100.0,0.0,-100.0,1565388.20047,0.0,0.0,0.0,0.0,0.0,0.0
1402598631343608519,0,6.41181646533,-0.114322152727,-14.3326390512,0.043815185726,-0.310160802389,0.0,-0.493589287627,0.0,-1.93630498491,0.0,0.0,0.0,0.0,-0.568473296657,-10.6476052445,-53.0789279027,-0.102034719783,100.0,-0.0145763476665,-100.0,-0.106678274994,100.0,0.0,-100.0,1565388.20047,0.0,0.0,0.0,0.0,0.0,0.0
1402598631363530011,0,6.41181646533,-0.114322152727,-14.3326390512,0.043815185726,-0.310160802389,0.0,-0.493589287627,0.0,-1.93630498491,0.0,0.0,0.0,0.0,-0.568473296657,-10.6476052445,-53.0789279027,-0.102034719783,100.0,-0.0161108096416,-100.0,-0.106678274994,100.0,0.0,-100.0,1565388.20047,0.0,0.0,0.0,0.0,0.0,0.0
1402598631383007175,0,6.39903067717,-0.114322152727,-14.3529934987,0.043815185726,-0.316045560672,0.0,-0.49511892104,0.0,-1.96718987517,0.0,0.0,0.0,0.0,-0.568473296657,-10.6476052445,-53.0789279027,-0.102034719783,100.0,-0.0161108096416,-100.0,-0.106678274994,100.0,0.0,-100.0,1565388.20047,0.0,0.0,0.0,0.0,0.0,0.0
1402598631403484142,0,6.39903067717,-0.114322152727,-14.3529934987,0.043815185726,-0.316045560672,0.0,-0.49511892104,0.0,-1.96718987517,0.0,0.0,0.0,0.0,-0.568473296657,-10.6476052445,-53.0789279027,-0.100500257808,100.0,-0.0161108096416,-100.0,-0.106678274994,100.0,0.0,-100.0,1565388.20047,0.0,0.0,0.0,0.0,0.0,0.0
1402598631423045600,0,6.38928285993,-0.114322152727,-14.379303317,0.043815185726,-0.327324775474,0.0,-0.498770922956,0.0,-1.9957620151,0.0,0.0,0.0,0.0,-0.568473296657,-10.6476052445,-53.0789279027,-0.102034719783,100.0,-0.0145763476665,-100.0,-0.106678274994,100.0,0.0,-100.0,1565388.20047,0.0,0.0,0.0,0.0,0.0,0.0
1402598631443613896,0,6.38928285993,-0.114322152727,-14.379303317,0.043815185726,-0.327324775474,0.0,-0.498770922956,0.0,-1.9957620151,0.0,0.0,0.0,0.0,-0.568473296657,-10.6476052445,-53.0789279027,-0.102034719783,100.0,-0.0145763476665,-100.0,-0.106678274994,100.0,0.0,-100.0,1565388.20047,0.0,0.0,0.0,0.0,0.0,0.0
1402598631463002878,0,6.37596675013,-0.114322152727,-14.4022375871,0.043815185726,-0.352161630343,0.0,-0.49618377987,0.0,-2.02774896315,0.0,0.0,0.0,0.0,-0.568473296657,-10.6476052445,-53.0789279027,-0.102034719783,100.0,-0.0145763476665,-100.0,-0.106678274994,100.0,0.0,-100.0,1565388.20047,0.0,0.0,0.0,0.0,0.0,0.0
1402598631483552824,0,6.37596675013,-0.114322152727,-14.4022375871,0.043815185726,-0.352161630343,0.0,-0.49618377987,0.0,-2.02774896315,0.0,0.0,0.0,0.0,-0.568473296657,-10.6476052445,-53.0789279027,-0.102034719783,100.0,-0.0145763476665,-100.0,-0.106678274994,100.0,0.0,-100.0,1565388.20047,0.0,0.0,0.0,0.0,0.0,0.0
1402598631503161483,0,6.35034850419,-0.114322152727,-14.4225335598,0.043815185726,-0.394440907085,0.0,-0.489699086017,0.0,-2.06098506162,0.0,0.0,0.0,0.0,-0.568473296657,-10.6476052445,-53.0789279027,-0.102034719783,100.0,-0.0145763476665,-100.0,-0.106678274994,100.0,0.0,-100.0,1565388.20047,0.0,0.0,0.0,0.0,0.0,0.0
1402598631523471772,0,6.35034850419,-0.114322152727,-14.4225335598,0.043815185726,-0.394440907085,0.0,-0.489699086017,0.0,-2.06098506162,0.0,0.0,0.0,0.0,-0.568473296657,-10.6476052445,-53.0789279027,-0.102034719783,100.0,-0.0145763476665,-100.0,-0.106678274994,100.0,0.0,-100.0,1565388.20047,0.0,0.0,0.0,0.0,0.0,0.0
1402598631543027875,0,6.33437695035,-0.114322152727,-14.4427507318,0.043815185726,-0.400687524569,0.0,-0.490697743169,0.0,-2.09350161676,0.0,0.0,0.0,0.0,-0.568473296657,-10.6476052445,-53.0789279027,-0.102034719783,100.0,-0.0145763476665,-100.0,-0.106678274994,100.0,0.0,-100.0,1565388.20047,0.0,0.0,0.0,0.0,0.0,0.0
1402598631563585416,0,6.33437695035,-0.114322152727,-14.4427507318,0.043815185726,-0.400687524569,0.0,-0.490697743169,0.0,-2.09350161676,0.0,0.0,0.0,0.0,-0.568473296657,-10.6476052445,-53.0789279027,-0.102034719783,100.0,-0.0145763476665,-100.0,-0.106678274994,100.0,0.0,-100.0,1565388.20047,0.0,0.0,0.0,0.0,0.0,0.0
1402598631583019812,0,6.31747971734,-0.114322152727,-14.4667654962,0.043815185726,-0.408521451434,0.0,-0.472662811848,0.0,-2.13533447668,0.0,0.0,0.0,0.0,-0.568473296657,-10.6476052445,-53.0789279027,-0.102034719783,100.0,-0.0145763476665,-100.0,-0.106678274994,100.0,0.0,-100.0,1565388.20047,0.0,0.0,0.0,0.0,0.0,0.0
1402598631603578997,0,6.31747971734,-0.114322152727,-14.4667654962,0.043815185726,-0.408521451434,0.0,-0.472662811848,0.0,-2.13533447668,0.0,0.0,0.0,0.0,-0.568473296657,-10.6476052445,-53.0789279027,-0.100500257808,100.0,-0.01304212411,-100.0,-0.106678274994,100.0,0.0,-100.0,1565388.20047,0.0,0.0,0.0,0.0,0.0,0.0
1402598631623038257,0,6.28724056659,-0.114322152727,-14.5002200304,0.043815185726,-0.426970950912,0.0,-0.454628357712,0.0,-2.19072618773,0.0,0.0,0.0,0.0,-0.568473296657,-10.6476052445,-53.0789279027,-0.102034719783,100.0,-0.0145763476665,-100.0,-0.106678274994,100.0,0.0,-100.0,1565388.20047,0.0,0.0,0.0,0.0,0.0,0.0
1402598631643601089,0,6.28724056659,-0.114322152727,-14.5002200304,0.043815185726,-0.426970950912,0.0,-0.454628357712,0.0,-2.19072618773,0.0,0.0,0.0,0.0,-0.568473296657,-10.6476052445,-53.0789279027,-0.102034719783,100.0,-0.01304212411,-100.0,-0.106678274994,100.0,0.0,-100.0,1565388.20047,0.0,0.0,0.0,0.0,0.0,0.0
1402598631663114248,0,6.2830098591,-0.114322152727,-14.5047520767,0.043815185726,-0.429449191052,0.0,-0.45802843756,0.0,-2.19831894586,0.0,0.0,0.0,0.0,-0.568473296657,-10.6476052445,-53.0789279027,-0.102034719783,100.0,-0.0145763476665,-100.0,-0.106678274994,100.0,0.0,-100.0,1565388.20047,0.0,0.0,0.0,0.0,0.0,0.0
1402598631683492647,0,6.2830098591,-0.114322152727,-14.5047520767,0.043815185726,-0.429449191052,0.0,-0.45802843756,0.0,-2.19831894586,0.0,0.0,0.0,0.0,-0.568473296657,-10.6476052445,-53.0789279027,-0.102034719783,100.0,-0.01304212411,-100.0,-0.106678274994,100.0,0.0,-100.0,1565388.20047,0.0,0.0,0.0,0.0,0.0,0.0
1402598631703056953,0,6.26964341061,-0.114322152727,-14.5188465983,0.043815185726,-0.438756187401,0.0,-0.446320553532,0.0,-2.22185295598,0.0,0.0,0.0,0.0,-0.568473296657,-10.6476052445,-53.0789279027,-0.102034719783,100.0,-0.01304212411,-100.0,-0.106678274994,100.0,0.0,-100.0,1565388.20047,0.0,0.0,0.0,0.0,0.0,0.0
1402598631723527278,0,6.26964341061,-0.114322152727,-14.5188465983,0.043815185726,-0.438756187401,0.0,-0.446320553532,0.0,-2.22185295598,0.0,0.0,0.0,0.0,-0.568473296657,-10.6476052445,-53.0789279027,-0.102034719783,100.0,-0.01304212411,-100.0,-0.106678274994,100.0,0.0,-100.0,1565388.20047,0.0,0.0,0.0,0.0,0.0,0.0
1402598631742983389,0,6.25759298855,-0.114322152727,-14.5334501265,0.043815185726,-0.430321811379,0.0,-0.431112729102,0.0,-2.2547324128,0.0,0.0,0.0,0.0,-0.568473296657,-10.6476052445,-53.0789279027,-0.102034719783,100.0,-0.01304212411,-100.0,-0.106678274994,100.0,0.0,-100.0,1565388.20047,0.0,0.0,0.0,0.0,0.0,0.0
1402598631763505064,0,6.25759298855,-0.114322152727,-14.5334501265,0.043815185726,-0.430321811379,0.0,-0.431112729102,0.0,-2.2547324128,0.0,0.0,0.0,0.0,-0.568473296657,-10.6476052445,-53.0789279027,-0.102034719783,100.0,-0.0115079005535,-100.0,-0.106678274994,100.0,0.0,-100.0,1565388.20047,0.0,0.0,0.0,0.0,0.0,0.0
1402598631782995444,0,6.22666356628,-0.114322152727,-14.5502733006,0.043815185726,-0.478778315243,0.0,-0.416208517189,0.0,-2.28543419255,0.0,0.0,0.0,0.0,-0.568473296657,-10.6476052445,-53.0789279027,-0.102034719783,100.0,-0.0115079005535,-100.0,-0.106678274994,100.0,0.0,-100.0,1565388.20047,0.0,0.0,0.0,0.0,0.0,0.0
1402598631803026752,0,6.22666356628,-0.114322152727,-14.5502733006,0.043815185726,-0.478778315243,0.0,-0.416208517189,0.0,-2.28543419255,0.0,0.0,0.0,0.0,-0.568473296657,-10.6476052445,-53.0789279027,-0.102034719783,100.0,-0.00997320015982,-100.0,-0.106678274994,100.0,0.0,-100.0,1565388.20047,0.0,0.0,0.0,0.0,0.0,0.0
1402598631823581070,0,6.2059953464,-0.114322152727,-14.5643448034,0.043815185726,-0.492559911542,0.0,-0.397248505449,0.0,-2.31906446613,0.0,0.0,0.0,0.0,-0.568473296657,-10.6476052445,-53.0789279027,-0.102034719783,100.0,-0.00997320015982,-100.0,-0.106678274994,100.0,0.0,-100.0,1565388.20047,0.0,0.0,0.0,0.0,0.0,0.0
1402598631842959322,0,6.2059953464,-0.114322152727,-14.5643448034,0.043815185726,-0.492559911542,0.0,-0.397248505449,0.0,-2.31906446613,0.0,0.0,0.0,0.0,-0.568473296657,-10.6476052445,-53.0789279027,-0.102034719783,100.0,-0.00843897660331,-100.0,-0.106678274994,100.0,0.0,-100.0,1565388.20047,0.0,0.0,0.0,0.0,0.0,0.0
1402598631863657156,0,6.17254440041,-0.114322152727,-14.579405852,0.043815185726,-0.518525426087,0.0,-0.373885598129,0.0,-2.35993341422,0.0,0.0,0.0,0.0,-0.568473296657,-10.6476052445,-53.0789279027,-0.102034719783,100.0,-0.00843897660331,-100.0,-0.106678274994,100.0,0.0,-100.0,1565388.20047,0.0,0.0,0.0,0.0,0.0,0.0
1402598631883058043,0,6.17254440041,-0.114322152727,-14.579405852,0.043815185726,-0.518525426087,0.0,-0.373885598129,0.0,-2.35993341422,0.0,0.0,0.0,0.0,-0.568473296657,-10.6476052445,-53.0789279027,-0.102034719783,100.0,-0.00843897660331,-100.0,-0.106678274994,100.0,0.0,-100.0,1565388.20047,0.0,0.0,0.0,0.0,0.0,0.0
1402598631903686945,0,6.14774627151,-0.114322152727,-14.609025787,0.043815185726,-0.532114560341,0.0,-0.383072867443,0.0,-2.39728722986,0.0,0.0,0.0,0.0,-0.568473296657,-10.6476052445,-53.0789279027,-0.102034719783,100.0,-0.00843897660331,-100.0,-0.106678274994,100.0,0.0,-100.0,1565388.20047,0.0,0.0,0.0,0.0,0.0,0.0
1402598631923165135,0,6.14774627151,-0.114322152727,-14.609025787,0.043815185726,-0.532114560341,0.0,-0.383072867443,0.0,-2.39728722986,0.0,0.0,0.0,0.0,-0.568473296657,-10.6476052445,-53.0789279027,-0.102034719783,100.0,-0.00843897660331,-100.0,-0.106678274994,100.0,0.0,-100.0,1565388.20047,0.0,0.0,0.0,0.0,0.0,0.0
1402598631943664667,0,6.13358727172,-0.114322152727,-14.6128568876,0.043815185726,-0.544109252841,0.0,-0.367908100394,0.0,-2.41470741263,0.0,0.0,0.0,0.0,-0.568473296657,-10.6476052445,-53.0789279027,-0.102034719783,100.0,-0.00843897660331,-100.0,-0.106678274994,100.0,0.0,-100.0,1565388.20047,0.0,0.0,0.0,0.0,0.0,0.0
1402598631962986144,0,6.13358727172,-0.114322152727,-14.6128568876,0.043815185726,-0.544109252841,0.0,-0.367908100394,0.0,-2.41470741263,0.0,0.0,0.0,0.0,-0.568473296657,-10.6476052445,-53.0789279027,-0.102034719783,100.0,-0.00843897660331,-100.0,-0.106678274994,100.0,0.0,-100.0,1565388.20047,0.0,0.0,0.0,0.0,0.0,0.0
1402598631983518486,0,6.09865158807,-0.114322152727,-14.6319654475,0.043815185726,-0.564965533746,0.0,-0.360141637972,0.0,-2.45420803329,0.0,0.0,0.0,0.0,-0.568473296657,-10.6476052445,-53.0789279027,-0.102034719783,100.0,-0.00843897660331,-100.0,-0.106678274994,100.0,0.0,-100.0,1565388.20047,0.0,0.0,0.0,0.0,0.0,0.0
1402598632003000623,0,6.09865158807,-0.114322152727,-14.6319654475,0.043815185726,-0.564965533746,0.0,-0.360141637972,0.0,-2.45420803329,0.0,0.0,0.0,0.0,-0.568473296657,-10.6476052445,-53.0789279027,-0.102034719783,100.0,-0.00843897660331,-100.0,-0.106678274994,100.0,0.0,-100.0,1565388.20047,0.0,0.0,0.0,0.0,0.0,0.0
1402598632023560844,0,6.07900549339,-0.114322152727,-14.6411510844,0.043815185726,-0.57294663447,0.0,-0.34629838402,0.0,-2.47894798184,0.0,0.0,0.0,0.0,-0.568473296657,-10.6476052445,-53.0789279027,-0.102034719783,100.0,-0.00843897660331,-100.0,-0.106678274994,100.0,0.0,-100.0,1565388.20047,0.0,0.0,0.0,0.0,0.0,0.0
1402598632043153241,0,6.06685752576,-0.114322152727,-14.6485495065,0.043815185726,-0.576689116345,0.0,-0.34346922581,0.0,-2.49531485886,0.0,0.0,0.0,0.0,-0.568473296657,-10.6476052445,-53.0789279027,-0.102034719783,100.0,-0.00843897660331,-100.0,-0.106678274994,100.0,0.0,-100.0,1565388.20047,0.0,0.0,0.0,0.0,0.0,0.0
1402598632063573421,0,6.06685752576,-0.114322152727,-14.6485495065,0.043815185726,-0.576689116345,0.0,-0.34346922581,0.0,-2.49531485886,0.0,0.0,0.0,0.0,-0.568473296657,-10.6476052445,-53.0789279027,-0.103568943339,100.0,-0.00843897660331,-100.0,-0.106678274994,100.0,0.0,-100.0,1565388.20047,0.0,0.0,0.0,0.0,0.0,0.0
1402598632083005532,0,6.05458766609,-0.114322152727,-14.6555915185,0.043815185726,-0.581881136223,0.0,-0.340272947539,0.0,-2.51164924081,0.0,0.0,0.0,0.0,-0.568473296657,-10.6476052445,-53.0789279027,-0.103568943339,100.0,-0.00690451462821,-100.0,-0.106678274994,100.0,0.0,-100.0,1565388.20047,0.0,0.0,0.0,0.0,0.0,0.0
1402598632103604440,0,6.05458766609,-0.114322152727,-14.6555915185,0.043815185726,-0.581881136223,0.0,-0.340272947539,0.0,-2.51164924081,0.0,0.0,0.0,0.0,-0.568473296657,-10.6476052445,-53.0789279027,-0.102034719783,100.0,-0.00690451462821,-100.0,-0.106678274994,100.0,0.0,-100.0,1565388.20047,0.0,0.0,0.0,0.0,0.0,0.0
1402598632122994384,0,6.02847310953,-0.114322152727,-14.6662668255,0.043815185726,-0.587319722162,0.0,-0.323724430841,0.0,-2.54451515586,0.0,0.0,0.0,0.0,-0.568473296657,-10.6476052445,-53.0789279027,-0.102034719783,100.0,-0.00690451462821,-100.0,-0.106678274994,100.0,0.0,-100.0,1565388.20047,0.0,0.0,0.0,0.0,0.0,0.0
1402598632143651119,0,6.02847310953,-0.114322152727,-14.6662668255,0.043815185726,-0.587319722162,0.0,-0.323724430841,0.0,-2.54451515586,0.0,0.0,0.0,0.0,-0.568473296657,-10.6476052445,-53.0789279027,-0.102034719783,100.0,-0.00537029107169,-100.0,-0.106678274994,100.0,0.0,-100.0,1565388.20047,0.0,0.0,0.0,0.0,0.0,0.0
1402598632163010862,0,6.00382860094,-0.114322152727,-14.6858134144,0.043815185726,-0.59640170479,0.0,-0.323009659225,0.0,-2.57489056056,0.0,0.0,0.0,0.0,-0.568473296657,-10.6476052445,-53.0789279027,-0.103568943339,100.0,0.00230154196664,-100.0,-0.106678274994,100.0,0.0,-100.0,1565388.20047,0.0,0.0,0.0,0.0,0.0,0.0
1402598632183490083,0,6.00382860094,-0.114322152727,-14.6858134144,0.043815185726,-0.59640170479,0.0,-0.323009659225,0.0,-2.57489056056,0.0,0.0,0.0,0.0,-0.568473296657,-10.6476052445,-53.0789279027,-0.102034719783,100.0,0.00537022749826,-100.0,-0.106678274994,100.0,0.0,-100.0,1565388.20047,0.0,0.0,0.0,0.0,0.0,0.0
1402598632202997578,0,5.97602507139,-0.114322152727,-14.695417571,0.043815185726,-0.603161304252,0.0,-0.302134411753,0.0,-2.60745618447,0.0,0.0,0.0,0.0,-0.568473296657,-10.6476052445,-53.0789279027,-0.102034719783,100.0,0.00537022749826,-100.0,-0.106678274994,100.0,0.0,-100.0,1565388.20047,0.0,0.0,0.0,0.0,0.0,0.0
1402598632223533478,0,5.97602507139,-0.114322152727,-14.695417571,0.043815185726,-0.603161304252,0.0,-0.302134411753,0.0,-2.60745618447,0.0,0.0,0.0,0.0,-0.568473296657,-10.6476052445,-53.0789279027,-0.102034719783,100.0,0.00383600394174,-100.0,-0.106678274994,100.0,0.0,-100.0,1565388.20047,0.0,0.0,0.0,0.0,0.0,0.0
1402598632243012461,0,5.94470955029,-0.114322152727,-14.7007593982,0.043815185726,-0.60763914834,0.0,-0.275091952519,0.0,-2.64097275915,0.0,0.0,0.0,0.0,-0.568473296657,-10.6476052445,-53.0789279027,-0.103568943339,100.0,0.00383600394174,-100.0,-0.106678274994,100.0,0.0,-100.0,1565388.20047,0.0,0.0,0.0,0.0,0.0,0.0
1402598632263596093,0,5.94470955029,-0.114322152727,-14.7007593982,0.043815185726,-0.60763914834,0.0,-0.275091952519,0.0,-2.64097275915,0.0,0.0,0.0,0.0,-0.568473296657,-10.6476052445,-53.0789279027,-0.102034719783,100.0,-0.000767381983555,-100.0,-0.106678274994,100.0,0.0,-100.0,1565388.20047,0.0,0.0,0.0,0.0,0.0,0.0
1402598632282988990,0,5.9216112341,-0.114322152727,-14.7292410164,0.043815185726,-0.584453012149,0.0,-0.292679842676,0.0,-2.67970505557,0.0,0.0,0.0,0.0,-0.568473296657,-10.6476052445,-53.0789279027,-0.103568943339,100.0,0.00383600394174,-100.0,-0.106678274994,100.0,0.0,-100.0,1565388.20047,0.0,0.0,0.0,0.0,0.0,0.0
1402598632303603980,0,5.9216112341,-0.114322152727,-14.7292410164,0.043815185726,-0.584453012149,0.0,-0.292679842676,0.0,-2.67970505557,0.0,0.0,0.0,0.0,-0.568473296657,-10.6476052445,-53.0789279027,-0.102034719783,100.0,-0.00383606751517,-100.0,-0.106678274994,100.0,0.0,-100.0,1565388.20047,0.0,0.0,0.0,0.0,0.0,0.0
1402598632323045508,0,5.88428447753,-0.114322152727,-14.7375713548,0.043815185726,-0.594404833615,0.0,-0.257633919151,0.0,-2.72179856083,0.0,0.0,0.0,0.0,-0.568473296657,-10.6476052445,-53.0789279027,-0.102034719783,100.0,-0.00537029107169,-100.0,-0.106678274994,100.0,0.0,-100.0,1565388.20047,0.0,0.0,0.0,0.0,0.0,0.0
1402598632343608577,0,5.88428447753,-0.114322152727,-14.7375713548,0.043815185726,-0.594404833615,0.0,-0.257633919151,0.0,-2.72179856083,0.0,0.0,0.0,0.0,-0.568473296657,-10.6476052445,-53.0789279027,-0.102034719783,100.0,-0.00843897660331,-100.0,-0.106678274994,100.0,0.0,-100.0,1565388.20047,0.0,0.0,0.0,0.0,0.0,0.0
1402598632362971487,0,5.87211113249,-0.114322152727,-14.7428459227,0.043815185726,-0.598520584678,0.0,-0.249662656495,0.0,-2.73805385816,0.0,0.0,0.0,0.0,-0.568473296657,-10.6476052445,-53.0789279027,-0.102034719783,100.0,-0.00690451462821,-100.0,-0.106678274994,100.0,0.0,-100.0,1565388.20047,0.0,0.0,0.0,0.0,0.0,0.0
1402598632383549815,0,5.87211113249,-0.114322152727,-14.7428459227,0.043815185726,-0.598520584678,0.0,-0.249662656495,0.0,-2.73805385816,0.0,0.0,0.0,0.0,-0.568473296657,-10.6476052445,-53.0789279027,-0.102034719783,100.0,-0.00690451462821,-100.0,-0.106678274994,100.0,0.0,-100.0,1565388.20047,0.0,0.0,0.0,0.0,0.0,0.0
1402598632403041205,0,5.857036086,-0.114322152727,-14.7562279962,0.043815185726,-0.570176858957,0.0,-0.244994225763,0.0,-2.77320789886,0.0,0.0,0.0,0.0,-0.568473296657,-10.6476052445,-53.0789279027,-0.102034719783,100.0,-0.00690451462821,-100.0,-0.106678274994,100.0,0.0,-100.0,1565388.20047,0.0,0.0,0.0,0.0,0.0,0.0
1402598632423691261,0,5.857036086,-0.114322152727,-14.7562279962,0.043815185726,-0.570176858957,0.0,-0.244994225763,0.0,-2.77320789886,0.0,0.0,0.0,0.0,-0.568473296657,-10.6476052445,-53.0789279027,-0.102034719783,100.0,-0.00843897660331,-100.0,-0.106678274994,100.0,0.0,-100.0,1565388.20047,0.0,0.0,0.0,0.0,0.0,0.0
1402598632443163184,0,5.82430969724,-0.114322152727,-14.7610145096,0.043815185726,-0.582226287771,0.0,-0.209007167585,0.0,-2.80729264301,0.0,0.0,0.0,0.0,-0.568473296657,-10.6476052445,-53.0789279027,-0.102034719783,100.0,-0.00843897660331,-100.0,-0.106678274994,100.0,0.0,-100.0,1565388.20047,0.0,0.0,0.0,0.0,0.0,0.0
1402598632463572375,0,5.82430969724,-0.114322152727,-14.7610145096,0.043815185726,-0.582226287771,0.0,-0.209007167585,0.0,-2.80729264301,0.0,0.0,0.0,0.0,-0.568473296657,-10.6476052445,-53.0789279027,-0.103568943339,100.0,-0.00843897660331,-100.0,-0.106678274994,100.0,0.0,-100.0,1565388.20047,0.0,0.0,0.0,0.0,0.0,0.0
1402598632482975756,0,5.7971569307,-0.114322152727,-14.7750328173,0.043815185726,-0.585049402242,0.0,-0.204930672065,0.0,-2.84027158701,0.0,0.0,0.0,0.0,-0.568473296657,-10.6476052445,-53.0789279027,-0.102034719783,100.0,-0.00843897660331,-100.0,-0.106678274994,100.0,0.0,-100.0,1565388.20047,0.0,0.0,0.0,0.0,0.0,0.0
1402598632503480195,0,5.7971569307,-0.114322152727,-14.7750328173,0.043815185726,-0.585049402242,0.0,-0.204930672065,0.0,-2.84027158701,0.0,0.0,0.0,0.0,-0.568473296657,-10.6476052445,-53.0789279027,-0.102034719783,100.0,-0.00843897660331,-100.0,-0.106678274994,100.0,0.0,-100.0,1565388.20047,0.0,0.0,0.0,0.0,0.0,0.0
1402598632523045190,0,5.77395470076,-0.114322152727,-14.7829476754,0.043815185726,-0.584500498525,0.0,-0.187797898583,0.0,-2.87295248513,0.0,0.0,0.0,0.0,-0.568473296657,-10.6476052445,-53.0789279027,-0.102034719783,100.0,-0.00690451462821,-100.0,-0.106678274994,100.0,0.0,-100.0,1565388.20047,0.0,0.0,0.0,0.0,0.0,0.0
1402598632543572997,0,5.77395470076,-0.114322152727,-14.7829476754,0.043815185726,-0.584500498525,0.0,-0.187797898583,0.0,-2.87295248513,0.0,0.0,0.0,0.0,-0.568473296657,-10.6476052445,-53.0789279027,-0.102034719783,100.0,-0.00690451462821,-100.0,-0.106678274994,100.0,0.0,-100.0,1565388.20047,0.0,0.0,0.0,0.0,0.0,0.0
1402598632563236721,0,5.74922334499,-0.114322152727,-14.79065695,0.043815185726,-0.582853657064,0.0,-0.175078728161,0.0,-2.9070785281,0.0,0.0,0.0,0.0,-0.568473296657,-10.6476052445,-53.0789279027,-0.102034719783,100.0,-0.00690451462821,-100.0,-0.106678274994,100.0,0.0,-100.0,1565388.20047,0.0,0.0,0.0,0.0,0.0,0.0
1402598632583574979,0,5.74922334499,-0.114322152727,-14.79065695,0.043815185726,-0.582853657064,0.0,-0.175078728161,0.0,-2.9070785281,0.0,0.0,0.0,0.0,-0.568473296657,-10.6476052445,-53.0789279027,-0.102034719783,100.0,-0.00690451462821,-100.0,-0.106678274994,100.0,0.0,-100.0,1565388.20047,0.0,0.0,0.0,0.0,0.0,0.0
1402598632603027746,0,5.72065568681,-0.114322152727,-14.8013428619,0.043815185726,-0.584847097106,0.0,-0.166576364097,0.0,-2.93926909013,0.0,0.0,0.0,0.0,-0.568473296657,-10.6476052445,-53.0789279027,-0.102034719783,100.0,-0.00843897660331,-100.0,-0.106678274994,100.0,0.0,-100.0,1565388.20047,0.0,0.0,0.0,0.0,0.0,0.0
1402598632623582949,0,5.72065568681,-0.114322152727,-14.8013428619,0.043815185726,-0.584847097106,0.0,-0.166576364097,0.0,-2.93926909013,0.0,0.0,0.0,0.0,-0.568473296657,-10.6476052445,-53.0789279027,-0.102034719783,100.0,-0.00690451462821,-100.0,-0.106678274994,100.0,0.0,-100.0,1565388.20047,0.0,0.0,0.0,0.0,0.0,0.0
1402598632643083369,0,5.69498746429,-0.114322152727,-14.809607733,0.043815185726,-0.561152648293,0.0,-0.148285245604,0.0,-2.98178189125,0.0,0.0,0.0,0.0,-0.568473296657,-10.6476052445,-53.0789279027,-0.103568943339,100.0,-0.00690451462821,-100.0,-0.106678274994,100.0,0.0,-100.0,1565388.20047,0.0,0.0,0.0,0.0,0.0,0.0
