rosbagTimestamp,control_method,x_current,x_desired,y_current,y_desired,x_velocity_current,x_velocity_desired,y_velocity_current,y_velocity_desired,yaw_current,yaw_desired,required_force_x,required_force_y,required_moment_z,resultant_force_x,resultant_force_y,resultant_moment_z,current_port_servo_angle,current_port_thruster_force,current_starboard_servo_angle,current_starboard_thruster_force,estimated_port_servo_angle,estimated_port_thruster_force,estimated_starboard_servo_angle,estimated_starboard_thruster_force,cost_value,step,user_defined_1,user_defined_2,user_defined_3,user_defined_4,user_defined_5
1402601818488004421,3,0.242569778077,-0.114322152727,-20.0156383063,0.043815185726,0.202666877505,0.0,-0.460833427736,0.0,-2.80245377243,0.0,0.0,0.0,0.0,0.2674221852,-96.7921312162,88.7516752733,1.07174715201,-65.0,-0.902968319255,50.0,1.08210413624,-65.0,-0.907571211037,50.0,8656416.84032,0.0,0.0,0.0,0.0,0.0,0.0
1402601818508194265,3,0.242569778077,-0.114322152727,-20.0156383063,0.043815185726,0.202666877505,0.0,-0.460833427736,0.0,-2.80245377243,0.0,0.0,0.0,0.0,0.2674221852,-96.7921312162,88.7516752733,1.07174715201,-65.0,-0.904502542811,50.0,1.08210413624,-65.0,-0.907571211037,50.0,8656416.84032,0.0,0.0,0.0,0.0,0.0,0.0
1402601818527644491,3,0.253245423811,-0.114322152727,-20.04015261,0.043815185726,0.201917746212,0.0,-0.466257119007,0.0,-2.79863446464,0.0,0.0,0.0,0.0,0.2674221852,-96.7921312162,88.7516752733,1.07174715201,-65.0,-0.904502542811,50.0,1.08210413624,-65.0,-0.907571211037,50.0,8656416.84032,0.0,0.0,0.0,0.0,0.0,0.0
1402601818548481071,3,0.253245423811,-0.114322152727,-20.04015261,0.043815185726,0.201917746212,0.0,-0.466257119007,0.0,-2.79863446464,0.0,0.0,0.0,0.0,0.2674221852,-96.7921312162,88.7516752733,1.07174715201,-65.0,-0.902968319255,50.0,1.08210413624,-65.0,-0.907571211037,50.0,8656416.84032,0.0,0.0,0.0,0.0,0.0,0.0
1402601818567622551,3,0.25749951456,-0.114322152727,-20.0500831262,0.043815185726,0.203704054243,0.0,-0.465726609634,0.0,-2.79725213052,0.0,0.0,0.0,0.0,0.2674221852,-96.7921312162,88.7516752733,1.07174715201,-65.0,-0.902968319255,50.0,1.08210413624,-65.0,-0.907571211037,50.0,8656416.84032,0.0,0.0,0.0,0.0,0.0,0.0
1402601818588253664,3,0.25749951456,-0.114322152727,-20.0500831262,0.043815185726,0.203704054243,0.0,-0.465726609634,0.0,-2.79725213052,0.0,0.0,0.0,0.0,0.2674221852,-96.7921312162,88.7516752733,1.07174715201,-65.0,-0.902968319255,50.0,1.08210413624,-65.0,-0.907571211037,50.0,8656416.84032,0.0,0.0,0.0,0.0,0.0,0.0
1402601818607618856,3,0.272292806546,-0.114322152727,-20.0720393632,0.043815185726,0.219415905227,0.0,-0.474305870395,0.0,-2.79479589127,0.0,0.0,0.0,0.0,0.2674221852,-96.7921312162,88.7516752733,1.07021269004,-65.0,-0.902968319255,50.0,1.08210413624,-65.0,-0.907571211037,50.0,8656416.84032,0.0,0.0,0.0,0.0,0.0,0.0
1402601818628167323,3,0.272292806546,-0.114322152727,-20.0720393632,0.043815185726,0.219415905227,0.0,-0.474305870395,0.0,-2.79479589127,0.0,0.0,0.0,0.0,0.2674221852,-96.7921312162,88.7516752733,1.07021269004,-65.0,-0.904502542811,50.0,1.08210413624,-65.0,-0.907571211037,50.0,8656416.84032,0.0,0.0,0.0,0.0,0.0,0.0
1402601818647604248,3,0.27439319447,-0.114322152727,-20.0871955804,0.043815185726,0.201825784606,0.0,-0.461923125027,0.0,-2.79231800795,0.0,0.0,0.0,0.0,0.2674221852,-96.7921312162,88.7516752733,1.07174715201,-65.0,-0.902968319255,50.0,1.08210413624,-65.0,-0.907571211037,50.0,8656416.84032,0.0,0.0,0.0,0.0,0.0,0.0
1402601818668068260,3,0.27439319447,-0.114322152727,-20.0871955804,0.043815185726,0.201825784606,0.0,-0.461923125027,0.0,-2.79231800795,0.0,0.0,0.0,0.0,0.2674221852,-96.7921312162,88.7516752733,1.07021269004,-65.0,-0.904502542811,50.0,1.08210413624,-65.0,-0.907571211037,50.0,8656416.84032,0.0,0.0,0.0,0.0,0.0,0.0
1402601818687602044,3,0.284794034887,-0.114322152727,-20.1055504419,0.043815185726,0.208248442898,0.0,-0.456427145713,0.0,-2.78995944225,0.0,0.0,0.0,0.0,0.2674221852,-96.7921312162,88.7516752733,1.07174715201,-65.0,-0.902968319255,50.0,1.08210413624,-65.0,-0.907571211037,50.0,8656416.84032,0.0,0.0,0.0,0.0,0.0,0.0
1402601818720038606,3,0.284794034887,-0.114322152727,-20.1055504419,0.043815185726,0.208248442898,0.0,-0.456427145713,0.0,-2.78995944225,0.0,0.0,0.0,0.0,0.2674221852,-96.7921312162,88.7516752733,1.07174715201,-65.0,-0.902968319255,50.0,1.08210413624,-65.0,-0.907571211037,50.0,8656416.84032,0.0,0.0,0.0,0.0,0.0,0.0
1402601818727589146,3,0.297930035768,-0.114322152727,-20.1311309627,0.043815185726,0.21101025589,0.0,-0.459455775478,0.0,-2.78692949719,0.0,0.0,0.0,0.0,0.2674221852,-96.7921312162,88.7516752733,1.07021269004,-65.0,-0.902968319255,50.0,1.08210413624,-65.0,-0.907571211037,50.0,8656416.84032,0.0,0.0,0.0,0.0,0.0,0.0
1402601818748202856,3,0.297930035768,-0.114322152727,-20.1311309627,0.043815185726,0.21101025589,0.0,-0.459455775478,0.0,-2.78692949719,0.0,0.0,0.0,0.0,0.2674221852,-96.7921312162,88.7516752733,1.07021269004,-65.0,-0.902968319255,50.0,1.08210413624,-65.0,-0.907571211037,50.0,8656416.84032,0.0,0.0,0.0,0.0,0.0,0.0
1402601818767430586,3,0.306857855968,-0.114322152727,-20.1485626829,0.043815185726,0.21589808538,0.0,-0.465995178035,0.0,-2.78518561755,0.0,0.0,0.0,0.0,0.2674221852,-96.7921312162,88.7516752733,1.07174715201,-65.0,-0.904502542811,50.0,1.08210413624,-65.0,-0.907571211037,50.0,8656416.84032,0.0,0.0,0.0,0.0,0.0,0.0
1402601818788113412,3,0.311865378842,-0.114322152727,-20.1581523064,0.043815185726,0.218982176761,0.0,-0.462272398986,0.0,-2.7838736931,0.0,0.0,0.0,0.0,0.2674221852,-96.7921312162,88.7516752733,1.07174715201,-65.0,-0.904502542811,50.0,1.08210413624,-65.0,-0.907571211037,50.0,8656416.84032,0.0,0.0,0.0,0.0,0.0,0.0
1402601818807524357,3,0.311865378842,-0.114322152727,-20.1581523064,0.043815185726,0.218982176761,0.0,-0.462272398986,0.0,-2.7838736931,0.0,0.0,0.0,0.0,0.2674221852,-96.7921312162,88.7516752733,1.07174715201,-65.0,-0.904502542811,50.0,1.08210413624,-65.0,-0.907571211037,50.0,8656416.84032,0.0,0.0,0.0,0.0,0.0,0.0
1402601818828130679,3,0.316314425076,-0.114322152727,-20.1675147026,0.043815185726,0.218079913063,0.0,-0.461982853144,0.0,-2.78261381132,0.0,0.0,0.0,0.0,0.2674221852,-96.7921312162,88.7516752733,1.07174715201,-65.0,-0.902968319255,50.0,1.08210413624,-65.0,-0.907571211037,50.0,8656416.84032,0.0,0.0,0.0,0.0,0.0,0.0
1402601818847497532,3,0.316314425076,-0.114322152727,-20.1675147026,0.043815185726,0.218079913063,0.0,-0.461982853144,0.0,-2.78261381132,0.0,0.0,0.0,0.0,0.2674221852,-96.7921312162,88.7516752733,1.07021269004,-65.0,-0.904502542811,50.0,1.08210413624,-65.0,-0.907571211037,50.0,8656416.84032,0.0,0.0,0.0,0.0,0.0,0.0
1402601818868035026,3,0.325142227697,-0.114322152727,-20.188039579,0.043815185726,0.215694964681,0.0,-0.460806654859,0.0,-2.77989080221,0.0,0.0,0.0,0.0,0.2674221852,-96.7921312162,88.7516752733,1.07174715201,-65.0,-0.904502542811,50.0,1.08210413624,-65.0,-0.907571211037,50.0,8656416.84032,0.0,0.0,0.0,0.0,0.0,0.0
1402601818887477074,3,0.325142227697,-0.114322152727,-20.188039579,0.043815185726,0.215694964681,0.0,-0.460806654859,0.0,-2.77989080221,0.0,0.0,0.0,0.0,0.2674221852,-96.7921312162,88.7516752733,1.07174715201,-65.0,-0.902968319255,50.0,1.08210413624,-65.0,-0.907571211037,50.0,8656416.84032,0.0,0.0,0.0,0.0,0.0,0.0
1402601818908087785,3,0.331989097963,-0.114322152727,-20.2061265972,0.043815185726,0.211107773807,0.0,-0.456972440171,0.0,-2.77683843446,0.0,0.0,0.0,0.0,0.2674221852,-96.7921312162,88.7516752733,1.07021269004,-65.0,-0.904502542811,50.0,1.08210413624,-65.0,-0.907571211037,50.0,8656416.84032,0.0,0.0,0.0,0.0,0.0,0.0
1402601818927461433,3,0.331989097963,-0.114322152727,-20.2061265972,0.043815185726,0.211107773807,0.0,-0.456972440171,0.0,-2.77683843446,0.0,0.0,0.0,0.0,0.2674221852,-96.7921312162,88.7516752733,1.07174715201,-65.0,-0.902968319255,50.0,1.08210413624,-65.0,-0.907571211037,50.0,8656416.84032,0.0,0.0,0.0,0.0,0.0,0.0
1402601818948009047,3,0.340911980114,-0.114322152727,-20.2199097491,0.043815185726,0.208697087664,0.0,-0.444440707419,0.0,-2.77374204242,0.0,0.0,0.0,0.0,0.2674221852,-96.7921312162,88.7516752733,1.07174715201,-65.0,-0.902968319255,50.0,1.08210413624,-65.0,-0.907571211037,50.0,8656416.84032,0.0,0.0,0.0,0.0,0.0,0.0
1402601818967472938,3,0.340911980114,-0.114322152727,-20.2199097491,0.043815185726,0.208697087664,0.0,-0.444440707419,0.0,-2.77374204242,0.0,0.0,0.0,0.0,0.2674221852,-96.7921312162,88.7516752733,1.07021269004,-65.0,-0.902968319255,50.0,1.08210413624,-65.0,-0.907571211037,50.0,8656416.84032,0.0,0.0,0.0,0.0,0.0,0.0
1402601818988152015,3,0.349628627154,-0.114322152727,-20.2382143196,0.043815185726,0.209153402525,0.0,-0.445476254013,0.0,-2.77061136765,0.0,0.0,0.0,0.0,0.2674221852,-96.7921312162,88.7516752733,1.07174715201,-65.0,-0.902968319255,50.0,1.08210413624,-65.0,-0.907571211037,50.0,8656416.84032,0.0,0.0,0.0,0.0,0.0,0.0
1402601819007530460,3,0.349628627154,-0.114322152727,-20.2382143196,0.043815185726,0.209153402525,0.0,-0.445476254013,0.0,-2.77061136765,0.0,0.0,0.0,0.0,0.2674221852,-96.7921312162,88.7516752733,1.07174715201,-65.0,-0.904502542811,50.0,1.08210413624,-65.0,-0.907571211037,50.0,8656416.84032,0.0,0.0,0.0,0.0,0.0,0.0
1402601819028119130,3,0.360895848359,-0.114322152727,-20.2599140815,0.043815185726,0.216862235942,0.0,-0.453229200465,0.0,-2.76753785272,0.0,0.0,0.0,0.0,0.2674221852,-96.7921312162,88.7516752733,1.07021269004,-65.0,-0.904502542811,50.0,1.08210413624,-65.0,-0.907571211037,50.0,8656416.84032,0.0,0.0,0.0,0.0,0.0,0.0
1402601819047545132,3,0.360895848359,-0.114322152727,-20.2599140815,0.043815185726,0.216862235942,0.0,-0.453229200465,0.0,-2.76753785272,0.0,0.0,0.0,0.0,0.2674221852,-96.7921312162,88.7516752733,1.07174715201,-65.0,-0.904502542811,50.0,1.08210413624,-65.0,-0.907571211037,50.0,8656416.84032,0.0,0.0,0.0,0.0,0.0,0.0
1402601819068056713,3,0.365763723565,-0.114322152727,-20.2823347006,0.043815185726,0.2053689291,0.0,-0.461521303098,0.0,-2.7642539825,0.0,0.0,0.0,0.0,0.2674221852,-96.7921312162,88.7516752733,1.07174715201,-65.0,-0.904502542811,50.0,1.08210413624,-65.0,-0.907571211037,50.0,8656416.84032,0.0,0.0,0.0,0.0,0.0,0.0
1402601819087586311,3,0.365763723565,-0.114322152727,-20.2823347006,0.043815185726,0.2053689291,0.0,-0.461521303098,0.0,-2.7642539825,0.0,0.0,0.0,0.0,0.2674221852,-96.7921312162,88.7516752733,1.07021269004,-65.0,-0.904502542811,50.0,1.08210413624,-65.0,-0.907571211037,50.0,8656416.84032,0.0,0.0,0.0,0.0,0.0,0.0
1402601819108134099,3,0.377378687528,-0.114322152727,-20.3080538491,0.043815185726,0.207685075617,0.0,-0.465625972297,0.0,-2.7608060611,0.0,0.0,0.0,0.0,0.2674221852,-96.7921312162,88.7516752733,1.07021269004,-65.0,-0.904502542811,50.0,1.08210413624,-65.0,-0.907571211037,50.0,8656416.84032,0.0,0.0,0.0,0.0,0.0,0.0
1402601819127561088,3,0.377378687528,-0.114322152727,-20.3080538491,0.043815185726,0.207685075617,0.0,-0.465625972297,0.0,-2.7608060611,0.0,0.0,0.0,0.0,0.2674221852,-96.7921312162,88.7516752733,1.07174715201,-65.0,-0.902968319255,50.0,1.08210413624,-65.0,-0.907571211037,50.0,8656416.84032,0.0,0.0,0.0,0.0,0.0,0.0
1402601819148153605,3,0.394734915596,-0.114322152727,-20.3320118065,0.043815185726,0.225896616841,0.0,-0.464147706064,0.0,-2.75739885905,0.0,0.0,0.0,0.0,0.2674221852,-96.7921312162,88.7516752733,1.07174715201,-65.0,-0.904502542811,50.0,1.08210413624,-65.0,-0.907571211037,50.0,8656416.84032,0.0,0.0,0.0,0.0,0.0,0.0
1402601819167485270,3,0.394734915596,-0.114322152727,-20.3320118065,0.043815185726,0.225896616841,0.0,-0.464147706064,0.0,-2.75739885905,0.0,0.0,0.0,0.0,0.2674221852,-96.7921312162,88.7516752733,1.07021269004,-65.0,-0.902968319255,50.0,1.08210413624,-65.0,-0.907571211037,50.0,8656416.84032,0.0,0.0,0.0,0.0,0.0,0.0
1402601819188155978,3,0.397195352422,-0.114322152727,-20.336785447,0.043815185726,0.219930485197,0.0,-0.451505925641,0.0,-2.7560931271,0.0,0.0,0.0,0.0,0.2674221852,-96.7921312162,88.7516752733,1.07174715201,-65.0,-0.902968319255,50.0,1.08210413624,-65.0,-0.907571211037,50.0,8656416.84032,0.0,0.0,0.0,0.0,0.0,0.0
1402601819207579607,3,0.397195352422,-0.114322152727,-20.336785447,0.043815185726,0.219930485197,0.0,-0.451505925641,0.0,-2.7560931271,0.0,0.0,0.0,0.0,0.2674221852,-96.7921312162,88.7516752733,1.07021269004,-65.0,-0.902968319255,50.0,1.08210413624,-65.0,-0.907571211037,50.0,8656416.84032,0.0,0.0,0.0,0.0,0.0,0.0
1402601819228217127,3,0.406557029266,-0.114322152727,-20.3556861717,0.043815185726,0.222307037197,0.0,-0.450670104891,0.0,-2.75348665047,0.0,0.0,0.0,0.0,0.2674221852,-96.7921312162,88.7516752733,1.07021269004,-65.0,-0.902968319255,50.0,1.08210413624,-65.0,-0.907571211037,50.0,8656416.84032,0.0,0.0,0.0,0.0,0.0,0.0
1402601819247640275,3,0.406557029266,-0.114322152727,-20.3556861717,0.043815185726,0.222307037197,0.0,-0.450670104891,0.0,-2.75348665047,0.0,0.0,0.0,0.0,0.2674221852,-96.7921312162,88.7516752733,1.07174715201,-65.0,-0.902968319255,50.0,1.08210413624,-65.0,-0.907571211037,50.0,8656416.84032,0.0,0.0,0.0,0.0,0.0,0.0
1402601819268158141,3,0.417015306915,-0.114322152727,-20.3803881122,0.043815185726,0.22728974904,0.0,-0.468197320435,0.0,-2.75110553841,0.0,0.0,0.0,0.0,0.2674221852,-96.7921312162,88.7516752733,1.07021269004,-65.0,-0.902968319255,50.0,1.08210413624,-65.0,-0.907571211037,50.0,8656416.84032,0.0,0.0,0.0,0.0,0.0,0.0
1402601819287491954,3,0.417015306915,-0.114322152727,-20.3803881122,0.043815185726,0.22728974904,0.0,-0.468197320435,0.0,-2.75110553841,0.0,0.0,0.0,0.0,0.2674221852,-96.7921312162,88.7516752733,1.07174715201,-65.0,-0.902968319255,50.0,1.08210413624,-65.0,-0.907571211037,50.0,8656416.84032,0.0,0.0,0.0,0.0,0.0,0.0
1402601819308146140,3,0.427634020513,-0.114322152727,-20.3991707304,0.043815185726,0.229698449251,0.0,-0.468787111366,0.0,-2.74842632761,0.0,0.0,0.0,0.0,0.2674221852,-96.7921312162,88.7516752733,1.07174715201,-65.0,-0.904502542811,50.0,1.08210413624,-65.0,-0.907571211037,50.0,8656416.84032,0.0,0.0,0.0,0.0,0.0,0.0
1402601819327589582,3,0.427634020513,-0.114322152727,-20.3991707304,0.043815185726,0.229698449251,0.0,-0.468787111366,0.0,-2.74842632761,0.0,0.0,0.0,0.0,0.2674221852,-96.7921312162,88.7516752733,1.07174715201,-65.0,-0.904502542811,50.0,1.08210413624,-65.0,-0.907571211037,50.0,8656416.84032,0.0,0.0,0.0,0.0,0.0,0.0
1402601819348228835,3,0.44249370591,-0.114322152727,-20.4205764889,0.043815185726,0.244191144997,0.0,-0.475646138078,0.0,-2.74557273899,0.0,0.0,0.0,0.0,0.2674221852,-96.7921312162,88.7516752733,1.07174715201,-65.0,-0.902968319255,50.0,1.08210413624,-65.0,-0.907571211037,50.0,8656416.84032,0.0,0.0,0.0,0.0,0.0,0.0
1402601819367649278,3,0.44249370591,-0.114322152727,-20.4205764889,0.043815185726,0.244191144997,0.0,-0.475646138078,0.0,-2.74557273899,0.0,0.0,0.0,0.0,0.2674221852,-96.7921312162,88.7516752733,1.07174715201,-65.0,-0.904502542811,50.0,1.08210413624,-65.0,-0.907571211037,50.0,8656416.84032,0.0,0.0,0.0,0.0,0.0,0.0
1402601819388086574,3,0.448967335171,-0.114322152727,-20.4445914749,0.043815185726,0.232817899829,0.0,-0.47949045295,0.0,-2.74225453111,0.0,0.0,0.0,0.0,0.2674221852,-96.7921312162,88.7516752733,1.07174715201,-65.0,-0.902968319255,50.0,1.08210413624,-65.0,-0.907571211037,50.0,8656416.84032,0.0,0.0,0.0,0.0,0.0,0.0
1402601819407565127,3,0.448967335171,-0.114322152727,-20.4445914749,0.043815185726,0.232817899829,0.0,-0.47949045295,0.0,-2.74225453111,0.0,0.0,0.0,0.0,0.2674221852,-96.7921312162,88.7516752733,1.07174715201,-65.0,-0.904502542811,50.0,1.08210413624,-65.0,-0.907571211037,50.0,8656416.84032,0.0,0.0,0.0,0.0,0.0,0.0
1402601819428188268,3,0.456373043121,-0.114322152727,-20.4594969872,0.043815185726,0.233017829165,0.0,-0.477866051281,0.0,-2.73997626554,0.0,0.0,0.0,0.0,0.2674221852,-96.7921312162,88.7516752733,1.07021269004,-65.0,-0.902968319255,50.0,1.08210413624,-65.0,-0.907571211037,50.0,8656416.84032,0.0,0.0,0.0,0.0,0.0,0.0
1402601819447567687,3,0.466350389329,-0.114322152727,-20.4654668633,0.043815185726,0.246376172353,0.0,-0.468980789943,0.0,-2.73812828599,0.0,0.0,0.0,0.0,0.2674221852,-96.7921312162,88.7516752733,1.07174715201,-65.0,-0.904502542811,50.0,1.08210413624,-65.0,-0.907571211037,50.0,8656416.84032,0.0,0.0,0.0,0.0,0.0,0.0
1402601819468066077,3,0.466350389329,-0.114322152727,-20.4654668633,0.043815185726,0.246376172353,0.0,-0.468980789943,0.0,-2.73812828599,0.0,0.0,0.0,0.0,0.2674221852,-96.7921312162,88.7516752733,1.07174715201,-65.0,-0.902968319255,50.0,1.08210413624,-65.0,-0.907571211037,50.0,8656416.84032,0.0,0.0,0.0,0.0,0.0,0.0
1402601819487623338,3,0.471700294914,-0.114322152727,-20.4754372275,0.043815185726,0.247429565102,0.0,-0.468106660935,0.0,-2.73648762463,0.0,0.0,0.0,0.0,0.2674221852,-96.7921312162,88.7516752733,1.07021269004,-65.0,-0.902968319255,50.0,1.08210413624,-65.0,-0.907571211037,50.0,8656416.84032,0.0,0.0,0.0,0.0,0.0,0.0
1402601819507996171,3,0.471700294914,-0.114322152727,-20.4754372275,0.043815185726,0.247429565102,0.0,-0.468106660935,0.0,-2.73648762463,0.0,0.0,0.0,0.0,0.2674221852,-96.7921312162,88.7516752733,1.07174715201,-65.0,-0.904502542811,50.0,1.08210413624,-65.0,-0.907571211037,50.0,8656416.84032,0.0,0.0,0.0,0.0,0.0,0.0
1402601819527555668,3,0.477657092072,-0.114322152727,-20.4913191717,0.043815185726,0.238691318852,0.0,-0.458191464028,0.0,-2.73315858708,0.0,0.0,0.0,0.0,0.2674221852,-96.7921312162,88.7516752733,1.07174715201,-65.0,-0.904502542811,50.0,1.08210413624,-65.0,-0.907571211037,50.0,8656416.84032,0.0,0.0,0.0,0.0,0.0,0.0
1402601819548068463,3,0.477657092072,-0.114322152727,-20.4913191717,0.043815185726,0.238691318852,0.0,-0.458191464028,0.0,-2.73315858708,0.0,0.0,0.0,0.0,0.2674221852,-96.7921312162,88.7516752733,1.07021269004,-65.0,-0.902968319255,50.0,1.08210413624,-65.0,-0.907571211037,50.0,8656416.84032,0.0,0.0,0.0,0.0,0.0,0.0
1402601819567622763,3,0.488156217389,-0.114322152727,-20.5104496507,0.043815185726,0.240351739574,0.0,-0.454948555679,0.0,-2.72977913665,0.0,0.0,0.0,0.0,0.2674221852,-96.7921312162,88.7516752733,1.07174715201,-65.0,-0.904502542811,50.0,1.08210413624,-65.0,-0.907571211037,50.0,8656416.84032,0.0,0.0,0.0,0.0,0.0,0.0
1402601819588177393,3,0.488156217389,-0.114322152727,-20.5104496507,0.043815185726,0.240351739574,0.0,-0.454948555679,0.0,-2.72977913665,0.0,0.0,0.0,0.0,0.2674221852,-96.7921312162,88.7516752733,1.07021269004,-65.0,-0.902968319255,50.0,1.08210413624,-65.0,-0.907571211037,50.0,8656416.84032,0.0,0.0,0.0,0.0,0.0,0.0
1402601819607621288,3,0.507954658261,-0.114322152727,-20.5294105966,0.043815185726,0.264859367338,0.0,-0.451195732778,0.0,-2.72692885442,0.0,0.0,0.0,0.0,0.2674221852,-96.7921312162,88.7516752733,1.07174715201,-65.0,-0.902968319255,50.0,1.08210413624,-65.0,-0.907571211037,50.0,8656416.84032,0.0,0.0,0.0,0.0,0.0,0.0
1402601819628136446,3,0.507954658261,-0.114322152727,-20.5294105966,0.043815185726,0.264859367338,0.0,-0.451195732778,0.0,-2.72692885442,0.0,0.0,0.0,0.0,0.2674221852,-96.7921312162,88.7516752733,1.07174715201,-65.0,-0.902968319255,50.0,1.08210413624,-65.0,-0.907571211037,50.0,8656416.84032,0.0,0.0,0.0,0.0,0.0,0.0
1402601819647657936,3,0.509977589501,-0.114322152727,-20.5511088168,0.043815185726,0.244700017059,0.0,-0.459939046277,0.0,-2.7235576153,0.0,0.0,0.0,0.0,0.2674221852,-96.7921312162,88.7516752733,1.07021269004,-65.0,-0.902968319255,50.0,1.08210413624,-65.0,-0.907571211037,50.0,8656416.84032,0.0,0.0,0.0,0.0,0.0,0.0
1402601819668210157,3,0.509977589501,-0.114322152727,-20.5511088168,0.043815185726,0.244700017059,0.0,-0.459939046277,0.0,-2.7235576153,0.0,0.0,0.0,0.0,0.2674221852,-96.7921312162,88.7516752733,1.07021269004,-65.0,-0.904502542811,50.0,1.08210413624,-65.0,-0.907571211037,50.0,8656416.84032,0.0,0.0,0.0,0.0,0.0,0.0
1402601819688365991,3,0.523215467697,-0.114322152727,-20.5751760531,0.043815185726,0.24722499188,0.0,-0.457934396546,0.0,-2.71957897993,0.0,0.0,0.0,0.0,0.2674221852,-96.7921312162,88.7516752733,1.07174715201,-65.0,-0.902968319255,50.0,1.08210413624,-65.0,-0.907571211037,50.0,8656416.84032,0.0,0.0,0.0,0.0,0.0,0.0
1402601819708160107,3,0.523215467697,-0.114322152727,-20.5751760531,0.043815185726,0.24722499188,0.0,-0.457934396546,0.0,-2.71957897993,0.0,0.0,0.0,0.0,0.2674221852,-96.7921312162,88.7516752733,1.07174715201,-65.0,-0.904502542811,50.0,1.08210413624,-65.0,-0.907571211037,50.0,8656416.84032,0.0,0.0,0.0,0.0,0.0,0.0
1402601819727584346,3,0.538965280286,-0.114322152727,-20.6005085092,0.043815185726,0.253138715766,0.0,-0.458325600376,0.0,-2.71574198766,0.0,0.0,0.0,0.0,0.2674221852,-96.7921312162,88.7516752733,1.07021269004,-65.0,-0.902968319255,50.0,1.08210413624,-65.0,-0.907571211037,50.0,8656416.84032,0.0,0.0,0.0,0.0,0.0,0.0
1402601819748125283,3,0.538965280286,-0.114322152727,-20.6005085092,0.043815185726,0.253138715766,0.0,-0.458325600376,0.0,-2.71574198766,0.0,0.0,0.0,0.0,0.2674221852,-96.7921312162,88.7516752733,1.07021269004,-65.0,-0.902968319255,50.0,1.08210413624,-65.0,-0.907571211037,50.0,8656416.84032,0.0,0.0,0.0,0.0,0.0,0.0
1402601819767611147,3,0.542806712518,-0.114322152727,-20.604597142,0.043815185726,0.250253896511,0.0,-0.441708228459,0.0,-2.71382298892,0.0,0.0,0.0,0.0,0.2674221852,-96.7921312162,88.7516752733,1.07021269004,-65.0,-0.902968319255,50.0,1.08210413624,-65.0,-0.907571211037,50.0,8656416.84032,0.0,0.0,0.0,0.0,0.0,0.0
1402601819787996654,3,0.542806712518,-0.114322152727,-20.604597142,0.043815185726,0.250253896511,0.0,-0.441708228459,0.0,-2.71382298892,0.0,0.0,0.0,0.0,0.2674221852,-96.7921312162,88.7516752733,1.07174715201,-65.0,-0.902968319255,50.0,1.08210413624,-65.0,-0.907571211037,50.0,8656416.84032,0.0,0.0,0.0,0.0,0.0,0.0
1402601819807255309,3,0.550388202123,-0.114322152727,-20.6245341755,0.043815185726,0.243244640564,0.0,-0.442397478535,0.0,-2.71047367265,0.0,0.0,0.0,0.0,0.2674221852,-96.7921312162,88.7516752733,1.07021269004,-65.0,-0.904502542811,50.0,1.08210413624,-65.0,-0.907571211037,50.0,8656416.84032,0.0,0.0,0.0,0.0,0.0,0.0
1402601819828176886,3,0.550388202123,-0.114322152727,-20.6245341755,0.043815185726,0.243244640564,0.0,-0.442397478535,0.0,-2.71047367265,0.0,0.0,0.0,0.0,0.2674221852,-96.7921312162,88.7516752733,1.07021269004,-65.0,-0.902968319255,50.0,1.08210413624,-65.0,-0.907571211037,50.0,8656416.84032,0.0,0.0,0.0,0.0,0.0,0.0
1402601819847581284,3,0.560944674499,-0.114322152727,-20.6469329521,0.043815185726,0.243748420665,0.0,-0.451413675234,0.0,-2.70730892643,0.0,0.0,0.0,0.0,0.2674221852,-96.7921312162,88.7516752733,1.07021269004,-65.0,-0.902968319255,50.0,1.08210413624,-65.0,-0.907571211037,50.0,8656416.84032,0.0,0.0,0.0,0.0,0.0,0.0
1402601819868132942,3,0.560944674499,-0.114322152727,-20.6469329521,0.043815185726,0.243748420665,0.0,-0.451413675234,0.0,-2.70730892643,0.0,0.0,0.0,0.0,0.2674221852,-96.7921312162,88.7516752733,1.07174715201,-65.0,-0.902968319255,50.0,1.08210413624,-65.0,-0.907571211037,50.0,8656416.84032,0.0,0.0,0.0,0.0,0.0,0.0
1402601819887582655,3,0.570825209039,-0.114322152727,-20.6654178388,0.043815185726,0.239316881913,0.0,-0.439543098142,0.0,-2.70307559741,0.0,0.0,0.0,0.0,0.2674221852,-96.7921312162,88.7516752733,1.07021269004,-65.0,-0.902968319255,50.0,1.08210413624,-65.0,-0.907571211037,50.0,8656416.84032,0.0,0.0,0.0,0.0,0.0,0.0
1402601819908054449,3,0.570825209039,-0.114322152727,-20.6654178388,0.043815185726,0.239316881913,0.0,-0.439543098142,0.0,-2.70307559741,0.0,0.0,0.0,0.0,0.2674221852,-96.7921312162,88.7516752733,1.07174715201,-65.0,-0.902968319255,50.0,1.08210413624,-65.0,-0.907571211037,50.0,8656416.84032,0.0,0.0,0.0,0.0,0.0,0.0
1402601819927586843,3,0.589947910416,-0.114322152727,-20.6886458223,0.043815185726,0.256934613523,0.0,-0.443420814273,0.0,-2.69954559502,0.0,0.0,0.0,0.0,0.2674221852,-96.7921312162,88.7516752733,1.07174715201,-65.0,-0.902968319255,50.0,1.08210413624,-65.0,-0.907571211037,50.0,8656416.84032,0.0,0.0,0.0,0.0,0.0,0.0
1402601819948189030,3,0.589947910416,-0.114322152727,-20.6886458223,0.043815185726,0.256934613523,0.0,-0.443420814273,0.0,-2.69954559502,0.0,0.0,0.0,0.0,0.2674221852,-96.7921312162,88.7516752733,1.07174715201,-65.0,-0.902968319255,50.0,1.08210413624,-65.0,-0.907571211037,50.0,8656416.84032,0.0,0.0,0.0,0.0,0.0,0.0
1402601819967591092,3,0.595396343148,-0.114322152727,-20.6979044543,0.043815185726,0.259066690089,0.0,-0.445489234749,0.0,-2.69814958706,0.0,0.0,0.0,0.0,0.2674221852,-96.7921312162,88.7516752733,1.07174715201,-65.0,-0.904502542811,50.0,1.08210413624,-65.0,-0.907571211037,50.0,8656416.84032,0.0,0.0,0.0,0.0,0.0,0.0
1402601819988056751,3,0.595396343148,-0.114322152727,-20.6979044543,0.043815185726,0.259066690089,0.0,-0.445489234749,0.0,-2.69814958706,0.0,0.0,0.0,0.0,0.2674221852,-96.7921312162,88.7516752733,1.07021269004,-65.0,-0.902968319255,50.0,1.08210413624,-65.0,-0.907571211037,50.0,8656416.84032,0.0,0.0,0.0,0.0,0.0,0.0
1402601820007614776,3,0.602519370294,-0.114322152727,-20.7195254366,0.043815185726,0.249119702333,0.0,-0.457918918059,0.0,-2.69554388681,0.0,0.0,0.0,0.0,0.2674221852,-96.7921312162,88.7516752733,1.07021269004,-65.0,-0.904502542811,50.0,1.08210413624,-65.0,-0.907571211037,50.0,8656416.84032,0.0,0.0,0.0,0.0,0.0,0.0
1402601820028161692,3,0.602519370294,-0.114322152727,-20.7195254366,0.043815185726,0.249119702333,0.0,-0.457918918059,0.0,-2.69554388681,0.0,0.0,0.0,0.0,0.2674221852,-96.7921312162,88.7516752733,1.07021269004,-65.0,-0.902968319255,50.0,1.08210413624,-65.0,-0.907571211037,50.0,8656416.84032,0.0,0.0,0.0,0.0,0.0,0.0
1402601820047594720,3,0.607010088413,-0.114322152727,-20.7372806822,0.043815185726,0.234279201729,0.0,-0.464046979556,0.0,-2.69287055536,0.0,0.0,0.0,0.0,0.2674221852,-96.7921312162,88.7516752733,1.07021269004,-65.0,-0.902968319255,50.0,1.08210413624,-65.0,-0.907571211037,50.0,8656416.84032,0.0,0.0,0.0,0.0,0.0,0.0
1402601820068114907,3,0.607010088413,-0.114322152727,-20.7372806822,0.043815185726,0.234279201729,0.0,-0.464046979556,0.0,-2.69287055536,0.0,0.0,0.0,0.0,0.2674221852,-96.7921312162,88.7516752733,1.07021269004,-65.0,-0.904502542811,50.0,1.08210413624,-65.0,-0.907571211037,50.0,8656416.84032,0.0,0.0,0.0,0.0,0.0,0.0
1402601820087538599,3,0.624692274777,-0.114322152727,-20.7575761496,0.043815185726,0.255313170491,0.0,-0.470080080295,0.0,-2.68980395193,0.0,0.0,0.0,0.0,0.2674221852,-96.7921312162,88.7516752733,1.07174715201,-65.0,-0.902968319255,50.0,1.08210413624,-65.0,-0.907571211037,50.0,8656416.84032,0.0,0.0,0.0,0.0,0.0,0.0
1402601820108048022,3,0.624692274777,-0.114322152727,-20.7575761496,0.043815185726,0.255313170491,0.0,-0.470080080295,0.0,-2.68980395193,0.0,0.0,0.0,0.0,0.2674221852,-96.7921312162,88.7516752733,1.07021269004,-65.0,-0.904502542811,50.0,1.08210413624,-65.0,-0.907571211037,50.0,8656416.84032,0.0,0.0,0.0,0.0,0.0,0.0
1402601820127563752,3,0.635426179285,-0.114322152727,-20.7769952276,0.043815185726,0.256179100128,0.0,-0.470146486127,0.0,-2.68704655577,0.0,0.0,0.0,0.0,0.2674221852,-96.7921312162,88.7516752733,1.07174715201,-65.0,-0.902968319255,50.0,1.08210413624,-65.0,-0.907571211037,50.0,8656416.84032,0.0,0.0,0.0,0.0,0.0,0.0
1402601820148078053,3,0.635426179285,-0.114322152727,-20.7769952276,0.043815185726,0.256179100128,0.0,-0.470146486127,0.0,-2.68704655577,0.0,0.0,0.0,0.0,0.2674221852,-96.7921312162,88.7516752733,1.07021269004,-65.0,-0.904502542811,50.0,1.08210413624,-65.0,-0.907571211037,50.0,8656416.84032,0.0,0.0,0.0,0.0,0.0,0.0
1402601820167570423,3,0.652901219539,-0.114322152727,-20.7991951209,0.043815185726,0.261687587385,0.0,-0.466397483789,0.0,-2.68326372882,0.0,0.0,0.0,0.0,0.2674221852,-96.7921312162,88.7516752733,1.07174715201,-65.0,-0.904502542811,50.0,1.08210413624,-65.0,-0.907571211037,50.0,8656416.84032,0.0,0.0,0.0,0.0,0.0,0.0
1402601820188148788,3,0.652901219539,-0.114322152727,-20.7991951209,0.043815185726,0.261687587385,0.0,-0.466397483789,0.0,-2.68326372882,0.0,0.0,0.0,0.0,0.2674221852,-96.7921312162,88.7516752733,1.07174715201,-65.0,-0.904502542811,50.0,1.08210413624,-65.0,-0.907571211037,50.0,8656416.84032,0.0,0.0,0.0,0.0,0.0,0.0
1402601820207593309,3,0.661359474198,-0.114322152727,-20.8142361119,0.043815185726,0.261551321435,0.0,-0.463531400347,0.0,-2.68098970467,0.0,0.0,0.0,0.0,0.2674221852,-96.7921312162,88.7516752733,1.07021269004,-65.0,-0.902968319255,50.0,1.08210413624,-65.0,-0.907571211037,50.0,8656416.84032,0.0,0.0,0.0,0.0,0.0,0.0
1402601820228158422,3,0.665708628985,-0.114322152727,-20.8221533071,0.043815185726,0.257078143109,0.0,-0.454600416409,0.0,-2.67946867948,0.0,0.0,0.0,0.0,0.2674221852,-96.7921312162,88.7516752733,1.07174715201,-65.0,-0.902968319255,50.0,1.08210413624,-65.0,-0.907571211037,50.0,8656416.84032,0.0,0.0,0.0,0.0,0.0,0.0
1402601820247567440,3,0.665708628985,-0.114322152727,-20.8221533071,0.043815185726,0.257078143109,0.0,-0.454600416409,0.0,-2.67946867948,0.0,0.0,0.0,0.0,0.2674221852,-96.7921312162,88.7516752733,1.07174715201,-65.0,-0.904502542811,50.0,1.08210413624,-65.0,-0.907571211037,50.0,8656416.84032,0.0,0.0,0.0,0.0,0.0,0.0
1402601820268158095,3,0.670905696292,-0.114322152727,-20.8311746115,0.043815185726,0.256643156748,0.0,-0.453596300603,0.0,-2.67801635907,0.0,0.0,0.0,0.0,0.2674221852,-96.7921312162,88.7516752733,1.07021269004,-65.0,-0.904502542811,50.0,1.08210413624,-65.0,-0.907571211037,50.0,8656416.84032,0.0,0.0,0.0,0.0,0.0,0.0
1402601820287629639,3,0.670905696292,-0.114322152727,-20.8311746115,0.043815185726,0.256643156748,0.0,-0.453596300603,0.0,-2.67801635907,0.0,0.0,0.0,0.0,0.2674221852,-96.7921312162,88.7516752733,1.07021269004,-65.0,-0.902968319255,50.0,1.08210413624,-65.0,-0.907571211037,50.0,8656416.84032,0.0,0.0,0.0,0.0,0.0,0.0
1402601820308712478,3,0.683210255166,-0.114322152727,-20.8533613376,0.043815185726,0.256173035674,0.0,-0.455302087904,0.0,-2.67513191619,0.0,0.0,0.0,0.0,0.2674221852,-96.7921312162,88.7516752733,1.07174715201,-65.0,-0.904502542811,50.0,1.08210413624,-65.0,-0.907571211037,50.0,8656416.84032,0.0,0.0,0.0,0.0,0.0,0.0
1402601820327943675,3,0.683210255166,-0.114322152727,-20.8533613376,0.043815185726,0.256173035674,0.0,-0.455302087904,0.0,-2.67513191619,0.0,0.0,0.0,0.0,0.2674221852,-96.7921312162,88.7516752733,1.07021269004,-65.0,-0.904502542811,50.0,1.08210413624,-65.0,-0.907571211037,50.0,8656416.84032,0.0,0.0,0.0,0.0,0.0,0.0
1402601820348142464,3,0.693261482409,-0.114322152727,-20.8715118005,0.043815185726,0.24762332889,0.0,-0.445803129373,0.0,-2.67181572073,0.0,0.0,0.0,0.0,0.2674221852,-96.7921312162,88.7516752733,1.07174715201,-65.0,-0.904502542811,50.0,1.08210413624,-65.0,-0.907571211037,50.0,8656416.84032,0.0,0.0,0.0,0.0,0.0,0.0
1402601820367603896,3,0.693261482409,-0.114322152727,-20.8715118005,0.043815185726,0.24762332889,0.0,-0.445803129373,0.0,-2.67181572073,0.0,0.0,0.0,0.0,0.2674221852,-96.7921312162,88.7516752733,1.07174715201,-65.0,-0.902968319255,50.0,1.08210413624,-65.0,-0.907571211037,50.0,8656416.84032,0.0,0.0,0.0,0.0,0.0,0.0
1402601820388165063,3,0.703568014704,-0.114322152727,-20.8897634869,0.043815185726,0.245510595218,0.0,-0.442464598843,0.0,-2.66891420879,0.0,0.0,0.0,0.0,0.2674221852,-96.7921312162,88.7516752733,1.07174715201,-65.0,-0.902968319255,50.0,1.08210413624,-65.0,-0.907571211037,50.0,8656416.84032,0.0,0.0,0.0,0.0,0.0,0.0
1402601820407579677,3,0.703568014704,-0.114322152727,-20.8897634869,0.043815185726,0.245510595218,0.0,-0.442464598843,0.0,-2.66891420879,0.0,0.0,0.0,0.0,0.2674221852,-96.7921312162,88.7516752733,1.07174715201,-65.0,-0.902968319255,50.0,1.08210413624,-65.0,-0.907571211037,50.0,8656416.84032,0.0,0.0,0.0,0.0,0.0,0.0
1402601820428232763,3,0.718908453309,-0.114322152727,-20.9122283757,0.043815185726,0.247595627164,0.0,-0.435669658676,0.0,-2.66497589701,0.0,0.0,0.0,0.0,0.2674221852,-96.7921312162,88.7516752733,1.07021269004,-65.0,-0.904502542811,50.0,1.08210413624,-65.0,-0.907571211037,50.0,8656416.84032,0.0,0.0,0.0,0.0,0.0,0.0
1402601820447574934,3,0.718908453309,-0.114322152727,-20.9122283757,0.043815185726,0.247595627164,0.0,-0.435669658676,0.0,-2.66497589701,0.0,0.0,0.0,0.0,0.2674221852,-96.7921312162,88.7516752733,1.07021269004,-65.0,-0.904502542811,50.0,1.08210413624,-65.0,-0.907571211037,50.0,8656416.84032,0.0,0.0,0.0,0.0,0.0,0.0
1402601820468161791,3,0.734437128464,-0.114322152727,-20.9345558006,0.043815185726,0.249063341752,0.0,-0.43397475914,0.0,-2.6609139122,0.0,0.0,0.0,0.0,0.2674221852,-96.7921312162,88.7516752733,1.07174715201,-65.0,-0.902968319255,50.0,1.08210413624,-65.0,-0.907571211037,50.0,8656416.84032,0.0,0.0,0.0,0.0,0.0,0.0
1402601820488288087,3,0.734437128464,-0.114322152727,-20.9345558006,0.043815185726,0.249063341752,0.0,-0.43397475914,0.0,-2.6609139122,0.0,0.0,0.0,0.0,0.2674221852,-96.7921312162,88.7516752733,1.07021269004,-65.0,-0.904502542811,50.0,1.08210413624,-65.0,-0.907571211037,50.0,8656416.84032,0.0,0.0,0.0,0.0,0.0,0.0
1402601820508229339,3,0.739467021905,-0.114322152727,-20.9437664963,0.043815185726,0.249144879235,0.0,-0.434230440899,0.0,-2.65927866319,0.0,0.0,0.0,0.0,0.2674221852,-96.7921312162,88.7516752733,1.07021269004,-65.0,-0.904502542811,50.0,1.08210413624,-65.0,-0.907571211037,50.0,8656416.84032,0.0,0.0,0.0,0.0,0.0,0.0
1402601820527637135,3,0.739467021905,-0.114322152727,-20.9437664963,0.043815185726,0.249144879235,0.0,-0.434230440899,0.0,-2.65927866319,0.0,0.0,0.0,0.0,0.2674221852,-96.7921312162,88.7516752733,1.07174715201,-65.0,-0.904502542811,50.0,1.08210413624,-65.0,-0.907571211037,50.0,8656416.84032,0.0,0.0,0.0,0.0,0.0,0.0
1402601820548110857,3,0.749878426239,-0.114322152727,-20.9616694127,0.043815185726,0.250521511733,0.0,-0.436894079922,0.0,-2.65606839672,0.0,0.0,0.0,0.0,0.2674221852,-96.7921312162,88.7516752733,1.07174715201,-65.0,-0.904502542811,50.0,1.08210413624,-65.0,-0.907571211037,50.0,8656416.84032,0.0,0.0,0.0,0.0,0.0,0.0
1402601820567689004,3,0.749878426239,-0.114322152727,-20.9616694127,0.043815185726,0.250521511733,0.0,-0.436894079922,0.0,-2.65606839672,0.0,0.0,0.0,0.0,0.2674221852,-96.7921312162,88.7516752733,1.07021269004,-65.0,-0.902968319255,50.0,1.08210413624,-65.0,-0.907571211037,50.0,8656416.84032,0.0,0.0,0.0,0.0,0.0,0.0
1402601820588080414,3,0.759254567297,-0.114322152727,-20.9800990233,0.043815185726,0.247088204528,0.0,-0.438995520388,0.0,-2.65256200211,0.0,0.0,0.0,0.0,0.2674221852,-96.7921312162,88.7516752733,1.07021269004,-65.0,-0.904502542811,50.0,1.08210413624,-65.0,-0.907571211037,50.0,8656416.84032,0.0,0.0,0.0,0.0,0.0,0.0
1402601820607625752,3,0.759254567297,-0.114322152727,-20.9800990233,0.043815185726,0.247088204528,0.0,-0.438995520388,0.0,-2.65256200211,0.0,0.0,0.0,0.0,0.2674221852,-96.7921312162,88.7516752733,1.07174715201,-65.0,-0.904502542811,50.0,1.08210413624,-65.0,-0.907571211037,50.0,8656416.84032,0.0,0.0,0.0,0.0,0.0,0.0
1402601820628201910,3,0.769367197481,-0.114322152727,-20.9956099829,0.043815185726,0.2482193499,0.0,-0.434630466915,0.0,-2.64924691749,0.0,0.0,0.0,0.0,0.2674221852,-96.7921312162,88.7516752733,1.07021269004,-65.0,-0.902968319255,50.0,1.08210413624,-65.0,-0.907571211037,50.0,8656416.84032,0.0,0.0,0.0,0.0,0.0,0.0
1402601820647559054,3,0.769367197481,-0.114322152727,-20.9956099829,0.043815185726,0.2482193499,0.0,-0.434630466915,0.0,-2.64924691749,0.0,0.0,0.0,0.0,0.2674221852,-96.7921312162,88.7516752733,1.07021269004,-65.0,-0.904502542811,50.0,1.08210413624,-65.0,-0.907571211037,50.0,8656416.84032,0.0,0.0,0.0,0.0,0.0,0.0
1402601820668109127,3,0.787521819795,-0.114322152727,-21.018559627,0.043815185726,0.260241385486,0.0,-0.437144188207,0.0,-2.64522028903,0.0,0.0,0.0,0.0,0.2674221852,-96.7921312162,88.7516752733,1.07174715201,-65.0,-0.904502542811,50.0,1.08210413624,-65.0,-0.907571211037,50.0,8656416.84032,0.0,0.0,0.0,0.0,0.0,0.0
1402601820687453207,3,0.787521819795,-0.114322152727,-21.018559627,0.043815185726,0.260241385486,0.0,-0.437144188207,0.0,-2.64522028903,0.0,0.0,0.0,0.0,0.2674221852,-96.7921312162,88.7516752733,1.07021269004,-65.0,-0.904502542811,50.0,1.08210413624,-65.0,-0.907571211037,50.0,8656416.84032,0.0,0.0,0.0,0.0,0.0,0.0
1402601820708070073,3,0.795555792033,-0.114322152727,-21.0327185926,0.043815185726,0.263277966972,0.0,-0.438643857367,0.0,-2.6431387874,0.0,0.0,0.0,0.0,0.2674221852,-96.7921312162,88.7516752733,1.07174715201,-65.0,-0.902968319255,50.0,1.08210413624,-65.0,-0.907571211037,50.0,8656416.84032,0.0,0.0,0.0,0.0,0.0,0.0
1402601820727623885,3,0.80659446944,-0.114322152727,-21.049293561,0.043815185726,0.265801906165,0.0,-0.432853875021,0.0,-2.64023492195,0.0,0.0,0.0,0.0,0.2674221852,-96.7921312162,88.7516752733,1.07021269004,-65.0,-0.902968319255,50.0,1.08210413624,-65.0,-0.907571211037,50.0,8656416.84032,0.0,0.0,0.0,0.0,0.0,0.0
1402601820748005364,3,0.80659446944,-0.114322152727,-21.049293561,0.043815185726,0.265801906165,0.0,-0.432853875021,0.0,-2.64023492195,0.0,0.0,0.0,0.0,0.2674221852,-96.7921312162,88.7516752733,1.07174715201,-65.0,-0.904502542811,50.0,1.08210413624,-65.0,-0.907571211037,50.0,8656416.84032,0.0,0.0,0.0,0.0,0.0,0.0
1402601820767438345,3,0.812398014509,-0.114322152727,-21.0584795524,0.043815185726,0.267159134341,0.0,-0.430059860612,0.0,-2.63892188995,0.0,0.0,0.0,0.0,0.2674221852,-96.7921312162,88.7516752733,1.07174715201,-65.0,-0.902968319255,50.0,1.08210413624,-65.0,-0.907571211037,50.0,8656416.84032,0.0,0.0,0.0,0.0,0.0,0.0
1402601820788055084,3,0.812398014509,-0.114322152727,-21.0584795524,0.043815185726,0.267159134341,0.0,-0.430059860612,0.0,-2.63892188995,0.0,0.0,0.0,0.0,0.2674221852,-96.7921312162,88.7516752733,1.07021269004,-65.0,-0.904502542811,50.0,1.08210413624,-65.0,-0.907571211037,50.0,8656416.84032,0.0,0.0,0.0,0.0,0.0,0.0
1402601820807470431,3,0.815292232324,-0.114322152727,-21.0636958183,0.043815185726,0.259733215358,0.0,-0.420661687722,0.0,-2.63752985573,0.0,0.0,0.0,0.0,0.2674221852,-96.7921312162,88.7516752733,1.07174715201,-65.0,-0.902968319255,50.0,1.08210413624,-65.0,-0.907571211037,50.0,8656416.84032,0.0,0.0,0.0,0.0,0.0,0.0
1402601820828078555,3,0.815292232324,-0.114322152727,-21.0636958183,0.043815185726,0.259733215358,0.0,-0.420661687722,0.0,-2.63752985573,0.0,0.0,0.0,0.0,0.2674221852,-96.7921312162,88.7516752733,1.07174715201,-65.0,-0.902968319255,50.0,1.08210413624,-65.0,-0.907571211037,50.0,8656416.84032,0.0,0.0,0.0,0.0,0.0,0.0
1402601820847284195,3,0.83498472056,-0.114322152727,-21.0790045691,0.043815185726,0.28509231518,0.0,-0.407098285189,0.0,-2.63513628359,0.0,0.0,0.0,0.0,0.2674221852,-96.7921312162,88.7516752733,1.07174715201,-65.0,-0.904502542811,50.0,1.08210413624,-65.0,-0.907571211037,50.0,8656416.84032,0.0,0.0,0.0,0.0,0.0,0.0
1402601820867915295,3,0.83498472056,-0.114322152727,-21.0790045691,0.043815185726,0.28509231518,0.0,-0.407098285189,0.0,-2.63513628359,0.0,0.0,0.0,0.0,0.2674221852,-96.7921312162,88.7516752733,1.07021269004,-65.0,-0.902968319255,50.0,1.08210413624,-65.0,-0.907571211037,50.0,8656416.84032,0.0,0.0,0.0,0.0,0.0,0.0
1402601820887474775,3,0.846879054881,-0.114322152727,-21.0958337131,0.043815185726,0.28818121424,0.0,-0.406609921248,0.0,-2.63306796073,0.0,0.0,0.0,0.0,0.2674221852,-96.7921312162,88.7516752733,1.07174715201,-65.0,-0.902968319255,50.0,1.08210413624,-65.0,-0.907571211037,50.0,8656416.84032,0.0,0.0,0.0,0.0,0.0,0.0
1402601820907971555,3,0.846879054881,-0.114322152727,-21.0958337131,0.043815185726,0.28818121424,0.0,-0.406609921248,0.0,-2.63306796073,0.0,0.0,0.0,0.0,0.2674221852,-96.7921312162,88.7516752733,1.07174715201,-65.0,-0.904502542811,50.0,1.08210413624,-65.0,-0.907571211037,50.0,8656416.84032,0.0,0.0,0.0,0.0,0.0,0.0
1402601820927485328,3,0.861274604286,-0.114322152727,-21.1073565062,0.043815185726,0.294666575066,0.0,-0.391489555723,0.0,-2.63051025243,0.0,0.0,0.0,0.0,0.2674221852,-96.7921312162,88.7516752733,1.07174715201,-65.0,-0.904502542811,50.0,1.08210413624,-65.0,-0.907571211037,50.0,8656416.84032,0.0,0.0,0.0,0.0,0.0,0.0
1402601820947991468,3,0.861274604286,-0.114322152727,-21.1073565062,0.043815185726,0.294666575066,0.0,-0.391489555723,0.0,-2.63051025243,0.0,0.0,0.0,0.0,0.2674221852,-96.7921312162,88.7516752733,1.07021269004,-65.0,-0.904502542811,50.0,1.08210413624,-65.0,-0.907571211037,50.0,8656416.84032,0.0,0.0,0.0,0.0,0.0,0.0
1402601820967415042,3,0.875135847565,-0.114322152727,-21.1286840607,0.043815185726,0.302755475521,0.0,-0.404388609665,0.0,-2.6285224889,0.0,0.0,0.0,0.0,0.2674221852,-96.7921312162,88.7516752733,1.07174715201,-65.0,-0.902968319255,50.0,1.08210413624,-65.0,-0.907571211037,50.0,8656416.84032,0.0,0.0,0.0,0.0,0.0,0.0
1402601820988025193,3,0.875135847565,-0.114322152727,-21.1286840607,0.043815185726,0.302755475521,0.0,-0.404388609665,0.0,-2.6285224889,0.0,0.0,0.0,0.0,0.2674221852,-96.7921312162,88.7516752733,1.07174715201,-65.0,-0.904502542811,50.0,1.08210413624,-65.0,-0.907571211037,50.0,8656416.84032,0.0,0.0,0.0,0.0,0.0,0.0
1402601821007423782,3,0.881565071026,-0.114322152727,-21.1567596186,0.043815185726,0.282864052027,0.0,-0.423409101095,0.0,-2.62469292003,0.0,0.0,0.0,0.0,0.2674221852,-96.7921312162,88.7516752733,1.07021269004,-65.0,-0.904502542811,50.0,1.08210413624,-65.0,-0.907571211037,50.0,8656416.84032,0.0,0.0,0.0,0.0,0.0,0.0
1402601821027955666,3,0.881565071026,-0.114322152727,-21.1567596186,0.043815185726,0.282864052027,0.0,-0.423409101095,0.0,-2.62469292003,0.0,0.0,0.0,0.0,0.2674221852,-96.7921312162,88.7516752733,1.07174715201,-65.0,-0.902968319255,50.0,1.08210413624,-65.0,-0.907571211037,50.0,8656416.84032,0.0,0.0,0.0,0.0,0.0,0.0
1402601821047473230,3,0.897310434424,-0.114322152727,-21.1802644943,0.043815185726,0.287277979161,0.0,-0.430462845903,0.0,-2.62088440238,0.0,0.0,0.0,0.0,0.2674221852,-96.7921312162,88.7516752733,1.07021269004,-65.0,-0.904502542811,50.0,1.08210413624,-65.0,-0.907571211037,50.0,8656416.84032,0.0,0.0,0.0,0.0,0.0,0.0
1402601821068073101,3,0.897310434424,-0.114322152727,-21.1802644943,0.043815185726,0.287277979161,0.0,-0.430462845903,0.0,-2.62088440238,0.0,0.0,0.0,0.0,0.2674221852,-96.7921312162,88.7516752733,1.07021269004,-65.0,-0.902968319255,50.0,1.08210413624,-65.0,-0.907571211037,50.0,8656416.84032,0.0,0.0,0.0,0.0,0.0,0.0
1402601821087534423,3,0.9016592993,-0.114322152727,-21.198235809,0.043815185726,0.284912689815,0.0,-0.45491968194,0.0,-2.61922966841,0.0,0.0,0.0,0.0,0.2674221852,-96.7921312162,88.7516752733,1.07021269004,-65.0,-0.904502542811,50.0,1.08210413624,-65.0,-0.907571211037,50.0,8656416.84032,0.0,0.0,0.0,0.0,0.0,0.0
1402601821108206984,3,0.9016592993,-0.114322152727,-21.198235809,0.043815185726,0.284912689815,0.0,-0.45491968194,0.0,-2.61922966841,0.0,0.0,0.0,0.0,0.2674221852,-96.7921312162,88.7516752733,1.07021269004,-65.0,-0.904502542811,50.0,1.08210413624,-65.0,-0.907571211037,50.0,8656416.84032,0.0,0.0,0.0,0.0,0.0,0.0
1402601821127482575,3,0.913963311911,-0.114322152727,-21.2173951439,0.043815185726,0.284420649528,0.0,-0.453066680439,0.0,-2.6156684178,0.0,0.0,0.0,0.0,0.2674221852,-96.7921312162,88.7516752733,1.07021269004,-65.0,-0.902968319255,50.0,1.08210413624,-65.0,-0.907571211037,50.0,8656416.84032,0.0,0.0,0.0,0.0,0.0,0.0
1402601821148049472,3,0.913963311911,-0.114322152727,-21.2173951439,0.043815185726,0.284420649528,0.0,-0.453066680439,0.0,-2.6156684178,0.0,0.0,0.0,0.0,0.2674221852,-96.7921312162,88.7516752733,1.07174715201,-65.0,-0.904502542811,50.0,1.08210413624,-65.0,-0.907571211037,50.0,8656416.84032,0.0,0.0,0.0,0.0,0.0,0.0
1402601821167559063,3,0.923040649372,-0.114322152727,-21.2402065182,0.043815185726,0.278539635171,0.0,-0.462635774878,0.0,-2.61201556806,0.0,0.0,0.0,0.0,0.2674221852,-96.7921312162,88.7516752733,1.07021269004,-65.0,-0.902968319255,50.0,1.08210413624,-65.0,-0.907571211037,50.0,8656416.84032,0.0,0.0,0.0,0.0,0.0,0.0
1402601821187972454,3,0.923040649372,-0.114322152727,-21.2402065182,0.043815185726,0.278539635171,0.0,-0.462635774878,0.0,-2.61201556806,0.0,0.0,0.0,0.0,0.2674221852,-96.7921312162,88.7516752733,1.07174715201,-65.0,-0.904502542811,50.0,1.08210413624,-65.0,-0.907571211037,50.0,8656416.84032,0.0,0.0,0.0,0.0,0.0,0.0
1402601821207448394,3,0.936380662234,-0.114322152727,-21.2549760546,0.043815185726,0.280660415889,0.0,-0.444780976339,0.0,-2.6086677156,0.0,0.0,0.0,0.0,0.2674221852,-96.7921312162,88.7516752733,1.07021269004,-65.0,-0.902968319255,50.0,1.08210413624,-65.0,-0.907571211037,50.0,8656416.84032,0.0,0.0,0.0,0.0,0.0,0.0
1402601821228767904,3,0.936380662234,-0.114322152727,-21.2549760546,0.043815185726,0.280660415889,0.0,-0.444780976339,0.0,-2.6086677156,0.0,0.0,0.0,0.0,0.2674221852,-96.7921312162,88.7516752733,1.07174715201,-65.0,-0.902968319255,50.0,1.08210413624,-65.0,-0.907571211037,50.0,8656416.84032,0.0,0.0,0.0,0.0,0.0,0.0
1402601821247537779,3,0.955324184842,-0.114322152727,-21.2820022889,0.043815185726,0.290298131539,0.0,-0.450062780251,0.0,-2.6053384807,0.0,0.0,0.0,0.0,0.2674221852,-96.7921312162,88.7516752733,1.07021269004,-65.0,-0.902968319255,50.0,1.08210413624,-65.0,-0.907571211037,50.0,8656416.84032,0.0,0.0,0.0,0.0,0.0,0.0
1402601821268206906,3,0.955324184842,-0.114322152727,-21.2820022889,0.043815185726,0.290298131539,0.0,-0.450062780251,0.0,-2.6053384807,0.0,0.0,0.0,0.0,0.2674221852,-96.7921312162,88.7516752733,1.07021269004,-65.0,-0.902968319255,50.0,1.08210413624,-65.0,-0.907571211037,50.0,8656416.84032,0.0,0.0,0.0,0.0,0.0,0.0
1402601821287469463,3,0.963858843948,-0.114322152727,-21.2949871308,0.043815185726,0.285924541555,0.0,-0.447136202952,0.0,-2.60311584472,0.0,0.0,0.0,0.0,0.2674221852,-96.7921312162,88.7516752733,1.07021269004,-65.0,-0.904502542811,50.0,1.08210413624,-65.0,-0.907571211037,50.0,8656416.84032,0.0,0.0,0.0,0.0,0.0,0.0
1402601821308048566,3,0.975671310745,-0.114322152727,-21.3134246526,0.043815185726,0.285043168962,0.0,-0.445019815918,0.0,-2.60033263131,0.0,0.0,0.0,0.0,0.2674221852,-96.7921312162,88.7516752733,1.07021269004,-65.0,-0.902968319255,50.0,1.08210413624,-65.0,-0.907571211037,50.0,8656416.84032,0.0,0.0,0.0,0.0,0.0,0.0
1402601821327478972,3,0.975671310745,-0.114322152727,-21.3134246526,0.043815185726,0.285043168962,0.0,-0.445019815918,0.0,-2.60033263131,0.0,0.0,0.0,0.0,0.2674221852,-96.7921312162,88.7516752733,1.07174715201,-65.0,-0.902968319255,50.0,1.08210413624,-65.0,-0.907571211037,50.0,8656416.84032,0.0,0.0,0.0,0.0,0.0,0.0
1402601821348126393,3,0.979879867578,-0.114322152727,-21.3156213138,0.043815185726,0.278520760755,0.0,-0.427748398845,0.0,-2.59870686623,0.0,0.0,0.0,0.0,0.2674221852,-96.7921312162,88.7516752733,1.07021269004,-65.0,-0.904502542811,50.0,1.08210413624,-65.0,-0.907571211037,50.0,8656416.84032,0.0,0.0,0.0,0.0,0.0,0.0
1402601821367380960,3,0.979879867578,-0.114322152727,-21.3156213138,0.043815185726,0.278520760755,0.0,-0.427748398845,0.0,-2.59870686623,0.0,0.0,0.0,0.0,0.2674221852,-96.7921312162,88.7516752733,1.07174715201,-65.0,-0.902968319255,50.0,1.08210413624,-65.0,-0.907571211037,50.0,8656416.84032,0.0,0.0,0.0,0.0,0.0,0.0
1402601821388169096,3,0.985595913159,-0.114322152727,-21.3245738192,0.043815185726,0.278100732524,0.0,-0.425755979605,0.0,-2.59746109939,0.0,0.0,0.0,0.0,0.2674221852,-96.7921312162,88.7516752733,1.07174715201,-65.0,-0.902968319255,50.0,1.08210413624,-65.0,-0.907571211037,50.0,8656416.84032,0.0,0.0,0.0,0.0,0.0,0.0
1402601821407441905,3,0.985595913159,-0.114322152727,-21.3245738192,0.043815185726,0.278100732524,0.0,-0.425755979605,0.0,-2.59746109939,0.0,0.0,0.0,0.0,0.2674221852,-96.7921312162,88.7516752733,1.07021269004,-65.0,-0.902968319255,50.0,1.08210413624,-65.0,-0.907571211037,50.0,8656416.84032,0.0,0.0,0.0,0.0,0.0,0.0
1402601821428041789,3,1.00077042027,-0.114322152727,-21.3386345105,0.043815185726,0.283592855012,0.0,-0.420237181427,0.0,-2.59477683316,0.0,0.0,0.0,0.0,0.2674221852,-96.7921312162,88.7516752733,1.07021269004,-65.0,-0.902968319255,50.0,1.08210413624,-65.0,-0.907571211037,50.0,8656416.84032,0.0,0.0,0.0,0.0,0.0,0.0
1402601821448131459,3,1.00077042027,-0.114322152727,-21.3386345105,0.043815185726,0.283592855012,0.0,-0.420237181427,0.0,-2.59477683316,0.0,0.0,0.0,0.0,0.2674221852,-96.7921312162,88.7516752733,1.07021269004,-65.0,-0.902968319255,50.0,1.08210413624,-65.0,-0.907571211037,50.0,8656416.84032,0.0,0.0,0.0,0.0,0.0,0.0
1402601821468049078,3,1.01554137972,-0.114322152727,-21.3574618013,0.043815185726,0.291699376955,0.0,-0.427887490885,0.0,-2.5921508762,0.0,0.0,0.0,0.0,0.2674221852,-96.7921312162,88.7516752733,1.07021269004,-65.0,-0.902968319255,50.0,1.08210413624,-65.0,-0.907571211037,50.0,8656416.84032,0.0,0.0,0.0,0.0,0.0,0.0
1402601821487512199,3,1.01554137972,-0.114322152727,-21.3574618013,0.043815185726,0.291699376955,0.0,-0.427887490885,0.0,-2.5921508762,0.0,0.0,0.0,0.0,0.2674221852,-96.7921312162,88.7516752733,1.07021269004,-65.0,-0.902968319255,50.0,1.08210413624,-65.0,-0.907571211037,50.0,8656416.84032,0.0,0.0,0.0,0.0,0.0,0.0
1402601821507944768,3,1.02834207256,-0.114322152727,-21.3824865549,0.043815185726,0.289660469584,0.0,-0.440672014956,0.0,-2.58876752055,0.0,0.0,0.0,0.0,0.2674221852,-96.7921312162,88.7516752733,1.07021269004,-65.0,-0.904502542811,50.0,1.08210413624,-65.0,-0.907571211037,50.0,8656416.84032,0.0,0.0,0.0,0.0,0.0,0.0
1402601821527456915,3,1.02834207256,-0.114322152727,-21.3824865549,0.043815185726,0.289660469584,0.0,-0.440672014956,0.0,-2.58876752055,0.0,0.0,0.0,0.0,0.2674221852,-96.7921312162,88.7516752733,1.07021269004,-65.0,-0.902968319255,50.0,1.08210413624,-65.0,-0.907571211037,50.0,8656416.84032,0.0,0.0,0.0,0.0,0.0,0.0
1402601821548868421,3,1.04387109724,-0.114322152727,-21.4058084178,0.043815185726,0.294786396401,0.0,-0.447508502415,0.0,-2.5849636078,0.0,0.0,0.0,0.0,0.2674221852,-96.7921312162,88.7516752733,1.07021269004,-65.0,-0.902968319255,50.0,1.08210413624,-65.0,-0.907571211037,50.0,8656416.84032,0.0,0.0,0.0,0.0,0.0,0.0
1402601821567437451,3,1.04387109724,-0.114322152727,-21.4058084178,0.043815185726,0.294786396401,0.0,-0.447508502415,0.0,-2.5849636078,0.0,0.0,0.0,0.0,0.2674221852,-96.7921312162,88.7516752733,1.07174715201,-65.0,-0.902968319255,50.0,1.08210413624,-65.0,-0.907571211037,50.0,8656416.84032,0.0,0.0,0.0,0.0,0.0,0.0
1402601821588219622,3,1.04996953357,-0.114322152727,-21.4147280043,0.043815185726,0.295638265162,0.0,-0.446567621774,0.0,-2.58346114414,0.0,0.0,0.0,0.0,0.2674221852,-96.7921312162,88.7516752733,1.07021269004,-65.0,-0.904502542811,50.0,1.08210413624,-65.0,-0.907571211037,50.0,8656416.84032,0.0,0.0,0.0,0.0,0.0,0.0
1402601821607437456,3,1.04996953357,-0.114322152727,-21.4147280043,0.043815185726,0.295638265162,0.0,-0.446567621774,0.0,-2.58346114414,0.0,0.0,0.0,0.0,0.2674221852,-96.7921312162,88.7516752733,1.07021269004,-65.0,-0.904502542811,50.0,1.08210413624,-65.0,-0.907571211037,50.0,8656416.84032,0.0,0.0,0.0,0.0,0.0,0.0
1402601821628090672,3,1.05850086396,-0.114322152727,-21.4342370782,0.043815185726,0.288501627781,0.0,-0.450277825868,0.0,-2.58040658221,0.0,0.0,0.0,0.0,0.2674221852,-96.7921312162,88.7516752733,1.07021269004,-65.0,-0.902968319255,50.0,1.08210413624,-65.0,-0.907571211037,50.0,8656416.84032,0.0,0.0,0.0,0.0,0.0,0.0
1402601821647565392,3,1.05850086396,-0.114322152727,-21.4342370782,0.043815185726,0.288501627781,0.0,-0.450277825868,0.0,-2.58040658221,0.0,0.0,0.0,0.0,0.2674221852,-96.7921312162,88.7516752733,1.07021269004,-65.0,-0.904502542811,50.0,1.08210413624,-65.0,-0.907571211037,50.0,8656416.84032,0.0,0.0,0.0,0.0,0.0,0.0
1402601821668395879,3,1.07565401926,-0.114322152727,-21.447127518,0.043815185726,0.300371390799,0.0,-0.435066411157,0.0,-2.57728278945,0.0,0.0,0.0,0.0,0.2674221852,-96.7921312162,88.7516752733,1.07174715201,-65.0,-0.902968319255,50.0,1.08210413624,-65.0,-0.907571211037,50.0,8656416.84032,0.0,0.0,0.0,0.0,0.0,0.0
1402601821688121978,3,1.07565401926,-0.114322152727,-21.447127518,0.043815185726,0.300371390799,0.0,-0.435066411157,0.0,-2.57728278945,0.0,0.0,0.0,0.0,0.2674221852,-96.7921312162,88.7516752733,1.07021269004,-65.0,-0.904502542811,50.0,1.08210413624,-65.0,-0.907571211037,50.0,8656416.84032,0.0,0.0,0.0,0.0,0.0,0.0
1402601821708257891,3,1.08672482413,-0.114322152727,-21.472640732,0.043815185726,0.286313053613,0.0,-0.437958519225,0.0,-2.57384795451,0.0,0.0,0.0,0.0,0.2674221852,-96.7921312162,88.7516752733,1.07021269004,-65.0,-0.902968319255,50.0,1.08210413624,-65.0,-0.907571211037,50.0,8656416.84032,0.0,0.0,0.0,0.0,0.0,0.0
1402601821727595426,3,1.08672482413,-0.114322152727,-21.472640732,0.043815185726,0.286313053613,0.0,-0.437958519225,0.0,-2.57384795451,0.0,0.0,0.0,0.0,0.2674221852,-96.7921312162,88.7516752733,1.07174715201,-65.0,-0.904502542811,50.0,1.08210413624,-65.0,-0.907571211037,50.0,8656416.84032,0.0,0.0,0.0,0.0,0.0,0.0
1402601821748262434,3,1.10526146012,-0.114322152727,-21.494377756,0.043815185726,0.294276061592,0.0,-0.432914765468,0.0,-2.57055773537,0.0,0.0,0.0,0.0,0.2674221852,-96.7921312162,88.7516752733,1.07174715201,-65.0,-0.904502542811,50.0,1.08210413624,-65.0,-0.907571211037,50.0,8656416.84032,0.0,0.0,0.0,0.0,0.0,0.0
1402601821767442647,3,1.10526146012,-0.114322152727,-21.494377756,0.043815185726,0.294276061592,0.0,-0.432914765468,0.0,-2.57055773537,0.0,0.0,0.0,0.0,0.2674221852,-96.7921312162,88.7516752733,1.07021269004,-65.0,-0.902968319255,50.0,1.08210413624,-65.0,-0.907571211037,50.0,8656416.84032,0.0,0.0,0.0,0.0,0.0,0.0
1402601821788356905,3,1.11136343275,-0.114322152727,-21.503362476,0.043815185726,0.291491760319,0.0,-0.428541687811,0.0,-2.56927283778,0.0,0.0,0.0,0.0,0.2674221852,-96.7921312162,88.7516752733,1.07174715201,-65.0,-0.902968319255,50.0,1.08210413624,-65.0,-0.907571211037,50.0,8656416.84032,0.0,0.0,0.0,0.0,0.0,0.0
1402601821807387098,3,1.11136343275,-0.114322152727,-21.503362476,0.043815185726,0.291491760319,0.0,-0.428541687811,0.0,-2.56927283778,0.0,0.0,0.0,0.0,0.2674221852,-96.7921312162,88.7516752733,1.07174715201,-65.0,-0.902968319255,50.0,1.08210413624,-65.0,-0.907571211037,50.0,8656416.84032,0.0,0.0,0.0,0.0,0.0,0.0
1402601821828200300,3,1.12437915664,-0.114322152727,-21.519764512,0.043815185726,0.292556006905,0.0,-0.42408054746,0.0,-2.56688020496,0.0,0.0,0.0,0.0,0.2674221852,-96.7921312162,88.7516752733,1.07021269004,-65.0,-0.904502542811,50.0,1.08210413624,-65.0,-0.907571211037,50.0,8656416.84032,0.0,0.0,0.0,0.0,0.0,0.0
1402601821847486001,3,1.12437915664,-0.114322152727,-21.519764512,0.043815185726,0.292556006905,0.0,-0.42408054746,0.0,-2.56688020496,0.0,0.0,0.0,0.0,0.2674221852,-96.7921312162,88.7516752733,1.07174715201,-65.0,-0.904502542811,50.0,1.08210413624,-65.0,-0.907571211037,50.0,8656416.84032,0.0,0.0,0.0,0.0,0.0,0.0
1402601821868031904,3,1.14024147035,-0.114322152727,-21.5423826941,0.043815185726,0.303681968732,0.0,-0.436976947885,0.0,-2.56448975088,0.0,0.0,0.0,0.0,0.2674221852,-96.7921312162,88.7516752733,1.07174715201,-65.0,-0.902968319255,50.0,1.08210413624,-65.0,-0.907571211037,50.0,8656416.84032,0.0,0.0,0.0,0.0,0.0,0.0
1402601821887488027,3,1.14024147035,-0.114322152727,-21.5423826941,0.043815185726,0.303681968732,0.0,-0.436976947885,0.0,-2.56448975088,0.0,0.0,0.0,0.0,0.2674221852,-96.7921312162,88.7516752733,1.07174715201,-65.0,-0.904502542811,50.0,1.08210413624,-65.0,-0.907571211037,50.0,8656416.84032,0.0,0.0,0.0,0.0,0.0,0.0
1402601821908195381,3,1.1486732995,-0.114322152727,-21.5636208467,0.043815185726,0.291939603138,0.0,-0.441099664128,0.0,-2.56167097535,0.0,0.0,0.0,0.0,0.2674221852,-96.7921312162,88.7516752733,1.07174715201,-65.0,-0.902968319255,50.0,1.08210413624,-65.0,-0.907571211037,50.0,8656416.84032,0.0,0.0,0.0,0.0,0.0,0.0
1402601821927503447,3,1.1486732995,-0.114322152727,-21.5636208467,0.043815185726,0.291939603138,0.0,-0.441099664128,0.0,-2.56167097535,0.0,0.0,0.0,0.0,0.2674221852,-96.7921312162,88.7516752733,1.07021269004,-65.0,-0.904502542811,50.0,1.08210413624,-65.0,-0.907571211037,50.0,8656416.84032,0.0,0.0,0.0,0.0,0.0,0.0
1402601821948249090,3,1.15766727013,-0.114322152727,-21.5748338845,0.043815185726,0.282087665622,0.0,-0.423581185561,0.0,-2.55871412826,0.0,0.0,0.0,0.0,0.2674221852,-96.7921312162,88.7516752733,1.07021269004,-65.0,-0.902968319255,50.0,1.08210413624,-65.0,-0.907571211037,50.0,8656416.84032,0.0,0.0,0.0,0.0,0.0,0.0
1402601821967455550,3,1.15766727013,-0.114322152727,-21.5748338845,0.043815185726,0.282087665622,0.0,-0.423581185561,0.0,-2.55871412826,0.0,0.0,0.0,0.0,0.2674221852,-96.7921312162,88.7516752733,1.07021269004,-65.0,-0.904502542811,50.0,1.08210413624,-65.0,-0.907571211037,50.0,8656416.84032,0.0,0.0,0.0,0.0,0.0,0.0
1402601821988021134,3,1.17517741636,-0.114322152727,-21.593896008,0.043815185726,0.299486315982,0.0,-0.43147247795,0.0,-2.55564993759,0.0,0.0,0.0,0.0,0.2674221852,-96.7921312162,88.7516752733,1.07174715201,-65.0,-0.902968319255,50.0,1.08210413624,-65.0,-0.907571211037,50.0,8656416.84032,0.0,0.0,0.0,0.0,0.0,0.0
1402601822007539390,3,1.17517741636,-0.114322152727,-21.593896008,0.043815185726,0.299486315982,0.0,-0.43147247795,0.0,-2.55564993759,0.0,0.0,0.0,0.0,0.2674221852,-96.7921312162,88.7516752733,1.07174715201,-65.0,-0.902968319255,50.0,1.08210413624,-65.0,-0.907571211037,50.0,8656416.84032,0.0,0.0,0.0,0.0,0.0,0.0
1402601822028183969,3,1.18725048993,-0.114322152727,-21.6237218076,0.043815185726,0.294001120719,0.0,-0.453982001921,0.0,-2.55088964462,0.0,0.0,0.0,0.0,0.2674221852,-96.7921312162,88.7516752733,1.07021269004,-65.0,-0.902968319255,50.0,1.08210413624,-65.0,-0.907571211037,50.0,8656416.84032,0.0,0.0,0.0,0.0,0.0,0.0
1402601822047627354,3,1.18725048993,-0.114322152727,-21.6237218076,0.043815185726,0.294001120719,0.0,-0.453982001921,0.0,-2.55088964462,0.0,0.0,0.0,0.0,0.2674221852,-96.7921312162,88.7516752733,1.07174715201,-65.0,-0.902968319255,50.0,1.08210413624,-65.0,-0.907571211037,50.0,8656416.84032,0.0,0.0,0.0,0.0,0.0,0.0
1402601822068018044,3,1.19660525038,-0.114322152727,-21.6379098715,0.043815185726,0.295091998493,0.0,-0.455056381831,0.0,-2.5480998218,0.0,0.0,0.0,0.0,0.2674221852,-96.7921312162,88.7516752733,1.07174715201,-65.0,-0.902968319255,50.0,1.08210413624,-65.0,-0.907571211037,50.0,8656416.84032,0.0,0.0,0.0,0.0,0.0,0.0
1402601822087647096,3,1.19836622329,-0.114322152727,-21.6551358395,0.043815185726,0.287458589801,0.0,-0.478247726574,0.0,-2.54636373327,0.0,0.0,0.0,0.0,0.2674221852,-96.7921312162,88.7516752733,1.07174715201,-65.0,-0.904502542811,50.0,1.08210413624,-65.0,-0.907571211037,50.0,8656416.84032,0.0,0.0,0.0,0.0,0.0,0.0
1402601822108093989,3,1.19836622329,-0.114322152727,-21.6551358395,0.043815185726,0.287458589801,0.0,-0.478247726574,0.0,-2.54636373327,0.0,0.0,0.0,0.0,0.2674221852,-96.7921312162,88.7516752733,1.07021269004,-65.0,-0.902968319255,50.0,1.08210413624,-65.0,-0.907571211037,50.0,8656416.84032,0.0,0.0,0.0,0.0,0.0,0.0
1402601822127567169,3,1.20431311436,-0.114322152727,-21.6651225536,0.043815185726,0.287518907363,0.0,-0.475728769072,0.0,-2.54454707608,0.0,0.0,0.0,0.0,0.2674221852,-96.7921312162,88.7516752733,1.07174715201,-65.0,-0.902968319255,50.0,1.08210413624,-65.0,-0.907571211037,50.0,8656416.84032,0.0,0.0,0.0,0.0,0.0,0.0
1402601822148114094,3,1.20431311436,-0.114322152727,-21.6651225536,0.043815185726,0.287518907363,0.0,-0.475728769072,0.0,-2.54454707608,0.0,0.0,0.0,0.0,0.2674221852,-96.7921312162,88.7516752733,1.07174715201,-65.0,-0.902968319255,50.0,1.08210413624,-65.0,-0.907571211037,50.0,8656416.84032,0.0,0.0,0.0,0.0,0.0,0.0
1402601822167614671,3,1.20728254805,-0.114322152727,-21.685608426,0.043815185726,0.265578433191,0.0,-0.477830141339,0.0,-2.54105428502,0.0,0.0,0.0,0.0,0.2674221852,-96.7921312162,88.7516752733,1.07021269004,-65.0,-0.902968319255,50.0,1.08210413624,-65.0,-0.907571211037,50.0,8656416.84032,0.0,0.0,0.0,0.0,0.0,0.0
1402601822188232537,3,1.20728254805,-0.114322152727,-21.685608426,0.043815185726,0.265578433191,0.0,-0.477830141339,0.0,-2.54105428502,0.0,0.0,0.0,0.0,0.2674221852,-96.7921312162,88.7516752733,1.07021269004,-65.0,-0.904502542811,50.0,1.08210413624,-65.0,-0.907571211037,50.0,8656416.84032,0.0,0.0,0.0,0.0,0.0,0.0
1402601822207676138,3,1.22602139478,-0.114322152727,-21.7009073208,0.043815185726,0.284929616733,0.0,-0.46853639932,0.0,-2.53820058118,0.0,0.0,0.0,0.0,0.2674221852,-96.7921312162,88.7516752733,1.07021269004,-65.0,-0.902968319255,50.0,1.08210413624,-65.0,-0.907571211037,50.0,8656416.84032,0.0,0.0,0.0,0.0,0.0,0.0
1402601822228110898,3,1.22602139478,-0.114322152727,-21.7009073208,0.043815185726,0.284929616733,0.0,-0.46853639932,0.0,-2.53820058118,0.0,0.0,0.0,0.0,0.2674221852,-96.7921312162,88.7516752733,1.07174715201,-65.0,-0.902968319255,50.0,1.08210413624,-65.0,-0.907571211037,50.0,8656416.84032,0.0,0.0,0.0,0.0,0.0,0.0
