rosbagTimestamp,control_method,x_current,x_desired,y_current,y_desired,z_current,z_desired,x_velocity_current,x_velocity_desired,y_velocity_current,y_velocity_desired,z_velocity_current,z_velocity_desired,yaw_current,yaw_desired,yaw_velocity_current,yaw_velocity_desired,roll_current,roll_desired,roll_velocity_current,roll_velocity_desired,pitch_current,pitch_desired,pitch_velocity_current,pitch_velocity_desired,required_force_x,required_force_y,required_moment_z,resultant_force_x,resultant_force_y,resultant_moment_z,current_port_servo_angle,current_port_thruster_force,current_starboard_servo_angle,current_starboard_thruster_force,estimated_port_servo_angle,estimated_port_thruster_force,estimated_starboard_servo_angle,estimated_starboard_thruster_force,cost_value,step,user_defined_1,user_defined_2,user_defined_3,user_defined_4,user_defined_5
1402753900650366331,3,-12.2331098683,-0.00591572024346,-3.76105242973,-0.122189614607,29.0454760103,0.10862951003,0.0195028314263,0.0,-0.0282289602637,0.0,0.0993303178545,0.0,1.44561964842,0.0,-0.00300107767626,0.0,0.00183608105227,0.0,-0.00241179504981,0.0,0.0708543576672,0.0,-0.00378169808539,0.0,0.0,0.0,0.0,-25.0,0.0,-7.62,0.00230154196664,0.0,0.00230154196664,0.0,-0.0,0.0,-0.0,-25.0,63407.2000001,0.0,0.0,0.0,0.0,0.0,0.0
1402753900670173515,3,-12.232988106,-0.00591572024346,-3.76141769296,-0.122189614607,29.0466086398,0.10862951003,0.020035447183,0.0,-0.028563486958,0.0,0.0997432165495,0.0,1.44562670806,0.0,0.00100813246283,0.0,0.00179106909297,0.0,-0.00036988620578,0.0,0.0708529621253,0.0,-0.00442144295764,0.0,0.0,0.0,0.0,-25.0,0.0,-7.62,0.00230154196664,0.0,0.00230154196664,0.0,-0.0,0.0,-0.0,-25.0,63407.2000001,0.0,0.0,0.0,0.0,0.0,0.0
1402753900690562269,3,-12.232988106,-0.00591572024346,-3.76141769296,-0.122189614607,29.0466086398,0.10862951003,0.020035447183,0.0,-0.028563486958,0.0,0.0997432165495,0.0,1.44562670806,0.0,0.00100813246283,0.0,0.00179106909297,0.0,-0.00036988620578,0.0,0.0708529621253,0.0,-0.00442144295764,0.0,0.0,0.0,0.0,-25.0,0.0,-7.62,0.00230154196664,0.0,0.00230154196664,0.0,-0.0,0.0,-0.0,-25.0,63407.2000001,0.0,0.0,0.0,0.0,0.0,0.0
1402753900710244050,3,-12.2354771983,-0.00591572024346,-3.75342436068,-0.122189614607,29.046463393,0.10862951003,0.00340466910336,0.0,-0.0135959422838,0.0,0.10278175686,0.0,1.44552710048,0.0,0.00162588563095,0.0,-0.000439192294889,0.0,-0.00178650520551,0.0,0.0721625793985,0.0,-0.0112295126999,0.0,0.0,0.0,0.0,-25.0,0.0,-7.62,0.00230154196664,0.0,0.00230154196664,0.0,-0.0,0.0,-0.0,-25.0,63407.2000001,0.0,0.0,0.0,0.0,0.0,0.0
1402753900730278463,3,-12.2354771983,-0.00591572024346,-3.75342436068,-0.122189614607,29.046463393,0.10862951003,0.00340466910336,0.0,-0.0135959422838,0.0,0.10278175686,0.0,1.44552710048,0.0,0.00162588563095,0.0,-0.000439192294889,0.0,-0.00178650520551,0.0,0.0721625793985,0.0,-0.0112295126999,0.0,0.0,0.0,0.0,-25.0,0.0,-7.62,0.00230154196664,0.0,0.00230154196664,0.0,-0.0,0.0,-0.0,-25.0,63407.2000001,0.0,0.0,0.0,0.0,0.0,0.0
1402753900750022659,3,-12.2335766514,-0.00591572024346,-3.75277452414,-0.122189614607,29.0355822723,0.10862951003,0.00398952886294,0.0,-0.0219104580993,0.0,0.102952484792,0.0,1.44549873104,0.0,-0.00605667732596,0.0,-0.000308028556261,0.0,-0.00103739322606,0.0,0.0712277179513,0.0,-0.00618512579058,0.0,0.0,0.0,0.0,-25.0,0.0,-7.62,0.00230154196664,0.0,0.00230154196664,0.0,-0.0,0.0,-0.0,-25.0,63407.2000001,0.0,0.0,0.0,0.0,0.0,0.0
1402753900770024843,3,-12.2335766514,-0.00591572024346,-3.75277452414,-0.122189614607,29.0355822723,0.10862951003,0.00398952886294,0.0,-0.0219104580993,0.0,0.102952484792,0.0,1.44549873104,0.0,-0.00605667732596,0.0,-0.000308028556261,0.0,-0.00103739322606,0.0,0.0712277179513,0.0,-0.00618512579058,0.0,0.0,0.0,0.0,-25.0,0.0,-7.62,0.00230154196664,0.0,0.00230154196664,0.0,-0.0,0.0,-0.0,-25.0,63407.2000001,0.0,0.0,0.0,0.0,0.0,0.0
1402753900790358633,3,-12.2243985475,-0.00591572024346,-3.75024172542,-0.122189614607,29.0308254305,0.10862951003,0.0171915908175,0.0,-0.0251973137408,0.0,0.103704724793,0.0,1.44549651392,0.0,-0.00288678714011,0.0,0.00105253863065,0.0,0.00668404913258,0.0,0.0709940646306,0.0,-0.00670503704402,0.0,0.0,0.0,0.0,-25.0,0.0,-7.62,0.00230154196664,0.0,0.00230154196664,0.0,-0.0,0.0,-0.0,-25.0,63407.2000001,0.0,0.0,0.0,0.0,0.0,0.0
1402753900810441653,3,-12.2243985475,-0.00591572024346,-3.75024172542,-0.122189614607,29.0308254305,0.10862951003,0.0171915908175,0.0,-0.0251973137408,0.0,0.103704724793,0.0,1.44549651392,0.0,-0.00288678714011,0.0,0.00105253863065,0.0,0.00668404913258,0.0,0.0709940646306,0.0,-0.00670503704402,0.0,0.0,0.0,0.0,-25.0,0.0,-7.62,0.00230154196664,0.0,0.00230154196664,0.0,-0.0,0.0,-0.0,-25.0,63407.2000001,0.0,0.0,0.0,0.0,0.0,0.0
1402753900831572290,3,-12.2238174174,-0.00591572024346,-3.75133543699,-0.122189614607,29.0352003162,0.10862951003,0.0162366329786,0.0,-0.0251006595141,0.0,0.106645904673,0.0,1.44541005799,0.0,-0.00798543848963,0.0,0.000684931253946,0.0,0.00351085751951,0.0,0.070860468838,0.0,0.00170009965048,0.0,0.0,0.0,0.0,-25.0,0.0,-7.62,0.00230154196664,0.0,0.00230154196664,0.0,-0.0,0.0,-0.0,-25.0,63407.2000001,0.0,0.0,0.0,0.0,0.0,0.0
1402753900850207735,3,-12.2238174174,-0.00591572024346,-3.75133543699,-0.122189614607,29.0352003162,0.10862951003,0.0162366329786,0.0,-0.0251006595141,0.0,0.106645904673,0.0,1.44541005799,0.0,-0.00798543848963,0.0,0.000684931253946,0.0,0.00351085751951,0.0,0.070860468838,0.0,0.00170009965048,0.0,0.0,0.0,0.0,-25.0,0.0,-7.62,0.00230154196664,0.0,0.00230154196664,0.0,-0.0,0.0,-0.0,-25.0,63407.2000001,0.0,0.0,0.0,0.0,0.0,0.0
1402753900870009491,3,-12.222636159,-0.00591572024346,-3.74846445072,-0.122189614607,29.049428965,0.10862951003,0.00377185654596,0.0,-0.0142401623025,0.0,0.111920524739,0.0,1.44546253321,0.0,0.00257374529176,0.0,-0.00116073496368,0.0,0.00117088321362,0.0,0.0718491354796,0.0,-0.00628772470206,0.0,0.0,0.0,0.0,-25.0,0.0,-7.62,0.00230154196664,0.0,0.00230154196664,0.0,-0.0,0.0,-0.0,-25.0,63407.2000001,0.0,0.0,0.0,0.0,0.0,0.0
1402753900890666193,3,-12.222636159,-0.00591572024346,-3.74846445072,-0.122189614607,29.049428965,0.10862951003,0.00377185654596,0.0,-0.0142401623025,0.0,0.111920524739,0.0,1.44546253321,0.0,0.00257374529176,0.0,-0.00116073496368,0.0,0.00117088321362,0.0,0.0718491354796,0.0,-0.00628772470206,0.0,0.0,0.0,0.0,-25.0,0.0,-7.62,0.00230154196664,0.0,0.00230154196664,0.0,-0.0,0.0,-0.0,-25.0,63407.2000001,0.0,0.0,0.0,0.0,0.0,0.0
1402753900910810608,3,-12.2204371156,-0.00591572024346,-3.74325942447,-0.122189614607,29.0291612086,0.10862951003,0.0089214061708,0.0,-0.019336663743,0.0,0.107900251353,0.0,1.44563814537,0.0,0.00129452652182,0.0,-0.000375503417997,0.0,0.00303350288325,0.0,0.0711488187815,0.0,0.000527678263145,0.0,0.0,0.0,0.0,-25.0,0.0,-7.62,0.00230154196664,0.0,0.00230154196664,0.0,-0.0,0.0,-0.0,-25.0,63407.2000001,0.0,0.0,0.0,0.0,0.0,0.0
1402753900930085949,3,-12.2204371156,-0.00591572024346,-3.74325942447,-0.122189614607,29.0291612086,0.10862951003,0.0089214061708,0.0,-0.019336663743,0.0,0.107900251353,0.0,1.44563814537,0.0,0.00129452652182,0.0,-0.000375503417997,0.0,0.00303350288325,0.0,0.0711488187815,0.0,0.000527678263145,0.0,0.0,0.0,0.0,-25.0,0.0,-7.62,0.00230154196664,0.0,0.00230154196664,0.0,-0.0,0.0,-0.0,-25.0,63407.2000001,0.0,0.0,0.0,0.0,0.0,0.0
1402753900950175838,3,-12.2168002233,-0.00591572024346,-3.7415869041,-0.122189614607,29.0398838864,0.10862951003,0.00663536255914,0.0,-0.0135808442498,0.0,0.110481898519,0.0,1.44587153716,0.0,0.00537994116561,0.0,-0.000718911359563,0.0,0.00988336438213,0.0,0.071591591226,0.0,0.0107891329156,0.0,0.0,0.0,0.0,-25.0,0.0,-7.62,0.00230154196664,0.0,0.00230154196664,0.0,-0.0,0.0,-0.0,-25.0,63407.2000001,0.0,0.0,0.0,0.0,0.0,0.0
1402753900970188612,3,-12.2168002233,-0.00591572024346,-3.7415869041,-0.122189614607,29.0398838864,0.10862951003,0.00663536255914,0.0,-0.0135808442498,0.0,0.110481898519,0.0,1.44587153716,0.0,0.00537994116561,0.0,-0.000718911359563,0.0,0.00988336438213,0.0,0.071591591226,0.0,0.0107891329156,0.0,0.0,0.0,0.0,-25.0,0.0,-7.62,0.00230154196664,0.0,0.00230154196664,0.0,-0.0,0.0,-0.0,-25.0,63407.2000001,0.0,0.0,0.0,0.0,0.0,0.0
1402753900990167322,3,-12.217676394,-0.00591572024346,-3.73560308658,-0.122189614607,29.0140589416,0.10862951003,0.00745451484742,0.0,-0.0190911851274,0.0,0.1048562707,0.0,1.44606936004,0.0,0.00675938025542,0.0,-9.90437667858e-05,0.0,0.00593402587547,0.0,0.0706104216373,0.0,0.00591034747962,0.0,0.0,0.0,0.0,-25.0,0.0,-7.62,0.00230154196664,0.0,0.00230154196664,0.0,-0.0,0.0,-0.0,-25.0,63407.2000001,0.0,0.0,0.0,0.0,0.0,0.0
1402753901010205591,3,-12.217676394,-0.00591572024346,-3.73560308658,-0.122189614607,29.0140589416,0.10862951003,0.00745451484742,0.0,-0.0190911851274,0.0,0.1048562707,0.0,1.44606936004,0.0,0.00675938025542,0.0,-9.90437667858e-05,0.0,0.00593402587547,0.0,0.0706104216373,0.0,0.00591034747962,0.0,0.0,0.0,0.0,-25.0,0.0,-7.62,0.00230154196664,0.0,0.00230154196664,0.0,-0.0,0.0,-0.0,-25.0,63407.2000001,0.0,0.0,0.0,0.0,0.0,0.0
1402753901030146250,3,-12.2173795397,-0.00591572024346,-3.73642028161,-0.122189614607,29.0183832886,0.10862951003,0.00777867170392,0.0,-0.0194141178599,0.0,0.104916553479,0.0,1.44610718563,0.0,-0.00044781600719,0.0,0.000305418040438,0.0,0.0077904112969,0.0,0.0703363887418,0.0,0.00739588848917,0.0,0.0,0.0,0.0,-25.0,0.0,-7.62,0.00230154196664,0.0,0.00230154196664,0.0,-0.0,0.0,-0.0,-25.0,63407.2000001,0.0,0.0,0.0,0.0,0.0,0.0
1402753901050135999,3,-12.2173795397,-0.00591572024346,-3.73642028161,-0.122189614607,29.0183832886,0.10862951003,0.00777867170392,0.0,-0.0194141178599,0.0,0.104916553479,0.0,1.44610718563,0.0,-0.00044781600719,0.0,0.000305418040438,0.0,0.0077904112969,0.0,0.0703363887418,0.0,0.00739588848917,0.0,0.0,0.0,0.0,-25.0,0.0,-7.62,0.00230154196664,0.0,0.000767318410122,0.0,-0.0,0.0,-0.0,-25.0,63407.2,0.0,0.0,0.0,0.0,0.0,0.0
1402753901070430721,3,-12.2101025488,-0.00591572024346,-3.73303817732,-0.122189614607,29.0287195613,0.10862951003,0.0137121283703,0.0,-0.0108908882958,0.0,0.106872212167,0.0,1.44631889454,0.0,0.00162482075581,0.0,0.00108468063789,0.0,0.0106190272521,0.0,0.0710140158594,0.0,0.0104283124191,0.0,0.0,0.0,0.0,-25.0,0.0,-7.62,0.00230154196664,0.0,0.00230154196664,0.0,-0.0,0.0,-0.0,-25.0,63407.2000001,0.0,0.0,0.0,0.0,0.0,0.0
1402753901090034318,3,-12.2101025488,-0.00591572024346,-3.73303817732,-0.122189614607,29.0287195613,0.10862951003,0.0137121283703,0.0,-0.0108908882958,0.0,0.106872212167,0.0,1.44631889454,0.0,0.00162482075581,0.0,0.00108468063789,0.0,0.0106190272521,0.0,0.0710140158594,0.0,0.0104283124191,0.0,0.0,0.0,0.0,-25.0,0.0,-7.62,0.00230154196664,0.0,0.00230154196664,0.0,-0.0,0.0,-0.0,-25.0,63407.2000001,0.0,0.0,0.0,0.0,0.0,0.0
1402753901110795769,3,-12.2070921679,-0.00591572024346,-3.73293829997,-0.122189614607,29.0325237328,0.10862951003,0.0105116465017,0.0,-0.0134141086426,0.0,0.108750327272,0.0,1.44642575434,0.0,-0.00289296534313,0.0,0.00110449948777,0.0,0.00314840896913,0.0,0.0704238868103,0.0,0.011263589303,0.0,0.0,0.0,0.0,-25.0,0.0,-7.62,0.00230154196664,0.0,0.00230154196664,0.0,-0.0,0.0,-0.0,-25.0,63407.2000001,0.0,0.0,0.0,0.0,0.0,0.0
1402753901130231617,3,-12.2070921679,-0.00591572024346,-3.73293829997,-0.122189614607,29.0325237328,0.10862951003,0.0105116465017,0.0,-0.0134141086426,0.0,0.108750327272,0.0,1.44642575434,0.0,-0.00289296534313,0.0,0.00110449948777,0.0,0.00314840896913,0.0,0.0704238868103,0.0,0.011263589303,0.0,0.0,0.0,0.0,-25.0,0.0,-7.62,0.00230154196664,0.0,0.00230154196664,0.0,-0.0,0.0,-0.0,-25.0,63407.2000001,0.0,0.0,0.0,0.0,0.0,0.0
1402753901150155395,3,-12.2073889166,-0.00591572024346,-3.72351107871,-0.122189614607,29.0026644521,0.10862951003,0.0136820201446,0.0,-0.0158957427448,0.0,0.1024598882,0.0,1.44650130605,0.0,-0.000163534503811,0.0,0.00194387666781,0.0,0.00569708602087,0.0,0.0698329031665,0.0,0.014709564403,0.0,0.0,0.0,0.0,-25.0,0.0,-7.62,0.00230154196664,0.0,0.00230154196664,0.0,-0.0,0.0,-0.0,-25.0,63407.2000001,0.0,0.0,0.0,0.0,0.0,0.0
1402753901170144068,3,-12.2073889166,-0.00591572024346,-3.72351107871,-0.122189614607,29.0026644521,0.10862951003,0.0136820201446,0.0,-0.0158957427448,0.0,0.1024598882,0.0,1.44650130605,0.0,-0.000163534503811,0.0,0.00194387666781,0.0,0.00569708602087,0.0,0.0698329031665,0.0,0.014709564403,0.0,0.0,0.0,0.0,-25.0,0.0,-7.62,0.00230154196664,0.0,0.00230154196664,0.0,-0.0,0.0,-0.0,-25.0,63407.2000001,0.0,0.0,0.0,0.0,0.0,0.0
1402753901190456693,3,-12.2038348523,-0.00591572024346,-3.72367358372,-0.122189614607,29.0032790119,0.10862951003,0.0114328116063,0.0,-0.0214898934104,0.0,0.103453409088,0.0,1.44654650733,0.0,-0.000407241711086,0.0,0.0020418186857,0.0,8.79533468332e-05,0.0,0.0690825903056,0.0,0.00635519838968,0.0,0.0,0.0,0.0,-25.0,0.0,-7.62,0.00230154196664,0.0,0.00230154196664,0.0,-0.0,0.0,-0.0,-25.0,63407.2000001,0.0,0.0,0.0,0.0,0.0,0.0
1402753901210258984,3,-12.2038348523,-0.00591572024346,-3.72367358372,-0.122189614607,29.0032790119,0.10862951003,0.0114328116063,0.0,-0.0214898934104,0.0,0.103453409088,0.0,1.44654650733,0.0,-0.000407241711086,0.0,0.0020418186857,0.0,8.79533468332e-05,0.0,0.0690825903056,0.0,0.00635519838968,0.0,0.0,0.0,0.0,-25.0,0.0,-7.62,0.00230154196664,0.0,0.00230154196664,0.0,-0.0,0.0,-0.0,-25.0,63407.2000001,0.0,0.0,0.0,0.0,0.0,0.0
1402753901232173694,3,-12.2033860586,-0.00591572024346,-3.72468639398,-0.122189614607,29.007577875,0.10862951003,0.0109214468492,0.0,-0.022496208413,0.0,0.102419093632,0.0,1.44655259819,0.0,0.00264576802987,0.0,0.0022108475669,0.0,0.00389871630648,0.0,0.0688639964133,0.0,-0.00328041156862,0.0,0.0,0.0,0.0,-25.0,0.0,-7.62,0.00230154196664,0.0,0.00230154196664,0.0,-0.0,0.0,-0.0,-25.0,63407.2000001,0.0,0.0,0.0,0.0,0.0,0.0
1402753901250070914,3,-12.2033860586,-0.00591572024346,-3.72468639398,-0.122189614607,29.007577875,0.10862951003,0.0109214468492,0.0,-0.022496208413,0.0,0.102419093632,0.0,1.44655259819,0.0,0.00264576802987,0.0,0.0022108475669,0.0,0.00389871630648,0.0,0.0688639964133,0.0,-0.00328041156862,0.0,0.0,0.0,0.0,-25.0,0.0,-7.62,0.00230154196664,0.0,0.00230154196664,0.0,-0.0,0.0,-0.0,-25.0,63407.2000001,0.0,0.0,0.0,0.0,0.0,0.0
1402753901270625752,3,-12.201560613,-0.00591572024346,-3.71446473944,-0.122189614607,28.982384659,0.10862951003,0.0141900534963,0.0,-0.0198090515569,0.0,0.0974749011171,0.0,1.44655792263,0.0,-0.00622387760832,0.0,0.00272422464204,0.0,0.00123960659297,0.0,0.068994253427,0.0,0.000562663163066,0.0,0.0,0.0,0.0,-25.0,0.0,-7.62,0.00230154196664,0.0,0.00230154196664,0.0,-0.0,0.0,-0.0,-25.0,63407.2000001,0.0,0.0,0.0,0.0,0.0,0.0
1402753901290378332,3,-12.201560613,-0.00591572024346,-3.71446473944,-0.122189614607,28.982384659,0.10862951003,0.0141900534963,0.0,-0.0198090515569,0.0,0.0974749011171,0.0,1.44655792263,0.0,-0.00622387760832,0.0,0.00272422464204,0.0,0.00123960659297,0.0,0.068994253427,0.0,0.000562663163066,0.0,0.0,0.0,0.0,-25.0,0.0,-7.62,0.00230154196664,0.0,0.00230154196664,0.0,-0.0,0.0,-0.0,-25.0,63407.2000001,0.0,0.0,0.0,0.0,0.0,0.0
1402753901312383063,3,-12.1980769101,-0.00591572024346,-3.71067408307,-0.122189614607,28.9820290401,0.10862951003,0.0103686704159,0.0,-0.0181417756594,0.0,0.0992386497051,0.0,1.44660814389,0.0,-0.00357742370979,0.0,0.00236270652134,0.0,-0.00258103025377,0.0,0.0692037518862,0.0,-0.00513659794107,0.0,0.0,0.0,0.0,-25.0,0.0,-7.62,0.00230154196664,0.0,0.00230154196664,0.0,-0.0,0.0,-0.0,-25.0,63407.2000001,0.0,0.0,0.0,0.0,0.0,0.0
1402753901330238053,3,-12.1980769101,-0.00591572024346,-3.71067408307,-0.122189614607,28.9820290401,0.10862951003,0.0103686704159,0.0,-0.0181417756594,0.0,0.0992386497051,0.0,1.44660814389,0.0,-0.00357742370979,0.0,0.00236270652134,0.0,-0.00258103025377,0.0,0.0692037518862,0.0,-0.00513659794107,0.0,0.0,0.0,0.0,-25.0,0.0,-7.62,0.00230154196664,0.0,0.00230154196664,0.0,-0.0,0.0,-0.0,-25.0,63407.2000001,0.0,0.0,0.0,0.0,0.0,0.0
1402753901349990514,3,-12.1981725476,-0.00591572024346,-3.70924456421,-0.122189614607,28.9701794244,0.10862951003,0.00521968774707,0.0,-0.0285357837066,0.0,0.0977574877159,0.0,1.4465744833,0.0,-0.00192530401467,0.0,0.00193979104542,0.0,0.00222290905304,0.0,0.0680162678549,0.0,0.00564944944687,0.0,0.0,0.0,0.0,-25.0,0.0,-7.62,0.00230154196664,0.0,0.00230154196664,0.0,-0.0,0.0,-0.0,-25.0,63407.2000001,0.0,0.0,0.0,0.0,0.0,0.0
1402753901369934428,3,-12.1981725476,-0.00591572024346,-3.70924456421,-0.122189614607,28.9701794244,0.10862951003,0.00521968774707,0.0,-0.0285357837066,0.0,0.0977574877159,0.0,1.4465744833,0.0,-0.00192530401467,0.0,0.00193979104542,0.0,0.00222290905304,0.0,0.0680162678549,0.0,0.00564944944687,0.0,0.0,0.0,0.0,-25.0,0.0,-7.62,0.00230154196664,0.0,0.00230154196664,0.0,-0.0,0.0,-0.0,-25.0,63407.2000001,0.0,0.0,0.0,0.0,0.0,0.0
1402753901390845525,3,-12.1928170601,-0.00591572024346,-3.70031489285,-0.122189614607,28.9543247827,0.10862951003,0.012319035122,0.0,-0.0246424794718,0.0,0.0969190231921,0.0,1.44663503342,0.0,0.000582216725704,0.0,0.00264640117368,0.0,-0.00260088135164,0.0,0.0686504239031,0.0,0.0053090138208,0.0,0.0,0.0,0.0,-25.0,0.0,-7.62,0.00230154196664,0.0,0.00230154196664,0.0,-0.0,0.0,-0.0,-25.0,63407.2000001,0.0,0.0,0.0,0.0,0.0,0.0
1402753901410168724,3,-12.1928170601,-0.00591572024346,-3.70031489285,-0.122189614607,28.9543247827,0.10862951003,0.012319035122,0.0,-0.0246424794718,0.0,0.0969190231921,0.0,1.44663503342,0.0,0.000582216725704,0.0,0.00264640117368,0.0,-0.00260088135164,0.0,0.0686504239031,0.0,0.0053090138208,0.0,0.0,0.0,0.0,-25.0,0.0,-7.62,0.00230154196664,0.0,0.00230154196664,0.0,-0.0,0.0,-0.0,-25.0,63407.2000001,0.0,0.0,0.0,0.0,0.0,0.0
1402753901430151028,3,-12.187279106,-0.00591572024346,-3.69806039573,-0.122189614607,28.9485073954,0.10862951003,0.0129758631365,0.0,-0.0318310916801,0.0,0.0990257665224,0.0,1.44671688574,0.0,0.00495623945352,0.0,0.00272686007763,0.0,-0.00758242079919,0.0,0.0682705230137,0.0,-0.00615231988164,0.0,0.0,0.0,0.0,-25.0,0.0,-7.62,0.00230154196664,0.0,0.00230154196664,0.0,-0.0,0.0,-0.0,-25.0,63407.2000001,0.0,0.0,0.0,0.0,0.0,0.0
1402753901450810890,3,-12.187279106,-0.00591572024346,-3.69806039573,-0.122189614607,28.9485073954,0.10862951003,0.0129758631365,0.0,-0.0318310916801,0.0,0.0990257665224,0.0,1.44671688574,0.0,0.00495623945352,0.0,0.00272686007763,0.0,-0.00758242079919,0.0,0.0682705230137,0.0,-0.00615231988164,0.0,0.0,0.0,0.0,-25.0,0.0,-7.62,0.00230154196664,0.0,0.00230154196664,0.0,-0.0,0.0,-0.0,-25.0,63407.2000001,0.0,0.0,0.0,0.0,0.0,0.0
1402753901470098109,3,-12.1848263529,-0.00591572024346,-3.68613296431,-0.122189614607,28.9295885131,0.10862951003,0.0112718166534,0.0,-0.0243697834498,0.0,0.0986534702765,0.0,1.44676139386,0.0,0.00079979927992,0.0,0.0022691692594,0.0,-0.0109027670843,0.0,0.0695579919096,0.0,-0.00145034518645,0.0,0.0,0.0,0.0,-25.0,0.0,-7.62,0.00230154196664,0.0,0.00230154196664,0.0,-0.0,0.0,-0.0,-25.0,63407.2000001,0.0,0.0,0.0,0.0,0.0,0.0
1402753901489995804,3,-12.1848263529,-0.00591572024346,-3.68613296431,-0.122189614607,28.9295885131,0.10862951003,0.0112718166534,0.0,-0.0243697834498,0.0,0.0986534702765,0.0,1.44676139386,0.0,0.00079979927992,0.0,0.0022691692594,0.0,-0.0109027670843,0.0,0.0695579919096,0.0,-0.00145034518645,0.0,0.0,0.0,0.0,-25.0,0.0,-7.62,0.00230154196664,0.0,0.00230154196664,0.0,-0.0,0.0,-0.0,-25.0,63407.2000001,0.0,0.0,0.0,0.0,0.0,0.0
1402753901510230527,3,-12.1845392167,-0.00591572024346,-3.68664612811,-0.122189614607,28.9315912725,0.10862951003,0.0119652166326,0.0,-0.024016978321,0.0,0.0990351154231,0.0,1.4467148193,0.0,-0.00380373428481,0.0,0.00231167775603,0.0,-0.0123485743785,0.0,0.0697850647891,0.0,0.00934069956312,0.0,0.0,0.0,0.0,-25.0,0.0,-7.62,0.00230154196664,0.0,0.00230154196664,0.0,-0.0,0.0,-0.0,-25.0,63407.2000001,0.0,0.0,0.0,0.0,0.0,0.0
1402753901530570777,3,-12.1845392167,-0.00591572024346,-3.68664612811,-0.122189614607,28.9315912725,0.10862951003,0.0119652166326,0.0,-0.024016978321,0.0,0.0990351154231,0.0,1.4467148193,0.0,-0.00380373428481,0.0,0.00231167775603,0.0,-0.0123485743785,0.0,0.0697850647891,0.0,0.00934069956312,0.0,0.0,0.0,0.0,-25.0,0.0,-7.62,0.00230154196664,0.0,0.00230154196664,-25.0,-0.0,0.0,-0.0,-25.0,63407.2000001,0.0,0.0,0.0,0.0,0.0,0.0
1402753901550154861,3,-12.1840584562,-0.00591572024346,-3.68748616354,-0.122189614607,28.9353247996,0.10862951003,0.0129691771721,0.0,-0.0248881354617,0.0,0.0992706712395,0.0,1.44666690442,0.0,0.00262100827582,0.0,0.00244170415568,0.0,-0.0058799458592,0.0,0.0702104208135,0.0,0.00664502212076,0.0,0.0,0.0,0.0,-25.0,0.0,-7.62,0.00230154196664,0.0,0.00230154196664,-25.0,-0.0,0.0,-0.0,-25.0,63407.2000001,0.0,0.0,0.0,0.0,0.0,0.0
1402753901570186482,3,-12.1840584562,-0.00591572024346,-3.68748616354,-0.122189614607,28.9353247996,0.10862951003,0.0129691771721,0.0,-0.0248881354617,0.0,0.0992706712395,0.0,1.44666690442,0.0,0.00262100827582,0.0,0.00244170415568,0.0,-0.0058799458592,0.0,0.0702104208135,0.0,0.00664502212076,0.0,0.0,0.0,0.0,-25.0,0.0,-7.62,0.00230154196664,0.0,0.00230154196664,-25.0,-0.0,0.0,-0.0,-25.0,63407.2000001,0.0,0.0,0.0,0.0,0.0,0.0
1402753901590101425,3,-12.1837800829,-0.00591572024346,-3.66993945312,-0.122189614607,28.8978251754,0.10862951003,0.0130986599623,0.0,-0.0151228364644,0.0,0.0950022385735,0.0,1.44671686137,0.0,0.00126482186352,0.0,0.00234304117136,0.0,-0.0119387779916,0.0,0.0714853322547,0.0,5.31460747181e-05,0.0,0.0,0.0,0.0,-25.0,0.0,-7.62,0.00230154196664,0.0,0.00230154196664,-25.0,-0.0,0.0,-0.0,-25.0,63407.2000001,0.0,0.0,0.0,0.0,0.0,0.0
1402753901610186808,3,-12.1837800829,-0.00591572024346,-3.66993945312,-0.122189614607,28.8978251754,0.10862951003,0.0130986599623,0.0,-0.0151228364644,0.0,0.0950022385735,0.0,1.44671686137,0.0,0.00126482186352,0.0,0.00234304117136,0.0,-0.0119387779916,0.0,0.0714853322547,0.0,5.31460747181e-05,0.0,0.0,0.0,0.0,-25.0,0.0,-7.62,0.00230154196664,0.0,0.00230154196664,-25.0,-0.0,0.0,-0.0,-25.0,63407.2000001,0.0,0.0,0.0,0.0,0.0,0.0
1402753901630730187,3,-12.1799051806,-0.00591572024346,-3.66192371876,-0.122189614607,28.8890281433,0.10862951003,0.00915147325986,0.0,-0.012348976281,0.0,0.0975681456934,0.0,1.44671584848,0.0,-0.0040751477859,0.0,0.00173175954089,0.0,-0.0135853663392,0.0,0.0722147868229,0.0,0.00210172558392,0.0,0.0,0.0,0.0,-25.0,0.0,-7.62,0.00230154196664,0.0,0.00230154196664,-25.0,-0.0,0.0,-0.0,-25.0,63407.2000001,0.0,0.0,0.0,0.0,0.0,0.0
1402753901650073464,3,-12.1799051806,-0.00591572024346,-3.66192371876,-0.122189614607,28.8890281433,0.10862951003,0.00915147325986,0.0,-0.012348976281,0.0,0.0975681456934,0.0,1.44671584848,0.0,-0.0040751477859,0.0,0.00173175954089,0.0,-0.0135853663392,0.0,0.0722147868229,0.0,0.00210172558392,0.0,0.0,0.0,0.0,-25.0,0.0,-7.62,0.00230154196664,0.0,0.00230154196664,-25.0,-0.0,0.0,-0.0,-25.0,63407.2000001,0.0,0.0,0.0,0.0,0.0,0.0
1402753901669951401,3,-12.1754931929,-0.00591572024346,-3.65057628393,-0.122189614607,28.8682147519,0.10862951003,0.0114910296273,0.0,-0.011476633251,0.0,0.0961158428008,0.0,1.44666380019,0.0,-0.000914643723424,0.0,0.00172756755142,0.0,-0.00642979518191,0.0,0.0726749406644,0.0,-0.00748816486192,0.0,0.0,0.0,0.0,-25.0,0.0,-7.62,0.00230154196664,0.0,0.00230154196664,-25.0,-0.0,0.0,-0.0,-25.0,63407.2000001,0.0,0.0,0.0,0.0,0.0,0.0
1402753901690110674,3,-12.1754931929,-0.00591572024346,-3.65057628393,-0.122189614607,28.8682147519,0.10862951003,0.0114910296273,0.0,-0.011476633251,0.0,0.0961158428008,0.0,1.44666380019,0.0,-0.000914643723424,0.0,0.00172756755142,0.0,-0.00642979518191,0.0,0.0726749406644,0.0,-0.00748816486192,0.0,0.0,0.0,0.0,-25.0,0.0,-7.62,0.00230154196664,0.0,0.00230154196664,-25.0,-0.0,0.0,-0.0,-25.0,63407.2000001,0.0,0.0,0.0,0.0,0.0,0.0
1402753901710013317,3,-12.1651331805,-0.00591572024346,-3.64641768132,-0.122189614607,28.858326508,0.10862951003,0.0256163597972,0.0,-0.0225621900284,0.0,0.097800366737,0.0,1.4466714175,0.0,-0.00633119404854,0.0,0.00308161197121,0.0,-0.00907207658235,0.0,0.0724045642574,0.0,-0.00710697567266,0.0,0.0,0.0,0.0,-25.0,0.0,-7.62,0.00230154196664,0.0,0.00230154196664,-25.0,-0.0,0.0,-0.0,-25.0,63407.2000001,0.0,0.0,0.0,0.0,0.0,0.0
1402753901730000871,3,-12.1651331805,-0.00591572024346,-3.64641768132,-0.122189614607,28.858326508,0.10862951003,0.0256163597972,0.0,-0.0225621900284,0.0,0.097800366737,0.0,1.4466714175,0.0,-0.00633119404854,0.0,0.00308161197121,0.0,-0.00907207658235,0.0,0.0724045642574,0.0,-0.00710697567266,0.0,0.0,0.0,0.0,-25.0,0.0,-7.62,0.00230154196664,0.0,0.00230154196664,-25.0,-0.0,0.0,-0.0,-25.0,63407.2000001,0.0,0.0,0.0,0.0,0.0,0.0
1402753901750584338,3,-12.1720192594,-0.00591572024346,-3.63427405651,-0.122189614607,28.8306952792,0.10862951003,0.00336297126364,0.0,-0.0254772703454,0.0,0.0958992452459,0.0,1.44628503283,0.0,-0.00918392797964,0.0,7.97849538401e-06,0.0,-0.0116288615051,0.0,0.0726679698829,0.0,-0.00900495181902,0.0,0.0,0.0,0.0,-25.0,0.0,-7.62,0.00230154196664,0.0,0.00230154196664,-25.0,-0.0,0.0,-0.0,-25.0,63407.2000001,0.0,0.0,0.0,0.0,0.0,0.0
1402753901770151040,3,-12.1720192594,-0.00591572024346,-3.63427405651,-0.122189614607,28.8306952792,0.10862951003,0.00336297126364,0.0,-0.0254772703454,0.0,0.0958992452459,0.0,1.44628503283,0.0,-0.00918392797964,0.0,7.97849538401e-06,0.0,-0.0116288615051,0.0,0.0726679698829,0.0,-0.00900495181902,0.0,0.0,0.0,0.0,-25.0,0.0,-7.62,0.00230154196664,0.0,0.00230154196664,-25.0,-0.0,0.0,-0.0,-25.0,63407.2000001,0.0,0.0,0.0,0.0,0.0,0.0
1402753901789910379,3,-12.1617540254,-0.00591572024346,-3.62363216718,-0.122189614607,28.8154566619,0.10862951003,0.0199429479048,0.0,-0.0238836571525,0.0,0.0962911992962,0.0,1.44624612711,0.0,-0.0100567344323,0.0,0.00114532950162,0.0,-0.00644315527075,0.0,0.0735512349819,0.0,-0.00660159024488,0.0,0.0,0.0,0.0,-25.0,0.0,-7.62,0.00230154196664,0.0,0.00230154196664,-25.0,-0.0,0.0,-0.0,-25.0,63407.2000001,0.0,0.0,0.0,0.0,0.0,0.0
1402753901809912603,3,-12.1617540254,-0.00591572024346,-3.62363216718,-0.122189614607,28.8154566619,0.10862951003,0.0199429479048,0.0,-0.0238836571525,0.0,0.0962911992962,0.0,1.44624612711,0.0,-0.0100567344323,0.0,0.00114532950162,0.0,-0.00644315527075,0.0,0.0735512349819,0.0,-0.00660159024488,0.0,0.0,0.0,0.0,-25.0,0.0,-7.62,0.00230154196664,0.0,0.00230154196664,-25.0,-0.0,0.0,-0.0,-25.0,63407.2000001,0.0,0.0,0.0,0.0,0.0,0.0
1402753901830371538,3,-12.1612265135,-0.00591572024346,-3.61856808804,-0.122189614607,28.8066818952,0.10862951003,0.0104581324714,0.0,-0.0282270087097,0.0,0.0983726045239,0.0,1.44577259826,0.0,-0.0100955902156,0.0,-0.000562342117921,0.0,-0.00255586162562,0.0,0.0734141571207,0.0,-0.0112192186467,0.0,0.0,0.0,0.0,-25.0,0.0,-7.62,0.00230154196664,0.0,0.00230154196664,-25.0,-0.0,0.0,-0.0,-25.0,63407.2000001,0.0,0.0,0.0,0.0,0.0,0.0
1402753901850260176,3,-12.1612265135,-0.00591572024346,-3.61856808804,-0.122189614607,28.8066818952,0.10862951003,0.0104581324714,0.0,-0.0282270087097,0.0,0.0983726045239,0.0,1.44577259826,0.0,-0.0100955902156,0.0,-0.000562342117921,0.0,-0.00255586162562,0.0,0.0734141571207,0.0,-0.0112192186467,0.0,0.0,0.0,0.0,-25.0,0.0,-7.62,0.00230154196664,0.0,0.00230154196664,-25.0,-0.0,0.0,-0.0,-25.0,63407.2000001,0.0,0.0,0.0,0.0,0.0,0.0
1402753901869805733,3,-12.1607914012,-0.00591572024346,-3.61977715895,-0.122189614607,28.8108941454,0.10862951003,0.0102762488313,0.0,-0.0293619461702,0.0,0.101006290804,0.0,1.4453495827,0.0,-0.0178801694656,0.0,-0.000837120414218,0.0,-0.006443538608,0.0,0.0736389436919,0.0,-0.0103051521727,0.0,0.0,0.0,0.0,-25.0,0.0,-7.62,0.00230154196664,0.0,0.00230154196664,-25.0,-0.0,0.0,-0.0,-25.0,63407.2000001,0.0,0.0,0.0,0.0,0.0,0.0
1402753901890846567,3,-12.1607914012,-0.00591572024346,-3.61977715895,-0.122189614607,28.8108941454,0.10862951003,0.0102762488313,0.0,-0.0293619461702,0.0,0.101006290804,0.0,1.4453495827,0.0,-0.0178801694656,0.0,-0.000837120414218,0.0,-0.006443538608,0.0,0.0736389436919,0.0,-0.0103051521727,0.0,0.0,0.0,0.0,-25.0,0.0,-7.62,0.00230154196664,0.0,0.00230154196664,-25.0,-0.0,0.0,-0.0,-25.0,63407.2000001,0.0,0.0,0.0,0.0,0.0,0.0
1402753901910421702,3,-12.1554864597,-0.00591572024346,-3.60681180817,-0.122189614607,28.7875781995,0.10862951003,0.0188042283108,0.0,-0.0264304051741,0.0,0.0984663589993,0.0,1.44508958989,0.0,-0.00903037283807,0.0,-0.000498363729216,0.0,0.00398201500947,0.0,0.0742531742689,0.0,-0.000810350900526,0.0,0.0,0.0,0.0,-25.0,0.0,-7.62,0.00230154196664,0.0,0.00230154196664,-25.0,-0.0,0.0,-0.0,-25.0,63407.2000001,0.0,0.0,0.0,0.0,0.0,0.0
1402753901929993905,3,-12.1554864597,-0.00591572024346,-3.60681180817,-0.122189614607,28.7875781995,0.10862951003,0.0188042283108,0.0,-0.0264304051741,0.0,0.0984663589993,0.0,1.44508958989,0.0,-0.00903037283807,0.0,-0.000498363729216,0.0,0.00398201500947,0.0,0.0742531742689,0.0,-0.000810350900526,0.0,0.0,0.0,0.0,-25.0,0.0,-7.62,0.00230154196664,0.0,0.00230154196664,-25.0,-0.0,0.0,-0.0,-25.0,63407.2000001,0.0,0.0,0.0,0.0,0.0,0.0
1402753901978549209,3,-12.1529629934,-0.00591572024346,-3.60441106509,-0.122189614607,28.7679318014,0.10862951003,0.0176180005266,0.0,-0.0439686600887,0.0,0.100087459475,0.0,1.44455329731,0.0,-0.0126177654452,0.0,-0.000541026704847,0.0,0.00430838431877,0.0,0.0725248591407,0.0,-0.00177057340754,0.0,0.0,0.0,0.0,-25.0,0.0,-7.62,0.00230154196664,0.0,0.00230154196664,-25.0,-0.0,0.0,-0.0,-25.0,63407.2000001,0.0,0.0,0.0,0.0,0.0,0.0
1402753901979371884,3,-12.1529629934,-0.00591572024346,-3.60441106509,-0.122189614607,28.7679318014,0.10862951003,0.0176180005266,0.0,-0.0439686600887,0.0,0.100087459475,0.0,1.44455329731,0.0,-0.0126177654452,0.0,-0.000541026704847,0.0,0.00430838431877,0.0,0.0725248591407,0.0,-0.00177057340754,0.0,0.0,0.0,0.0,-25.0,0.0,-7.62,0.00230154196664,0.0,0.00230154196664,-25.0,-0.0,0.0,-0.0,-25.0,63407.2000001,0.0,0.0,0.0,0.0,0.0,0.0
1402753901990420099,3,-12.1471647946,-0.00591572024346,-3.59135761526,-0.122189614607,28.750406674,0.10862951003,0.021886133282,0.0,-0.0337544441412,0.0,0.101590888563,0.0,1.44424015264,0.0,-0.0173662592191,0.0,-0.000101158830128,0.0,2.24207256219e-05,0.0,0.073650209651,0.0,0.00309478648802,0.0,0.0,0.0,0.0,-25.0,0.0,-7.62,0.00230154196664,0.0,0.00230154196664,-25.0,-0.0,0.0,-0.0,-25.0,63407.2000001,0.0,0.0,0.0,0.0,0.0,0.0
1402753902010667743,3,-12.1466728775,-0.00591572024346,-3.59208817658,-0.122189614607,28.7525379023,0.10862951003,0.022446764235,0.0,-0.034864760072,0.0,0.101861662779,0.0,1.4439591945,0.0,-0.0152920215737,0.0,3.87615455337e-05,0.0,0.00316277756275,0.0,0.0735889547986,0.0,0.00765034763861,0.0,0.0,0.0,0.0,-25.0,0.0,-7.62,0.00230154196664,0.0,0.00230154196664,-25.0,-0.0,0.0,-0.0,-25.0,63407.2000001,0.0,0.0,0.0,0.0,0.0,0.0
1402753902030028848,3,-12.1466728775,-0.00591572024346,-3.59208817658,-0.122189614607,28.7525379023,0.10862951003,0.022446764235,0.0,-0.034864760072,0.0,0.101861662779,0.0,1.4439591945,0.0,-0.0152920215737,0.0,3.87615455337e-05,0.0,0.00316277756275,0.0,0.0735889547986,0.0,0.00765034763861,0.0,0.0,0.0,0.0,-25.0,0.0,-7.62,0.00230154196664,0.0,0.00230154196664,-25.0,-0.0,0.0,-0.0,-25.0,63407.2000001,0.0,0.0,0.0,0.0,0.0,0.0
1402753902050297777,3,-12.1436265541,-0.00591572024346,-3.58520624177,-0.122189614607,28.7342323829,0.10862951003,0.0203814788104,0.0,-0.0413160039967,0.0,0.101722555126,0.0,1.44378180484,0.0,-0.013311253327,0.0,4.34351549518e-05,0.0,0.011163772967,0.0,0.0728436158504,0.0,-0.00382090671181,0.0,0.0,0.0,0.0,-25.0,0.0,-7.62,0.00230154196664,0.0,0.00230154196664,-25.0,-0.0,0.0,-0.0,-25.0,63407.2000001,0.0,0.0,0.0,0.0,0.0,0.0
1402753902070650831,3,-12.1436265541,-0.00591572024346,-3.58520624177,-0.122189614607,28.7342323829,0.10862951003,0.0203814788104,0.0,-0.0413160039967,0.0,0.101722555126,0.0,1.44378180484,0.0,-0.013311253327,0.0,4.34351549518e-05,0.0,0.011163772967,0.0,0.0728436158504,0.0,-0.00382090671181,0.0,0.0,0.0,0.0,-25.0,0.0,-7.62,0.00230154196664,0.0,0.00230154196664,-25.0,-0.0,0.0,-0.0,-25.0,63407.2000001,0.0,0.0,0.0,0.0,0.0,0.0
1402753902089917575,3,-12.1427609315,-0.00591572024346,-3.58688429451,-0.122189614607,28.7383513003,0.10862951003,0.0216947348601,0.0,-0.0424308535457,0.0,0.104337903223,0.0,1.44316950683,0.0,-0.0176507858237,0.0,0.000380942550674,0.0,0.00844290784178,0.0,0.0724791890294,0.0,0.0106108091559,0.0,0.0,0.0,0.0,-25.0,0.0,-7.62,0.00230154196664,0.0,0.00230154196664,-25.0,-0.0,0.0,-0.0,-25.0,63407.2000001,0.0,0.0,0.0,0.0,0.0,0.0
1402753902110193474,3,-12.1427609315,-0.00591572024346,-3.58688429451,-0.122189614607,28.7383513003,0.10862951003,0.0216947348601,0.0,-0.0424308535457,0.0,0.104337903223,0.0,1.44316950683,0.0,-0.0176507858237,0.0,0.000380942550674,0.0,0.00844290784178,0.0,0.0724791890294,0.0,0.0106108091559,0.0,0.0,0.0,0.0,-25.0,0.0,-7.62,0.00230154196664,0.0,0.00230154196664,-25.0,-0.0,0.0,-0.0,-25.0,63407.2000001,0.0,0.0,0.0,0.0,0.0,0.0
1402753902130088855,3,-12.1411569773,-0.00591572024346,-3.57069100482,-0.122189614607,28.7096809894,0.10862951003,0.0225469294011,0.0,-0.0309946854373,0.0,0.102621233475,0.0,1.44260214996,0.0,-0.0125929655124,0.0,0.000667232722177,0.0,0.0116343220341,0.0,0.0733362754692,0.0,0.012007085704,0.0,0.0,0.0,0.0,-25.0,0.0,-7.62,0.00230154196664,0.0,0.000767318410122,-25.0,-0.0,0.0,-0.0,-25.0,63407.2,0.0,0.0,0.0,0.0,0.0,0.0
1402753902149922606,3,-12.1411569773,-0.00591572024346,-3.57069100482,-0.122189614607,28.7096809894,0.10862951003,0.0225469294011,0.0,-0.0309946854373,0.0,0.102621233475,0.0,1.44260214996,0.0,-0.0125929655124,0.0,0.000667232722177,0.0,0.0116343220341,0.0,0.0733362754692,0.0,0.012007085704,0.0,0.0,0.0,0.0,-25.0,0.0,-7.62,0.00230154196664,0.0,0.00230154196664,-25.0,-0.0,0.0,-0.0,-25.0,63407.2000001,0.0,0.0,0.0,0.0,0.0,0.0
1402753902170880562,3,-12.1407738514,-0.00591572024346,-3.56928920567,-0.122189614607,28.6974647161,0.10862951003,0.0142383773912,0.0,-0.0438438474556,0.0,0.104699262519,0.0,1.44195491975,0.0,-0.0196896187778,0.0,0.000661780470444,0.0,0.0106080919884,0.0,0.071524533682,0.0,0.0126466567758,0.0,0.0,0.0,0.0,-25.0,0.0,-7.62,0.00230154196664,0.0,0.00230154196664,-25.0,-0.0,0.0,-0.0,-25.0,63407.2000001,0.0,0.0,0.0,0.0,0.0,0.0
1402753902190056096,3,-12.1407738514,-0.00591572024346,-3.56928920567,-0.122189614607,28.6974647161,0.10862951003,0.0142383773912,0.0,-0.0438438474556,0.0,0.104699262519,0.0,1.44195491975,0.0,-0.0196896187778,0.0,0.000661780470444,0.0,0.0106080919884,0.0,0.071524533682,0.0,0.0126466567758,0.0,0.0,0.0,0.0,-25.0,0.0,-7.62,0.00230154196664,0.0,0.000767318410122,-25.0,-0.0,0.0,-0.0,-25.0,63407.2,0.0,0.0,0.0,0.0,0.0,0.0
1402753902210264546,3,-12.1344503748,-0.00591572024346,-3.56380699468,-0.122189614607,28.6832509125,0.10862951003,0.0209554132708,0.0,-0.0511039430446,0.0,0.104442967319,0.0,1.44142847497,0.0,-0.021980753254,0.0,0.00203358479435,0.0,0.0133943198278,0.0,0.0706376285429,0.0,0.00856004737254,0.0,0.0,0.0,0.0,-25.0,0.0,-7.62,0.00230154196664,0.0,0.000767318410122,-25.0,-0.0,0.0,-0.0,-25.0,63407.2,0.0,0.0,0.0,0.0,0.0,0.0
1402753902230828106,3,-12.1344503748,-0.00591572024346,-3.56380699468,-0.122189614607,28.6832509125,0.10862951003,0.0209554132708,0.0,-0.0511039430446,0.0,0.104442967319,0.0,1.44142847497,0.0,-0.021980753254,0.0,0.00203358479435,0.0,0.0133943198278,0.0,0.0706376285429,0.0,0.00856004737254,0.0,0.0,0.0,0.0,-25.0,0.0,-7.62,0.00230154196664,0.0,0.00230154196664,-25.0,-0.0,0.0,-0.0,-25.0,63407.2000001,0.0,0.0,0.0,0.0,0.0,0.0
1402753902249991019,3,-12.1367969848,-0.00591572024346,-3.55207244419,-0.122189614607,28.65665742,0.10862951003,0.0113424717897,0.0,-0.0480376882256,0.0,0.103440747477,0.0,1.44044960768,0.0,-0.0219641389258,0.0,0.00130644211516,0.0,0.00805211288119,0.0,0.0705502435359,0.0,0.00925086219127,0.0,0.0,0.0,0.0,-25.0,0.0,-7.62,0.00230154196664,0.0,0.00230154196664,-25.0,-0.0,0.0,-0.0,-25.0,63407.2000001,0.0,0.0,0.0,0.0,0.0,0.0
1402753902269991094,3,-12.1367969848,-0.00591572024346,-3.55207244419,-0.122189614607,28.65665742,0.10862951003,0.0113424717897,0.0,-0.0480376882256,0.0,0.103440747477,0.0,1.44044960768,0.0,-0.0219641389258,0.0,0.00130644211516,0.0,0.00805211288119,0.0,0.0705502435359,0.0,0.00925086219127,0.0,0.0,0.0,0.0,-25.0,0.0,-7.62,0.00230154196664,0.0,0.000767318410122,-25.0,-0.0,0.0,-0.0,-25.0,63407.2,0.0,0.0,0.0,0.0,0.0,0.0
1402753902290017671,3,-12.1317845849,-0.00591572024346,-3.53936592526,-0.122189614607,28.6350948229,0.10862951003,0.0181315841664,0.0,-0.041392995743,0.0,0.103664417236,0.0,1.43980439671,0.0,-0.0195854792122,0.0,0.00224224479881,0.0,0.011424833606,0.0,0.0711545014607,0.0,0.00616827544679,0.0,0.0,0.0,0.0,-25.0,0.0,-7.62,0.00230154196664,0.0,0.00230154196664,-25.0,-0.0,0.0,-0.0,-25.0,63407.2000001,0.0,0.0,0.0,0.0,0.0,0.0
1402753902310924644,3,-12.1317845849,-0.00591572024346,-3.53936592526,-0.122189614607,28.6350948229,0.10862951003,0.0181315841664,0.0,-0.041392995743,0.0,0.103664417236,0.0,1.43980439671,0.0,-0.0195854792122,0.0,0.00224224479881,0.0,0.011424833606,0.0,0.0711545014607,0.0,0.00616827544679,0.0,0.0,0.0,0.0,-25.0,0.0,-7.62,0.00230154196664,0.0,0.000767318410122,-25.0,-0.0,0.0,-0.0,-25.0,63407.2,0.0,0.0,0.0,0.0,0.0,0.0
1402753902330161236,3,-12.1310433271,-0.00591572024346,-3.54115070741,-0.122189614607,28.6394577428,0.10862951003,0.0175563280813,0.0,-0.0430353004426,0.0,0.104075751482,0.0,1.43877022177,0.0,-0.0270880911575,0.0,0.00232536737409,0.0,0.0107744417248,0.0,0.0707011195015,0.0,-0.00199066411299,0.0,0.0,0.0,0.0,-25.0,0.0,-7.62,0.00230154196664,0.0,0.000767318410122,-25.0,-0.0,0.0,-0.0,-25.0,63407.2,0.0,0.0,0.0,0.0,0.0,0.0
1402753902349932228,3,-12.1310433271,-0.00591572024346,-3.54115070741,-0.122189614607,28.6394577428,0.10862951003,0.0175563280813,0.0,-0.0430353004426,0.0,0.104075751482,0.0,1.43877022177,0.0,-0.0270880911575,0.0,0.00232536737409,0.0,0.0107744417248,0.0,0.0707011195015,0.0,-0.00199066411299,0.0,0.0,0.0,0.0,-25.0,0.0,-7.62,0.00230154196664,0.0,0.000767318410122,-25.0,-0.0,0.0,-0.0,-25.0,63407.2,0.0,0.0,0.0,0.0,0.0,0.0
1402753902370295523,3,-12.1253289777,-0.00591572024346,-3.53414893658,-0.122189614607,28.6266084023,0.10862951003,0.0224084440446,0.0,-0.0457102169638,0.0,0.105462737591,0.0,1.43795739729,0.0,-0.0194738348063,0.0,0.0026811119406,0.0,0.00426218903812,0.0,0.0702971024119,0.0,0.00422600166863,0.0,0.0,0.0,0.0,-25.0,0.0,-7.62,0.00230154196664,0.0,0.000767318410122,-25.0,-0.0,0.0,-0.0,-25.0,63407.2,0.0,0.0,0.0,0.0,0.0,0.0
1402753902390081622,3,-12.1253289777,-0.00591572024346,-3.53414893658,-0.122189614607,28.6266084023,0.10862951003,0.0224084440446,0.0,-0.0457102169638,0.0,0.105462737591,0.0,1.43795739729,0.0,-0.0194738348063,0.0,0.0026811119406,0.0,0.00426218903812,0.0,0.0702971024119,0.0,0.00422600166863,0.0,0.0,0.0,0.0,-25.0,0.0,-7.62,0.00230154196664,0.0,0.000767318410122,-25.0,-0.0,0.0,-0.0,-25.0,63407.2,0.0,0.0,0.0,0.0,0.0,0.0
1402753902411200597,3,-12.1291526233,-0.00591572024346,-3.52805840704,-0.122189614607,28.5961583728,0.10862951003,0.00966230644035,0.0,-0.0607508651179,0.0,0.103987045966,0.0,1.43693620584,0.0,-0.0274792786871,0.0,0.00158367307866,0.0,-0.00336017825355,0.0,0.0683872343313,0.0,-0.00364608651292,0.0,0.0,0.0,0.0,-25.0,0.0,-7.62,0.00230154196664,0.0,0.00230154196664,-25.0,-0.0,0.0,-0.0,-25.0,63407.2000001,0.0,0.0,0.0,0.0,0.0,0.0
1402753902429990733,3,-12.1291526233,-0.00591572024346,-3.52805840704,-0.122189614607,28.5961583728,0.10862951003,0.00966230644035,0.0,-0.0607508651179,0.0,0.103987045966,0.0,1.43693620584,0.0,-0.0274792786871,0.0,0.00158367307866,0.0,-0.00336017825355,0.0,0.0683872343313,0.0,-0.00364608651292,0.0,0.0,0.0,0.0,-25.0,0.0,-7.62,0.00230154196664,0.0,0.000767318410122,-25.0,-0.0,0.0,-0.0,-25.0,63407.2,0.0,0.0,0.0,0.0,0.0,0.0
1402753902449940163,3,-12.1244350734,-0.00591572024346,-3.51167564769,-0.122189614607,28.5703491927,0.10862951003,0.0154906529572,0.0,-0.0496414559591,0.0,0.0997975375049,0.0,1.43602534633,0.0,-0.0238638726682,0.0,0.00184939272879,0.0,0.00029306376518,0.0,0.0699136323886,0.0,0.0027779403185,0.0,0.0,0.0,0.0,-25.0,0.0,-7.62,0.00230154196664,0.0,0.000767318410122,-25.0,-0.0,0.0,-0.0,-25.0,63407.2,0.0,0.0,0.0,0.0,0.0,0.0
1402753902470542767,3,-12.1244350734,-0.00591572024346,-3.51167564769,-0.122189614607,28.5703491927,0.10862951003,0.0154906529572,0.0,-0.0496414559591,0.0,0.0997975375049,0.0,1.43602534633,0.0,-0.0238638726682,0.0,0.00184939272879,0.0,0.00029306376518,0.0,0.0699136323886,0.0,0.0027779403185,0.0,0.0,0.0,0.0,-25.0,0.0,-7.62,0.00230154196664,0.0,0.000767318410122,-25.0,-0.0,0.0,-0.0,-25.0,63407.2,0.0,0.0,0.0,0.0,0.0,0.0
1402753902490083002,3,-12.1225778078,-0.00591572024346,-3.50632445569,-0.122189614607,28.5599026453,0.10862951003,0.00627592486648,0.0,-0.0540027102988,0.0,0.100381405,0.0,1.4347989831,0.0,-0.0266688521262,0.0,0.000842996095494,0.0,-0.000889461249252,0.0,0.069531128828,0.0,-0.0125578743358,0.0,0.0,0.0,0.0,-25.0,0.0,-7.62,0.00230154196664,0.0,0.000767318410122,-25.0,-0.0,0.0,-0.0,-25.0,63407.2,0.0,0.0,0.0,0.0,0.0,0.0
1402753902510279079,3,-12.1225778078,-0.00591572024346,-3.50632445569,-0.122189614607,28.5599026453,0.10862951003,0.00627592486648,0.0,-0.0540027102988,0.0,0.100381405,0.0,1.4347989831,0.0,-0.0266688521262,0.0,0.000842996095494,0.0,-0.000889461249252,0.0,0.069531128828,0.0,-0.0125578743358,0.0,0.0,0.0,0.0,-25.0,0.0,-7.62,0.00230154196664,0.0,0.000767318410122,-25.0,-0.0,0.0,-0.0,-25.0,63407.2,0.0,0.0,0.0,0.0,0.0,0.0
1402753902530066549,3,-12.1222863617,-0.00591572024346,-3.50851748672,-0.122189614607,28.5638383144,0.10862951003,0.00637791201278,0.0,-0.055991713192,0.0,0.100814060452,0.0,1.43360190774,0.0,-0.0292865141225,0.0,0.000595104369282,0.0,-0.00174234526079,0.0,0.0695408322651,0.0,-0.0113960320353,0.0,0.0,0.0,0.0,-25.0,0.0,-7.62,0.00230154196664,0.0,0.000767318410122,-25.0,-0.0,0.0,-0.0,-25.0,63407.2,0.0,0.0,0.0,0.0,0.0,0.0
1402753902550136021,3,-12.1222863617,-0.00591572024346,-3.50851748672,-0.122189614607,28.5638383144,0.10862951003,0.00637791201278,0.0,-0.055991713192,0.0,0.100814060452,0.0,1.43360190774,0.0,-0.0292865141225,0.0,0.000595104369282,0.0,-0.00174234526079,0.0,0.0695408322651,0.0,-0.0113960320353,0.0,0.0,0.0,0.0,-25.0,0.0,-7.62,0.00230154196664,0.0,0.000767318410122,-25.0,-0.0,0.0,-0.0,-25.0,63407.2,0.0,0.0,0.0,0.0,0.0,0.0
1402753902570945678,3,-12.1220027463,-0.00591572024346,-3.5108485403,-0.122189614607,28.5679952417,0.10862951003,0.00766423293042,0.0,-0.0580933910334,0.0,0.0998712738243,0.0,1.43245666546,0.0,-0.0279444411345,0.0,0.000566024426386,0.0,-0.000681873626312,0.0,0.0696429234493,0.0,0.00430948181008,0.0,0.0,0.0,0.0,-25.0,0.0,-7.62,0.00230154196664,0.0,0.000767318410122,-25.0,-0.0,0.0,-0.0,-25.0,63407.2,0.0,0.0,0.0,0.0,0.0,0.0
1402753902589990572,3,-12.1220027463,-0.00591572024346,-3.5108485403,-0.122189614607,28.5679952417,0.10862951003,0.00766423293042,0.0,-0.0580933910334,0.0,0.0998712738243,0.0,1.43245666546,0.0,-0.0279444411345,0.0,0.000566024426386,0.0,-0.000681873626312,0.0,0.0696429234493,0.0,0.00430948181008,0.0,0.0,0.0,0.0,-25.0,0.0,-7.62,0.00230154196664,0.0,0.000767318410122,-25.0,-0.0,0.0,-0.0,-25.0,63407.2,0.0,0.0,0.0,0.0,0.0,0.0
1402753902610084599,3,-12.1196932368,-0.00591572024346,-3.49888850963,-0.122189614607,28.5304269319,0.10862951003,0.0126487357287,0.0,-0.0629266906498,0.0,0.0952499720353,0.0,1.43139747828,0.0,-0.0356425222845,0.0,0.00123145403887,0.0,-0.00343555394799,0.0,0.0692438827206,0.0,-0.00242645095774,0.0,0.0,0.0,0.0,-25.0,0.0,-7.62,0.00230154196664,0.0,0.000767318410122,-25.0,-0.0,0.0,-0.0,-25.0,63407.2,0.0,0.0,0.0,0.0,0.0,0.0
1402753902629972995,3,-12.1196932368,-0.00591572024346,-3.49888850963,-0.122189614607,28.5304269319,0.10862951003,0.0126487357287,0.0,-0.0629266906498,0.0,0.0952499720353,0.0,1.43139747828,0.0,-0.0356425222845,0.0,0.00123145403887,0.0,-0.00343555394799,0.0,0.0692438827206,0.0,-0.00242645095774,0.0,0.0,0.0,0.0,-25.0,0.0,-7.62,0.00230154196664,0.0,0.000767318410122,-25.0,-0.0,0.0,-0.0,-25.0,63407.2,0.0,0.0,0.0,0.0,0.0,0.0
1402753902650299561,3,-12.116991156,-0.00591572024346,-3.49341743525,-0.122189614607,28.5242151942,0.10862951003,0.00850224278748,0.0,-0.0616765348316,0.0,0.0978779211515,0.0,1.4302143193,0.0,-0.0320418719601,0.0,0.000710703608842,0.0,-0.00843637923623,0.0,0.0698241011093,0.0,0.00388531055147,0.0,0.0,0.0,0.0,-25.0,0.0,-7.62,0.00230154196664,0.0,0.000767318410122,-25.0,-0.0,0.0,-0.0,-25.0,63407.2,0.0,0.0,0.0,0.0,0.0,0.0
1402753902670087004,3,-12.116991156,-0.00591572024346,-3.49341743525,-0.122189614607,28.5242151942,0.10862951003,0.00850224278748,0.0,-0.0616765348316,0.0,0.0978779211515,0.0,1.4302143193,0.0,-0.0320418719601,0.0,0.000710703608842,0.0,-0.00843637923623,0.0,0.0698241011093,0.0,0.00388531055147,0.0,0.0,0.0,0.0,-25.0,0.0,-7.62,0.00230154196664,0.0,0.00230154196664,-25.0,-0.0,0.0,-0.0,-25.0,63407.2000001,0.0,0.0,0.0,0.0,0.0,0.0
1402753902690526609,3,-12.1126058957,-0.00591572024346,-3.48053051293,-0.122189614607,28.4918292086,0.10862951003,0.0172845536571,0.0,-0.0608843246643,0.0,0.0929269103226,0.0,1.42913349869,0.0,-0.0376957668306,0.0,0.00184048564893,0.0,-0.00377297795915,0.0,0.0702975799873,0.0,0.000128858042356,0.0,0.0,0.0,0.0,-25.0,0.0,-7.62,0.00230154196664,0.0,0.000767318410122,-25.0,-0.0,0.0,-0.0,-25.0,63407.2,0.0,0.0,0.0,0.0,0.0,0.0
1402753902710719090,3,-12.1126058957,-0.00591572024346,-3.48053051293,-0.122189614607,28.4918292086,0.10862951003,0.0172845536571,0.0,-0.0608843246643,0.0,0.0929269103226,0.0,1.42913349869,0.0,-0.0376957668306,0.0,0.00184048564893,0.0,-0.00377297795915,0.0,0.0702975799873,0.0,0.000128858042356,0.0,0.0,0.0,0.0,-25.0,0.0,-7.62,0.00230154196664,0.0,0.000767318410122,-25.0,-0.0,0.0,-0.0,-25.0,63407.2,0.0,0.0,0.0,0.0,0.0,0.0
1402753902730064227,3,-12.1087640152,-0.00591572024346,-3.47991168407,-0.122189614607,28.4952000959,0.10862951003,0.0137041794514,0.0,-0.0632438475531,0.0,0.0969463341427,0.0,1.42794034993,0.0,-0.0338456863989,0.0,0.00139009450234,0.0,-0.00568917786131,0.0,0.0703750026392,0.0,-0.00558422408796,0.0,0.0,0.0,0.0,-25.0,0.0,-7.62,0.00230154196664,0.0,0.000767318410122,-25.0,-0.0,0.0,-0.0,-25.0,63407.2,0.0,0.0,0.0,0.0,0.0,0.0
1402753902750038297,3,-12.1087640152,-0.00591572024346,-3.47991168407,-0.122189614607,28.4952000959,0.10862951003,0.0137041794514,0.0,-0.0632438475531,0.0,0.0969463341427,0.0,1.42794034993,0.0,-0.0338456863989,0.0,0.00139009450234,0.0,-0.00568917786131,0.0,0.0703750026392,0.0,-0.00558422408796,0.0,0.0,0.0,0.0,-25.0,0.0,-7.62,0.00230154196664,0.0,0.000767318410122,-25.0,-0.0,0.0,-0.0,-25.0,63407.2,0.0,0.0,0.0,0.0,0.0,0.0
1402753902770796177,3,-12.1042782903,-0.00591572024346,-3.46853233956,-0.122189614607,28.4720537451,0.10862951003,0.0239110217245,0.0,-0.0563456272943,0.0,0.0949087802411,0.0,1.42678857997,0.0,-0.0380856142022,0.0,0.00247254764415,0.0,-0.00411841392001,0.0,0.0715599384608,0.0,0.00100676193706,0.0,0.0,0.0,0.0,-25.0,0.0,-7.62,0.00230154196664,0.0,0.000767318410122,-25.0,-0.0,0.0,-0.0,-25.0,63407.2,0.0,0.0,0.0,0.0,0.0,0.0
1402753902790018590,3,-12.1042782903,-0.00591572024346,-3.46853233956,-0.122189614607,28.4720537451,0.10862951003,0.0239110217245,0.0,-0.0563456272943,0.0,0.0949087802411,0.0,1.42678857997,0.0,-0.0380856142022,0.0,0.00247254764415,0.0,-0.00411841392001,0.0,0.0715599384608,0.0,0.00100676193706,0.0,0.0,0.0,0.0,-25.0,0.0,-7.62,0.00230154196664,0.0,0.000767318410122,-25.0,-0.0,0.0,-0.0,-25.0,63407.2,0.0,0.0,0.0,0.0,0.0,0.0
1402753902810565192,3,-12.1097671254,-0.00591572024346,-3.46771383848,-0.122189614607,28.4685979469,0.10862951003,0.00457623650193,0.0,-0.0601058068102,0.0,0.0964234422193,0.0,1.42535960474,0.0,-0.0316499733122,0.0,0.000222797567414,0.0,-0.00461536486472,0.0,0.0712413127077,0.0,0.00234442042793,0.0,0.0,0.0,0.0,-25.0,0.0,-7.62,0.00230154196664,0.0,0.000767318410122,-25.0,-0.0,0.0,-0.0,-25.0,63407.2,0.0,0.0,0.0,0.0,0.0,0.0
1402753902830015342,3,-12.1097671254,-0.00591572024346,-3.46771383848,-0.122189614607,28.4685979469,0.10862951003,0.00457623650193,0.0,-0.0601058068102,0.0,0.0964234422193,0.0,1.42535960474,0.0,-0.0316499733122,0.0,0.000222797567414,0.0,-0.00461536486472,0.0,0.0712413127077,0.0,0.00234442042793,0.0,0.0,0.0,0.0,-25.0,0.0,-7.62,0.00230154196664,0.0,0.00230154196664,-25.0,-0.0,0.0,-0.0,-25.0,63407.2000001,0.0,0.0,0.0,0.0,0.0,0.0
1402753902850721772,3,-12.1008218992,-0.00591572024346,-3.46643803609,-0.122189614607,28.4648765182,0.10862951003,0.019568816726,0.0,-0.0644179601272,0.0,0.0979844778621,0.0,1.42408518262,0.0,-0.0341186184975,0.0,0.00188913929648,0.0,-0.00736222325074,0.0,0.0712143296745,0.0,-0.00603840239913,0.0,0.0,0.0,0.0,-25.0,0.0,-7.62,0.00230154196664,0.0,0.000767318410122,-25.0,-0.0,0.0,-0.0,-25.0,63407.2,0.0,0.0,0.0,0.0,0.0,0.0
1402753902869980384,3,-12.1008218992,-0.00591572024346,-3.46643803609,-0.122189614607,28.4648765182,0.10862951003,0.019568816726,0.0,-0.0644179601272,0.0,0.0979844778621,0.0,1.42408518262,0.0,-0.0341186184975,0.0,0.00188913929648,0.0,-0.00736222325074,0.0,0.0712143296745,0.0,-0.00603840239913,0.0,0.0,0.0,0.0,-25.0,0.0,-7.62,0.00230154196664,0.0,0.000767318410122,-25.0,-0.0,0.0,-0.0,-25.0,63407.2,0.0,0.0,0.0,0.0,0.0,0.0
1402753902890210641,3,-12.0993200601,-0.00591572024346,-3.46296600463,-0.122189614607,28.458751053,0.10862951003,0.0170772512684,0.0,-0.0635473226366,0.0,0.0988462676185,0.0,1.42200525363,0.0,-0.0415558366026,0.0,0.00120617586808,0.0,-0.00165176907732,0.0,0.0716089861304,0.0,-0.00519500686567,0.0,0.0,0.0,0.0,-25.0,0.0,-7.62,0.00230154196664,0.0,0.000767318410122,-25.0,-0.0,0.0,-0.0,-25.0,63407.2,0.0,0.0,0.0,0.0,0.0,0.0
1402753902910063028,3,-12.0993200601,-0.00591572024346,-3.46296600463,-0.122189614607,28.458751053,0.10862951003,0.0170772512684,0.0,-0.0635473226366,0.0,0.0988462676185,0.0,1.42200525363,0.0,-0.0415558366026,0.0,0.00120617586808,0.0,-0.00165176907732,0.0,0.0716089861304,0.0,-0.00519500686567,0.0,0.0,0.0,0.0,-25.0,0.0,-7.62,0.00230154196664,0.0,0.000767318410122,-25.0,-0.0,0.0,-0.0,-25.0,63407.2,0.0,0.0,0.0,0.0,0.0,0.0
1402753902931269972,3,-12.1035521564,-0.00591572024346,-3.45738482518,-0.122189614607,28.4279560026,0.10862951003,0.0124053148533,0.0,-0.0739017260382,0.0,0.0961972956985,0.0,1.41992394221,0.0,-0.0419128301307,0.0,0.000522758523088,0.0,-0.00242596572075,0.0,0.0706279224207,0.0,-0.00158772947437,0.0,0.0,0.0,0.0,-25.0,0.0,-7.62,0.00230154196664,0.0,0.000767318410122,-25.0,-0.0,0.0,-0.0,-25.0,63407.2,0.0,0.0,0.0,0.0,0.0,0.0
1402753902950057814,3,-12.1035521564,-0.00591572024346,-3.45738482518,-0.122189614607,28.4279560026,0.10862951003,0.0124053148533,0.0,-0.0739017260382,0.0,0.0961972956985,0.0,1.41992394221,0.0,-0.0419128301307,0.0,0.000522758523088,0.0,-0.00242596572075,0.0,0.0706279224207,0.0,-0.00158772947437,0.0,0.0,0.0,0.0,-25.0,0.0,-7.62,0.00230154196664,0.0,0.000767318410122,-25.0,-0.0,0.0,-0.0,-25.0,63407.2,0.0,0.0,0.0,0.0,0.0,0.0
1402753902970039268,3,-12.103346857,-0.00591572024346,-3.45905750118,-0.122189614607,28.4302225031,0.10862951003,0.0128979481246,0.0,-0.0748505797322,0.0,0.0966345366072,0.0,1.4191122669,0.0,-0.0364460390572,0.0,0.000436728804176,0.0,-0.0013285132025,0.0,0.0706428100924,0.0,-0.00393924882684,0.0,0.0,0.0,0.0,-25.0,0.0,-7.62,0.00230154196664,0.0,0.00230154196664,-25.0,-0.0,0.0,-0.0,-25.0,63407.2000001,0.0,0.0,0.0,0.0,0.0,0.0
1402753902990755399,3,-12.103346857,-0.00591572024346,-3.45905750118,-0.122189614607,28.4302225031,0.10862951003,0.0128979481246,0.0,-0.0748505797322,0.0,0.0966345366072,0.0,1.4191122669,0.0,-0.0364460390572,0.0,0.000436728804176,0.0,-0.0013285132025,0.0,0.0706428100924,0.0,-0.00393924882684,0.0,0.0,0.0,0.0,-25.0,0.0,-7.62,0.00230154196664,0.0,0.000767318410122,-25.0,-0.0,0.0,-0.0,-25.0,63407.2,0.0,0.0,0.0,0.0,0.0,0.0
1402753903010085684,3,-12.0937976884,-0.00591572024346,-3.46033615149,-0.122189614607,28.4402065112,0.10862951003,0.0234997102986,0.0,-0.0733449332424,0.0,0.102156174797,0.0,1.41753612251,0.0,-0.0428062267467,0.0,0.00112528121245,0.0,-0.00571181578022,0.0,0.0712165090299,0.0,-0.0103513541489,0.0,0.0,0.0,0.0,-25.0,0.0,-7.62,0.00230154196664,0.0,0.000767318410122,-25.0,-0.0,0.0,-0.0,-25.0,63407.2,0.0,0.0,0.0,0.0,0.0,0.0
1402753903030154255,3,-12.0937976884,-0.00591572024346,-3.46033615149,-0.122189614607,28.4402065112,0.10862951003,0.0234997102986,0.0,-0.0733449332424,0.0,0.102156174797,0.0,1.41753612251,0.0,-0.0428062267467,0.0,0.00112528121245,0.0,-0.00571181578022,0.0,0.0712165090299,0.0,-0.0103513541489,0.0,0.0,0.0,0.0,-25.0,0.0,-7.62,0.00230154196664,0.0,0.000767318410122,-25.0,-0.0,0.0,-0.0,-25.0,63407.2,0.0,0.0,0.0,0.0,0.0,0.0
1402753903050052012,3,-12.1014840849,-0.00591572024346,-3.4540112624,-0.122189614607,28.4177491649,0.10862951003,0.0078101663606,0.0,-0.0730228707355,0.0,0.0989852077637,0.0,1.41571244841,0.0,-0.0415465793605,0.0,-0.000963753412139,0.0,-0.00339244881929,0.0,0.0711060832051,0.0,-0.00668905106221,0.0,0.0,0.0,0.0,-25.0,0.0,-7.62,0.00230154196664,0.0,0.000767318410122,-25.0,-0.0,0.0,-0.0,-25.0,63407.2,0.0,0.0,0.0,0.0,0.0,0.0
1402753903069946116,3,-12.1014840849,-0.00591572024346,-3.4540112624,-0.122189614607,28.4177491649,0.10862951003,0.0078101663606,0.0,-0.0730228707355,0.0,0.0989852077637,0.0,1.41571244841,0.0,-0.0415465793605,0.0,-0.000963753412139,0.0,-0.00339244881929,0.0,0.0711060832051,0.0,-0.00668905106221,0.0,0.0,0.0,0.0,-25.0,0.0,-7.62,0.00230154196664,0.0,0.000767318410122,-25.0,-0.0,0.0,-0.0,-25.0,63407.2,0.0,0.0,0.0,0.0,0.0,0.0
1402753903090198448,3,-12.0959115511,-0.00591572024346,-3.4538197466,-0.122189614607,28.4139907344,0.10862951003,0.0175451553892,0.0,-0.0760118202546,0.0,0.100195167954,0.0,1.41423766291,0.0,-0.0415214289952,0.0,-1.94037428454e-05,0.0,-0.000849993237365,0.0,0.0709522689992,0.0,-0.0058449587044,0.0,0.0,0.0,0.0,-25.0,0.0,-7.62,0.00230154196664,0.0,0.000767318410122,-25.0,-0.0,0.0,-0.0,-25.0,63407.2,0.0,0.0,0.0,0.0,0.0,0.0
1402753903110063584,3,-12.0959115511,-0.00591572024346,-3.4538197466,-0.122189614607,28.4139907344,0.10862951003,0.0175451553892,0.0,-0.0760118202546,0.0,0.100195167954,0.0,1.41423766291,0.0,-0.0415214289952,0.0,-1.94037428454e-05,0.0,-0.000849993237365,0.0,0.0709522689992,0.0,-0.0058449587044,0.0,0.0,0.0,0.0,-25.0,0.0,-7.62,0.00230154196664,0.0,0.000767318410122,-25.0,-0.0,0.0,-0.0,-25.0,63407.2,0.0,0.0,0.0,0.0,0.0,0.0
1402753903130537124,3,-12.0951273565,-0.00591572024346,-3.45691060317,-0.122189614607,28.4180164306,0.10862951003,0.0183913931934,0.0,-0.0779642614198,0.0,0.101970073497,0.0,1.41261694601,0.0,-0.0375704369679,0.0,-0.000104920646299,0.0,0.00175779274354,0.0,0.0708846301406,0.0,-0.00418009348444,0.0,0.0,0.0,0.0,-25.0,0.0,-7.62,0.00230154196664,0.0,0.000767318410122,-25.0,-0.0,0.0,-0.0,-25.0,63407.2,0.0,0.0,0.0,0.0,0.0,0.0
1402753903149989552,3,-12.0951273565,-0.00591572024346,-3.45691060317,-0.122189614607,28.4180164306,0.10862951003,0.0183913931934,0.0,-0.0779642614198,0.0,0.101970073497,0.0,1.41261694601,0.0,-0.0375704369679,0.0,-0.000104920646299,0.0,0.00175779274354,0.0,0.0708846301406,0.0,-0.00418009348444,0.0,0.0,0.0,0.0,-25.0,0.0,-7.62,0.00230154196664,0.0,0.000767318410122,-25.0,-0.0,0.0,-0.0,-25.0,63407.2,0.0,0.0,0.0,0.0,0.0,0.0
1402753903170824324,3,-12.0952363577,-0.00591572024346,-3.46020712458,-0.122189614607,28.4236559584,0.10862951003,0.0124780456133,0.0,-0.0801479501496,0.0,0.10397442961,0.0,1.4109893504,0.0,-0.041181933299,0.0,-0.000779665202365,0.0,-0.00128161658157,0.0,0.0707747001842,0.0,0.000424449289625,0.0,0.0,0.0,0.0,-25.0,0.0,-7.62,0.00230154196664,0.0,0.00230154196664,-25.0,-0.0,0.0,-0.0,-25.0,63407.2000001,0.0,0.0,0.0,0.0,0.0,0.0
1402753903191497949,3,-12.0952363577,-0.00591572024346,-3.46020712458,-0.122189614607,28.4236559584,0.10862951003,0.0124780456133,0.0,-0.0801479501496,0.0,0.10397442961,0.0,1.4109893504,0.0,-0.041181933299,0.0,-0.000779665202365,0.0,-0.00128161658157,0.0,0.0707747001842,0.0,0.000424449289625,0.0,0.0,0.0,0.0,-25.0,0.0,-7.62,0.00230154196664,0.0,0.000767318410122,-25.0,-0.0,0.0,-0.0,-25.0,63407.2,0.0,0.0,0.0,0.0,0.0,0.0
1402753903210027943,3,-12.0958783156,-0.00591572024346,-3.45626277731,-0.122189614607,28.4159390836,0.10862951003,0.012716811083,0.0,-0.0743935162643,0.0,0.103434613454,0.0,1.40932716579,0.0,-0.0415187550061,0.0,-0.000729318682582,0.0,0.00411431663688,0.0,0.0714861733129,0.0,0.00745905011579,0.0,0.0,0.0,0.0,-25.0,0.0,-7.62,0.00230154196664,0.0,0.000767318410122,-25.0,-0.0,0.0,-0.0,-25.0,63407.2,0.0,0.0,0.0,0.0,0.0,0.0
1402753903230856723,3,-12.0958783156,-0.00591572024346,-3.45626277731,-0.122189614607,28.4159390836,0.10862951003,0.012716811083,0.0,-0.0743935162643,0.0,0.103434613454,0.0,1.40932716579,0.0,-0.0415187550061,0.0,-0.000729318682582,0.0,0.00411431663688,0.0,0.0714861733129,0.0,0.00745905011579,0.0,0.0,0.0,0.0,-25.0,0.0,-7.62,0.00230154196664,0.0,0.000767318410122,-25.0,-0.0,0.0,-0.0,-25.0,63407.2,0.0,0.0,0.0,0.0,0.0,0.0
1402753903250506884,3,-12.0930600181,-0.00591572024346,-3.45937515059,-0.122189614607,28.4120313597,0.10862951003,0.0189196544247,0.0,-0.0839850653444,0.0,0.105488744348,0.0,1.40769466674,0.0,-0.0448406924969,0.0,0.00026764877765,0.0,0.000981083057496,0.0,0.0705644577583,0.0,0.00967820350375,0.0,0.0,0.0,0.0,-25.0,0.0,-7.62,0.00230154196664,0.0,0.000767318410122,-25.0,-0.0,0.0,-0.0,-25.0,63407.2,0.0,0.0,0.0,0.0,0.0,0.0
1402753903269913969,3,-12.0930600181,-0.00591572024346,-3.45937515059,-0.122189614607,28.4120313597,0.10862951003,0.0189196544247,0.0,-0.0839850653444,0.0,0.105488744348,0.0,1.40769466674,0.0,-0.0448406924969,0.0,0.00026764877765,0.0,0.000981083057496,0.0,0.0705644577583,0.0,0.00967820350375,0.0,0.0,0.0,0.0,-25.0,0.0,-7.62,0.00230154196664,0.0,0.000767318410122,-25.0,-0.0,0.0,-0.0,-25.0,63407.2,0.0,0.0,0.0,0.0,0.0,0.0
1402753903290359640,3,-12.0981427886,-0.00591572024346,-3.45412316235,-0.122189614607,28.3953601008,0.10862951003,0.0105226295006,0.0,-0.0809139837141,0.0,0.10161702544,0.0,1.40592598187,0.0,-0.0432353487209,0.0,-0.000358857855348,0.0,0.00474595339799,0.0,0.0708691877296,0.0,0.014542196701,0.0,0.0,0.0,0.0,-25.0,0.0,-7.62,0.00230154196664,0.0,0.000767318410122,-25.0,-0.0,0.0,-0.0,-25.0,63407.2,0.0,0.0,0.0,0.0,0.0,0.0
1402753903310051195,3,-12.0981427886,-0.00591572024346,-3.45412316235,-0.122189614607,28.3953601008,0.10862951003,0.0105226295006,0.0,-0.0809139837141,0.0,0.10161702544,0.0,1.40592598187,0.0,-0.0432353487209,0.0,-0.000358857855348,0.0,0.00474595339799,0.0,0.0708691877296,0.0,0.014542196701,0.0,0.0,0.0,0.0,-25.0,0.0,-7.62,0.00230154196664,0.0,0.000767318410122,-25.0,-0.0,0.0,-0.0,-25.0,63407.2,0.0,0.0,0.0,0.0,0.0,0.0
1402753903330323097,3,-12.0977045481,-0.00591572024346,-3.45739107279,-0.122189614607,28.3993512361,0.10862951003,0.010892462624,0.0,-0.0826592482346,0.0,0.104067284206,0.0,1.40415197379,0.0,-0.0447239053919,0.0,-1.10131480417e-05,0.0,0.00345208103365,0.0,0.0709187608166,0.0,0.0154323492042,0.0,0.0,0.0,0.0,-25.0,0.0,-7.62,0.00230154196664,0.0,0.000767318410122,-25.0,-0.0,0.0,-0.0,-25.0,63407.2,0.0,0.0,0.0,0.0,0.0,0.0
1402753903349918267,3,-12.0977045481,-0.00591572024346,-3.45739107279,-0.122189614607,28.3993512361,0.10862951003,0.010892462624,0.0,-0.0826592482346,0.0,0.104067284206,0.0,1.40415197379,0.0,-0.0447239053919,0.0,-1.10131480417e-05,0.0,0.00345208103365,0.0,0.0709187608166,0.0,0.0154323492042,0.0,0.0,0.0,0.0,-25.0,0.0,-7.62,0.00230154196664,0.0,0.000767318410122,-25.0,-0.0,0.0,-0.0,-25.0,63407.2,0.0,0.0,0.0,0.0,0.0,0.0
1402753903370130864,3,-12.0884511439,-0.00591572024346,-3.46503740183,-0.122189614607,28.4202345457,0.10862951003,0.0216518420144,0.0,-0.0850111262536,0.0,0.109161366557,0.0,1.40239327348,0.0,-0.0494425859225,0.0,0.00152631885391,0.0,0.00140708193871,0.0,0.0709992601014,0.0,0.0056636867218,0.0,0.0,0.0,0.0,-25.0,0.0,-7.62,0.00230154196664,0.0,0.000767318410122,-25.0,-0.0,0.0,-0.0,-25.0,63407.2,0.0,0.0,0.0,0.0,0.0,0.0
1402753903390565627,3,-12.0884511439,-0.00591572024346,-3.46503740183,-0.122189614607,28.4202345457,0.10862951003,0.0216518420144,0.0,-0.0850111262536,0.0,0.109161366557,0.0,1.40239327348,0.0,-0.0494425859225,0.0,0.00152631885391,0.0,0.00140708193871,0.0,0.0709992601014,0.0,0.0056636867218,0.0,0.0,0.0,0.0,-25.0,0.0,-7.62,0.00230154196664,0.0,0.00230154196664,-25.0,-0.0,0.0,-0.0,-25.0,63407.2000001,0.0,0.0,0.0,0.0,0.0,0.0
