rosbagTimestamp,control_method,x_current,x_desired,y_current,y_desired,z_current,z_desired,x_velocity_current,x_velocity_desired,y_velocity_current,y_velocity_desired,z_velocity_current,z_velocity_desired,yaw_current,yaw_desired,yaw_velocity_current,yaw_velocity_desired,roll_current,roll_desired,roll_velocity_current,roll_velocity_desired,pitch_current,pitch_desired,pitch_velocity_current,pitch_velocity_desired,required_force_x,required_force_y,required_moment_z,resultant_force_x,resultant_force_y,resultant_moment_z,current_port_servo_angle,current_port_thruster_force,current_starboard_servo_angle,current_starboard_thruster_force,estimated_port_servo_angle,estimated_port_thruster_force,estimated_starboard_servo_angle,estimated_starboard_thruster_force,cost_value,step,user_defined_1,user_defined_2,user_defined_3,user_defined_4,user_defined_5
1402753960410655061,3,-11.7306967852,-0.00591572024346,-11.8779059507,-0.122189614607,48.0183539938,0.10862951003,0.0844501332437,0.0,-0.106676544871,0.0,0.432088330622,0.0,1.69952428906,0.0,-0.00532818550194,0.0,0.000265677130106,0.0,-0.00436776979749,0.0,0.0724921035584,0.0,-0.00673261914249,0.0,0.0,0.0,0.0,-50.0,0.0,-15.24,0.00230154196664,0.0,-0.00383606751517,0.0,-0.0,0.0,-0.0,-50.0,253628.8,0.0,0.0,0.0,0.0,0.0,0.0
1402753960430472427,3,-11.7306967852,-0.00591572024346,-11.8779059507,-0.122189614607,48.0183539938,0.10862951003,0.0844501332437,0.0,-0.106676544871,0.0,0.432088330622,0.0,1.69952428906,0.0,-0.00532818550194,0.0,0.000265677130106,0.0,-0.00436776979749,0.0,0.0724921035584,0.0,-0.00673261914249,0.0,0.0,0.0,0.0,-50.0,0.0,-15.24,0.00230154196664,0.0,-0.00383606751517,0.0,-0.0,0.0,-0.0,-50.0,253628.8,0.0,0.0,0.0,0.0,0.0,0.0
1402753960450815717,3,-11.7255507711,-0.00591572024346,-11.9270508051,-0.122189614607,48.1150911984,0.10862951003,0.0794630217397,0.0,-0.111518267122,0.0,0.433605465235,0.0,1.69950982814,0.0,0.00284845942205,0.0,-0.000849358361976,0.0,0.00488881634781,0.0,0.0720845921495,0.0,-0.00683524859985,0.0,0.0,0.0,0.0,-50.0,0.0,-15.24,0.00230154196664,0.0,-0.00383606751517,0.0,-0.0,0.0,-0.0,-50.0,253628.8,0.0,0.0,0.0,0.0,0.0,0.0
1402753960470306208,3,-11.7255507711,-0.00591572024346,-11.9270508051,-0.122189614607,48.1150911984,0.10862951003,0.0794630217397,0.0,-0.111518267122,0.0,0.433605465235,0.0,1.69950982814,0.0,0.00284845942205,0.0,-0.000849358361976,0.0,0.00488881634781,0.0,0.0720845921495,0.0,-0.00683524859985,0.0,0.0,0.0,0.0,-50.0,0.0,-15.24,0.00230154196664,0.0,-0.00383606751517,0.0,-0.0,0.0,-0.0,-50.0,253628.8,0.0,0.0,0.0,0.0,0.0,0.0
1402753960490360951,3,-11.716149905,-0.00591572024346,-11.9756874754,-0.122189614607,48.2130152547,0.10862951003,0.0834859204909,0.0,-0.116258648198,0.0,0.435099412801,0.0,1.6995325063,0.0,0.00260663727199,0.0,-0.000770799006565,0.0,0.0138510241437,0.0,0.0714699814246,0.0,-0.00379557371063,0.0,0.0,0.0,0.0,-50.0,0.0,-15.24,0.00230154196664,0.0,-0.00383606751517,0.0,-0.0,0.0,-0.0,-50.0,253628.8,0.0,0.0,0.0,0.0,0.0,0.0
1402753960510743751,3,-11.716149905,-0.00591572024346,-11.9756874754,-0.122189614607,48.2130152547,0.10862951003,0.0834859204909,0.0,-0.116258648198,0.0,0.435099412801,0.0,1.6995325063,0.0,0.00260663727199,0.0,-0.000770799006565,0.0,0.0138510241437,0.0,0.0714699814246,0.0,-0.00379557371063,0.0,0.0,0.0,0.0,-50.0,0.0,-15.24,0.00230154196664,0.0,-0.00383606751517,0.0,-0.0,0.0,-0.0,-50.0,253628.8,0.0,0.0,0.0,0.0,0.0,0.0
1402753960530328113,3,-11.7128727356,-0.00591572024346,-11.9804712684,-0.122189614607,48.2308976249,0.10862951003,0.0829351511763,0.0,-0.116389166858,0.0,0.437943275589,0.0,1.69965405552,0.0,-0.000474626074347,0.0,-0.000992640179665,0.0,0.00923698338312,0.0,0.0711878121801,0.0,-0.00941512136924,0.0,0.0,0.0,0.0,-50.0,0.0,-15.24,0.00230154196664,0.0,-0.00383606751517,0.0,-0.0,0.0,-0.0,-50.0,253628.8,0.0,0.0,0.0,0.0,0.0,0.0
1402753960550556982,3,-11.7128727356,-0.00591572024346,-11.9804712684,-0.122189614607,48.2308976249,0.10862951003,0.0829351511763,0.0,-0.116389166858,0.0,0.437943275589,0.0,1.69965405552,0.0,-0.000474626074347,0.0,-0.000992640179665,0.0,0.00923698338312,0.0,0.0711878121801,0.0,-0.00941512136924,0.0,0.0,0.0,0.0,-50.0,0.0,-15.24,0.00230154196664,0.0,-0.00383606751517,0.0,-0.0,0.0,-0.0,-50.0,253628.8,0.0,0.0,0.0,0.0,0.0,0.0
1402753960570394805,3,-11.7093987537,-0.00591572024346,-11.9853320138,-0.122189614607,48.2490800719,0.10862951003,0.0845527795205,0.0,-0.116347085537,0.0,0.439819945131,0.0,1.69972707936,0.0,-0.000341338863739,0.0,-0.00106363476183,0.0,0.006658616202,0.0,0.0707861233852,0.0,-0.000695003631113,0.0,0.0,0.0,0.0,-50.0,0.0,-15.24,0.00230154196664,0.0,-0.00383606751517,0.0,-0.0,0.0,-0.0,-50.0,253628.8,0.0,0.0,0.0,0.0,0.0,0.0
1402753960590543692,3,-11.7093987537,-0.00591572024346,-11.9853320138,-0.122189614607,48.2490800719,0.10862951003,0.0845527795205,0.0,-0.116347085537,0.0,0.439819945131,0.0,1.69972707936,0.0,-0.000341338863739,0.0,-0.00106363476183,0.0,0.006658616202,0.0,0.0707861233852,0.0,-0.000695003631113,0.0,0.0,0.0,0.0,-50.0,0.0,-15.24,0.00230154196664,0.0,-0.00383606751517,0.0,-0.0,0.0,-0.0,-50.0,253628.8,0.0,0.0,0.0,0.0,0.0,0.0
1402753960610509399,3,-11.6986622422,-0.00591572024346,-12.0305781113,-0.122189614607,48.3642031344,0.10862951003,0.0847486453012,0.0,-0.10688688103,0.0,0.443146313086,0.0,1.69976572031,0.0,0.00044933034219,0.0,-0.00109480302794,0.0,0.00760197777422,0.0,0.0713251181256,0.0,0.0117664673955,0.0,0.0,0.0,0.0,-50.0,0.0,-15.24,0.00230154196664,0.0,-0.00383606751517,0.0,-0.0,0.0,-0.0,-50.0,253628.8,0.0,0.0,0.0,0.0,0.0,0.0
1402753960630434675,3,-11.6986622422,-0.00591572024346,-12.0305781113,-0.122189614607,48.3642031344,0.10862951003,0.0847486453012,0.0,-0.10688688103,0.0,0.443146313086,0.0,1.69976572031,0.0,0.00044933034219,0.0,-0.00109480302794,0.0,0.00760197777422,0.0,0.0713251181256,0.0,0.0117664673955,0.0,0.0,0.0,0.0,-50.0,0.0,-15.24,0.00230154196664,0.0,-0.00383606751517,0.0,-0.0,0.0,-0.0,-50.0,253628.8,0.0,0.0,0.0,0.0,0.0,0.0
1402753960650293103,3,-11.6861311153,-0.00591572024346,-12.0756278401,-0.122189614607,48.4766504756,0.10862951003,0.0870570792997,0.0,-0.098469904935,0.0,0.445867836069,0.0,1.69992495053,0.0,0.00405039071084,0.0,-0.000573249778661,0.0,0.00395912057454,0.0,0.07192264874,0.0,0.00720247083439,0.0,0.0,0.0,0.0,-50.0,0.0,-15.24,0.00230154196664,0.0,-0.00383606751517,0.0,-0.0,0.0,-0.0,-50.0,253628.8,0.0,0.0,0.0,0.0,0.0,0.0
1402753960670180628,3,-11.6861311153,-0.00591572024346,-12.0756278401,-0.122189614607,48.4766504756,0.10862951003,0.0870570792997,0.0,-0.098469904935,0.0,0.445867836069,0.0,1.69992495053,0.0,0.00405039071084,0.0,-0.000573249778661,0.0,0.00395912057454,0.0,0.07192264874,0.0,0.00720247083439,0.0,0.0,0.0,0.0,-50.0,0.0,-15.24,0.00230154196664,0.0,-0.00383606751517,0.0,-0.0,0.0,-0.0,-50.0,253628.8,0.0,0.0,0.0,0.0,0.0,0.0
1402753960690929659,3,-11.6744528851,-0.00591572024346,-12.1245057504,-0.122189614607,48.5577563199,0.10862951003,0.103658930078,0.0,-0.112590655632,0.0,0.443227809647,0.0,1.70012034761,0.0,-0.00107292395433,0.0,0.00139822436648,0.0,0.00349384217363,0.0,0.0700721724335,0.0,0.0107920520016,0.0,0.0,0.0,0.0,-50.0,0.0,-15.24,0.00230154196664,0.0,-0.00383606751517,-50.0,-0.0,0.0,-0.0,-50.0,253628.8,0.0,0.0,0.0,0.0,0.0,0.0
1402753960710293304,3,-11.6744528851,-0.00591572024346,-12.1245057504,-0.122189614607,48.5577563199,0.10862951003,0.103658930078,0.0,-0.112590655632,0.0,0.443227809647,0.0,1.70012034761,0.0,-0.00107292395433,0.0,0.00139822436648,0.0,0.00349384217363,0.0,0.0700721724335,0.0,0.0107920520016,0.0,0.0,0.0,0.0,-50.0,0.0,-15.24,0.00230154196664,0.0,-0.00383606751517,-50.0,-0.0,0.0,-0.0,-50.0,253628.8,0.0,0.0,0.0,0.0,0.0,0.0
1402753960730407516,3,-11.676283612,-0.00591572024346,-12.1671131561,-0.122189614607,48.6420948761,0.10862951003,0.0856573165815,0.0,-0.111778317183,0.0,0.440662052238,0.0,1.70006719397,0.0,-0.00329404498239,0.0,-0.000158940282907,0.0,0.0020488479223,0.0,0.070253020544,0.0,0.0107803772334,0.0,0.0,0.0,0.0,-50.0,0.0,-15.24,0.00230154196664,0.0,-0.00383606751517,-50.0,-0.0,0.0,-0.0,-50.0,253628.8,0.0,0.0,0.0,0.0,0.0,0.0
1402753960750364458,3,-11.676283612,-0.00591572024346,-12.1671131561,-0.122189614607,48.6420948761,0.10862951003,0.0856573165815,0.0,-0.111778317183,0.0,0.440662052238,0.0,1.70006719397,0.0,-0.00329404498239,0.0,-0.000158940282907,0.0,0.0020488479223,0.0,0.070253020544,0.0,0.0107803772334,0.0,0.0,0.0,0.0,-50.0,0.0,-15.24,0.00230154196664,0.0,-0.00383606751517,-50.0,-0.0,0.0,-0.0,-50.0,253628.8,0.0,0.0,0.0,0.0,0.0,0.0
1402753960770307151,3,-11.6675811208,-0.00591572024346,-12.204353644,-0.122189614607,48.7295175879,0.10862951003,0.0939993916562,0.0,-0.0985511448395,0.0,0.43902330706,0.0,1.70046834547,0.0,0.0124466514155,0.0,0.000963064630847,0.0,-0.00739343586528,0.0,0.0712683431185,0.0,0.0123564077136,0.0,0.0,0.0,0.0,-50.0,0.0,-15.24,0.00230154196664,0.0,-0.00383606751517,-50.0,-0.0,0.0,-0.0,-50.0,253628.8,0.0,0.0,0.0,0.0,0.0,0.0
1402753960790340252,3,-11.6675811208,-0.00591572024346,-12.204353644,-0.122189614607,48.7295175879,0.10862951003,0.0939993916562,0.0,-0.0985511448395,0.0,0.43902330706,0.0,1.70046834547,0.0,0.0124466514155,0.0,0.000963064630847,0.0,-0.00739343586528,0.0,0.0712683431185,0.0,0.0123564077136,0.0,0.0,0.0,0.0,-50.0,0.0,-15.24,0.00230154196664,0.0,-0.00383606751517,-50.0,-0.0,0.0,-0.0,-50.0,253628.8,0.0,0.0,0.0,0.0,0.0,0.0
1402753960810891998,3,-11.6557604623,-0.00591572024346,-12.2581970915,-0.122189614607,48.855342252,0.10862951003,0.0875460332058,0.0,-0.097602484824,0.0,0.438474254018,0.0,1.70089812751,0.0,0.00468127228376,0.0,0.000979987783168,0.0,-0.0112485967381,0.0,0.071858623231,0.0,0.00425787672414,0.0,0.0,0.0,0.0,-50.0,0.0,-15.24,0.00230154196664,0.0,-0.00383606751517,-50.0,-0.0,0.0,-0.0,-50.0,253628.8,0.0,0.0,0.0,0.0,0.0,0.0
1402753960830302023,3,-11.6557604623,-0.00591572024346,-12.2581970915,-0.122189614607,48.855342252,0.10862951003,0.0875460332058,0.0,-0.097602484824,0.0,0.438474254018,0.0,1.70089812751,0.0,0.00468127228376,0.0,0.000979987783168,0.0,-0.0112485967381,0.0,0.071858623231,0.0,0.00425787672414,0.0,0.0,0.0,0.0,-50.0,0.0,-15.24,0.00230154196664,0.0,-0.00383606751517,-50.0,-0.0,0.0,-0.0,-50.0,253628.8,0.0,0.0,0.0,0.0,0.0,0.0
1402753960850395440,3,-11.6505696525,-0.00591572024346,-12.3076515545,-0.122189614607,48.9511572949,0.10862951003,0.0828552395476,0.0,-0.104526883975,0.0,0.43799322029,0.0,1.70087057868,0.0,0.00417961149103,0.0,0.000415899060109,0.0,-0.0114566071542,0.0,0.0718190979921,0.0,0.00497581931846,0.0,0.0,0.0,0.0,-50.0,0.0,-15.24,0.00230154196664,0.0,-0.00383606751517,-50.0,-0.0,0.0,-0.0,-50.0,253628.8,0.0,0.0,0.0,0.0,0.0,0.0
1402753960870049860,3,-11.6505696525,-0.00591572024346,-12.3076515545,-0.122189614607,48.9511572949,0.10862951003,0.0828552395476,0.0,-0.104526883975,0.0,0.43799322029,0.0,1.70087057868,0.0,0.00417961149103,0.0,0.000415899060109,0.0,-0.0114566071542,0.0,0.0718190979921,0.0,0.00497581931846,0.0,0.0,0.0,0.0,-50.0,0.0,-15.24,0.00230154196664,0.0,-0.00383606751517,-50.0,-0.0,0.0,-0.0,-50.0,253628.8,0.0,0.0,0.0,0.0,0.0,0.0
1402753960890333269,3,-11.6422205475,-0.00591572024346,-12.3508517611,-0.122189614607,49.0329940604,0.10862951003,0.0961601120556,0.0,-0.112990826439,0.0,0.434964267558,0.0,1.70096743786,0.0,-0.00224129646812,0.0,0.00179039054998,0.0,-0.0240697973669,0.0,0.0722779170233,0.0,-0.0008281975252,0.0,0.0,0.0,0.0,-50.0,0.0,-15.24,0.00230154196664,0.0,-0.00383606751517,-50.0,-0.0,0.0,-0.0,-50.0,253628.8,0.0,0.0,0.0,0.0,0.0,0.0
1402753960910307039,3,-11.6422205475,-0.00591572024346,-12.3508517611,-0.122189614607,49.0329940604,0.10862951003,0.0961601120556,0.0,-0.112990826439,0.0,0.434964267558,0.0,1.70096743786,0.0,-0.00224129646812,0.0,0.00179039054998,0.0,-0.0240697973669,0.0,0.0722779170233,0.0,-0.0008281975252,0.0,0.0,0.0,0.0,-50.0,0.0,-15.24,0.00230154196664,0.0,-0.00383606751517,-50.0,-0.0,0.0,-0.0,-50.0,253628.8,0.0,0.0,0.0,0.0,0.0,0.0
1402753960930212046,3,-11.638354007,-0.00591572024346,-12.355530472,-0.122189614607,49.0503500842,0.10862951003,0.0981863074229,0.0,-0.119857382656,0.0,0.433726185353,0.0,1.70065277809,0.0,-0.0132811947977,0.0,0.00134215973598,0.0,-0.0272927978154,0.0,0.0732995412566,0.0,-0.00183780706445,0.0,0.0,0.0,0.0,-50.0,0.0,-15.24,0.00230154196664,0.0,-0.00383606751517,-50.0,-0.0,0.0,-0.0,-50.0,253628.8,0.0,0.0,0.0,0.0,0.0,0.0
1402753960951015346,3,-11.638354007,-0.00591572024346,-12.355530472,-0.122189614607,49.0503500842,0.10862951003,0.0981863074229,0.0,-0.119857382656,0.0,0.433726185353,0.0,1.70065277809,0.0,-0.0132811947977,0.0,0.00134215973598,0.0,-0.0272927978154,0.0,0.0732995412566,0.0,-0.00183780706445,0.0,0.0,0.0,0.0,-50.0,0.0,-15.24,0.00230154196664,0.0,-0.00537029107169,-50.0,-0.0,0.0,-0.0,-50.0,253628.8,0.0,0.0,0.0,0.0,0.0,0.0
1402753960970696461,3,-11.6301482463,-0.00591572024346,-12.4156983702,-0.122189614607,49.1686087439,0.10862951003,0.0890516317827,0.0,-0.140005882007,0.0,0.437709941056,0.0,1.6997738298,0.0,-0.0163706011255,0.0,-0.000603094413368,0.0,-0.0287858269239,0.0,0.0736414157677,0.0,-0.0347396899316,0.0,0.0,0.0,0.0,-50.0,0.0,-15.24,0.00230154196664,0.0,-0.00537029107169,-50.0,-0.0,0.0,-0.0,-50.0,253628.8,0.0,0.0,0.0,0.0,0.0,0.0
1402753960990273750,3,-11.6301482463,-0.00591572024346,-12.4156983702,-0.122189614607,49.1686087439,0.10862951003,0.0890516317827,0.0,-0.140005882007,0.0,0.437709941056,0.0,1.6997738298,0.0,-0.0163706011255,0.0,-0.000603094413368,0.0,-0.0287858269239,0.0,0.0736414157677,0.0,-0.0347396899316,0.0,0.0,0.0,0.0,-50.0,0.0,-15.24,0.00230154196664,0.0,-0.00383606751517,-50.0,-0.0,0.0,-0.0,-50.0,253628.8,0.0,0.0,0.0,0.0,0.0,0.0
1402753961010487737,3,-11.6183281801,-0.00591572024346,-12.4557980753,-0.122189614607,49.2616054694,0.10862951003,0.104873281459,0.0,-0.136034019606,0.0,0.439902293055,0.0,1.69921748087,0.0,-0.0218328231435,0.0,0.00026296097439,0.0,-0.0339734201354,0.0,0.0757838949548,0.0,-0.0189844597979,0.0,0.0,0.0,0.0,-50.0,0.0,-15.24,0.00230154196664,0.0,-0.00537029107169,-50.0,-0.0,0.0,-0.0,-50.0,253628.8,0.0,0.0,0.0,0.0,0.0,0.0
1402753961030189754,3,-11.6183281801,-0.00591572024346,-12.4557980753,-0.122189614607,49.2616054694,0.10862951003,0.104873281459,0.0,-0.136034019606,0.0,0.439902293055,0.0,1.69921748087,0.0,-0.0218328231435,0.0,0.00026296097439,0.0,-0.0339734201354,0.0,0.0757838949548,0.0,-0.0189844597979,0.0,0.0,0.0,0.0,-50.0,0.0,-15.24,0.00230154196664,0.0,-0.00537029107169,-50.0,-0.0,0.0,-0.0,-50.0,253628.8,0.0,0.0,0.0,0.0,0.0,0.0
1402753961050421178,3,-11.6124031461,-0.00591572024346,-12.5004362997,-0.122189614607,49.3437626707,0.10862951003,0.108481624275,0.0,-0.14865461153,0.0,0.441848201276,0.0,1.69837187656,0.0,-0.0223896388853,0.0,-0.000306963004092,0.0,-0.0228659958966,0.0,0.0765709971635,0.0,-0.0204938194653,0.0,0.0,0.0,0.0,-50.0,0.0,-15.24,0.00230154196664,0.0,-0.00537029107169,-50.0,-0.0,0.0,-0.0,-50.0,253628.8,0.0,0.0,0.0,0.0,0.0,0.0
1402753961070291743,3,-11.6124031461,-0.00591572024346,-12.5004362997,-0.122189614607,49.3437626707,0.10862951003,0.108481624275,0.0,-0.14865461153,0.0,0.441848201276,0.0,1.69837187656,0.0,-0.0223896388853,0.0,-0.000306963004092,0.0,-0.0228659958966,0.0,0.0765709971635,0.0,-0.0204938194653,0.0,0.0,0.0,0.0,-50.0,0.0,-15.24,0.00230154196664,0.0,-0.00537029107169,-50.0,-0.0,0.0,-0.0,-50.0,253628.8,0.0,0.0,0.0,0.0,0.0,0.0
1402753961090351311,3,-11.607962779,-0.00591572024346,-12.5474338297,-0.122189614607,49.4412392463,0.10862951003,0.100879091259,0.0,-0.159296738874,0.0,0.449269325884,0.0,1.69622844441,0.0,-0.0270755398649,0.0,-0.00253551720411,0.0,-0.0114380071908,0.0,0.0778059862682,0.0,-0.0129202872924,0.0,0.0,0.0,0.0,-50.0,0.0,-15.24,0.00230154196664,0.0,-0.00537029107169,-50.0,-0.0,0.0,-0.0,-50.0,253628.8,0.0,0.0,0.0,0.0,0.0,0.0
1402753961110323789,3,-11.607962779,-0.00591572024346,-12.5474338297,-0.122189614607,49.4412392463,0.10862951003,0.100879091259,0.0,-0.159296738874,0.0,0.449269325884,0.0,1.69622844441,0.0,-0.0270755398649,0.0,-0.00253551720411,0.0,-0.0114380071908,0.0,0.0778059862682,0.0,-0.0129202872924,0.0,0.0,0.0,0.0,-50.0,0.0,-15.24,0.00230154196664,0.0,-0.00537029107169,-50.0,-0.0,0.0,-0.0,-50.0,253628.8,0.0,0.0,0.0,0.0,0.0,0.0
1402753961130126355,3,-11.5963792082,-0.00591572024346,-12.5980034637,-0.122189614607,49.535118575,0.10862951003,0.112842976177,0.0,-0.175617439012,0.0,0.4554183189,0.0,1.69501353863,0.0,-0.0383414567607,0.0,-0.00197793411173,0.0,-0.00769747346354,0.0,0.077638101786,0.0,-0.00550056246715,0.0,0.0,0.0,0.0,-50.0,0.0,-15.24,0.00230154196664,0.0,-0.00537029107169,-50.0,-0.0,0.0,-0.0,-50.0,253628.8,0.0,0.0,0.0,0.0,0.0,0.0
1402753961150376884,3,-11.5963792082,-0.00591572024346,-12.5980034637,-0.122189614607,49.535118575,0.10862951003,0.112842976177,0.0,-0.175617439012,0.0,0.4554183189,0.0,1.69501353863,0.0,-0.0383414567607,0.0,-0.00197793411173,0.0,-0.00769747346354,0.0,0.077638101786,0.0,-0.00550056246715,0.0,0.0,0.0,0.0,-50.0,0.0,-15.24,0.00230154196664,0.0,-0.00537029107169,-50.0,-0.0,0.0,-0.0,-50.0,253628.8,0.0,0.0,0.0,0.0,0.0,0.0
1402753961170286984,3,-11.5938922722,-0.00591572024346,-12.6018714041,-0.122189614607,49.5447539018,0.10862951003,0.115436013362,0.0,-0.180792937571,0.0,0.455499760011,0.0,1.69435362623,0.0,-0.0326521067292,0.0,-0.00213287226064,0.0,0.00684261880904,0.0,0.0776253622495,0.0,-0.00525225827841,0.0,0.0,0.0,0.0,-50.0,0.0,-15.24,0.00230154196664,0.0,-0.00537029107169,-50.0,-0.0,0.0,-0.0,-50.0,253628.8,0.0,0.0,0.0,0.0,0.0,0.0
1402753961190707477,3,-11.5938922722,-0.00591572024346,-12.6018714041,-0.122189614607,49.5447539018,0.10862951003,0.115436013362,0.0,-0.180792937571,0.0,0.455499760011,0.0,1.69435362623,0.0,-0.0326521067292,0.0,-0.00213287226064,0.0,0.00684261880904,0.0,0.0776253622495,0.0,-0.00525225827841,0.0,0.0,0.0,0.0,-50.0,0.0,-15.24,0.00230154196664,0.0,-0.00537029107169,-50.0,-0.0,0.0,-0.0,-50.0,253628.8,0.0,0.0,0.0,0.0,0.0,0.0
1402753961210425767,3,-11.5884529623,-0.00591572024346,-12.6411601447,-0.122189614607,49.6433275112,0.10862951003,0.109842977421,0.0,-0.1710785387,0.0,0.461959972981,0.0,1.69220176931,0.0,-0.0398904921449,0.0,-0.00300922498025,0.0,0.00537822850321,0.0,0.0790379825014,0.0,0.0106729638551,0.0,0.0,0.0,0.0,-50.0,0.0,-15.24,0.00230154196664,0.0,-0.00537029107169,-50.0,-0.0,0.0,-0.0,-50.0,253628.8,0.0,0.0,0.0,0.0,0.0,0.0
1402753961231128655,3,-11.5884529623,-0.00591572024346,-12.6411601447,-0.122189614607,49.6433275112,0.10862951003,0.109842977421,0.0,-0.1710785387,0.0,0.461959972981,0.0,1.69220176931,0.0,-0.0398904921449,0.0,-0.00300922498025,0.0,0.00537822850321,0.0,0.0790379825014,0.0,0.0106729638551,0.0,0.0,0.0,0.0,-50.0,0.0,-15.24,0.00230154196664,0.0,-0.00537029107169,-50.0,-0.0,0.0,-0.0,-50.0,253628.8,0.0,0.0,0.0,0.0,0.0,0.0
1402753961250386920,3,-11.5748463209,-0.00591572024346,-12.693911053,-0.122189614607,49.7430890725,0.10862951003,0.123703913059,0.0,-0.187687523504,0.0,0.467399578301,0.0,1.69132746405,0.0,-0.042549055167,0.0,-0.00169104817775,0.0,0.0188826821495,0.0,0.0775250023329,0.0,0.00266966300403,0.0,0.0,0.0,0.0,-50.0,0.0,-15.24,0.00230154196664,0.0,-0.00537029107169,-50.0,-0.0,0.0,-0.0,-50.0,253628.8,0.0,0.0,0.0,0.0,0.0,0.0
1402753961270291566,3,-11.5748463209,-0.00591572024346,-12.693911053,-0.122189614607,49.7430890725,0.10862951003,0.123703913059,0.0,-0.187687523504,0.0,0.467399578301,0.0,1.69132746405,0.0,-0.042549055167,0.0,-0.00169104817775,0.0,0.0188826821495,0.0,0.0775250023329,0.0,0.00266966300403,0.0,0.0,0.0,0.0,-50.0,0.0,-15.24,0.00230154196664,0.0,-0.00537029107169,-50.0,-0.0,0.0,-0.0,-50.0,253628.8,0.0,0.0,0.0,0.0,0.0,0.0
1402753961290701274,3,-11.571976156,-0.00591572024346,-12.7365592226,-0.122189614607,49.8209575322,0.10862951003,0.121525254062,0.0,-0.196213279402,0.0,0.468020067717,0.0,1.6891995243,0.0,-0.0453010390214,0.0,-0.00187146158435,0.0,0.0210296265935,0.0,0.0765940662517,0.0,0.00717325259848,0.0,0.0,0.0,0.0,-50.0,0.0,-15.24,0.00230154196664,0.0,-0.00537029107169,-50.0,-0.0,0.0,-0.0,-50.0,253628.8,0.0,0.0,0.0,0.0,0.0,0.0
1402753961310276466,3,-11.571976156,-0.00591572024346,-12.7365592226,-0.122189614607,49.8209575322,0.10862951003,0.121525254062,0.0,-0.196213279402,0.0,0.468020067717,0.0,1.6891995243,0.0,-0.0453010390214,0.0,-0.00187146158435,0.0,0.0210296265935,0.0,0.0765940662517,0.0,0.00717325259848,0.0,0.0,0.0,0.0,-50.0,0.0,-15.24,0.00230154196664,0.0,-0.00537029107169,-50.0,-0.0,0.0,-0.0,-50.0,253628.8,0.0,0.0,0.0,0.0,0.0,0.0
1402753961330093591,3,-11.5671253912,-0.00591572024346,-12.74458324,-0.122189614607,49.8397914263,0.10862951003,0.125594002103,0.0,-0.201689426296,0.0,0.470995619126,0.0,1.68740345913,0.0,-0.0437439485443,0.0,-0.00162738279162,0.0,0.024339916672,0.0,0.0755478578438,0.0,0.0149366031105,0.0,0.0,0.0,0.0,-50.0,0.0,-15.24,0.00230154196664,0.0,-0.00537029107169,-50.0,-0.0,0.0,-0.0,-50.0,253628.8,0.0,0.0,0.0,0.0,0.0,0.0
1402753961350573454,3,-11.5671253912,-0.00591572024346,-12.74458324,-0.122189614607,49.8397914263,0.10862951003,0.125594002103,0.0,-0.201689426296,0.0,0.470995619126,0.0,1.68740345913,0.0,-0.0437439485443,0.0,-0.00162738279162,0.0,0.024339916672,0.0,0.0755478578438,0.0,0.0149366031105,0.0,0.0,0.0,0.0,-50.0,0.0,-15.24,0.00230154196664,0.0,-0.00537029107169,-50.0,-0.0,0.0,-0.0,-50.0,253628.8,0.0,0.0,0.0,0.0,0.0,0.0
1402753961370382388,3,-11.5547369756,-0.00591572024346,-12.7929797629,-0.122189614607,49.9417298067,0.10862951003,0.131834735688,0.0,-0.209926689893,0.0,0.477071485709,0.0,1.68558464964,0.0,-0.0469126729629,0.0,-0.000771564791867,0.0,0.0217033118576,0.0,0.0743825433944,0.0,0.0184114201523,0.0,0.0,0.0,0.0,-50.0,0.0,-15.24,0.00230154196664,0.0,-0.00537029107169,-50.0,-0.0,0.0,-0.0,-50.0,253628.8,0.0,0.0,0.0,0.0,0.0,0.0
1402753961390499513,3,-11.5547369756,-0.00591572024346,-12.7929797629,-0.122189614607,49.9417298067,0.10862951003,0.131834735688,0.0,-0.209926689893,0.0,0.477071485709,0.0,1.68558464964,0.0,-0.0469126729629,0.0,-0.000771564791867,0.0,0.0217033118576,0.0,0.0743825433944,0.0,0.0184114201523,0.0,0.0,0.0,0.0,-50.0,0.0,-15.24,0.00230154196664,0.0,-0.00537029107169,-50.0,-0.0,0.0,-0.0,-50.0,253628.8,0.0,0.0,0.0,0.0,0.0,0.0
1402753961410608922,3,-11.5510519637,-0.00591572024346,-12.8275316645,-0.122189614607,50.0091597637,0.10862951003,0.129647313328,0.0,-0.210364378681,0.0,0.473408413807,0.0,1.68323190617,0.0,-0.0545287556005,0.0,-0.000589887697728,0.0,0.0229277561246,0.0,0.0738659940139,0.0,0.0167241523198,0.0,0.0,0.0,0.0,-50.0,0.0,-15.24,0.00230154196664,0.0,-0.00537029107169,-50.0,-0.0,0.0,-0.0,-50.0,253628.8,0.0,0.0,0.0,0.0,0.0,0.0
1402753961431805603,3,-11.5510519637,-0.00591572024346,-12.8275316645,-0.122189614607,50.0091597637,0.10862951003,0.129647313328,0.0,-0.210364378681,0.0,0.473408413807,0.0,1.68323190617,0.0,-0.0545287556005,0.0,-0.000589887697728,0.0,0.0229277561246,0.0,0.0738659940139,0.0,0.0167241523198,0.0,0.0,0.0,0.0,-50.0,0.0,-15.24,0.00230154196664,0.0,-0.00537029107169,-50.0,-0.0,0.0,-0.0,-50.0,253628.8,0.0,0.0,0.0,0.0,0.0,0.0
1402753961450305923,3,-11.5446512905,-0.00591572024346,-12.8777407399,-0.122189614607,50.0827648332,0.10862951003,0.130470835057,0.0,-0.239268029765,0.0,0.471724949013,0.0,1.68103074896,0.0,-0.0591516513456,0.0,-0.000558829310613,0.0,0.0243619778543,0.0,0.0709124437442,0.0,0.00306573475151,0.0,0.0,0.0,0.0,-50.0,0.0,-15.24,0.00230154196664,0.0,-0.00537029107169,-50.0,-0.0,0.0,-0.0,-50.0,253628.8,0.0,0.0,0.0,0.0,0.0,0.0
1402753961471376860,3,-11.5446512905,-0.00591572024346,-12.8777407399,-0.122189614607,50.0827648332,0.10862951003,0.130470835057,0.0,-0.239268029765,0.0,0.471724949013,0.0,1.68103074896,0.0,-0.0591516513456,0.0,-0.000558829310613,0.0,0.0243619778543,0.0,0.0709124437442,0.0,0.00306573475151,0.0,0.0,0.0,0.0,-50.0,0.0,-15.24,0.00230154196664,0.0,-0.00537029107169,-50.0,-0.0,0.0,-0.0,-50.0,253628.8,0.0,0.0,0.0,0.0,0.0,0.0
1402753961490102133,3,-11.5333669729,-0.00591572024346,-12.9069608742,-0.122189614607,50.1501131917,0.10862951003,0.148337912162,0.0,-0.22976912609,0.0,0.469549836771,0.0,1.67939951666,0.0,-0.0617333992618,0.0,0.00175066601921,0.0,0.00960329301029,0.0,0.0713075462521,0.0,0.0107871414328,0.0,0.0,0.0,0.0,-50.0,0.0,-15.24,0.00230154196664,0.0,-0.00537029107169,-50.0,-0.0,0.0,-0.0,-50.0,253628.8,0.0,0.0,0.0,0.0,0.0,0.0
1402753961510474076,3,-11.5333669729,-0.00591572024346,-12.9069608742,-0.122189614607,50.1501131917,0.10862951003,0.148337912162,0.0,-0.22976912609,0.0,0.469549836771,0.0,1.67939951666,0.0,-0.0617333992618,0.0,0.00175066601921,0.0,0.00960329301029,0.0,0.0713075462521,0.0,0.0107871414328,0.0,0.0,0.0,0.0,-50.0,0.0,-15.24,0.00230154196664,0.0,-0.00537029107169,-50.0,-0.0,0.0,-0.0,-50.0,253628.8,0.0,0.0,0.0,0.0,0.0,0.0
1402753961530847737,3,-11.5276299348,-0.00591572024346,-12.9161801215,-0.122189614607,50.1685769872,0.10862951003,0.150603779419,0.0,-0.236481807535,0.0,0.467440346276,0.0,1.67709472723,0.0,-0.0655421194361,0.0,0.00202466342771,0.0,0.0175758937931,0.0,0.0709228292666,0.0,0.00891470979936,0.0,0.0,0.0,0.0,-50.0,0.0,-15.24,0.00230154196664,0.0,-0.00537029107169,-50.0,-0.0,0.0,-0.0,-50.0,253628.8,0.0,0.0,0.0,0.0,0.0,0.0
1402753961550546827,3,-11.5276299348,-0.00591572024346,-12.9161801215,-0.122189614607,50.1685769872,0.10862951003,0.150603779419,0.0,-0.236481807535,0.0,0.467440346276,0.0,1.67709472723,0.0,-0.0655421194361,0.0,0.00202466342771,0.0,0.0175758937931,0.0,0.0709228292666,0.0,0.00891470979936,0.0,0.0,0.0,0.0,-50.0,0.0,-15.24,0.00230154196664,0.0,-0.00537029107169,-50.0,-0.0,0.0,-0.0,-50.0,253628.8,0.0,0.0,0.0,0.0,0.0,0.0
1402753961570591121,3,-11.5215655016,-0.00591572024346,-12.9256500383,-0.122189614607,50.18732558,0.10862951003,0.152664797353,0.0,-0.240439841183,0.0,0.470349298892,0.0,1.67452274975,0.0,-0.0662481518645,0.0,0.00224994110781,0.0,0.000985286393152,0.0,0.0707939578177,0.0,0.00509427977884,0.0,0.0,0.0,0.0,-50.0,0.0,-15.24,0.00230154196664,0.0,-0.00537029107169,-50.0,-0.0,0.0,-0.0,-50.0,253628.8,0.0,0.0,0.0,0.0,0.0,0.0
1402753961590822038,3,-11.5215655016,-0.00591572024346,-12.9256500383,-0.122189614607,50.18732558,0.10862951003,0.152664797353,0.0,-0.240439841183,0.0,0.470349298892,0.0,1.67452274975,0.0,-0.0662481518645,0.0,0.00224994110781,0.0,0.000985286393152,0.0,0.0707939578177,0.0,0.00509427977884,0.0,0.0,0.0,0.0,-50.0,0.0,-15.24,0.00230154196664,0.0,-0.00537029107169,-50.0,-0.0,0.0,-0.0,-50.0,253628.8,0.0,0.0,0.0,0.0,0.0,0.0
1402753961610986361,3,-11.5207329733,-0.00591572024346,-12.9601780177,-0.122189614607,50.2588244042,0.10862951003,0.139920305353,0.0,-0.241464311505,0.0,0.469629590485,0.0,1.6708446697,0.0,-0.0754824444827,0.0,0.000885989724972,0.0,-0.00550597636384,0.0,0.0714594006002,0.0,0.00662156538338,0.0,0.0,0.0,0.0,-50.0,0.0,-15.24,0.00230154196664,0.0,-0.00537029107169,-50.0,-0.0,0.0,-0.0,-50.0,253628.8,0.0,0.0,0.0,0.0,0.0,0.0
1402753961630450905,3,-11.5207329733,-0.00591572024346,-12.9601780177,-0.122189614607,50.2588244042,0.10862951003,0.139920305353,0.0,-0.241464311505,0.0,0.469629590485,0.0,1.6708446697,0.0,-0.0754824444827,0.0,0.000885989724972,0.0,-0.00550597636384,0.0,0.0714594006002,0.0,0.00662156538338,0.0,0.0,0.0,0.0,-50.0,0.0,-15.24,0.00230154196664,0.0,-0.00537029107169,-50.0,-0.0,0.0,-0.0,-50.0,253628.8,0.0,0.0,0.0,0.0,0.0,0.0
1402753961650182872,3,-11.5180865275,-0.00591572024346,-12.9957056895,-0.122189614607,50.3203084073,0.10862951003,0.138704739854,0.0,-0.249374095165,0.0,0.468221613491,0.0,1.66772476952,0.0,-0.0763382924121,0.0,0.000501474034495,0.0,-0.00836600395144,0.0,0.0715354264244,0.0,-0.00338789145532,0.0,0.0,0.0,0.0,-50.0,0.0,-15.24,0.00230154196664,0.0,-0.00537029107169,-50.0,-0.0,0.0,-0.0,-50.0,253628.8,0.0,0.0,0.0,0.0,0.0,0.0
1402753961670203091,3,-11.5180865275,-0.00591572024346,-12.9957056895,-0.122189614607,50.3203084073,0.10862951003,0.138704739854,0.0,-0.249374095165,0.0,0.468221613491,0.0,1.66772476952,0.0,-0.0763382924121,0.0,0.000501474034495,0.0,-0.00836600395144,0.0,0.0715354264244,0.0,-0.00338789145532,0.0,0.0,0.0,0.0,-50.0,0.0,-15.24,0.00230154196664,0.0,-0.00537029107169,-50.0,-0.0,0.0,-0.0,-50.0,253628.8,0.0,0.0,0.0,0.0,0.0,0.0
1402753961690485450,3,-11.5093327007,-0.00591572024346,-13.0346920369,-0.122189614607,50.3899127054,0.10862951003,0.147593176838,0.0,-0.262326063869,0.0,0.468794422036,0.0,1.66500721607,0.0,-0.0763290071579,0.0,0.00123997724428,0.0,-0.0111465919303,0.0,0.0712045267454,0.0,-0.00515774730295,0.0,0.0,0.0,0.0,-50.0,0.0,-15.24,0.00230154196664,0.0,-0.00537029107169,-50.0,-0.0,0.0,-0.0,-50.0,253628.8,0.0,0.0,0.0,0.0,0.0,0.0
1402753961710884243,3,-11.5093327007,-0.00591572024346,-13.0346920369,-0.122189614607,50.3899127054,0.10862951003,0.147593176838,0.0,-0.262326063869,0.0,0.468794422036,0.0,1.66500721607,0.0,-0.0763290071579,0.0,0.00123997724428,0.0,-0.0111465919303,0.0,0.0712045267454,0.0,-0.00515774730295,0.0,0.0,0.0,0.0,-50.0,0.0,-15.24,0.00230154196664,0.0,-0.00537029107169,-50.0,-0.0,0.0,-0.0,-50.0,253628.8,0.0,0.0,0.0,0.0,0.0,0.0
1402753961730101192,3,-11.5042721034,-0.00591572024346,-13.0632893538,-0.122189614607,50.457587002,0.10862951003,0.147590915369,0.0,-0.257776530861,0.0,0.47005221947,0.0,1.66154277433,0.0,-0.0788179078643,0.0,0.000875165247082,0.0,-0.010675413142,0.0,0.0725855934843,0.0,0.0031994798509,0.0,0.0,0.0,0.0,-50.0,0.0,-15.24,0.00230154196664,0.0,-0.00537029107169,-50.0,-0.0,0.0,-0.0,-50.0,253628.8,0.0,0.0,0.0,0.0,0.0,0.0
1402753961750211315,3,-11.5042721034,-0.00591572024346,-13.0632893538,-0.122189614607,50.457587002,0.10862951003,0.147590915369,0.0,-0.257776530861,0.0,0.47005221947,0.0,1.66154277433,0.0,-0.0788179078643,0.0,0.000875165247082,0.0,-0.010675413142,0.0,0.0725855934843,0.0,0.0031994798509,0.0,0.0,0.0,0.0,-50.0,0.0,-15.24,0.00230154196664,0.0,-0.00537029107169,-50.0,-0.0,0.0,-0.0,-50.0,253628.8,0.0,0.0,0.0,0.0,0.0,0.0
1402753961770172659,3,-11.4996283792,-0.00591572024346,-13.0928789103,-0.122189614607,50.505119668,0.10862951003,0.156688868467,0.0,-0.265984723694,0.0,0.472735929395,0.0,1.65866386871,0.0,-0.0796090824727,0.0,0.00157070202089,0.0,-0.00854492746554,0.0,0.0726085084122,0.0,0.00369130666674,0.0,0.0,0.0,0.0,-50.0,0.0,-15.24,0.00230154196664,0.0,-0.00537029107169,-50.0,-0.0,0.0,-0.0,-50.0,253628.8,0.0,0.0,0.0,0.0,0.0,0.0
1402753961790099783,3,-11.4996283792,-0.00591572024346,-13.0928789103,-0.122189614607,50.505119668,0.10862951003,0.156688868467,0.0,-0.265984723694,0.0,0.472735929395,0.0,1.65866386871,0.0,-0.0796090824727,0.0,0.00157070202089,0.0,-0.00854492746554,0.0,0.0726085084122,0.0,0.00369130666674,0.0,0.0,0.0,0.0,-50.0,0.0,-15.24,0.00230154196664,0.0,-0.00537029107169,-50.0,-0.0,0.0,-0.0,-50.0,253628.8,0.0,0.0,0.0,0.0,0.0,0.0
1402753961810263389,3,-11.5005841993,-0.00591572024346,-13.1298915377,-0.122189614607,50.5643504842,0.10862951003,0.147313435382,0.0,-0.28327761242,0.0,0.474475680937,0.0,1.65478142319,0.0,-0.0853730241896,0.0,0.000174661926164,0.0,-0.00913843471462,0.0,0.0719897900237,0.0,0.0083054959807,0.0,0.0,0.0,0.0,-50.0,0.0,-15.24,0.00230154196664,0.0,-0.00537029107169,-50.0,-0.0,0.0,-0.0,-50.0,253628.8,0.0,0.0,0.0,0.0,0.0,0.0
1402753961830316559,3,-11.5005841993,-0.00591572024346,-13.1298915377,-0.122189614607,50.5643504842,0.10862951003,0.147313435382,0.0,-0.28327761242,0.0,0.474475680937,0.0,1.65478142319,0.0,-0.0853730241896,0.0,0.000174661926164,0.0,-0.00913843471462,0.0,0.0719897900237,0.0,0.0083054959807,0.0,0.0,0.0,0.0,-50.0,0.0,-15.24,0.00230154196664,0.0,-0.00537029107169,-50.0,-0.0,0.0,-0.0,-50.0,253628.8,0.0,0.0,0.0,0.0,0.0,0.0
1402753961850987814,3,-11.4965481278,-0.00591572024346,-13.1527766617,-0.122189614607,50.6088147652,0.10862951003,0.160555327932,0.0,-0.28216304788,0.0,0.471196914183,0.0,1.65199373005,0.0,-0.0798991388343,0.0,0.00147074314401,0.0,0.000765467010332,0.0,0.0728170369386,0.0,-0.00542250689137,0.0,0.0,0.0,0.0,-50.0,0.0,-15.24,0.00230154196664,0.0,-0.00537029107169,-50.0,-0.0,0.0,-0.0,-50.0,253628.8,0.0,0.0,0.0,0.0,0.0,0.0
1402753961870129450,3,-11.4965481278,-0.00591572024346,-13.1527766617,-0.122189614607,50.6088147652,0.10862951003,0.160555327932,0.0,-0.28216304788,0.0,0.471196914183,0.0,1.65199373005,0.0,-0.0798991388343,0.0,0.00147074314401,0.0,0.000765467010332,0.0,0.0728170369386,0.0,-0.00542250689137,0.0,0.0,0.0,0.0,-50.0,0.0,-15.24,0.00230154196664,0.0,-0.00537029107169,-50.0,-0.0,0.0,-0.0,-50.0,253628.8,0.0,0.0,0.0,0.0,0.0,0.0
1402753961890443330,3,-11.4973684176,-0.00591572024346,-13.1908377697,-0.122189614607,50.6700477422,0.10862951003,0.153695517832,0.0,-0.298537790599,0.0,0.473635521542,0.0,1.64812802588,0.0,-0.0879021176364,0.0,0.000378895718936,0.0,-0.00150072442467,0.0,0.0721254228398,0.0,-0.00823439594911,0.0,0.0,0.0,0.0,-50.0,0.0,-15.24,0.00230154196664,0.0,-0.00537029107169,-50.0,-0.0,0.0,-0.0,-50.0,253628.8,0.0,0.0,0.0,0.0,0.0,0.0
1402753961910457280,3,-11.4973684176,-0.00591572024346,-13.1908377697,-0.122189614607,50.6700477422,0.10862951003,0.153695517832,0.0,-0.298537790599,0.0,0.473635521542,0.0,1.64812802588,0.0,-0.0879021176364,0.0,0.000378895718936,0.0,-0.00150072442467,0.0,0.0721254228398,0.0,-0.00823439594911,0.0,0.0,0.0,0.0,-50.0,0.0,-15.24,0.00230154196664,0.0,-0.00537029107169,-50.0,-0.0,0.0,-0.0,-50.0,253628.8,0.0,0.0,0.0,0.0,0.0,0.0
1402753961930345068,3,-11.4911434928,-0.00591572024346,-13.2027460799,-0.122189614607,50.6888128929,0.10862951003,0.158582204942,0.0,-0.304651745497,0.0,0.475333120626,0.0,1.64475840739,0.0,-0.0851104637883,0.0,0.000268470686078,0.0,-0.0023080663723,0.0,0.0721177939439,0.0,0.0129022526279,0.0,0.0,0.0,0.0,-50.0,0.0,-15.24,0.00230154196664,0.0,-0.00537029107169,-50.0,-0.0,0.0,-0.0,-50.0,253628.8,0.0,0.0,0.0,0.0,0.0,0.0
1402753961950290699,3,-11.4911434928,-0.00591572024346,-13.2027460799,-0.122189614607,50.6888128929,0.10862951003,0.158582204942,0.0,-0.304651745497,0.0,0.475333120626,0.0,1.64475840739,0.0,-0.0851104637883,0.0,0.000268470686078,0.0,-0.0023080663723,0.0,0.0721177939439,0.0,0.0129022526279,0.0,0.0,0.0,0.0,-50.0,0.0,-15.24,0.00230154196664,0.0,-0.00537029107169,-50.0,-0.0,0.0,-0.0,-50.0,253628.8,0.0,0.0,0.0,0.0,0.0,0.0
1402753961970319829,3,-11.4889257379,-0.00591572024346,-13.229295292,-0.122189614607,50.7400884674,0.10862951003,0.163185868493,0.0,-0.305665123143,0.0,0.476387764214,0.0,1.64124946704,0.0,-0.0838486532792,0.0,0.000429581880024,0.0,0.00799419352999,0.0,0.072495740013,0.0,-0.00240277485639,0.0,0.0,0.0,0.0,-50.0,0.0,-15.24,0.00230154196664,0.0,-0.00537029107169,-50.0,-0.0,0.0,-0.0,-50.0,253628.8,0.0,0.0,0.0,0.0,0.0,0.0
1402753961990759320,3,-11.4889257379,-0.00591572024346,-13.229295292,-0.122189614607,50.7400884674,0.10862951003,0.163185868493,0.0,-0.305665123143,0.0,0.476387764214,0.0,1.64124946704,0.0,-0.0838486532792,0.0,0.000429581880024,0.0,0.00799419352999,0.0,0.072495740013,0.0,-0.00240277485639,0.0,0.0,0.0,0.0,-50.0,0.0,-15.24,0.00230154196664,0.0,-0.00537029107169,-50.0,-0.0,0.0,-0.0,-50.0,253628.8,0.0,0.0,0.0,0.0,0.0,0.0
1402753962010312043,3,-11.4905233152,-0.00591572024346,-13.2600888255,-0.122189614607,50.780776536,0.10862951003,0.164324067808,0.0,-0.31725877589,0.0,0.475194802308,0.0,1.63754315196,0.0,-0.0880513744681,0.0,9.31869634916e-05,0.0,0.000981703259653,0.0,0.0716891954489,0.0,0.00174796464207,0.0,0.0,0.0,0.0,-50.0,0.0,-15.24,0.00230154196664,0.0,-0.00537029107169,-50.0,-0.0,0.0,-0.0,-50.0,253628.8,0.0,0.0,0.0,0.0,0.0,0.0
1402753962030211013,3,-11.4905233152,-0.00591572024346,-13.2600888255,-0.122189614607,50.780776536,0.10862951003,0.164324067808,0.0,-0.31725877589,0.0,0.475194802308,0.0,1.63754315196,0.0,-0.0880513744681,0.0,9.31869634916e-05,0.0,0.000981703259653,0.0,0.0716891954489,0.0,0.00174796464207,0.0,0.0,0.0,0.0,-50.0,0.0,-15.24,0.00230154196664,0.0,-0.00537029107169,-50.0,-0.0,0.0,-0.0,-50.0,253628.8,0.0,0.0,0.0,0.0,0.0,0.0
1402753962050077446,3,-11.4943492891,-0.00591572024346,-13.2868543274,-0.122189614607,50.8155659517,0.10862951003,0.159744538549,0.0,-0.327677208486,0.0,0.470723244165,0.0,1.63359913848,0.0,-0.0939643486928,0.0,-0.000876579658765,0.0,0.00773850146498,0.0,0.0711279281856,0.0,-0.0126274001773,0.0,0.0,0.0,0.0,-50.0,0.0,-15.24,0.00230154196664,0.0,-0.00537029107169,-50.0,-0.0,0.0,-0.0,-50.0,253628.8,0.0,0.0,0.0,0.0,0.0,0.0
1402753962070584813,3,-11.4943492891,-0.00591572024346,-13.2868543274,-0.122189614607,50.8155659517,0.10862951003,0.159744538549,0.0,-0.327677208486,0.0,0.470723244165,0.0,1.63359913848,0.0,-0.0939643486928,0.0,-0.000876579658765,0.0,0.00773850146498,0.0,0.0711279281856,0.0,-0.0126274001773,0.0,0.0,0.0,0.0,-50.0,0.0,-15.24,0.00230154196664,0.0,-0.00537029107169,-50.0,-0.0,0.0,-0.0,-50.0,253628.8,0.0,0.0,0.0,0.0,0.0,0.0
1402753962090702967,3,-11.4913273782,-0.00591572024346,-13.3061159521,-0.122189614607,50.8483091672,0.10862951003,0.17500664113,0.0,-0.323009313858,0.0,0.46749401079,0.0,1.63024835493,0.0,-0.0922247184336,0.0,0.000441794843927,0.0,0.00653799787775,0.0,0.0717546825644,0.0,-0.0138760548862,0.0,0.0,0.0,0.0,-50.0,0.0,-15.24,0.00230154196664,0.0,-0.00537029107169,-50.0,-0.0,0.0,-0.0,-50.0,253628.8,0.0,0.0,0.0,0.0,0.0,0.0
1402753962110293075,3,-11.4913273782,-0.00591572024346,-13.3061159521,-0.122189614607,50.8483091672,0.10862951003,0.17500664113,0.0,-0.323009313858,0.0,0.46749401079,0.0,1.63024835493,0.0,-0.0922247184336,0.0,0.000441794843927,0.0,0.00653799787775,0.0,0.0717546825644,0.0,-0.0138760548862,0.0,0.0,0.0,0.0,-50.0,0.0,-15.24,0.00230154196664,0.0,-0.00537029107169,-50.0,-0.0,0.0,-0.0,-50.0,253628.8,0.0,0.0,0.0,0.0,0.0,0.0
1402753962130247207,3,-11.4842247595,-0.00591572024346,-13.3190210512,-0.122189614607,50.866790419,0.10862951003,0.178410093363,0.0,-0.32815030834,0.0,0.467222550691,0.0,1.6265107704,0.0,-0.0931017250756,0.0,3.14599518629e-05,0.0,0.00394286599882,0.0,0.0714206602733,0.0,-0.00331637541408,0.0,0.0,0.0,0.0,-50.0,0.0,-15.24,0.00230154196664,0.0,-0.00537029107169,-50.0,-0.0,0.0,-0.0,-50.0,253628.8,0.0,0.0,0.0,0.0,0.0,0.0
1402753962150783900,3,-11.4842247595,-0.00591572024346,-13.3190210512,-0.122189614607,50.866790419,0.10862951003,0.178410093363,0.0,-0.32815030834,0.0,0.467222550691,0.0,1.6265107704,0.0,-0.0931017250756,0.0,3.14599518629e-05,0.0,0.00394286599882,0.0,0.0714206602733,0.0,-0.00331637541408,0.0,0.0,0.0,0.0,-50.0,0.0,-15.24,0.00230154196664,0.0,-0.00537029107169,-50.0,-0.0,0.0,-0.0,-50.0,253628.8,0.0,0.0,0.0,0.0,0.0,0.0
1402753962170276300,3,-11.491319072,-0.00591572024346,-13.3427451402,-0.122189614607,50.8899327508,0.10862951003,0.169074264245,0.0,-0.336158895337,0.0,0.466191074699,0.0,1.62213448943,0.0,-0.0999357662707,0.0,-0.00120602505599,0.0,0.00390994335978,0.0,0.0710494050884,0.0,-0.000572007038559,0.0,0.0,0.0,0.0,-50.0,0.0,-15.24,0.00230154196664,0.0,-0.00537029107169,-50.0,-0.0,0.0,-0.0,-50.0,253628.8,0.0,0.0,0.0,0.0,0.0,0.0
1402753962190549672,3,-11.491319072,-0.00591572024346,-13.3427451402,-0.122189614607,50.8899327508,0.10862951003,0.169074264245,0.0,-0.336158895337,0.0,0.466191074699,0.0,1.62213448943,0.0,-0.0999357662707,0.0,-0.00120602505599,0.0,0.00390994335978,0.0,0.0710494050884,0.0,-0.000572007038559,0.0,0.0,0.0,0.0,-50.0,0.0,-15.24,0.00230154196664,0.0,-0.00537029107169,-50.0,-0.0,0.0,-0.0,-50.0,253628.8,0.0,0.0,0.0,0.0,0.0,0.0
1402753962210783992,3,-11.4860160719,-0.00591572024346,-13.3710003334,-0.122189614607,50.9389878905,0.10862951003,0.176876446333,0.0,-0.339391084052,0.0,0.465246876785,0.0,1.6182550056,0.0,-0.0923408947909,0.0,-0.00064268913362,0.0,-0.00246673140575,0.0,0.0711486507743,0.0,-0.00501348118247,0.0,0.0,0.0,0.0,-50.0,0.0,-15.24,0.00230154196664,0.0,-0.00537029107169,-50.0,-0.0,0.0,-0.0,-50.0,253628.8,0.0,0.0,0.0,0.0,0.0,0.0
1402753962230111353,3,-11.4860160719,-0.00591572024346,-13.3710003334,-0.122189614607,50.9389878905,0.10862951003,0.176876446333,0.0,-0.339391084052,0.0,0.465246876785,0.0,1.6182550056,0.0,-0.0923408947909,0.0,-0.00064268913362,0.0,-0.00246673140575,0.0,0.0711486507743,0.0,-0.00501348118247,0.0,0.0,0.0,0.0,-50.0,0.0,-15.24,0.00230154196664,0.0,-0.00537029107169,-50.0,-0.0,0.0,-0.0,-50.0,253628.8,0.0,0.0,0.0,0.0,0.0,0.0
1402753962250214873,3,-11.4881075004,-0.00591572024346,-13.392943369,-0.122189614607,50.9687690737,0.10862951003,0.1710822129,0.0,-0.342266283381,0.0,0.462725802104,0.0,1.61409731756,0.0,-0.0990912278381,0.0,-0.00160941938355,0.0,-0.0006624519664,0.0,0.0713594179084,0.0,-0.00653525212012,0.0,0.0,0.0,0.0,-50.0,0.0,-15.24,0.00230154196664,0.0,-0.00537029107169,-50.0,-0.0,0.0,-0.0,-50.0,253628.8,0.0,0.0,0.0,0.0,0.0,0.0
1402753962271025590,3,-11.4881075004,-0.00591572024346,-13.392943369,-0.122189614607,50.9687690737,0.10862951003,0.1710822129,0.0,-0.342266283381,0.0,0.462725802104,0.0,1.61409731756,0.0,-0.0990912278381,0.0,-0.00160941938355,0.0,-0.0006624519664,0.0,0.0713594179084,0.0,-0.00653525212012,0.0,0.0,0.0,0.0,-50.0,0.0,-15.24,0.00230154196664,0.0,-0.00537029107169,-50.0,-0.0,0.0,-0.0,-50.0,253628.8,0.0,0.0,0.0,0.0,0.0,0.0
1402753962290305576,3,-11.4821978473,-0.00591572024346,-13.4196072305,-0.122189614607,51.0075759968,0.10862951003,0.178637058805,0.0,-0.350122373661,0.0,0.461014366702,0.0,1.61007803044,0.0,-0.104908366364,0.0,-0.000693192083884,0.0,-0.00446101678322,0.0,0.0712245803704,0.0,-0.00276065216004,0.0,0.0,0.0,0.0,-50.0,0.0,-15.24,0.00230154196664,0.0,-0.00537029107169,-50.0,-0.0,0.0,-0.0,-50.0,253628.8,0.0,0.0,0.0,0.0,0.0,0.0
1402753962310315841,3,-11.4821978473,-0.00591572024346,-13.4196072305,-0.122189614607,51.0075759968,0.10862951003,0.178637058805,0.0,-0.350122373661,0.0,0.461014366702,0.0,1.61007803044,0.0,-0.104908366364,0.0,-0.000693192083884,0.0,-0.00446101678322,0.0,0.0712245803704,0.0,-0.00276065216004,0.0,0.0,0.0,0.0,-50.0,0.0,-15.24,0.00230154196664,0.0,-0.00537029107169,-50.0,-0.0,0.0,-0.0,-50.0,253628.8,0.0,0.0,0.0,0.0,0.0,0.0
1402753962331090886,3,-11.4749784682,-0.00591572024346,-13.4336778455,-0.122189614607,51.026110117,0.10862951003,0.180474160787,0.0,-0.353641951201,0.0,0.464832634584,0.0,1.60587730163,0.0,-0.110603974459,0.0,-0.000574914748976,0.0,-0.0134905712715,0.0,0.0714883297907,0.0,0.011463602527,0.0,0.0,0.0,0.0,-50.0,0.0,-15.24,0.00230154196664,0.0,-0.00537029107169,-50.0,-0.0,0.0,-0.0,-50.0,253628.8,0.0,0.0,0.0,0.0,0.0,0.0
1402753962350229995,3,-11.4749784682,-0.00591572024346,-13.4336778455,-0.122189614607,51.026110117,0.10862951003,0.180474160787,0.0,-0.353641951201,0.0,0.464832634584,0.0,1.60587730163,0.0,-0.110603974459,0.0,-0.000574914748976,0.0,-0.0134905712715,0.0,0.0714883297907,0.0,0.011463602527,0.0,0.0,0.0,0.0,-50.0,0.0,-15.24,0.00230154196664,0.0,-0.00537029107169,-50.0,-0.0,0.0,-0.0,-50.0,253628.8,0.0,0.0,0.0,0.0,0.0,0.0
1402753962370093943,3,-11.4694254195,-0.00591572024346,-13.4665408761,-0.122189614607,51.0711969362,0.10862951003,0.181628124436,0.0,-0.369133042278,0.0,0.464702533331,0.0,1.60160149418,0.0,-0.107232107674,0.0,-0.000395994485575,0.0,-0.010709955937,0.0,0.0710244352931,0.0,-0.00604999763103,0.0,0.0,0.0,0.0,-50.0,0.0,-15.24,0.00230154196664,0.0,-0.00537029107169,-50.0,-0.0,0.0,-0.0,-50.0,253628.8,0.0,0.0,0.0,0.0,0.0,0.0
1402753962390655737,3,-11.4694254195,-0.00591572024346,-13.4665408761,-0.122189614607,51.0711969362,0.10862951003,0.181628124436,0.0,-0.369133042278,0.0,0.464702533331,0.0,1.60160149418,0.0,-0.107232107674,0.0,-0.000395994485575,0.0,-0.010709955937,0.0,0.0710244352931,0.0,-0.00604999763103,0.0,0.0,0.0,0.0,-50.0,0.0,-15.24,0.00230154196664,0.0,-0.00537029107169,-50.0,-0.0,0.0,-0.0,-50.0,253628.8,0.0,0.0,0.0,0.0,0.0,0.0
1402753962410586640,3,-11.4662080937,-0.00591572024346,-13.4875094872,-0.122189614607,51.1022334546,0.10862951003,0.187820267815,0.0,-0.371108926125,0.0,0.46336013597,0.0,1.59726852724,0.0,-0.0980455342738,0.0,4.79681192165e-05,0.0,-0.0102289621368,0.0,0.0717838021057,0.0,0.00644163293989,0.0,0.0,0.0,0.0,-50.0,0.0,-15.24,0.00230154196664,0.0,-0.00537029107169,-50.0,-0.0,0.0,-0.0,-50.0,253628.8,0.0,0.0,0.0,0.0,0.0,0.0
1402753962430169227,3,-11.4662080937,-0.00591572024346,-13.4875094872,-0.122189614607,51.1022334546,0.10862951003,0.187820267815,0.0,-0.371108926125,0.0,0.46336013597,0.0,1.59726852724,0.0,-0.0980455342738,0.0,4.79681192165e-05,0.0,-0.0102289621368,0.0,0.0717838021057,0.0,0.00644163293989,0.0,0.0,0.0,0.0,-50.0,0.0,-15.24,0.00230154196664,0.0,-0.00537029107169,-50.0,-0.0,0.0,-0.0,-50.0,253628.8,0.0,0.0,0.0,0.0,0.0,0.0
1402753962450059217,3,-11.4636840693,-0.00591572024346,-13.5111397167,-0.122189614607,51.1326150079,0.10862951003,0.187339017563,0.0,-0.380631437868,0.0,0.462222630913,0.0,1.59289019283,0.0,-0.113781423567,0.0,0.000295237016606,0.0,-0.00596875727835,0.0,0.0719169432375,0.0,0.00366078600722,0.0,0.0,0.0,0.0,-50.0,0.0,-15.24,0.00230154196664,0.0,-0.00537029107169,-50.0,-0.0,0.0,-0.0,-50.0,253628.8,0.0,0.0,0.0,0.0,0.0,0.0
1402753962470188418,3,-11.4636840693,-0.00591572024346,-13.5111397167,-0.122189614607,51.1326150079,0.10862951003,0.187339017563,0.0,-0.380631437868,0.0,0.462222630913,0.0,1.59289019283,0.0,-0.113781423567,0.0,0.000295237016606,0.0,-0.00596875727835,0.0,0.0719169432375,0.0,0.00366078600722,0.0,0.0,0.0,0.0,-50.0,0.0,-15.24,0.00230154196664,0.0,-0.00537029107169,-50.0,-0.0,0.0,-0.0,-50.0,253628.8,0.0,0.0,0.0,0.0,0.0,0.0
1402753962490837787,3,-11.4654828229,-0.00591572024346,-13.5181103235,-0.122189614607,51.1365907248,0.10862951003,0.192049250169,0.0,-0.371142096401,0.0,0.461531670925,0.0,1.58847209627,0.0,-0.106084362553,0.0,0.000807599164466,0.0,-0.00885922591972,0.0,0.0735748439596,0.0,0.00268593578845,0.0,0.0,0.0,0.0,-50.0,0.0,-15.24,0.00230154196664,0.0,-0.00537029107169,-50.0,-0.0,0.0,-0.0,-50.0,253628.8,0.0,0.0,0.0,0.0,0.0,0.0
1402753962510707079,3,-11.4654828229,-0.00591572024346,-13.5181103235,-0.122189614607,51.1365907248,0.10862951003,0.192049250169,0.0,-0.371142096401,0.0,0.461531670925,0.0,1.58847209627,0.0,-0.106084362553,0.0,0.000807599164466,0.0,-0.00885922591972,0.0,0.0735748439596,0.0,0.00268593578845,0.0,0.0,0.0,0.0,-50.0,0.0,-15.24,0.00230154196664,0.0,-0.00537029107169,-50.0,-0.0,0.0,-0.0,-50.0,253628.8,0.0,0.0,0.0,0.0,0.0,0.0
1402753962530191723,3,-11.4576582106,-0.00591572024346,-13.5335745337,-0.122189614607,51.155773869,0.10862951003,0.193415490013,0.0,-0.375448124833,0.0,0.465517072457,0.0,1.5839840426,0.0,-0.110930490836,0.0,0.00123122492976,0.0,-0.0149037280463,0.0,0.074039208097,0.0,0.0143100580925,0.0,0.0,0.0,0.0,-50.0,0.0,-15.24,0.00230154196664,0.0,-0.00537029107169,-50.0,-0.0,0.0,-0.0,-50.0,253628.8,0.0,0.0,0.0,0.0,0.0,0.0
1402753962550215224,3,-11.4576582106,-0.00591572024346,-13.5335745337,-0.122189614607,51.155773869,0.10862951003,0.193415490013,0.0,-0.375448124833,0.0,0.465517072457,0.0,1.5839840426,0.0,-0.110930490836,0.0,0.00123122492976,0.0,-0.0149037280463,0.0,0.074039208097,0.0,0.0143100580925,0.0,0.0,0.0,0.0,-50.0,0.0,-15.24,0.00230154196664,0.0,-0.00537029107169,-50.0,-0.0,0.0,-0.0,-50.0,253628.8,0.0,0.0,0.0,0.0,0.0,0.0
1402753962570526650,3,-11.4500137453,-0.00591572024346,-13.5487771304,-0.122189614607,51.1744432409,0.10862951003,0.193013075047,0.0,-0.381905205043,0.0,0.465088747973,0.0,1.57952427415,0.0,-0.116459452411,0.0,0.00131615308784,0.0,-0.000184152047283,0.0,0.0742562676243,0.0,0.00365794545054,0.0,0.0,0.0,0.0,-50.0,0.0,-15.24,0.00230154196664,0.0,-0.00537029107169,-50.0,-0.0,0.0,-0.0,-50.0,253628.8,0.0,0.0,0.0,0.0,0.0,0.0
1402753962590249895,3,-11.4500137453,-0.00591572024346,-13.5487771304,-0.122189614607,51.1744432409,0.10862951003,0.193013075047,0.0,-0.381905205043,0.0,0.465088747973,0.0,1.57952427415,0.0,-0.116459452411,0.0,0.00131615308784,0.0,-0.000184152047283,0.0,0.0742562676243,0.0,0.00365794545054,0.0,0.0,0.0,0.0,-50.0,0.0,-15.24,0.00230154196664,0.0,-0.00537029107169,-50.0,-0.0,0.0,-0.0,-50.0,253628.8,0.0,0.0,0.0,0.0,0.0,0.0
1402753962610241566,3,-11.4541423334,-0.00591572024346,-13.5717446769,-0.122189614607,51.1870211761,0.10862951003,0.184005824585,0.0,-0.398161016546,0.0,0.462182996237,0.0,1.57478996381,0.0,-0.114971636421,0.0,0.000233780890471,0.0,0.00208383846924,0.0,0.0732882292198,0.0,-0.00286652666359,0.0,0.0,0.0,0.0,-50.0,0.0,-15.24,0.00230154196664,0.0,-0.00537029107169,-50.0,-0.0,0.0,-0.0,-50.0,253628.8,0.0,0.0,0.0,0.0,0.0,0.0
1402753962630800231,3,-11.4541423334,-0.00591572024346,-13.5717446769,-0.122189614607,51.1870211761,0.10862951003,0.184005824585,0.0,-0.398161016546,0.0,0.462182996237,0.0,1.57478996381,0.0,-0.114971636421,0.0,0.000233780890471,0.0,0.00208383846924,0.0,0.0732882292198,0.0,-0.00286652666359,0.0,0.0,0.0,0.0,-50.0,0.0,-15.24,0.00230154196664,0.0,-0.00537029107169,-50.0,-0.0,0.0,-0.0,-50.0,253628.8,0.0,0.0,0.0,0.0,0.0,0.0
1402753962650579480,3,-11.4532925656,-0.00591572024346,-13.5923796941,-0.122189614607,51.1972566382,0.10862951003,0.187626815478,0.0,-0.40956443249,0.0,0.460383681997,0.0,1.57015787169,0.0,-0.11629899617,0.0,0.000517989960525,0.0,0.004247510032,0.0,0.0726579622255,0.0,-0.00135105180361,0.0,0.0,0.0,0.0,-50.0,0.0,-15.24,0.00230154196664,0.0,-0.00537029107169,-50.0,-0.0,0.0,-0.0,-50.0,253628.8,0.0,0.0,0.0,0.0,0.0,0.0
1402753962670273012,3,-11.4532925656,-0.00591572024346,-13.5923796941,-0.122189614607,51.1972566382,0.10862951003,0.187626815478,0.0,-0.40956443249,0.0,0.460383681997,0.0,1.57015787169,0.0,-0.11629899617,0.0,0.000517989960525,0.0,0.004247510032,0.0,0.0726579622255,0.0,-0.00135105180361,0.0,0.0,0.0,0.0,-50.0,0.0,-15.24,0.00230154196664,0.0,-0.00537029107169,-50.0,-0.0,0.0,-0.0,-50.0,253628.8,0.0,0.0,0.0,0.0,0.0,0.0
1402753962690251055,3,-11.4506009554,-0.00591572024346,-13.6082906349,-0.122189614607,51.2008689678,0.10862951003,0.197224690612,0.0,-0.413158776975,0.0,0.459495048227,0.0,1.56544508368,0.0,-0.116571267268,0.0,0.00159941649586,0.0,0.00140785336957,0.0,0.0725747881146,0.0,0.00849031943437,0.0,0.0,0.0,0.0,-50.0,0.0,-15.24,0.00230154196664,0.0,-0.00537029107169,-50.0,-0.0,0.0,-0.0,-50.0,253628.8,0.0,0.0,0.0,0.0,0.0,0.0
1402753962710308459,3,-11.4506009554,-0.00591572024346,-13.6082906349,-0.122189614607,51.2008689678,0.10862951003,0.197224690612,0.0,-0.413158776975,0.0,0.459495048227,0.0,1.56544508368,0.0,-0.116571267268,0.0,0.00159941649586,0.0,0.00140785336957,0.0,0.0725747881146,0.0,0.00849031943437,0.0,0.0,0.0,0.0,-50.0,0.0,-15.24,0.00230154196664,0.0,-0.00537029107169,-50.0,-0.0,0.0,-0.0,-50.0,253628.8,0.0,0.0,0.0,0.0,0.0,0.0
1402753962730749928,3,-11.4475265769,-0.00591572024346,-13.6237655694,-0.122189614607,51.2257588343,0.10862951003,0.193493359039,0.0,-0.406776025273,0.0,0.458941652235,0.0,1.5607378181,0.0,-0.121549712028,0.0,0.00145236179373,0.0,0.00828523719541,0.0,0.0734358038141,0.0,0.00650880449749,0.0,0.0,0.0,0.0,-50.0,0.0,-15.24,0.00230154196664,0.0,-0.00537029107169,-50.0,-0.0,0.0,-0.0,-50.0,253628.8,0.0,0.0,0.0,0.0,0.0,0.0
1402753962751185375,3,-11.4475265769,-0.00591572024346,-13.6237655694,-0.122189614607,51.2257588343,0.10862951003,0.193493359039,0.0,-0.406776025273,0.0,0.458941652235,0.0,1.5607378181,0.0,-0.121549712028,0.0,0.00145236179373,0.0,0.00828523719541,0.0,0.0734358038141,0.0,0.00650880449749,0.0,0.0,0.0,0.0,-50.0,0.0,-15.24,0.00230154196664,0.0,-0.00537029107169,-50.0,-0.0,0.0,-0.0,-50.0,253628.8,0.0,0.0,0.0,0.0,0.0,0.0
1402753962770452423,3,-11.4409331367,-0.00591572024346,-13.6453494326,-0.122189614607,51.2481701024,0.10862951003,0.199416339689,0.0,-0.411469703679,0.0,0.457881370405,0.0,1.55598416037,0.0,-0.119897851293,0.0,0.00203027803166,0.0,0.0061941162005,0.0,0.0731298188948,0.0,-0.00541324568998,0.0,0.0,0.0,0.0,-50.0,0.0,-15.24,0.00230154196664,0.0,-0.00537029107169,-50.0,-0.0,0.0,-0.0,-50.0,253628.8,0.0,0.0,0.0,0.0,0.0,0.0
1402753962791509712,3,-11.4409331367,-0.00591572024346,-13.6453494326,-0.122189614607,51.2481701024,0.10862951003,0.199416339689,0.0,-0.411469703679,0.0,0.457881370405,0.0,1.55598416037,0.0,-0.119897851293,0.0,0.00203027803166,0.0,0.0061941162005,0.0,0.0731298188948,0.0,-0.00541324568998,0.0,0.0,0.0,0.0,-50.0,0.0,-15.24,0.00230154196664,0.0,-0.00537029107169,-50.0,-0.0,0.0,-0.0,-50.0,253628.8,0.0,0.0,0.0,0.0,0.0,0.0
1402753962810145893,3,-11.441131913,-0.00591572024346,-13.6669908432,-0.122189614607,51.2639867854,0.10862951003,0.194065621581,0.0,-0.419857464402,0.0,0.45473793749,0.0,1.55092566817,0.0,-0.121212499394,0.0,0.00137278448884,0.0,0.00891400621009,0.0,0.0724324466831,0.0,0.00656183685206,0.0,0.0,0.0,0.0,-50.0,0.0,-15.24,0.00230154196664,0.0,-0.00537029107169,-50.0,-0.0,0.0,-0.0,-50.0,253628.8,0.0,0.0,0.0,0.0,0.0,0.0
1402753962830154649,3,-11.441131913,-0.00591572024346,-13.6669908432,-0.122189614607,51.2639867854,0.10862951003,0.194065621581,0.0,-0.419857464402,0.0,0.45473793749,0.0,1.55092566817,0.0,-0.121212499394,0.0,0.00137278448884,0.0,0.00891400621009,0.0,0.0724324466831,0.0,0.00656183685206,0.0,0.0,0.0,0.0,-50.0,0.0,-15.24,0.00230154196664,0.0,-0.00537029107169,-50.0,-0.0,0.0,-0.0,-50.0,253628.8,0.0,0.0,0.0,0.0,0.0,0.0
1402753962850806816,3,-11.4369563054,-0.00591572024346,-13.6861902025,-0.122189614607,51.2848541877,0.10862951003,0.194997384578,0.0,-0.42032831013,0.0,0.454032016452,0.0,1.5459215295,0.0,-0.127688787544,0.0,0.00141075882449,0.0,0.00722384294984,0.0,0.0723976542624,0.0,0.00886372234162,0.0,0.0,0.0,0.0,-50.0,0.0,-15.24,0.00230154196664,0.0,-0.00537029107169,-50.0,-0.0,0.0,-0.0,-50.0,253628.8,0.0,0.0,0.0,0.0,0.0,0.0
1402753962870243844,3,-11.4369563054,-0.00591572024346,-13.6861902025,-0.122189614607,51.2848541877,0.10862951003,0.194997384578,0.0,-0.42032831013,0.0,0.454032016452,0.0,1.5459215295,0.0,-0.127688787544,0.0,0.00141075882449,0.0,0.00722384294984,0.0,0.0723976542624,0.0,0.00886372234162,0.0,0.0,0.0,0.0,-50.0,0.0,-15.24,0.00230154196664,0.0,-0.00537029107169,-50.0,-0.0,0.0,-0.0,-50.0,253628.8,0.0,0.0,0.0,0.0,0.0,0.0
1402753962890294091,3,-11.4357878558,-0.00591572024346,-13.707852991,-0.122189614607,51.2802379566,0.10862951003,0.200446791645,0.0,-0.438620091228,0.0,0.448414129866,0.0,1.54089191912,0.0,-0.124743268551,0.0,0.00242014671488,0.0,0.00853464575262,0.0,0.0707784088678,0.0,-0.00752253612029,0.0,0.0,0.0,0.0,-50.0,0.0,-15.24,0.00230154196664,0.0,-0.00537029107169,-50.0,-0.0,0.0,-0.0,-50.0,253628.8,0.0,0.0,0.0,0.0,0.0,0.0
1402753962910804495,3,-11.4357878558,-0.00591572024346,-13.707852991,-0.122189614607,51.2802379566,0.10862951003,0.200446791645,0.0,-0.438620091228,0.0,0.448414129866,0.0,1.54089191912,0.0,-0.124743268551,0.0,0.00242014671488,0.0,0.00853464575262,0.0,0.0707784088678,0.0,-0.00752253612029,0.0,0.0,0.0,0.0,-50.0,0.0,-15.24,0.00230154196664,0.0,-0.00537029107169,-50.0,-0.0,0.0,-0.0,-50.0,253628.8,0.0,0.0,0.0,0.0,0.0,0.0
1402753962930319389,3,-11.4277540359,-0.00591572024346,-13.7253606292,-0.122189614607,51.2980605992,0.10862951003,0.202862557612,0.0,-0.443314589049,0.0,0.448329945747,0.0,1.53589352191,0.0,-0.124467654537,0.0,0.00252482226597,0.0,0.00305483830697,0.0,0.0705601244477,0.0,-0.00167790215495,0.0,0.0,0.0,0.0,-50.0,0.0,-15.24,0.00230154196664,0.0,-0.00537029107169,-50.0,-0.0,0.0,-0.0,-50.0,253628.8,0.0,0.0,0.0,0.0,0.0,0.0
1402753962950228776,3,-11.4277540359,-0.00591572024346,-13.7253606292,-0.122189614607,51.2980605992,0.10862951003,0.202862557612,0.0,-0.443314589049,0.0,0.448329945747,0.0,1.53589352191,0.0,-0.124467654537,0.0,0.00252482226597,0.0,0.00305483830697,0.0,0.0705601244477,0.0,-0.00167790215495,0.0,0.0,0.0,0.0,-50.0,0.0,-15.24,0.00230154196664,0.0,-0.00537029107169,-50.0,-0.0,0.0,-0.0,-50.0,253628.8,0.0,0.0,0.0,0.0,0.0,0.0
1402753962970271978,3,-11.4338496519,-0.00591572024346,-13.7409566818,-0.122189614607,51.3062924226,0.10862951003,0.185752173214,0.0,-0.443442568333,0.0,0.446623438837,0.0,1.53062479669,0.0,-0.131551963097,0.0,0.000637522101341,0.0,0.00598768021341,0.0,0.0707371979189,0.0,-0.000231993634662,0.0,0.0,0.0,0.0,-50.0,0.0,-15.24,0.00230154196664,0.0,-0.00537029107169,-50.0,-0.0,0.0,-0.0,-50.0,253628.8,0.0,0.0,0.0,0.0,0.0,0.0
1402753962990207424,3,-11.4338496519,-0.00591572024346,-13.7409566818,-0.122189614607,51.3062924226,0.10862951003,0.185752173214,0.0,-0.443442568333,0.0,0.446623438837,0.0,1.53062479669,0.0,-0.131551963097,0.0,0.000637522101341,0.0,0.00598768021341,0.0,0.0707371979189,0.0,-0.000231993634662,0.0,0.0,0.0,0.0,-50.0,0.0,-15.24,0.00230154196664,0.0,-0.00537029107169,-50.0,-0.0,0.0,-0.0,-50.0,253628.8,0.0,0.0,0.0,0.0,0.0,0.0
1402753963010260051,3,-11.4290567306,-0.00591572024346,-13.7584486768,-0.122189614607,51.3048430646,0.10862951003,0.197509116726,0.0,-0.450278888199,0.0,0.443756362944,0.0,1.52535640703,0.0,-0.135353542419,0.0,0.00200308001407,0.0,0.000829605608704,0.0,0.0703318658089,0.0,-0.00257075254355,0.0,0.0,0.0,0.0,-50.0,0.0,-15.24,0.00230154196664,0.0,-0.00537029107169,-50.0,-0.0,0.0,-0.0,-50.0,253628.8,0.0,0.0,0.0,0.0,0.0,0.0
1402753963030287843,3,-11.4290567306,-0.00591572024346,-13.7584486768,-0.122189614607,51.3048430646,0.10862951003,0.197509116726,0.0,-0.450278888199,0.0,0.443756362944,0.0,1.52535640703,0.0,-0.135353542419,0.0,0.00200308001407,0.0,0.000829605608704,0.0,0.0703318658089,0.0,-0.00257075254355,0.0,0.0,0.0,0.0,-50.0,0.0,-15.24,0.00230154196664,0.0,-0.00537029107169,-50.0,-0.0,0.0,-0.0,-50.0,253628.8,0.0,0.0,0.0,0.0,0.0,0.0
1402753963050181119,3,-11.4276827809,-0.00591572024346,-13.7756985329,-0.122189614607,51.3035120681,0.10862951003,0.201189800772,0.0,-0.455827696441,0.0,0.439228118128,0.0,1.52015836625,0.0,-0.129084251374,0.0,0.00231114855533,0.0,-0.00150298178822,0.0,0.0701710043244,0.0,0.00454653384188,0.0,0.0,0.0,0.0,-50.0,0.0,-15.24,0.00230154196664,0.0,-0.00537029107169,-50.0,-0.0,0.0,-0.0,-50.0,253628.8,0.0,0.0,0.0,0.0,0.0,0.0
1402753963070969487,3,-11.4276827809,-0.00591572024346,-13.7756985329,-0.122189614607,51.3035120681,0.10862951003,0.201189800772,0.0,-0.455827696441,0.0,0.439228118128,0.0,1.52015836625,0.0,-0.129084251374,0.0,0.00231114855533,0.0,-0.00150298178822,0.0,0.0701710043244,0.0,0.00454653384188,0.0,0.0,0.0,0.0,-50.0,0.0,-15.24,0.00230154196664,0.0,-0.00537029107169,-50.0,-0.0,0.0,-0.0,-50.0,253628.8,0.0,0.0,0.0,0.0,0.0,0.0
1402753963090258069,3,-11.4173987052,-0.00591572024346,-13.7958702077,-0.122189614607,51.3377481618,0.10862951003,0.202196036563,0.0,-0.450958756344,0.0,0.439323541833,0.0,1.51465263229,0.0,-0.140123914315,0.0,0.00239939187808,0.0,0.00217036383069,0.0,0.0711070221857,0.0,-0.00265810237331,0.0,0.0,0.0,0.0,-50.0,0.0,-15.24,0.00230154196664,0.0,-0.00537029107169,-50.0,-0.0,0.0,-0.0,-50.0,253628.8,0.0,0.0,0.0,0.0,0.0,0.0
1402753963110824864,3,-11.4173987052,-0.00591572024346,-13.7958702077,-0.122189614607,51.3377481618,0.10862951003,0.202196036563,0.0,-0.450958756344,0.0,0.439323541833,0.0,1.51465263229,0.0,-0.140123914315,0.0,0.00239939187808,0.0,0.00217036383069,0.0,0.0711070221857,0.0,-0.00265810237331,0.0,0.0,0.0,0.0,-50.0,0.0,-15.24,0.00230154196664,0.0,-0.00537029107169,-50.0,-0.0,0.0,-0.0,-50.0,253628.8,0.0,0.0,0.0,0.0,0.0,0.0
1402753963130249933,3,-11.4089501722,-0.00591572024346,-13.81439662,-0.122189614607,51.3557594671,0.10862951003,0.204327487215,0.0,-0.454693386932,0.0,0.440417658738,0.0,1.50912446111,0.0,-0.130937579153,0.0,0.00243931215599,0.0,-0.00560726650168,0.0,0.0712913510726,0.0,-0.00499848204307,0.0,0.0,0.0,0.0,-50.0,0.0,-15.24,0.00230154196664,0.0,-0.00537029107169,-50.0,-0.0,0.0,-0.0,-50.0,253628.8,0.0,0.0,0.0,0.0,0.0,0.0
1402753963150432452,3,-11.4089501722,-0.00591572024346,-13.81439662,-0.122189614607,51.3557594671,0.10862951003,0.204327487215,0.0,-0.454693386932,0.0,0.440417658738,0.0,1.50912446111,0.0,-0.130937579153,0.0,0.00243931215599,0.0,-0.00560726650168,0.0,0.0712913510726,0.0,-0.00499848204307,0.0,0.0,0.0,0.0,-50.0,0.0,-15.24,0.00230154196664,0.0,-0.00537029107169,-50.0,-0.0,0.0,-0.0,-50.0,253628.8,0.0,0.0,0.0,0.0,0.0,0.0
1402753963170891347,3,-11.4066692109,-0.00591572024346,-13.8301073153,-0.122189614607,51.3599368831,0.10862951003,0.203273795691,0.0,-0.455219922476,0.0,0.437184893638,0.0,1.50361160532,0.0,-0.137881720466,0.0,0.00205309883171,0.0,-0.000598067414687,0.0,0.0717493245938,0.0,0.000237125646282,0.0,0.0,0.0,0.0,-50.0,0.0,-15.24,0.00230154196664,0.0,-0.00537029107169,-50.0,-0.0,0.0,-0.0,-50.0,253628.8,0.0,0.0,0.0,0.0,0.0,0.0
1402753963190421911,3,-11.4066692109,-0.00591572024346,-13.8301073153,-0.122189614607,51.3599368831,0.10862951003,0.203273795691,0.0,-0.455219922476,0.0,0.437184893638,0.0,1.50361160532,0.0,-0.137881720466,0.0,0.00205309883171,0.0,-0.000598067414687,0.0,0.0717493245938,0.0,0.000237125646282,0.0,0.0,0.0,0.0,-50.0,0.0,-15.24,0.00230154196664,0.0,-0.00537029107169,-50.0,-0.0,0.0,-0.0,-50.0,253628.8,0.0,0.0,0.0,0.0,0.0,0.0
