rosbagTimestamp,header,seq,stamp,secs,nsecs,frame_id,child_frame_id,pose,pose,position,x,y,z,orientation,x,y,z,w,covariance,twist,twist,linear,x,y,z,angular,x,y,z,covariance
1402414603335189273,,64971,,1402414603,295953035,/enu,/base_link,,,,7.43966385659,14.6634880838,-10.4132914226,,-0.0241490180154,0.00200046636865,0.75055808977,0.660360035847,"[0.023036779952332734, -0.005924193784790453, -0.009400706217257209, -3.6402946446644165e-09, 2.5525080447278945e-06, -8.571487452828171e-05, -0.005924193784790453, 0.02442698925564153, 0.02285950254045658, -4.358609473627348e-06, -1.439063965386181e-06, -7.15473854708136e-05, -0.009400706217257209, 0.02285950254045658, 0.1636254261614013, 9.644192152205764e-07, -7.178777081531878e-07, 1.3372853506216054e-05, -3.6402946446644165e-09, -4.358609473627348e-06, 9.644192152205764e-07, 4.341225758108864e-06, 3.748415641634435e-07, 7.078140114494835e-07, 2.5525080447278945e-06, -1.439063965386181e-06, -7.178777081531878e-07, 3.748415641634435e-07, 4.070730981175676e-06, 7.003100973068766e-07, -8.571487452828171e-05, -7.15473854708136e-05, 1.3372853506216054e-05, 7.078140114494835e-07, 7.003100973068766e-07, 0.00015957079219355966]",,,,0.145033726404,0.212615304624,0.186737331503,,-0.00204752568614,-0.0173712189901,-0.086727352833,"[0.00026560103788613853, 4.411090379791376e-05, 2.9712162827884598e-05, -1.9304079208748253e-08, 1.1089423290874073e-07, 4.010185332494989e-07, 4.411090379791376e-05, 0.00016356472717578464, 1.3403410873297747e-05, -8.558541702594971e-08, 2.6213574886879474e-08, -3.966583227611975e-08, 2.9712162827884598e-05, 1.3403410873297747e-05, 0.00021520181644836127, -1.2298625215874542e-08, -3.964096464973436e-09, 1.9049436217379684e-08, -1.9304079208748253e-08, -8.558541702594971e-08, -1.2298625215874542e-08, 2.1359726721250116e-08, -4.2994881620563255e-12, -1.8883541948139044e-10, 1.1089423290874073e-07, 2.6213574886879474e-08, -3.964096464973436e-09, -4.2994881620563255e-12, 2.136913896155547e-08, -1.6998955905508605e-10, 4.010185332494989e-07, -3.966583227611975e-08, 1.9049436217379684e-08, -1.8883541948139044e-10, -1.6998955905508605e-10, 2.9391274127979508e-08]"
1402414603335398218,,64972,,1402414603,305958986,/enu,/base_link,,,,7.43721362969,14.6647001865,-10.411581514,,-0.0240415344195,0.00191755183372,0.750261349061,0.660701321115,"[0.023038743641784317, -0.005924952906643798, -0.0094016924321053, 3.1482894925607354e-08, 2.7414890358860977e-06, -8.587920187930857e-05, -0.005924952906643798, 0.02442928232667582, 0.022861852274202857, -4.5758792021123134e-06, -1.4794320764497576e-06, -7.122074772485064e-05, -0.0094016924321053, 0.022861852274202857, 0.1636509961749585, 9.898764635646225e-07, -7.206829206241996e-07, 1.33825378429919e-05, 3.1482894925607354e-08, -4.5758792021123134e-06, 9.898764635646225e-07, 4.381628577544625e-06, 3.7485392389226264e-07, 7.075092074894883e-07, 2.7414890358860977e-06, -1.4794320764497576e-06, -7.206829206241996e-07, 3.7485392389226264e-07, 4.111126185354531e-06, 6.986598418531981e-07, -8.587920187930857e-05, -7.122074772485064e-05, 1.33825378429919e-05, 7.075092074894883e-07, 6.986598418531981e-07, 0.0001595916345844097]",,,,0.143287053837,0.215523563184,0.184871444561,,0.00358530987818,-0.0258756924719,-0.0893781758733,"[0.00027007468647374176, 4.482953825948754e-05, 2.9959883563207824e-05, -1.9310357637105817e-08, 1.1313091768497765e-07, 4.005599725871304e-07, 4.482953825948754e-05, 0.00016730381167296936, 1.3691209733433569e-05, -8.759824306662472e-08, 2.6546718844587605e-08, -3.9758840127192764e-08, 2.9959883563207824e-05, 1.3691209733433569e-05, 0.00021557531899866873, -1.2396187936094856e-08, -3.866328049359285e-09, 1.8916252227043876e-08, -1.9310357637105817e-08, -8.759824306662472e-08, -1.2396187936094856e-08, 2.1359726703920814e-08, -4.299342313378892e-12, -1.888401352957922e-10, 1.1313091768497765e-07, 2.6546718844587605e-08, -3.866328049359285e-09, -4.299342313378892e-12, 2.1369135122003457e-08, -1.6995640896777727e-10, 4.005599725871304e-07, -3.9758840127192764e-08, 1.8916252227043876e-08, -1.888401352957922e-10, -1.6995640896777727e-10, 2.9389975641130496e-08]"
1402414603335424781,,64973,,1402414603,315953969,/enu,/base_link,,,,7.47440746811,14.674334523,-10.43998361,,-0.0220082694177,0.00555016278952,0.748941756369,0.662246991188,"[0.023024656411536268, -0.005923041145341196, -0.009397134896651003, -1.9698647408456818e-07, 1.614389782015212e-06, -8.491398220527644e-05, -0.005923041145341196, 0.024417640059300333, 0.022852901260385014, -3.4607873024983254e-06, -1.4184832146333712e-06, -7.191217396500782e-05, -0.009397134896651003, 0.022852901260385014, 0.163547511361662, 1.0605184707820957e-06, -7.591236821172685e-07, 1.3320694662277512e-05, -1.9698647408456818e-07, -3.4607873024983254e-06, 1.0605184707820957e-06, 4.166010595443559e-06, 3.6633760042838566e-07, 9.091193935970376e-07, 1.614389782015212e-06, -1.4184832146333712e-06, -7.591236821172685e-07, 3.6633760042838566e-07, 3.9017344658467266e-06, 8.87851312642851e-07, -8.491398220527644e-05, -7.191217396500782e-05, 1.3320694662277512e-05, 9.091193935970376e-07, 8.87851312642851e-07, 0.0001593171253890323]",,,,0.156380815598,0.142600777364,0.174614867118,,0.0148940308406,-0.0282983378998,-0.0875181998678,"[0.00023286566947231693, 4.063468411097061e-05, 2.7546546314320026e-05, -1.5922800396868492e-08, 1.0172501706062428e-07, 3.1419717513790815e-07, 4.063468411097061e-05, 0.000149309100291591, 1.1918368362044763e-05, -7.697203543866558e-08, 2.505797414512345e-08, -6.152137184364797e-08, 2.7546546314320026e-05, 1.1918368362044763e-05, 0.00021266040592065566, -9.476233266094725e-09, -4.439870159539655e-09, 1.577432051949107e-08, -1.5922800396868492e-08, -7.697203543866558e-08, -9.476233266094725e-09, 2.135270186812228e-08, -4.001629026879165e-12, -1.845042025525893e-10, 1.0172501706062428e-07, 2.505797414512345e-08, -4.439870159539655e-09, -4.001629026879165e-12, 2.1361996254267163e-08, -1.77142858591791e-10, 3.1419717513790815e-07, -6.152137184364797e-08, 1.577432051949107e-08, -1.845042025525893e-10, -1.77142858591791e-10, 2.937897758103451e-08]"
1402414603335463535,,64974,,1402414603,325932025,/enu,/base_link,,,,7.47269145407,14.6757882931,-10.4383094626,,-0.0219341110388,0.00548534529225,0.748650523805,0.662579202033,"[0.023026465669953592, -0.005923778269246249, -0.009398125655690502, -1.647726130946036e-07, 1.7855110267604675e-06, -8.50541566628576e-05, -0.005923778269246249, 0.024419742537310024, 0.022855186094113168, -3.6579822660684473e-06, -1.4559286420894145e-06, -7.16183515302956e-05, -0.009398125655690502, 0.022855186094113168, 0.16357279709128744, 1.0858469739278643e-06, -7.616502785476957e-07, 1.3329938779576105e-05, -1.647726130946036e-07, -3.6579822660684473e-06, 1.0858469739278643e-06, 4.206178715421718e-06, 3.6634840977541477e-07, 9.088541740019819e-07, 1.7855110267604675e-06, -1.4559286420894145e-06, -7.616502785476957e-07, 3.6634840977541477e-07, 3.941890400064313e-06, 8.86262632585767e-07, -8.50541566628576e-05, -7.16183515302956e-05, 1.3329938779576105e-05, 9.088541740019819e-07, 8.86262632585767e-07, 0.00015933764972922716]",,,,0.156808281236,0.145809214264,0.176181949192,,0.00197164242802,-0.0189102740748,-0.0872973859506,"[0.00023694532145746066, 4.12974278629755e-05, 2.779098269087216e-05, -1.593154563523405e-08, 1.038678758161352e-07, 3.1363165835098527e-07, 4.12974278629755e-05, 0.00015273171554779007, 1.2139647255746769e-05, -7.889161764998979e-08, 2.537800431128057e-08, -6.179118306282172e-08, 2.779098269087216e-05, 1.2139647255746769e-05, 0.00021303097308549766, -9.543935999856931e-09, -4.332104031445735e-09, 1.5681074496219525e-08, -1.593154563523405e-08, -7.889161764998979e-08, -9.543935999856931e-09, 2.1352701856851396e-08, -4.0014959531363845e-12, -1.8450796536494257e-10, 1.038678758161352e-07, 2.537800431128057e-08, -4.332104031445735e-09, -4.0014959531363845e-12, 2.136199257881734e-08, -1.771082352512283e-10, 3.1363165835098527e-07, -6.179118306282172e-08, 1.5681074496219525e-08, -1.8450796536494257e-10, -1.771082352512283e-10, 2.9377679029570146e-08]"
1402414603375168382,,64975,,1402414603,335962057,/enu,/base_link,,,,7.47092739798,14.6770633486,-10.4362868303,,-0.0218918527982,0.00535308724122,0.748369890005,0.66289863401,"[0.023028294914518153, -0.005924531425613952, -0.009399069769402605, -1.3200861634081044e-07, 1.9614780137429385e-06, -8.519219840691224e-05, -0.005924531425613952, 0.02442193510284059, 0.022857460378454344, -3.8604281989665005e-06, -1.4939577182641446e-06, -7.132806750965765e-05, -0.009399069769402605, 0.022857460378454344, 0.16359821274124756, 1.1112387989183192e-06, -7.641185803902943e-07, 1.333908500475567e-05, -1.3200861634081044e-07, -3.8604281989665005e-06, 1.1112387989183192e-06, 4.246767564645942e-06, 3.663591191368467e-07, 9.085895753148272e-07, 1.9614780137429385e-06, -1.4939577182641446e-06, -7.641185803902943e-07, 3.663591191368467e-07, 3.982467242923531e-06, 8.846568616150024e-07, -8.519219840691224e-05, -7.132806750965765e-05, 1.333908500475567e-05, 9.085895753148272e-07, 8.846568616150024e-07, 0.00015935867988983108]",,,,0.155628952496,0.148379874069,0.178769463842,,-0.0123865669398,-0.0229968370153,-0.0837631452526,"[0.00024113212250814235, 4.196474211484364e-05, 2.8044188182758948e-05, -1.5940033174584402e-08, 1.0604214295291888e-07, 3.130644115831685e-07, 4.196474211484364e-05, 0.00015624235393319394, 1.2353530415299792e-05, -8.083955080084379e-08, 2.5700992925343576e-08, -6.207559344759202e-08, 2.8044188182758948e-05, 1.2353530415299792e-05, 0.00021340666556018522, -9.623370185104487e-09, -4.224514213008911e-09, 1.5566442505073435e-08, -1.5940033174584402e-08, -8.083955080084379e-08, -9.623370185104487e-09, 2.1352701842692228e-08, -4.001350841539952e-12, -1.8451219962973974e-10, 1.0604214295291888e-07, 2.5700992925343576e-08, -4.224514213008911e-09, -4.001350841539952e-12, 2.1361988850269367e-08, -1.7707359147251914e-10, 3.130644115831685e-07, -6.207559344759202e-08, 1.5566442505073435e-08, -1.8451219962973974e-10, -1.7707359147251914e-10, 2.9376380281665067e-08]"
1402414603375203065,,64976,,1402414603,345967054,/enu,/base_link,,,,7.46925785393,14.6786636521,-10.4349151609,,-0.0218626556182,0.00520219977691,0.748085357415,0.663221877978,"[0.023030168310279646, -0.005925280543399147, -0.009400046489878031, -9.89578392240583e-08, 2.1409645702163868e-06, -8.53279285144584e-05, -0.005925280543399147, 0.02442409898273792, 0.02285985028577563, -4.066583179579252e-06, -1.5322671195664274e-06, -7.104269738667967e-05, -0.009400046489878031, 0.02285985028577563, 0.16362353210157027, 1.1365494242611633e-06, -7.665263346769394e-07, 1.3348354386409248e-05, -9.89578392240583e-08, -4.066583179579252e-06, 1.1365494242611633e-06, 4.2871570709743265e-06, 3.663694338463393e-07, 9.083251790881056e-07, 2.1409645702163868e-06, -1.5322671195664274e-06, -7.665263346769394e-07, 3.663694338463393e-07, 4.022845163162745e-06, 8.830325207601126e-07, -8.53279285144584e-05, -7.104269738667967e-05, 1.3348354386409248e-05, 9.083251790881056e-07, 8.830325207601126e-07, 0.0001593794555907226]",,,,0.155011751621,0.150557096906,0.178094101577,,-0.0169149254656,-0.0235490719113,-0.0854199338665,"[0.0002453861442575532, 4.263785425501264e-05, 2.8300404435365843e-05, -1.594411967704595e-08, 1.0823110474702916e-07, 3.1250127472367365e-07, 4.263785425501264e-05, 0.00015981855056813396, 1.2567860971580053e-05, -8.280349930157743e-08, 2.60286839469766e-08, -6.235589572323523e-08, 2.8300404435365843e-05, 1.2567860971580053e-05, 0.00021378146322805942, -9.707405097982525e-09, -4.116836068012907e-09, 1.544793548454849e-08, -1.594411967704595e-08, -8.280349930157743e-08, -9.707405097982525e-09, 2.1352701825276304e-08, -4.001193565761847e-12, -1.8451690808262841e-10, 1.0823110474702916e-07, 2.60286839469766e-08, -4.116836068012907e-09, -4.001193565761847e-12, 2.136198506724858e-08, -1.7703892754036724e-10, 3.1250127472367365e-07, -6.235589572323523e-08, 1.544793548454849e-08, -1.8451690808262841e-10, -1.7703892754036724e-10, 2.9375081335486847e-08]"
1402414603375329032,,64977,,1402414603,356091976,/enu,/base_link,,,,7.49177628604,14.6823968328,-10.465812475,,-0.0206490890353,0.00727831796328,0.747225855188,0.664209426724,"[0.023016724459423498, -0.005923422514570826, -0.009395398221677481, -3.0284471221958617e-07, 1.1376364360924729e-06, -8.455834635691156e-05, -0.005923422514570826, 0.024412971283047095, 0.022851093296280107, -3.0497242411966107e-06, -1.4589411160933293e-06, -7.160208947884578e-05, -0.009395398221677481, 0.022851093296280107, 0.16352147097393288, 1.1971691498281843e-06, -7.898335300182677e-07, 1.3281924231842745e-05, -3.0284471221958617e-07, -3.0497242411966107e-06, 1.1971691498281843e-06, 4.096227173433375e-06, 3.5887790959521586e-07, 1.0703613619791325e-06, 1.1376364360924729e-06, -1.4589411160933293e-06, -7.898335300182677e-07, 3.5887790959521586e-07, 3.837430855973965e-06, 1.0344028672700484e-06, -8.455834635691156e-05, -7.160208947884578e-05, 1.3281924231842745e-05, 1.0703613619791325e-06, 1.0344028672700484e-06, 0.00015919153785884247]",,,,0.162903574241,0.107539100828,0.170483067818,,0.00100302996257,-0.0232136141738,-0.0906203162363,"[0.00021676996662627705, 3.908370738629701e-05, 2.6404432946695767e-05, -1.385198610377639e-08, 9.784257724044559e-08, 2.582781461070934e-07, 3.908370738629701e-05, 0.00014355237605105797, 1.1382607110396244e-05, -7.346020695283036e-08, 2.4523834354519468e-08, -7.718256010926476e-08, 2.6404432946695767e-05, 1.1382607110396244e-05, 0.00021112979429696374, -7.944819831316773e-09, -4.705212138802995e-09, 1.340301117568514e-08, -1.385198610377639e-08, -7.346020695283036e-08, -7.944819831316773e-09, 2.1346348151445107e-08, -3.767612706072025e-12, -1.8108727560533843e-10, 9.784257724044559e-08, 2.4523834354519468e-08, -4.705212138802995e-09, -3.767612706072025e-12, 2.1355487790598584e-08, -1.8277871665078029e-10, 2.582781461070934e-07, -7.718256010926476e-08, 1.340301117568514e-08, -1.8108727560533843e-10, -1.8277871665078029e-10, 2.936694705186328e-08]"
1402414603415105815,,64978,,1402414603,365926980,/enu,/base_link,,,,7.49052487523,14.6838636324,-10.4641100276,,-0.0205616347622,0.00721909007604,0.746943546597,0.664530241683,"[0.02301843282427786, -0.0059241117093062085, -0.009396368399974105, -2.7274962063510615e-07, 1.2992154098542087e-06, -8.4672842732359e-05, -0.0059241117093062085, 0.02441494273352227, 0.022853392843336102, -3.2356200798575e-06, -1.494172216121938e-06, -7.134284331038437e-05, -0.009396368399974105, 0.022853392843336102, 0.16354613794349024, 1.2220657028582606e-06, -7.920480583784564e-07, 1.3290554821320614e-05, -2.7274962063510615e-07, -3.2356200798575e-06, 1.2220657028582606e-06, 4.135250873085171e-06, 3.588864793088444e-07, 1.0701118949946277e-06, 1.2992154098542087e-06, -1.494172216121938e-06, -7.920480583784564e-07, 3.588864793088444e-07, 3.876439996977475e-06, 1.032822005784235e-06, -8.4672842732359e-05, -7.134284331038437e-05, 1.3290554821320614e-05, 1.0701118949946277e-06, 1.032822005784235e-06, 0.00015921059952809274]",,,,0.162721966041,0.10793615434,0.171258276157,,0.0046478057844,-0.0206733109574,-0.0852084767577,"[0.00022062247713931514, 3.9710184422140026e-05, 2.6639397432613485e-05, -1.385937333734112e-08, 9.991923114640501e-08, 2.5763897257935487e-07, 3.9710184422140026e-05, 0.0001468047605560285, 1.1566912822379549e-05, -7.531948516849476e-08, 2.483348993834355e-08, -7.757216631600721e-08, 2.6639397432613485e-05, 1.1566912822379549e-05, 0.00021148612722054125, -7.993053458082893e-09, -4.601361009787959e-09, 1.33162673010222e-08, -1.385937333734112e-08, -7.531948516849476e-08, -7.993053458082893e-09, 2.134634813967825e-08, -3.767469197365925e-12, -1.8109109820676826e-10, 9.991923114640501e-08, 2.483348993834355e-08, -4.601361009787959e-09, -3.767469197365925e-12, 2.1355484149733164e-08, -1.8274290155074576e-10, 2.5763897257935487e-07, -7.757216631600721e-08, 1.33162673010222e-08, -1.8109109820676826e-10, -1.8274290155074576e-10, 2.936564754746863e-08]"
1402414603454883619,,64979,,1402414603,375916004,/enu,/base_link,,,,7.48925572796,14.6855275472,-10.4626648793,,-0.0204469829267,0.00713512784096,0.746673377299,0.664838234816,"[0.023020151425303552, -0.005924827315315431, -0.009397316594689016, -2.418159259998805e-07, 1.467165740026781e-06, -8.4786165852185e-05, -0.005924827315315431, 0.02441708200438398, 0.022855545579791043, -3.428525122793833e-06, -1.5303225574244958e-06, -7.108206875907365e-05, -0.009397316594689016, 0.022855545579791043, 0.1635715854022024, 1.2472347095251934e-06, -7.94302664513174e-07, 1.3299661249136067e-05, -2.418159259998805e-07, -3.428525122793833e-06, 1.2472347095251934e-06, 4.175505078167651e-06, 3.5889531934709185e-07, 1.069864322459634e-06, 1.467165740026781e-06, -1.5303225574244958e-06, -7.94302664513174e-07, 3.5889531934709185e-07, 3.916679473133456e-06, 1.031225964978028e-06, -8.4786165852185e-05, -7.108206875907365e-05, 1.3299661249136067e-05, 1.069864322459634e-06, 1.031225964978028e-06, 0.0001592311627856808]",,,,0.161255692374,0.108844134148,0.172233329537,,0.00442690992779,-0.02774196318,-0.0805697630867,"[0.00022462507307711548, 4.035090914773042e-05, 2.6879837717536007e-05, -1.386779395312883e-08, 1.0204866072804267e-07, 2.5699007372476033e-07, 4.035090914773042e-05, 0.00015018233294402885, 1.1751505750514708e-05, -7.722733564128492e-08, 2.514691499390462e-08, -7.79815254369013e-08, 2.6879837717536007e-05, 1.1751505750514708e-05, 0.00021184984808550274, -8.041692381329792e-09, -4.503123236031852e-09, 1.3210229395907128e-08, -1.386779395312883e-08, -7.722733564128492e-08, -8.041692381329792e-09, 2.1346348124973123e-08, -3.7673132868387005e-12, -1.810953856819067e-10, 1.0204866072804267e-07, 2.514691499390462e-08, -4.503123236031852e-09, -3.7673132868387005e-12, 2.135548045698572e-08, -1.8270706899167385e-10, 2.5699007372476033e-07, -7.79815254369013e-08, 1.3210229395907128e-08, -1.810953856819067e-10, -1.8270706899167385e-10, 2.936434785944376e-08]"
1402414603454910946,,64980,,1402414603,385935068,/enu,/base_link,,,,7.48798055988,14.6869419909,-10.46080196,,-0.020314861052,0.00701974875278,0.746393417356,0.665157797876,"[0.02302192883384959, -0.00592556388707251, -0.009398338903010001, -2.1042233133713056e-07, 1.6394778344897362e-06, -8.48966599446185e-05, -0.00592556388707251, 0.024419180150626604, 0.022857948553969786, -3.6261132016776452e-06, -1.566947462081913e-06, -7.082426109730611e-05, -0.009398338903010001, 0.022857948553969786, 0.16359673637899477, 1.2724008744689599e-06, -7.965285416645678e-07, 1.3308453505453978e-05, -2.1042233133713056e-07, -3.6261132016776452e-06, 1.2724008744689599e-06, 4.216003492789662e-06, 3.589039631683895e-07, 1.0696184920205205e-06, 1.6394778344897362e-06, -1.566947462081913e-06, -7.965285416645678e-07, 3.589039631683895e-07, 3.9571633441312384e-06, 1.029611702322765e-06, -8.48966599446185e-05, -7.082426109730611e-05, 1.3308453505453978e-05, 1.0696184920205205e-06, 1.029611702322765e-06, 0.00015925201539059475]",,,,0.16020482256,0.110870533529,0.170384046224,,0.00210750671522,-0.03436882652,-0.0841041457502,"[0.00022872023656836038, 4.100327426799202e-05, 2.7122073935539307e-05, -1.3871395214620334e-08, 1.0420387294725894e-07, 2.5634383519763636e-07, 4.100327426799202e-05, 0.00015364702612678436, 1.1934969622404589e-05, -7.916228157953048e-08, 2.546793985043293e-08, -7.838517155375524e-08, 2.7122073935539307e-05, 1.1934969622404589e-05, 0.00021221259873730356, -8.09176313371486e-09, -4.411305802616616e-09, 1.3085493951680506e-08, -1.3871395214620334e-08, -7.916228157953048e-08, -8.09176313371486e-09, 2.1346348107036592e-08, -3.7671446530827696e-12, -1.8110014529293174e-10, 1.0420387294725894e-07, 2.546793985043293e-08, -4.411305802616616e-09, -3.7671446530827696e-12, 2.1355476711542035e-08, -1.8267121922434835e-10, 2.5634383519763636e-07, -7.838517155375524e-08, 1.3085493951680506e-08, -1.8110014529293174e-10, -1.8267121922434835e-10, 2.9363047975456934e-08]"
1402414603454929845,,64981,,1402414603,395916938,/enu,/base_link,,,,7.4865784373,14.6884418719,-10.4590956189,,-0.0201692619727,0.00692690518328,0.746092713613,0.665500474493,"[0.023023745285854123, -0.005926312188112421, -0.009399264646550273, -1.7879506517977994e-07, 1.8149796159243995e-06, -8.500528135011286e-05, -0.005926312188112421, 0.024421427425810074, 0.022860226986068984, -3.8270520548747395e-06, -1.6037950397694031e-06, -7.057094973942554e-05, -0.009399264646550273, 0.022860226986068984, 0.1636217542622791, 1.2974940980241936e-06, -7.987063928609868e-07, 1.3317613759807566e-05, -1.7879506517977994e-07, -3.8270520548747395e-06, 1.2974940980241936e-06, 4.2562051245262814e-06, 3.589121630439077e-07, 1.0693744735239118e-06, 1.8149796159243995e-06, -1.6037950397694031e-06, -7.987063928609868e-07, 3.589121630439077e-07, 3.997350808420967e-06, 1.0279779319830809e-06, -8.500528135011286e-05, -7.057094973942554e-05, 1.3317613759807566e-05, 1.0693744735239118e-06, 1.0279779319830809e-06, 0.0001592724940841448]",,,,0.160029375946,0.112443065179,0.169474129246,,0.0074089989424,-0.0334852405115,-0.0900684060455,"[0.00023287168772866422, 4.166681333879797e-05, 2.7361666441638872e-05, -1.3866586505436886e-08, 1.0637003786020568e-07, 2.557070732718986e-07, 4.166681333879797e-05, 0.00015717874766485053, 1.21245505854806e-05, -8.111248669484199e-08, 2.5797763962222018e-08, -7.877024379448164e-08, 2.7361666441638872e-05, 1.21245505854806e-05, 0.00021257175358581706, -8.138131832215795e-09, -4.320985827863871e-09, 1.2968091540269205e-08, -1.3866586505436886e-08, -8.111248669484199e-08, -8.138131832215795e-09, 2.134634808553374e-08, -3.7669633274201716e-12, -1.8110537853393833e-10, 1.0637003786020568e-07, 2.5797763962222018e-08, -4.320985827863871e-09, -3.7669633274201716e-12, 2.1355472912077666e-08, -1.8263535200839786e-10, 2.557070732718986e-07, -7.877024379448164e-08, 1.2968091540269205e-08, -1.8110537853393833e-10, -1.8263535200839786e-10, 2.936174789468021e-08]"
1402414603454945460,,64982,,1402414603,406928062,/enu,/base_link,,,,7.48504675836,14.6901858097,-10.4574275852,,-0.0201146353589,0.0068179843744,0.745759407278,0.665876732579,"[0.023025767731207524, -0.005927170648798389, -0.00940029768929674, -1.435098249724175e-07, 2.0135399520214506e-06, -8.512676502978737e-05, -0.005927170648798389, 0.024423902541042396, 0.022862750411686516, -4.054108488184569e-06, -1.644965257270171e-06, -7.029891720929389e-05, -0.00940029768929674, 0.022862750411686516, 0.16364970046290897, 1.3246566718669508e-06, -8.010577266382232e-07, 1.332768008178282e-05, -1.435098249724175e-07, -4.054108488184569e-06, 1.3246566718669508e-06, 4.305098727829987e-06, 3.589237928510195e-07, 1.0691332284112803e-06, 2.0135399520214506e-06, -1.644965257270171e-06, -8.010577266382232e-07, 3.589237928510195e-07, 4.046227580049423e-06, 1.026339995175572e-06, -8.512676502978737e-05, -7.029891720929389e-05, 1.332768008178282e-05, 1.0691332284112803e-06, 1.026339995175572e-06, 0.00015930352503113653]",,,,0.161020887644,0.11503877004,0.171577469193,,-0.00628652399082,-0.0199001614776,-0.0900685027858,"[0.00023757612491431015, 4.240128792015258e-05, 2.763697364444337e-05, -1.3855817129061058e-08, 1.087828792823485e-07, 2.5501074620636667e-07, 4.240128792015258e-05, 0.00016120004923957432, 1.2333786507685559e-05, -8.328550676869024e-08, 2.6167625238311316e-08, -7.920271671567713e-08, 2.763697364444337e-05, 1.2333786507685559e-05, 0.00021302070785795722, -8.203918525048624e-09, -4.202388511640461e-09, 1.286600512851647e-08, -1.3855817129061058e-08, -8.328550676869024e-08, -8.203918525048624e-09, 2.1346348060008635e-08, -3.766769303543729e-12, -1.8111108370675417e-10, 1.087828792823485e-07, 2.6167625238311316e-08, -4.202388511640461e-09, -3.766769303543729e-12, 2.135546905929266e-08, -1.8259946858234701e-10, 2.5501074620636667e-07, -7.920271671567713e-08, 1.286600512851647e-08, -1.8111108370675417e-10, -1.8259946858234701e-10, 2.936044762129666e-08]"
1402414603494876014,,64983,,1402414603,416939973,/enu,/base_link,,,,7.48378576734,14.6915888559,-10.4555988739,,-0.0200626301882,0.00669261718632,0.745461993799,0.666212515303,"[0.02302768373060078, -0.0059279129981387926, -0.00940139991343493, -1.110365528722811e-07, 2.197904162419642e-06, -8.523344042463683e-05, -0.0059279129981387926, 0.024426240198727318, 0.02286501331224883, -4.2645425443575595e-06, -1.6827010760025882e-06, -7.005361793914553e-05, -0.00940139991343493, 0.02286501331224883, 0.16367515447447983, 1.3498158099865122e-06, -8.031331796811023e-07, 1.3336977941987412e-05, -1.110365528722811e-07, -4.2645425443575595e-06, 1.3498158099865122e-06, 4.345546816165634e-06, 3.5893142075907346e-07, 1.068891400100897e-06, 2.197904162419642e-06, -1.6827010760025882e-06, -8.031331796811023e-07, 3.5893142075907346e-07, 4.0866620803999485e-06, 1.0246667340604512e-06, -8.523344042463683e-05, -7.005361793914553e-05, 1.3336977941987412e-05, 1.068891400100897e-06, 1.0246667340604512e-06, 0.0001593242816591735]",,,,0.159744406217,0.11682569607,0.170564212281,,-0.00993130053628,-0.0237658291836,-0.0886327607136,"[0.00024190462241007016, 4.307541597863149e-05, 2.789044470477565e-05, -1.3843876572377809e-08, 1.1099929387230507e-07, 2.543743461564543e-07, 4.307541597863149e-05, 0.00016489801341707053, 1.2522937967021406e-05, -8.52839066296309e-08, 2.6506515771753183e-08, -7.959561444400228e-08, 2.789044470477565e-05, 1.2522937967021406e-05, 0.00021339159287896145, -8.267215273268055e-09, -4.098004057443348e-09, 1.2760875029373667e-08, -1.3843876572377809e-08, -8.52839066296309e-08, -8.267215273268055e-09, 2.134634802970489e-08, -3.766561243937717e-12, -1.8111730986864465e-10, 1.1099929387230507e-07, 2.6506515771753183e-08, -4.098004057443348e-09, -3.766561243937717e-12, 2.1355465146102544e-08, -1.8256356555369185e-10, 2.543743461564543e-07, -7.959561444400228e-08, 1.2760875029373667e-08, -1.8111730986864465e-10, -1.8256356555369185e-10, 2.935914706740218e-08]"
1402414603494913623,,64984,,1402414603,426924943,/enu,/base_link,,,,7.48244608373,14.6933266922,-10.4543269639,,-0.0199573545338,0.0065704712094,0.745174855954,0.666538046147,"[0.023029581190869657, -0.005928703512961318, -0.009402321783503215, -7.828654012455e-08, 2.3857015283336576e-06, -8.533635306400666e-05, -0.005928703512961318, 0.024428628175183653, 0.02286723913586629, -4.478562396482301e-06, -1.720677765384649e-06, -6.981014193848906e-05, -0.009402321783503215, 0.02286723913586629, 0.16370071237033068, 1.3748590957607e-06, -8.052178667652186e-07, 1.3345938037860673e-05, -7.828654012455e-08, -4.478562396482301e-06, 1.3748590957607e-06, 4.385780540140989e-06, 3.589386366717917e-07, 1.0686503356434037e-06, 2.3857015283336576e-06, -1.720677765384649e-06, -8.052178667652186e-07, 3.589386366717917e-07, 4.126882604277686e-06, 1.0229746152988852e-06, -8.533635306400666e-05, -6.981014193848906e-05, 1.3345938037860673e-05, 1.0686503356434037e-06, 1.0229746152988852e-06, 0.0001593447656066527]",,,,0.15851315585,0.117343436208,0.168241744141,,-0.00242085321733,-0.0313867205191,-0.0856507636832,"[0.0002463080047051522, 4.375611352416301e-05, 2.8139705967582278e-05, -1.3831357676512994e-08, 1.1323049296510373e-07, 2.5374089199457555e-07, 4.375611352416301e-05, 0.000168661791971014, 1.2713619091033745e-05, -8.729833723741079e-08, 2.684491593623327e-08, -7.999295535067666e-08, 2.8139705967582278e-05, 1.2713619091033745e-05, 0.00021375437876533938, -8.323999619602654e-09, -4.004674485651177e-09, 1.2642767029643524e-08, -1.3831357676512994e-08, -8.729833723741079e-08, -8.323999619602654e-09, 2.1346347994801567e-08, -3.766340466027725e-12, -1.811240095131209e-10, 1.1323049296510373e-07, 2.684491593623327e-08, -4.004674485651177e-09, -3.766340466027725e-12, 2.1355461177919906e-08, -1.8252764697604238e-10, 2.5374089199457555e-07, -7.999295535067666e-08, 1.2642767029643524e-08, -1.811240095131209e-10, -1.8252764697604238e-10, 2.9357846319734193e-08]"
1402414603494935704,,64985,,1402414603,436898946,/enu,/base_link,,,,7.48114731187,14.6946940647,-10.4525540586,,-0.0198905515891,0.00644441294352,0.74488912495,0.666860575406,"[0.023031571336480566, -0.005929509713487332, -0.009403288486269196, -4.52242322097768e-08, 2.577273303280865e-06, -8.543789762679462e-05, -0.005929509713487332, 0.024431021271025314, 0.022869600320841527, -4.696582725886753e-06, -1.7589745496534164e-06, -6.957094695889182e-05, -0.009403288486269196, 0.022869600320841527, 0.16372589100364482, 1.39987219996745e-06, -8.072428105264108e-07, 1.3354763114636843e-05, -4.52242322097768e-08, -4.696582725886753e-06, 1.39987219996745e-06, 4.425928542032054e-06, 3.58945500152504e-07, 1.0684101604850331e-06, 2.577273303280865e-06, -1.7589745496534164e-06, -8.072428105264108e-07, 3.58945500152504e-07, 4.167017750852052e-06, 1.0212638497445817e-06, -8.543789762679462e-05, -6.957094695889182e-05, 1.3354763114636843e-05, 1.0684101604850331e-06, 1.0212638497445817e-06, 0.0001593651346720195]",,,,0.158281066559,0.119284463345,0.16673656633,,-0.00816413732672,-0.026195671551,-0.0853195045007,"[0.00025078508458612744, 4.444083839996474e-05, 2.8394334217349555e-05, -1.3815335445872513e-08, 1.1548038570707644e-07, 2.531090926278197e-07, 4.444083839996474e-05, 0.0001724969573072958, 1.290602125069767e-05, -8.933125973754233e-08, 2.718669692280426e-08, -8.039192889945153e-08, 2.8394334217349555e-05, 1.290602125069767e-05, 0.00021412070648464175, -8.387171112223467e-09, -3.904787190834909e-09, 1.2533957010389929e-08, -1.3815335445872513e-08, -8.933125973754233e-08, -8.387171112223467e-09, 2.134634795482057e-08, -3.766106970534977e-12, -1.8113118140002026e-10, 1.1548038570707644e-07, 2.718669692280426e-08, -3.904787190834909e-09, -3.766106970534977e-12, 2.1355457154385732e-08, -1.8249171320585616e-10, 2.531090926278197e-07, -8.039192889945153e-08, 1.2533957010389929e-08, -1.8113118140002026e-10, -1.8249171320585616e-10, 2.9356545382059604e-08]"
1402414603494959240,,64986,,1402414603,446919918,/enu,/base_link,,,,7.47966688178,14.6962193423,-10.4509735869,,-0.0198395688027,0.00632160877193,0.744616068516,0.66716814918,"[0.023033560381295285, -0.005930325841366594, -0.009404271810864926, -1.164244183788307e-08, 2.773821121420549e-06, -8.553799061859348e-05, -0.005930325841366594, 0.02443352315841127, 0.02287186762412629, -4.919955270371928e-06, -1.79780785438143e-06, -6.933321419871388e-05, -0.009404271810864926, 0.02287186762412629, 0.16375151735923868, 1.4249649958024185e-06, -8.092712943319447e-07, 1.3363974828722755e-05, -1.164244183788307e-08, -4.919955270371928e-06, 1.4249649958024185e-06, 4.466456730833559e-06, 3.589522207936582e-07, 1.0681705545427462e-06, 2.773821121420549e-06, -1.79780785438143e-06, -8.092712943319447e-07, 3.589522207936582e-07, 4.207533278098332e-06, 1.0195355199049905e-06, -8.553799061859348e-05, -6.933321419871388e-05, 1.3363974828722755e-05, 1.0681705545427462e-06, 1.0195355199049905e-06, 0.00015938596003143706]",,,,0.157607612349,0.120176457298,0.166443500316,,-0.00982085431138,-0.0233240253082,-0.0809016848587,"[0.00025536997274985725, 4.5131967173626654e-05, 2.8654240188040054e-05, -1.3799317900655008e-08, 1.1776266062996778e-07, 2.5247315854190564e-07, 4.5131967173626654e-05, 0.0001764266665406331, 1.3101418029256385e-05, -9.139402437099941e-08, 2.7529139964519067e-08, -8.08039580983827e-08, 2.8654240188040054e-05, 1.3101418029256385e-05, 0.00021449255679917103, -8.453488274361896e-09, -3.801206784350579e-09, 1.243097943948454e-08, -1.3799317900655008e-08, -9.139402437099941e-08, -8.453488274361896e-09, 2.1346347909509247e-08, -3.765860606399439e-12, -1.8113882506785409e-10, 1.1776266062996778e-07, 2.7529139964519067e-08, -3.801206784350579e-09, -3.765860606399439e-12, 2.1355453075272242e-08, -1.8245576502051125e-10, 2.5247315854190564e-07, -8.08039580983827e-08, 1.243097943948454e-08, -1.8113882506785409e-10, -1.8245576502051125e-10, 2.9355244257658845e-08]"
1402414603534875299,,64987,,1402414603,456873893,/enu,/base_link,,,,7.47828474144,14.6977080519,-10.4493939662,,-0.0198654825622,0.0061590200955,0.744325356961,0.667493214991,"[0.023035597804151715, -0.005931142455956504, -0.009405238283519196, 2.2071854311973445e-08, 2.973144832510303e-06, -8.563517587483472e-05, -0.005931142455956504, 0.02443605365095075, 0.022874195076395716, -5.1461835751923495e-06, -1.8367594348051374e-06, -6.910371845182297e-05, -0.009405238283519196, 0.022874195076395716, 0.16377687991380105, 1.449888991765998e-06, -8.111542864623098e-07, 1.3372870335528858e-05, 2.2071854311973445e-08, -5.1461835751923495e-06, 1.449888991765998e-06, 4.506448736995876e-06, 3.589583798977545e-07, 1.0679305620222946e-06, 2.973144832510303e-06, -1.8367594348051374e-06, -8.111542864623098e-07, 3.589583798977545e-07, 4.247513174057189e-06, 1.017788416683921e-06, -8.563517587483472e-05, -6.910371845182297e-05, 1.3372870335528858e-05, 1.0679305620222946e-06, 1.017788416683921e-06, 0.0001594061182825018]",,,,0.156932820911,0.124134315638,0.166540109796,,-0.0260566758444,-0.0172493946254,-0.0868659443818,"[0.00025999588826906134, 4.582496020228958e-05, 2.8923600740573173e-05, -1.377425097635402e-08, 1.2004884974260776e-07, 2.518467640683082e-07, 4.582496020228958e-05, 0.00018040779387201356, 1.3297185018541008e-05, -9.34633783045613e-08, 2.7880857040925215e-08, -8.119980465545514e-08, 2.8923600740573173e-05, 1.3297185018541008e-05, 0.0002148673393274035, -8.536044120908234e-09, -3.6872114861556326e-09, 1.2331654844435231e-08, -1.377425097635402e-08, -9.34633783045613e-08, -8.536044120908234e-09, 2.1346347858369665e-08, -3.765601505124959e-12, -1.8114694278205343e-10, 1.2004884974260776e-07, 2.7880857040925215e-08, -3.6872114861556326e-09, -3.765601505124959e-12, 2.1355448939407732e-08, -1.824198023735358e-10, 2.518467640683082e-07, -8.119980465545514e-08, 1.2331654844435231e-08, -1.8114694278205343e-10, -1.824198023735358e-10, 2.93539429390429e-08]"
1402414603534903200,,64988,,1402414603,466881990,/enu,/base_link,,,,7.47679532163,14.6992505766,-10.4479645635,,-0.0198369136103,0.00596317808162,0.744042308239,0.667811336319,"[0.02303769220539362, -0.005931985172035085, -0.009406217269512806, 5.6342342524281934e-08, 3.1776788134538574e-06, -8.572830221541921e-05, -0.005931985172035085, 0.024438695817219375, 0.022876456048832018, -5.377998742657461e-06, -1.8762767369411688e-06, -6.88751912836078e-05, -0.009406217269512806, 0.022876456048832018, 0.16380251152720163, 1.4748291258371378e-06, -8.130472629101314e-07, 1.338198183643748e-05, 5.6342342524281934e-08, -5.377998742657461e-06, 1.4748291258371378e-06, 4.546877743380439e-06, 3.5896441078257357e-07, 1.06768968254703e-06, 3.1776788134538574e-06, -1.8762767369411688e-06, -8.130472629101314e-07, 3.5896441078257357e-07, 4.287930271495358e-06, 1.0160238263849667e-06, -8.572830221541921e-05, -6.88751912836078e-05, 1.338198183643748e-05, 1.06768968254703e-06, 1.0160238263849667e-06, 0.0001594268027798154]",,,,0.154880958596,0.12510578715,0.165190543784,,-0.0236268257465,-0.0297299873016,-0.084104848317,"[0.0002647424338060777, 4.652946321452598e-05, 2.918995821544752e-05, -1.3748773505631366e-08, 1.2236746306759274e-07, 2.512195000523707e-07, 4.652946321452598e-05, 0.0001844912912697705, 1.3492418164762493e-05, -9.556455558065806e-08, 2.82353892353855e-08, -8.160364346528083e-08, 2.918995821544752e-05, 1.3492418164762493e-05, 0.00021523841947800217, -8.616858689958062e-09, -3.5883301984303187e-09, 1.2202401415360682e-08, -1.3748773505631366e-08, -9.556455558065806e-08, -8.616858689958062e-09, 2.134634780154123e-08, -3.765329638799698e-12, -1.8115553143377714e-10, 1.2236746306759274e-07, 2.82353892353855e-08, -3.5883301984303187e-09, -3.765329638799698e-12, 2.135544474730293e-08, -1.8238382614164454e-10, 2.512195000523707e-07, -8.160364346528083e-08, 1.2202401415360682e-08, -1.8115553143377714e-10, -1.8238382614164454e-10, 2.9352641436222176e-08]"
1402414603534925006,,64989,,1402414603,476871967,/enu,/base_link,,,,7.47536098662,14.7005694247,-10.4461335485,,-0.019852500736,0.00581644991626,0.743784831292,0.668098923712,"[0.02303982375571406, -0.0059328157977256175, -0.009407228373644824, 9.089580317042549e-08, 3.386061046416953e-06, -8.58214050444162e-05, -0.0059328157977256175, 0.024441378218581337, 0.02287876541605064, -5.613868556927305e-06, -1.916075311206639e-06, -6.864898554449729e-05, -0.009407228373644824, 0.02287876541605064, 0.1638281223308364, 1.4997627925604893e-06, -8.14933759989222e-07, 1.3391105162539004e-05, 9.089580317042549e-08, -5.613868556927305e-06, 1.4997627925604893e-06, 4.587163184142859e-06, 3.5897005205900465e-07, 1.0674480453080395e-06, 3.386061046416953e-06, -1.916075311206639e-06, -8.14933759989222e-07, 3.5897005205900465e-07, 4.328204228701632e-06, 1.0142407769509451e-06, -8.58214050444162e-05, -6.864898554449729e-05, 1.3391105162539004e-05, 1.0674480453080395e-06, 1.0142407769509451e-06, 0.00015944730164879414]",,,,0.155512568355,0.125730373396,0.164857337932,,-0.0224119009282,-0.0166971474202,-0.076484031099,"[0.00026956430435500823, 4.723222158405e-05, 2.9464747894224766e-05, -1.3726213583868362e-08, 1.2470566471871267e-07, 2.5058731651716547e-07, 4.723222158405e-05, 0.00018864068279827306, 1.369532967545708e-05, -9.768219125940467e-08, 2.858341235239895e-08, -8.202659173582413e-08, 2.9464747894224766e-05, 1.369532967545708e-05, 0.00021561559640842628, -8.699880730327346e-09, -3.4746328921133582e-09, 1.2107156105265594e-08, -1.3726213583868362e-08, -9.768219125940467e-08, -8.699880730327346e-09, 2.1346347738061582e-08, -3.7650447954539e-12, -1.8116459345880954e-10, 1.2470566471871267e-07, 2.858341235239895e-08, -3.4746328921133582e-09, -3.7650447954539e-12, 2.135544049738226e-08, -1.8234783640189026e-10, 2.5058731651716547e-07, -8.202659173582413e-08, 1.2107156105265594e-08, -1.8116459345880954e-10, -1.8234783640189026e-10, 2.9351339745118173e-08]"
1402414603534950328,,64990,,1402414603,487869024,/enu,/base_link,,,,7.47379718434,14.7023431616,-10.4445934257,,-0.0198666563787,0.00569876709966,0.743479593699,0.668439177316,"[0.023042249071654624, -0.005933788217530914, -0.00940836453187538, 1.2933812329836027e-07, 3.6206809665407286e-06, -8.592328776943378e-05, -0.005933788217530914, 0.024444371276408784, 0.022881333456723277, -5.8791528564150365e-06, -1.960392258353039e-06, -6.840591476243245e-05, -0.00940836453187538, 0.022881333456723277, 0.1638563664037752, 1.526634531084793e-06, -8.169842451457805e-07, 1.3401244993904838e-05, 1.2933812329836027e-07, -5.8791528564150365e-06, 1.526634531084793e-06, 4.6359542799554074e-06, 3.5897900104683545e-07, 1.0672061421646911e-06, 3.6206809665407286e-06, -1.960392258353039e-06, -8.169842451457805e-07, 3.5897900104683545e-07, 4.376981278263566e-06, 1.0124520971225155e-06, -8.592328776943378e-05, -6.840591476243245e-05, 1.3401244993904838e-05, 1.0672061421646911e-06, 1.0124520971225155e-06, 0.00015947812421230744]",,,,0.154970994733,0.127744004165,0.164358614148,,-0.0160059314627,-0.0117269935532,-0.0820065162512,"[0.0002750025917465238, 4.8020345368998284e-05, 2.976898273170551e-05, -1.3690938180425388e-08, 1.2730081148425306e-07, 2.499035917901486e-07, 4.8020345368998284e-05, 0.00019335127940521248, 1.3929343153191655e-05, -1.000379904133961e-07, 2.8978308857479532e-08, -8.248176794768637e-08, 2.976898273170551e-05, 1.3929343153191655e-05, 0.00021607238695296063, -8.787102609256878e-09, -3.344786844862818e-09, 1.202154622990193e-08, -1.3690938180425388e-08, -1.000379904133961e-07, -8.787102609256878e-09, 2.1346347667765636e-08, -3.76474715712389e-12, -1.811741282105243e-10, 1.2730081148425306e-07, 2.8978308857479532e-08, -3.344786844862818e-09, -3.76474715712389e-12, 2.135543619005789e-08, -1.8231183341801787e-10, 2.499035917901486e-07, -8.248176794768637e-08, 1.202154622990193e-08, -1.811741282105243e-10, -1.8231183341801787e-10, 2.935003786752226e-08]"
1402414603574851442,,64991,,1402414603,497870922,/enu,/base_link,,,,7.47223544326,14.70385165,-10.4431648471,,-0.0198290894208,0.00560793735925,0.743215854442,0.668734290998,"[0.023044485752768937, -0.005934681667953244, -0.009409341082691982, 1.646969847965734e-07, 3.838186159765383e-06, -8.601113462529541e-05, -0.005934681667953244, 0.024447207112433013, 0.022883579106480104, -6.124680431203411e-06, -2.0009821209662896e-06, -6.818497676560252e-05, -0.009409341082691982, 0.022883579106480104, 0.1638822694636455, 1.551506296120231e-06, -8.188301932931812e-07, 1.3410324377461312e-05, 1.646969847965734e-07, -6.124680431203411e-06, 1.551506296120231e-06, 4.676340097316953e-06, 3.5898399551524907e-07, 1.0669643227732867e-06, 3.838186159765383e-06, -2.0009821209662896e-06, -8.188301932931812e-07, 3.5898399551524907e-07, 4.417356422660088e-06, 1.0106309823231313e-06, -8.601113462529541e-05, -6.818497676560252e-05, 1.3410324377461312e-05, 1.0669643227732867e-06, 1.0106309823231313e-06, 0.00015949872262375526]",,,,0.153327826364,0.128620445446,0.162893196307,,-0.00694921490745,-0.0170284857624,-0.079576655504,"[0.0002800097526752229, 4.874526976904418e-05, 3.0041584838245638e-05, -1.365963433891124e-08, 1.2968433954618786e-07, 2.492744837065454e-07, 4.874526976904418e-05, 0.00019768468583508612, 1.414402366148729e-05, -1.0220385877647864e-07, 2.9335611869003798e-08, -8.289913911635269e-08, 3.0041584838245638e-05, 1.414402366148729e-05, 0.0002164463087122984, -8.858133610073262e-09, -3.236092333178297e-09, 1.1937533833747117e-08, -1.365963433891124e-08, -1.0220385877647864e-07, -8.858133610073262e-09, 2.134634758988341e-08, -3.764435421320661e-12, -1.8118418376714406e-10, 1.2968433954618786e-07, 2.9335611869003798e-08, -3.236092333178297e-09, -3.764435421320661e-12, 2.1355431818410228e-08, -1.8227581466655766e-10, 2.492744837065454e-07, -8.289913911635269e-08, 1.1937533833747117e-08, -1.8118418376714406e-10, -1.8227581466655766e-10, 2.9348735718444973e-08]"
1402414603574877872,,64992,,1402414603,507872104,/enu,/base_link,,,,7.47082177543,14.7051363276,-10.4413861207,,-0.0197962207145,0.00551638599165,0.742942910441,0.669039244706,"[0.02304676474363624, -0.005935548052119976, -0.009410375891904068, 2.00412677897373e-07, 4.059974678620838e-06, -8.609610858970607e-05, -0.005935548052119976, 0.024450074042968836, 0.022885932170441957, -6.374745054326472e-06, -2.0419358194453736e-06, -6.796881587022652e-05, -0.009410375891904068, 0.022885932170441957, 0.1639078910031798, 1.5763311602005605e-06, -8.206028682858275e-07, 1.341964073784773e-05, 2.00412677897373e-07, -6.374745054326472e-06, 1.5763311602005605e-06, 4.716722365329322e-06, 3.589886766549146e-07, 1.0667230951116037e-06, 4.059974678620838e-06, -2.0419358194453736e-06, -8.206028682858275e-07, 3.589886766549146e-07, 4.457728399889737e-06, 1.0087923747021874e-06, -8.609610858970607e-05, -6.796881587022652e-05, 1.341964073784773e-05, 1.0667230951116037e-06, 1.0087923747021874e-06, 0.00015951930709538905]",,,,0.15210021217,0.130796166232,0.161458620895,,-0.00761190222638,-0.0164762426267,-0.0805707755542,"[0.0002851010630702224, 4.9479470608019376e-05, 3.0316771685189578e-05, -1.3622151430127317e-08, 1.3208746457196278e-07, 2.4865241720844737e-07, 4.9479470608019376e-05, 0.00020210399696824887, 1.4362726079943691e-05, -1.0439106536966308e-07, 2.9700217668693797e-08, -8.330869112165835e-08, 3.0316771685189578e-05, 1.4362726079943691e-05, 0.00021682085618499798, -8.931120272636817e-09, -3.126689251869603e-09, 1.1854868564349356e-08, -1.3622151430127317e-08, -1.0439106536966308e-07, -8.931120272636817e-09, 2.1346347504429782e-08, -3.764110721125125e-12, -1.811947125975192e-10, 1.3208746457196278e-07, 2.9700217668693797e-08, -3.126689251869603e-09, -3.764110721125125e-12, 2.1355427387739362e-08, -1.822397835416003e-10, 2.4865241720844737e-07, -8.330869112165835e-08, 1.1854868564349356e-08, -1.811947125975192e-10, -1.822397835416003e-10, 2.9347433382770947e-08]"
1402414603574909599,,64993,,1402414603,517870903,/enu,/base_link,,,,7.46936058442,14.7064929717,-10.4397386556,,-0.0197698611861,0.00545054101273,0.742663100579,0.669351150914,"[0.02304911304852372, -0.005936482612681356, -0.009411342414694894, 2.3648214320826028e-07, 4.286068468773051e-06, -8.617848599284503e-05, -0.005936482612681356, 0.024453023155677087, 0.022888280668546822, -6.629346819005318e-06, -2.0832446197039208e-06, -6.775634448797746e-05, -0.009411342414694894, 0.022888280668546822, 0.1639336418548793, 1.6010931437119886e-06, -8.223207697145373e-07, 1.3428641086714924e-05, 2.3648214320826028e-07, -6.629346819005318e-06, 1.6010931437119886e-06, 4.7570876472015984e-06, 3.5899304027966596e-07, 1.0664825472111407e-06, 4.286068468773051e-06, -2.0832446197039208e-06, -8.223207697145373e-07, 3.5899304027966596e-07, 4.498083785521126e-06, 1.0069364721827285e-06, -8.617848599284503e-05, -6.775634448797746e-05, 1.3428641086714924e-05, 1.0664825472111407e-06, 1.0069364721827285e-06, 0.0001595398611979612]",,,,0.150985275532,0.132790534098,0.161297362262,,-0.00462981338075,-0.0120583275556,-0.0825589189527,"[0.00029027446618138433, 5.022275076642976e-05, 3.059561720999892e-05, -1.3578725861107398e-08, 1.3451010487861093e-07, 2.4803370600902696e-07, 5.022275076642976e-05, 0.00020660958182073088, 1.4587564910085072e-05, -1.0659924499481907e-07, 3.007100112166489e-08, -8.371307004995695e-08, 3.059561720999892e-05, 1.4587564910085072e-05, 0.000217197173314672, -9.002726881773722e-09, -3.0126586888828284e-09, 1.1785781476427844e-08, -1.3578725861107398e-08, -1.0659924499481907e-07, -9.002726881773722e-09, 2.1346347411173645e-08, -3.76377311294321e-12, -1.8120571462485904e-10, 1.3451010487861093e-07, 3.007100112166489e-08, -3.0126586888828284e-09, -3.76377311294321e-12, 2.1355422898083312e-08, -1.8220374069025646e-10, 2.4803370600902696e-07, -8.371307004995695e-08, 1.1785781476427844e-08, -1.8120571462485904e-10, -1.8220374069025646e-10, 2.9346130862535852e-08]"
1402414603574937964,,64994,,1402414603,527817010,/enu,/base_link,,,,7.46774759661,14.7079492622,-10.4382575871,,-0.0198252642973,0.0053118289337,0.74239383347,0.669649265955,"[0.02305149662751385, -0.0059373715597337015, -0.009412416829570664, 2.727285767760241e-07, 4.515307394631014e-06, -8.625722662660588e-05, -0.0059373715597337015, 0.024456053088782653, 0.0228905510842406, -6.887213725791075e-06, -2.1247098593053906e-06, -6.755218518573989e-05, -0.009412416829570664, 0.0228905510842406, 0.1639592678697547, 1.6257195644524689e-06, -8.238855136594609e-07, 1.3438004169043778e-05, 2.727285767760241e-07, -6.887213725791075e-06, 1.6257195644524689e-06, 4.797032055561788e-06, 3.58996901171601e-07, 1.0662418140650777e-06, 4.515307394631014e-06, -2.1247098593053906e-06, -8.238855136594609e-07, 3.58996901171601e-07, 4.5380188630461725e-06, 1.0050629704886868e-06, -8.625722662660588e-05, -6.755218518573989e-05, 1.3438004169043778e-05, 1.0662418140650777e-06, 1.0050629704886868e-06, 0.00015955988989044913]",,,,0.150088787175,0.136872809584,0.160181353514,,-0.0266089187128,-0.00973892036443,-0.080018697034,"[0.0002955078586250519, 5.0960232650238504e-05, 3.088891084690151e-05, -1.353445265048363e-08, 1.3694130499394602e-07, 2.474178118946295e-07, 5.0960232650238504e-05, 0.00021116517664418295, 1.4813093663896248e-05, -1.0881446348285253e-07, 3.0441538660777596e-08, -8.412345039782437e-08, 3.088891084690151e-05, 1.4813093663896248e-05, 0.00021757763989171478, -9.098654381127203e-09, -2.8895367005938186e-09, 1.170536576910168e-08, -1.353445265048363e-08, -1.0881446348285253e-07, -9.098654381127203e-09, 2.1346347309829584e-08, -3.763422504676918e-12, -1.812171896795992e-10, 1.3694130499394602e-07, 3.0441538660777596e-08, -2.8895367005938186e-09, -3.763422504676918e-12, 2.1355418348564443e-08, -1.8216768615362977e-10, 2.474178118946295e-07, -8.412345039782437e-08, 1.170536576910168e-08, -1.812171896795992e-10, -1.8216768615362977e-10, 2.934482815888182e-08]"
1402414603614886542,,64995,,1402414603,537821054,/enu,/base_link,,,,7.42351920107,14.6691182334,-10.3742612866,,-0.0204306203647,-0.00125312984274,0.742118378643,0.669956216105,"[0.02303460316772257, -0.005934553660961073, -0.009407499597981886, 5.04056211859729e-08, 2.8308967142319477e-06, -8.552470623320503e-05, -0.005934553660961073, 0.024440469721226623, 0.022881676522298666, -5.091194798887732e-06, -1.9635897690982327e-06, -6.817371154958332e-05, -0.009407499597981886, 0.022881676522298666, 0.16385382320642766, 1.6454506305201094e-06, -8.231869933435363e-07, 1.3365012768802707e-05, 5.04056211859729e-08, -5.091194798887732e-06, 1.6454506305201094e-06, 4.475986571352884e-06, 3.645381601430064e-07, 1.1744512304272558e-06, 2.8308967142319477e-06, -1.9635897690982327e-06, -8.231869933435363e-07, 3.645381601430064e-07, 4.209532071998068e-06, 1.1149248833086138e-06, -8.552470623320503e-05, -6.817371154958332e-05, 1.3365012768802707e-05, 1.1744512304272558e-06, 1.1149248833086138e-06, 0.00015951279296373927]",,,,0.0739377623541,0.231574467347,0.171239712055,,-0.025120011869,-0.00613100159358,-0.0811245350915,"[0.0002672725676107184, 4.8273291332170854e-05, 2.7898535760238328e-05, -1.641765510839324e-08, 1.1645329272163567e-07, 3.2615373371564827e-07, 4.8273291332170854e-05, 0.00017887814520133155, 1.4162746540394913e-05, -9.431422225808511e-08, 2.661740343991641e-08, -1.9459890674278336e-08, 2.7898535760238328e-05, 1.4162746540394913e-05, 0.00021488459321576835, -1.1373915618564434e-08, -6.193647859437358e-09, 1.2687785087577483e-08, -1.641765510839324e-08, -9.431422225808511e-08, -1.1373915618564434e-08, 2.1336046630523095e-08, -3.890618085526075e-12, -1.7897899402009962e-10, 1.1645329272163567e-07, 2.661740343991641e-08, -6.193647859437358e-09, -3.890618085526075e-12, 2.134538941986511e-08, -1.8599302316552317e-10, 3.2615373371564827e-07, -1.9459890674278336e-08, 1.2687785087577483e-08, -1.7897899402009962e-10, -1.8599302316552317e-10, 2.9341492152446405e-08]"
1402414603614922484,,64996,,1402414603,547818899,/enu,/base_link,,,,7.4212527473,14.6697644465,-10.3728331692,,-0.0204320019958,-0.00132922403346,0.741841033794,0.670263117766,"[0.02303669479218308, -0.0059354163190206925, -0.009408524993268984, 8.47415551405853e-08, 3.033044665934457e-06, -8.558400358357418e-05, -0.0059354163190206925, 0.02444321636291337, 0.022883889287261615, -5.320515228657428e-06, -2.003104100802498e-06, -6.798902376489057e-05, -0.009408524993268984, 0.022883889287261615, 0.1638794581718291, 1.6698810438423394e-06, -8.243478636236057e-07, 1.3374279467316572e-05, 8.47415551405853e-08, -5.320515228657428e-06, 1.6698810438423394e-06, 4.516328772134023e-06, 3.6454176283940133e-07, 1.1740929219900322e-06, 3.033044665934457e-06, -2.003104100802498e-06, -8.243478636236057e-07, 3.6454176283940133e-07, 4.249860148480669e-06, 1.1130659923739867e-06, -8.558400358357418e-05, -6.798902376489057e-05, 1.3374279467316572e-05, 1.1740929219900322e-06, 1.1130659923739867e-06, 0.0001595332615103461]",,,,0.0720225550975,0.233228615749,0.171431425188,,-0.0102095644796,-0.00889219086478,-0.0818977341935,"[0.000271922677747971, 4.896866033239604e-05, 2.8101851516976184e-05, -1.6395353524632956e-08, 1.18754364613362e-07, 3.254259848944861e-07, 4.896866033239604e-05, 0.00018290527933542157, 1.443679367509644e-05, -9.639354277487105e-08, 2.696847228373018e-08, -1.9849451949843165e-08, 2.8101851516976184e-05, 1.443679367509644e-05, 0.00021526472093855517, -1.149247068082497e-08, -6.110625720561153e-09, 1.2618153251911256e-08, -1.6395353524632956e-08, -9.639354277487105e-08, -1.149247068082497e-08, 2.13360465721607e-08, -3.8903185540364914e-12, -1.7898762923300775e-10, 1.18754364613362e-07, 2.696847228373018e-08, -6.110625720561153e-09, -3.8903185540364914e-12, 2.1345385237971713e-08, -1.8595628795004106e-10, 3.254259848944861e-07, -1.9849451949843165e-08, 1.2618153251911256e-08, -1.7898762923300775e-10, -1.8595628795004106e-10, 2.9340187824323137e-08]"
1402414603614943951,,64997,,1402414603,557820081,/enu,/base_link,,,,7.41875921273,14.6701843743,-10.3709603229,,-0.0203659257273,-0.00128821420562,0.741598671427,0.670533354958,"[0.0230388435264805, -0.005936292854468117, -0.009409477841401826, 1.194545421782458e-07, 3.2394657553097507e-06, -8.564171693557204e-05, -0.005936292854468117, 0.024445924439379964, 0.022886309302172277, -5.554350188983063e-06, -2.042972162604659e-06, -6.780352225440182e-05, -0.009409477841401826, 0.022886309302172277, 0.16390489186067062, 1.694285195989962e-06, -8.25589538814802e-07, 1.3383400538636228e-05, 1.194545421782458e-07, -5.554350188983063e-06, 1.694285195989962e-06, 4.556700127527766e-06, 3.645450738329198e-07, 1.1737360136726665e-06, 3.2394657553097507e-06, -2.042972162604659e-06, -8.25589538814802e-07, 3.645450738329198e-07, 4.290217715190651e-06, 1.1111907135755124e-06, -8.564171693557204e-05, -6.780352225440182e-05, 1.3383400538636228e-05, 1.1737360136726665e-06, 1.1111907135755124e-06, 0.00015955375612229162]",,,,0.0716521721119,0.231811447576,0.171586359543,,0.0160770021982,-0.00336979733487,-0.0708530478294,"[0.0002766661847319144, 4.9668870170791786e-05, 2.8298998605920075e-05, -1.6379212407098046e-08, 1.21079912482736e-07, 3.2469914949361186e-07, 4.9668870170791786e-05, 0.000187011528336085, 1.4722574158004004e-05, -9.849582984218996e-08, 2.7308522061951172e-08, -2.0269466945709186e-08, 2.8298998605920075e-05, 1.4722574158004004e-05, 0.00021564080437394938, -1.1588259572012466e-08, -6.028112181748025e-09, 1.2571004965953031e-08, -1.6379212407098046e-08, -9.849582984218996e-08, -1.1588259572012466e-08, 2.1336046507592277e-08, -3.890005608616175e-12, -1.7899674075184111e-10, 1.21079912482736e-07, 2.7308522061951172e-08, -6.028112181748025e-09, -3.890005608616175e-12, 2.1345380999383865e-08, -1.8591953906239368e-10, 3.2469914949361186e-07, -2.0269466945709186e-08, 1.2571004965953031e-08, -1.7899674075184111e-10, -1.8591953906239368e-10, 2.9338883321824125e-08]"
1402414603614967385,,64998,,1402414603,567819118,/enu,/base_link,,,,7.41634179222,14.6706390896,-10.3692709544,,-0.020328246072,-0.00131064683483,0.741361947294,0.670796174497,"[0.023041024374906356, -0.005937185498411771, -0.009410519225013216, 1.5452081280128887e-07, 3.449934415609484e-06, -8.569620390213116e-05, -0.005937185498411771, 0.024448740638550143, 0.0228885868405091, -5.7924932946299905e-06, -2.0832068946300676e-06, -6.762391724672683e-05, -0.009410519225013216, 0.0228885868405091, 0.16393071093777678, 1.7186429939807574e-06, -8.267296676343329e-07, 1.3392799942934054e-05, 1.5452081280128887e-07, -5.7924932946299905e-06, 1.7186429939807574e-06, 4.59705651066499e-06, 3.645480798628961e-07, 1.173381159187001e-06, 3.449934415609484e-06, -2.0832068946300676e-06, -8.267296676343329e-07, 3.645480798628961e-07, 4.3305606642524075e-06, 1.1092991229721006e-06, -8.569620390213116e-05, -6.762391724672683e-05, 1.3392799942934054e-05, 1.173381159187001e-06, 1.1092991229721006e-06, 0.00015957422273984705]",,,,0.0706316521282,0.234484308352,0.166888516318,,0.00282327025074,-0.00767725512968,-0.0697486316457,"[0.0002814977235037036, 5.037178066486754e-05, 2.850226994411868e-05, -1.63620872423006e-08, 1.2342620880896024e-07, 3.2397464823742363e-07, 5.037178066486754e-05, 0.00019119248576837073, 1.5004853761827088e-05, -1.0061761379072902e-07, 2.7651132210073597e-08, -2.0696344084068092e-08, 2.850226994411868e-05, 1.5004853761827088e-05, 0.0002160182788044577, -1.169660162983528e-08, -5.946977653484765e-09, 1.2507902558632012e-08, -1.63620872423006e-08, -1.0061761379072902e-07, -1.169660162983528e-08, 2.1336046436135506e-08, -3.8896790065720036e-12, -1.7900632848599977e-10, 1.2342620880896024e-07, 2.7651132210073597e-08, -5.946977653484765e-09, -3.8896790065720036e-12, 2.1345376703343785e-08, -1.8588277683160896e-10, 3.2397464823742363e-07, -2.0696344084068092e-08, 1.2507902558632012e-08, -1.7900632848599977e-10, -1.8588277683160896e-10, 2.9337578645686594e-08]"
1402414603654863144,,64999,,1402414603,577855110,/enu,/base_link,,,,7.41372254553,14.671205938,-10.3678019507,,-0.0203681501661,-0.00140310944484,0.741105926698,0.671077622303,"[0.023043283706329885, -0.005938092213358849, -0.009411534469462234, 1.9007959269049413e-07, 3.6653229186514147e-06, -8.574821483321162e-05, -0.005938092213358849, 0.024451673445793787, 0.022890898309251086, -6.035963049482369e-06, -2.1239978794638614e-06, -6.745337442916368e-05, -0.009411534469462234, 0.022890898309251086, 0.16395642874931432, 1.743049950471978e-06, -8.276623557527593e-07, 1.3402415876608925e-05, 1.9007959269049413e-07, -6.035963049482369e-06, 1.743049950471978e-06, 4.637713098836747e-06, 3.645509030350911e-07, 1.1730265205701494e-06, 3.6653229186514147e-06, -2.1239978794638614e-06, -8.276623557527593e-07, 3.645509030350911e-07, 4.3712040816571295e-06, 1.1073911178714549e-06, -8.574821483321162e-05, -6.745337442916368e-05, 1.3402415876608925e-05, 1.1730265205701494e-06, 1.1073911178714549e-06, 0.0001595950475538199]",,,,0.0695956911013,0.24122816908,0.164179814912,,-0.0178304618359,-0.00546829488207,-0.0749397465133,"[0.00028642829025616896, 5.108332644957615e-05, 2.8719494012807615e-05, -1.6336240592110658e-08, 1.2580088566147128e-07, 3.2325160500667974e-07, 5.108332644957615e-05, 0.00019547165486387335, 1.5289957025136475e-05, -1.0276726166580798e-07, 2.800676586466758e-08, -2.1109315198052987e-08, 2.8719494012807615e-05, 1.5289957025136475e-05, 0.00021640630179168657, -1.1827928870977954e-08, -5.857069462039049e-09, 1.2448386137945973e-08, -1.6336240592110658e-08, -1.0276726166580798e-07, -1.1827928870977954e-08, 2.133604635748767e-08, -3.88933881060734e-12, -1.7901639245165897e-10, 1.2580088566147128e-07, 2.800676586466758e-08, -5.857069462039049e-09, -3.88933881060734e-12, 2.1345372349399204e-08, -1.8584600172375196e-10, 3.2325160500667974e-07, -2.1109315198052987e-08, 1.2448386137945973e-08, -1.7901639245165897e-10, -1.8584600172375196e-10, 2.9336273796441982e-08]"
1402414603654892373,,65000,,1402414603,587856054,/enu,/base_link,,,,7.41111900554,14.6717030844,-10.3662071749,,-0.0204889935638,-0.00155564997853,0.740859702796,0.671345426639,"[0.02304555990015588, -0.005939016341299077, -0.00941252196483264, 2.258992507845435e-07, 3.88431504258913e-06, -8.579690707934301e-05, -0.005939016341299077, 0.02445466872684779, 0.022893155736891383, -6.283225447165037e-06, -2.1650541075260086e-06, -6.729198678665456e-05, -0.00941252196483264, 0.022893155736891383, 0.16398232204826704, 1.7673448694183754e-06, -8.28406794639458e-07, 1.3411725466696056e-05, 2.258992507845435e-07, -6.283225447165037e-06, 1.7673448694183754e-06, 4.678089277230316e-06, 3.645532744581598e-07, 1.1726708163297036e-06, 3.88431504258913e-06, -2.1650541075260086e-06, -8.28406794639458e-07, 3.645532744581598e-07, 4.411567608786574e-06, 1.1054664432352375e-06, -8.579690707934301e-05, -6.729198678665456e-05, 1.3411725466696056e-05, 1.1726708163297036e-06, 1.1054664432352375e-06, 0.00015961551914800653]",,,,0.0684737840093,0.245136970175,0.169507730014,,-0.037711059623,-0.00160261798801,-0.0720681759058,"[0.00029142797162978604, 5.17908346678722e-05, 2.8951908505131383e-05, -1.6309696566475592e-08, 1.281876982616243e-07, 3.2253281438093677e-07, 5.17908346678722e-05, 0.00019980833716447803, 1.5576957437621353e-05, -1.0492642482901208e-07, 2.836284343450533e-08, -2.1531746456297915e-08, 2.8951908505131383e-05, 1.5576957437621353e-05, 0.00021680055442424096, -1.1981764808212235e-08, -5.756846826142763e-09, 1.2398019449762675e-08, -1.6309696566475592e-08, -1.0492642482901208e-07, -1.1981764808212235e-08, 2.133604627171765e-08, -3.888985162113063e-12, -1.790269342746999e-10, 1.281876982616243e-07, 2.836284343450533e-08, -5.756846826142763e-09, -3.888985162113063e-12, 2.13453679369502e-08, -1.8580921405108319e-10, 3.2253281438093677e-07, -2.1531746456297915e-08, 1.2398019449762675e-08, -1.790269342746999e-10, -1.8580921405108319e-10, 2.933496877397921e-08]"
