rosbagTimestamp,transforms,-,header,seq,stamp,secs,nsecs,frame_id,child_frame_id,transform,translation,x,y,z,rotation,x,y,z,w
1402414603305261608,,errorv,,0,,1402414603,304827156,base_link,/z_drive,,,0.0,0.0,0.0,,0.0,0.0,0.0,1.0
1402414603305306017,,errorv,,0,,1402414603,304852499,/z_drive,port,,,-0.3,0.3048,0.0,,0.0,0.0,0.0,1.0
1402414603305383185,,errorv,,0,,1402414603,304863146,/z_drive,starboard,,,-0.3,-0.3048,0.0,,0.0,0.0,0.0,1.0
1402414603325050714,,errorv,,0,,1402414603,324801815,base_link,/z_drive,,,0.0,0.0,0.0,,0.0,0.0,0.0,1.0
1402414603325182352,,errorv,,0,,1402414603,324823138,/z_drive,port,,,-0.3,0.3048,0.0,,0.0,0.0,0.0,1.0
1402414603325205174,,errorv,,0,,1402414603,324830072,/z_drive,starboard,,,-0.3,-0.3048,0.0,,0.0,0.0,0.0,1.0
1402414603327273671,,errorv,,0,,1402414603,266000032,/enu,/base_link,,,7.44656093488,14.6598305172,-10.4185734503,,-0.0242268458898,0.00231057516625,0.751412875613,0.659383357041
1402414603327305825,,errorv,,0,,1402414603,275000095,/enu,/base_link,,,7.44442865475,14.6608314463,-10.4168934535,,-0.024182559854,0.00221889002262,0.751153535946,0.659680715014
1402414603327331104,,errorv,,0,,1402414603,285998106,/enu,/base_link,,,7.44189409507,14.6623151677,-10.4151659724,,-0.024205750006,0.00207572512572,0.750844378277,0.66003219061
1402414603333726400,,errorv,,0,,1402414603,433541950,base_link,imu,,,0.13,0.0,-0.1,,1.0,0.0,0.0,0.0
1402414603335189768,,errorv,,0,,1402414603,295953035,/enu,/base_link,,,7.43966385659,14.6634880838,-10.4132914226,,-0.0241490180154,0.00200046636865,0.75055808977,0.660360035847
1402414603335469164,,errorv,,0,,1402414603,305958986,/enu,/base_link,,,7.43721362969,14.6647001865,-10.411581514,,-0.0240415344195,0.00191755183372,0.750261349061,0.660701321115
1402414603335567504,,errorv,,0,,1402414603,435382828,/base_link,/gps,,,-0.84,0.0,-0.14,,0.0,0.0,0.0,1.0
1402414603345160346,,errorv,,0,,1402414603,344805629,base_link,/z_drive,,,0.0,0.0,0.0,,0.0,0.0,0.0,1.0
1402414603345183130,,errorv,,0,,1402414603,344825238,/z_drive,port,,,-0.3,0.3048,0.0,,0.0,0.0,0.0,1.0
1402414603345204349,,errorv,,0,,1402414603,344836195,/z_drive,starboard,,,-0.3,-0.3048,0.0,,0.0,0.0,0.0,1.0
1402414603365051265,,errorv,,0,,1402414603,364792659,base_link,/z_drive,,,0.0,0.0,0.0,,0.0,0.0,0.0,1.0
1402414603365080117,,errorv,,0,,1402414603,364875035,/z_drive,port,,,-0.3,0.3048,0.0,,0.0,0.0,0.0,1.0
1402414603365105073,,errorv,,0,,1402414603,364888483,/z_drive,starboard,,,-0.3,-0.3048,0.0,,0.0,0.0,0.0,1.0
1402414603375196407,,errorv,,0,,1402414603,315953969,/enu,/base_link,,,7.47440746811,14.674334523,-10.43998361,,-0.0220082694177,0.00555016278952,0.748941756369,0.662246991188
1402414603375212016,,errorv,,0,,1402414603,325932025,/enu,/base_link,,,7.47269145407,14.6757882931,-10.4383094626,,-0.0219341110388,0.00548534529225,0.748650523805,0.662579202033
1402414603385007424,,errorv,,0,,1402414603,384793902,base_link,/z_drive,,,0.0,0.0,0.0,,0.0,0.0,0.0,1.0
1402414603385035181,,errorv,,0,,1402414603,384810765,/z_drive,port,,,-0.3,0.3048,0.0,,0.0,0.0,0.0,1.0
1402414603385083156,,errorv,,0,,1402414603,384821322,/z_drive,starboard,,,-0.3,-0.3048,0.0,,0.0,0.0,0.0,1.0
1402414603405005025,,errorv,,0,,1402414603,404848149,base_link,/z_drive,,,0.0,0.0,0.0,,0.0,0.0,0.0,1.0
1402414603405135101,,errorv,,0,,1402414603,404869501,/z_drive,port,,,-0.3,0.3048,0.0,,0.0,0.0,0.0,1.0
1402414603405162122,,errorv,,0,,1402414603,404880187,/z_drive,starboard,,,-0.3,-0.3048,0.0,,0.0,0.0,0.0,1.0
1402414603415136800,,errorv,,0,,1402414603,335962057,/enu,/base_link,,,7.47092739798,14.6770633486,-10.4362868303,,-0.0218918527982,0.00535308724122,0.748369890005,0.66289863401
1402414603415160587,,errorv,,0,,1402414603,345967054,/enu,/base_link,,,7.46925785393,14.6786636521,-10.4349151609,,-0.0218626556182,0.00520219977691,0.748085357415,0.663221877978
1402414603415180921,,errorv,,0,,1402414603,356091976,/enu,/base_link,,,7.49177628604,14.6823968328,-10.465812475,,-0.0206490890353,0.00727831796328,0.747225855188,0.664209426724
1402414603415218619,,errorv,,0,,1402414603,365926980,/enu,/base_link,,,7.49052487523,14.6838636324,-10.4641100276,,-0.0205616347622,0.00721909007604,0.746943546597,0.664530241683
1402414603425078112,,errorv,,0,,1402414603,424853156,base_link,/z_drive,,,0.0,0.0,0.0,,0.0,0.0,0.0,1.0
1402414603425108922,,errorv,,0,,1402414603,424873839,/z_drive,port,,,-0.3,0.3048,0.0,,0.0,0.0,0.0,1.0
1402414603425148508,,errorv,,0,,1402414603,424911997,/z_drive,starboard,,,-0.3,-0.3048,0.0,,0.0,0.0,0.0,1.0
1402414603433884598,,errorv,,0,,1402414603,533650257,base_link,imu,,,0.13,0.0,-0.1,,1.0,0.0,0.0,0.0
1402414603435698412,,errorv,,0,,1402414603,535491053,/base_link,/gps,,,-0.84,0.0,-0.14,,0.0,0.0,0.0,1.0
1402414603445044942,,errorv,,0,,1402414603,444775474,base_link,/z_drive,,,0.0,0.0,0.0,,0.0,0.0,0.0,1.0
1402414603445132909,,errorv,,0,,1402414603,444800587,/z_drive,port,,,-0.3,0.3048,0.0,,0.0,0.0,0.0,1.0
1402414603445183448,,errorv,,0,,1402414603,444810806,/z_drive,starboard,,,-0.3,-0.3048,0.0,,0.0,0.0,0.0,1.0
1402414603455068881,,errorv,,0,,1402414603,375916004,/enu,/base_link,,,7.48925572796,14.6855275472,-10.4626648793,,-0.0204469829267,0.00713512784096,0.746673377299,0.664838234816
1402414603455161604,,errorv,,0,,1402414603,385935068,/enu,/base_link,,,7.48798055988,14.6869419909,-10.46080196,,-0.020314861052,0.00701974875278,0.746393417356,0.665157797876
1402414603455197265,,errorv,,0,,1402414603,395916938,/enu,/base_link,,,7.4865784373,14.6884418719,-10.4590956189,,-0.0201692619727,0.00692690518328,0.746092713613,0.665500474493
1402414603455280353,,errorv,,0,,1402414603,406928062,/enu,/base_link,,,7.48504675836,14.6901858097,-10.4574275852,,-0.0201146353589,0.0068179843744,0.745759407278,0.665876732579
1402414603465134974,,errorv,,0,,1402414603,464937866,base_link,/z_drive,,,0.0,0.0,0.0,,0.0,0.0,0.0,1.0
1402414603465163505,,errorv,,0,,1402414603,464954196,/z_drive,port,,,-0.3,0.3048,0.0,,0.0,0.0,0.0,1.0
1402414603465187712,,errorv,,0,,1402414603,464959095,/z_drive,starboard,,,-0.3,-0.3048,0.0,,0.0,0.0,0.0,1.0
1402414603485048593,,errorv,,0,,1402414603,484789554,base_link,/z_drive,,,0.0,0.0,0.0,,0.0,0.0,0.0,1.0
1402414603485074921,,errorv,,0,,1402414603,484865919,/z_drive,port,,,-0.3,0.3048,0.0,,0.0,0.0,0.0,1.0
1402414603485101298,,errorv,,0,,1402414603,484878409,/z_drive,starboard,,,-0.3,-0.3048,0.0,,0.0,0.0,0.0,1.0
1402414603495270186,,errorv,,0,,1402414603,416939973,/enu,/base_link,,,7.48378576734,14.6915888559,-10.4555988739,,-0.0200626301882,0.00669261718632,0.745461993799,0.666212515303
1402414603495301811,,errorv,,0,,1402414603,426924943,/enu,/base_link,,,7.48244608373,14.6933266922,-10.4543269639,,-0.0199573545338,0.0065704712094,0.745174855954,0.666538046147
1402414603495323132,,errorv,,0,,1402414603,436898946,/enu,/base_link,,,7.48114731187,14.6946940647,-10.4525540586,,-0.0198905515891,0.00644441294352,0.74488912495,0.666860575406
1402414603495416254,,errorv,,0,,1402414603,446919918,/enu,/base_link,,,7.47966688178,14.6962193423,-10.4509735869,,-0.0198395688027,0.00632160877193,0.744616068516,0.66716814918
1402414603505113297,,errorv,,0,,1402414603,504807739,base_link,/z_drive,,,0.0,0.0,0.0,,0.0,0.0,0.0,1.0
1402414603505144895,,errorv,,0,,1402414603,504826167,/z_drive,port,,,-0.3,0.3048,0.0,,0.0,0.0,0.0,1.0
1402414603505172652,,errorv,,0,,1402414603,504843244,/z_drive,starboard,,,-0.3,-0.3048,0.0,,0.0,0.0,0.0,1.0
1402414603524937080,,errorv,,0,,1402414603,524778530,base_link,/z_drive,,,0.0,0.0,0.0,,0.0,0.0,0.0,1.0
1402414603525082564,,errorv,,0,,1402414603,524795906,/z_drive,port,,,-0.3,0.3048,0.0,,0.0,0.0,0.0,1.0
1402414603525106230,,errorv,,0,,1402414603,524941850,/z_drive,starboard,,,-0.3,-0.3048,0.0,,0.0,0.0,0.0,1.0
1402414603533942299,,errorv,,0,,1402414603,633762133,base_link,imu,,,0.13,0.0,-0.1,,1.0,0.0,0.0,0.0
1402414603535302670,,errorv,,0,,1402414603,456873893,/enu,/base_link,,,7.47828474144,14.6977080519,-10.4493939662,,-0.0198654825622,0.0061590200955,0.744325356961,0.667493214991
1402414603535383023,,errorv,,0,,1402414603,466881990,/enu,/base_link,,,7.47679532163,14.6992505766,-10.4479645635,,-0.0198369136103,0.00596317808162,0.744042308239,0.667811336319
1402414603535410707,,errorv,,0,,1402414603,476871967,/enu,/base_link,,,7.47536098662,14.7005694247,-10.4461335485,,-0.019852500736,0.00581644991626,0.743784831292,0.668098923712
1402414603535433384,,errorv,,0,,1402414603,487869024,/enu,/base_link,,,7.47379718434,14.7023431616,-10.4445934257,,-0.0198666563787,0.00569876709966,0.743479593699,0.668439177316
1402414603535755905,,errorv,,0,,1402414603,635588151,/base_link,/gps,,,-0.84,0.0,-0.14,,0.0,0.0,0.0,1.0
1402414603545065079,,errorv,,0,,1402414603,544801515,base_link,/z_drive,,,0.0,0.0,0.0,,0.0,0.0,0.0,1.0
1402414603545091078,,errorv,,0,,1402414603,544817040,/z_drive,port,,,-0.3,0.3048,0.0,,0.0,0.0,0.0,1.0
1402414603545174072,,errorv,,0,,1402414603,544821286,/z_drive,starboard,,,-0.3,-0.3048,0.0,,0.0,0.0,0.0,1.0
1402414603565030687,,errorv,,0,,1402414603,564799506,base_link,/z_drive,,,0.0,0.0,0.0,,0.0,0.0,0.0,1.0
1402414603565130091,,errorv,,0,,1402414603,564910664,/z_drive,port,,,-0.3,0.3048,0.0,,0.0,0.0,0.0,1.0
1402414603565210798,,errorv,,0,,1402414603,564946157,/z_drive,starboard,,,-0.3,-0.3048,0.0,,0.0,0.0,0.0,1.0
1402414603575331180,,errorv,,0,,1402414603,497870922,/enu,/base_link,,,7.47223544326,14.70385165,-10.4431648471,,-0.0198290894208,0.00560793735925,0.743215854442,0.668734290998
1402414603575398634,,errorv,,0,,1402414603,507872104,/enu,/base_link,,,7.47082177543,14.7051363276,-10.4413861207,,-0.0197962207145,0.00551638599165,0.742942910441,0.669039244706
1402414603575415001,,errorv,,0,,1402414603,517870903,/enu,/base_link,,,7.46936058442,14.7064929717,-10.4397386556,,-0.0197698611861,0.00545054101273,0.742663100579,0.669351150914
1402414603575435202,,errorv,,0,,1402414603,527817010,/enu,/base_link,,,7.46774759661,14.7079492622,-10.4382575871,,-0.0198252642973,0.0053118289337,0.74239383347,0.669649265955
1402414603585073309,,errorv,,0,,1402414603,584811182,base_link,/z_drive,,,0.0,0.0,0.0,,0.0,0.0,0.0,1.0
1402414603585155981,,errorv,,0,,1402414603,584835968,/z_drive,port,,,-0.3,0.3048,0.0,,0.0,0.0,0.0,1.0
1402414603585177335,,errorv,,0,,1402414603,584848917,/z_drive,starboard,,,-0.3,-0.3048,0.0,,0.0,0.0,0.0,1.0
1402414603604947040,,errorv,,0,,1402414603,604769070,base_link,/z_drive,,,0.0,0.0,0.0,,0.0,0.0,0.0,1.0
1402414603605031143,,errorv,,0,,1402414603,604793346,/z_drive,port,,,-0.3,0.3048,0.0,,0.0,0.0,0.0,1.0
1402414603605110171,,errorv,,0,,1402414603,604803701,/z_drive,starboard,,,-0.3,-0.3048,0.0,,0.0,0.0,0.0,1.0
1402414603615222956,,errorv,,0,,1402414603,537821054,/enu,/base_link,,,7.42351920107,14.6691182334,-10.3742612866,,-0.0204306203647,-0.00125312984274,0.742118378643,0.669956216105
1402414603615438173,,errorv,,0,,1402414603,547818899,/enu,/base_link,,,7.4212527473,14.6697644465,-10.3728331692,,-0.0204320019958,-0.00132922403346,0.741841033794,0.670263117766
1402414603615499272,,errorv,,0,,1402414603,557820081,/enu,/base_link,,,7.41875921273,14.6701843743,-10.3709603229,,-0.0203659257273,-0.00128821420562,0.741598671427,0.670533354958
1402414603615532153,,errorv,,0,,1402414603,567819118,/enu,/base_link,,,7.41634179222,14.6706390896,-10.3692709544,,-0.020328246072,-0.00131064683483,0.741361947294,0.670796174497
1402414603625079417,,errorv,,0,,1402414603,624823070,base_link,/z_drive,,,0.0,0.0,0.0,,0.0,0.0,0.0,1.0
1402414603625182516,,errorv,,0,,1402414603,624851628,/z_drive,port,,,-0.3,0.3048,0.0,,0.0,0.0,0.0,1.0
1402414603625211157,,errorv,,0,,1402414603,624860606,/z_drive,starboard,,,-0.3,-0.3048,0.0,,0.0,0.0,0.0,1.0
1402414603634096137,,errorv,,0,,1402414603,733873046,base_link,imu,,,0.13,0.0,-0.1,,1.0,0.0,0.0,0.0
1402414603635912571,,errorv,,0,,1402414603,735695211,/base_link,/gps,,,-0.84,0.0,-0.14,,0.0,0.0,0.0,1.0
1402414603645024604,,errorv,,0,,1402414603,644764593,base_link,/z_drive,,,0.0,0.0,0.0,,0.0,0.0,0.0,1.0
1402414603645057501,,errorv,,0,,1402414603,644792327,/z_drive,port,,,-0.3,0.3048,0.0,,0.0,0.0,0.0,1.0
1402414603645080362,,errorv,,0,,1402414603,644799874,/z_drive,starboard,,,-0.3,-0.3048,0.0,,0.0,0.0,0.0,1.0
1402414603655224635,,errorv,,0,,1402414603,577855110,/enu,/base_link,,,7.41372254553,14.671205938,-10.3678019507,,-0.0203681501661,-0.00140310944484,0.741105926698,0.671077622303
1402414603655299351,,errorv,,0,,1402414603,587856054,/enu,/base_link,,,7.41111900554,14.6717030844,-10.3662071749,,-0.0204889935638,-0.00155564997853,0.740859702796,0.671345426639
1402414603655402945,,errorv,,0,,1402414603,597817897,/enu,/base_link,,,7.40867177121,14.6720979787,-10.3645082121,,-0.0206480039045,-0.00175656475443,0.740623877756,0.671600213009
1402414603655466167,,errorv,,0,,1402414603,607817888,/enu,/base_link,,,7.40609073566,14.6726727618,-10.3631236966,,-0.020627044187,-0.00173023570505,0.740364027109,0.671887370543
1402414603665363838,,errorv,,0,,1402414603,664968951,base_link,/z_drive,,,0.0,0.0,0.0,,0.0,0.0,0.0,1.0
1402414603665441784,,errorv,,0,,1402414603,665061411,/z_drive,port,,,-0.3,0.3048,0.0,,0.0,0.0,0.0,1.0
1402414603665470920,,errorv,,0,,1402414603,665074495,/z_drive,starboard,,,-0.3,-0.3048,0.0,,0.0,0.0,0.0,1.0
1402414603685095238,,errorv,,0,,1402414603,684778921,base_link,/z_drive,,,0.0,0.0,0.0,,0.0,0.0,0.0,1.0
1402414603685171236,,errorv,,0,,1402414603,684801062,/z_drive,port,,,-0.3,0.3048,0.0,,0.0,0.0,0.0,1.0
1402414603685269139,,errorv,,0,,1402414603,684805584,/z_drive,starboard,,,-0.3,-0.3048,0.0,,0.0,0.0,0.0,1.0
1402414603695290857,,errorv,,0,,1402414603,617819070,/enu,/base_link,,,7.4036150398,14.6730252438,-10.3613141913,,-0.0206834599975,-0.00171227725419,0.740117842578,0.672156857948
1402414603695757689,,errorv,,0,,1402414603,628803968,/enu,/base_link,,,7.40061697439,14.6736092178,-10.3596229298,,-0.020713316303,-0.00170651512039,0.739833690162,0.672468703536
1402414603695782384,,errorv,,0,,1402414603,638792037,/enu,/base_link,,,7.38706112485,14.7073183234,-10.3426947213,,-0.0230952513462,-0.000220520001116,0.739789354132,0.672442021478
1402414603695881663,,errorv,,0,,1402414603,648791074,/enu,/base_link,,,7.38419720847,14.7083801655,-10.3411329637,,-0.023178715555,-0.000320854478849,0.739526957664,0.672727673793
1402414603705226314,,errorv,,0,,1402414603,704750340,base_link,/z_drive,,,0.0,0.0,0.0,,0.0,0.0,0.0,1.0
1402414603705252179,,errorv,,0,,1402414603,704823066,/z_drive,port,,,-0.3,0.3048,0.0,,0.0,0.0,0.0,1.0
1402414603705313278,,errorv,,0,,1402414603,704833362,/z_drive,starboard,,,-0.3,-0.3048,0.0,,0.0,0.0,0.0,1.0
1402414603725212700,,errorv,,0,,1402414603,724773051,base_link,/z_drive,,,0.0,0.0,0.0,,0.0,0.0,0.0,1.0
1402414603725285470,,errorv,,0,,1402414603,724790477,/z_drive,port,,,-0.3,0.3048,0.0,,0.0,0.0,0.0,1.0
1402414603725308627,,errorv,,0,,1402414603,724794999,/z_drive,starboard,,,-0.3,-0.3048,0.0,,0.0,0.0,0.0,1.0
1402414603734199763,,errorv,,0,,1402414603,833989611,base_link,imu,,,0.13,0.0,-0.1,,1.0,0.0,0.0,0.0
1402414603735073723,,errorv,,0,,1402414603,658790111,/enu,/base_link,,,7.38137103415,14.7093773291,-10.3393990763,,-0.0233240414063,-0.000400545760161,0.739267711119,0.673007488779
1402414603735276689,,errorv,,0,,1402414603,668795108,/enu,/base_link,,,7.37840604942,14.710342416,-10.3376731388,,-0.0234393007821,-0.000474879686546,0.738987240953,0.673311392579
1402414603735302901,,errorv,,0,,1402414603,679790973,/enu,/base_link,,,7.37498237298,14.7114346253,-10.3358915609,,-0.0234880335529,-0.000475091209802,0.738670281128,0.673657407253
1402414603735323173,,errorv,,0,,1402414603,689795017,/enu,/base_link,,,7.25586633663,14.795157466,-10.2531601504,,-0.0343403290794,-0.00360566362299,0.738729539104,0.673116935639
1402414603735984672,,errorv,,0,,1402414603,835793816,/base_link,/gps,,,-0.84,0.0,-0.14,,0.0,0.0,0.0,1.0
1402414603745151407,,errorv,,0,,1402414603,744834228,base_link,/z_drive,,,0.0,0.0,0.0,,0.0,0.0,0.0,1.0
1402414603745181739,,errorv,,0,,1402414603,744862005,/z_drive,port,,,-0.3,0.3048,0.0,,0.0,0.0,0.0,1.0
1402414603745203557,,errorv,,0,,1402414603,744906982,/z_drive,starboard,,,-0.3,-0.3048,0.0,,0.0,0.0,0.0,1.0
1402414603765059730,,errorv,,0,,1402414603,764777333,base_link,/z_drive,,,0.0,0.0,0.0,,0.0,0.0,0.0,1.0
1402414603765086584,,errorv,,0,,1402414603,764797018,/z_drive,port,,,-0.3,0.3048,0.0,,0.0,0.0,0.0,1.0
1402414603765168690,,errorv,,0,,1402414603,764802026,/z_drive,starboard,,,-0.3,-0.3048,0.0,,0.0,0.0,0.0,1.0
1402414603775217869,,errorv,,0,,1402414603,699805974,/enu,/base_link,,,7.25064103937,14.7974193299,-10.2513766681,,-0.0344413554196,-0.00359661999248,0.738448346864,0.673420296973
1402414603775284583,,errorv,,0,,1402414603,709819078,/enu,/base_link,,,7.24524720191,14.7998314549,-10.249780085,,-0.0346077546799,-0.00368504640295,0.738182798773,0.673702367032
1402414603775311279,,errorv,,0,,1402414603,719814062,/enu,/base_link,,,7.23991792682,14.8020345296,-10.2478820697,,-0.0347341776915,-0.00380358591032,0.737902332648,0.674002386574
1402414603775427983,,errorv,,0,,1402414603,730804920,/enu,/base_link,,,7.13559862048,14.7967479959,-10.3525011975,,-0.0413770840053,-0.0112210810136,0.738169241021,0.673251955713
1402414603785250920,,errorv,,0,,1402414603,784861934,base_link,/z_drive,,,0.0,0.0,0.0,,0.0,0.0,0.0,1.0
1402414603785278711,,errorv,,0,,1402414603,784893138,/z_drive,port,,,-0.3,0.3048,0.0,,0.0,0.0,0.0,1.0
1402414603785386849,,errorv,,0,,1402414603,784933582,/z_drive,starboard,,,-0.3,-0.3048,0.0,,0.0,0.0,0.0,1.0
1402414603805189126,,errorv,,0,,1402414603,804836391,base_link,/z_drive,,,0.0,0.0,0.0,,0.0,0.0,0.0,1.0
1402414603805212996,,errorv,,0,,1402414603,804860513,/z_drive,port,,,-0.3,0.3048,0.0,,0.0,0.0,0.0,1.0
1402414603805233706,,errorv,,0,,1402414603,804865362,/z_drive,starboard,,,-0.3,-0.3048,0.0,,0.0,0.0,0.0,1.0
1402414603815296099,,errorv,,0,,1402414603,740771055,/enu,/base_link,,,7.12837434205,14.7992565475,-10.351320741,,-0.0414827066396,-0.0111621888806,0.737881875385,0.673561376987
1402414603815383474,,errorv,,0,,1402414603,750799894,/enu,/base_link,,,7.12096433544,14.8014922448,-10.3497363127,,-0.0415207793206,-0.0111133375002,0.737598707753,0.673869916924
1402414603815413212,,errorv,,0,,1402414603,760756015,/enu,/base_link,,,7.11346835731,14.8036146342,-10.3479677119,,-0.041579098975,-0.0110860582674,0.737321470046,0.674170102904
1402414603815433615,,errorv,,0,,1402414603,771755933,/enu,/base_link,,,7.10513438902,14.8061650283,-10.3463541996,,-0.0418137671451,-0.0112045846883,0.737010023225,0.67449410066
1402414603825094879,,errorv,,0,,1402414603,824824003,base_link,/z_drive,,,0.0,0.0,0.0,,0.0,0.0,0.0,1.0
1402414603825128516,,errorv,,0,,1402414603,824859025,/z_drive,port,,,-0.3,0.3048,0.0,,0.0,0.0,0.0,1.0
1402414603825195612,,errorv,,0,,1402414603,824869291,/z_drive,starboard,,,-0.3,-0.3048,0.0,,0.0,0.0,0.0,1.0
1402414603834416176,,errorv,,0,,1402414603,934091478,base_link,imu,,,0.13,0.0,-0.1,,1.0,0.0,0.0,0.0
1402414603836134582,,errorv,,0,,1402414603,935894250,/base_link,/gps,,,-0.84,0.0,-0.14,,0.0,0.0,0.0,1.0
1402414603845100871,,errorv,,0,,1402414603,844803924,base_link,/z_drive,,,0.0,0.0,0.0,,0.0,0.0,0.0,1.0
1402414603845181187,,errorv,,0,,1402414603,844833212,/z_drive,port,,,-0.3,0.3048,0.0,,0.0,0.0,0.0,1.0
1402414603845205438,,errorv,,0,,1402414603,844997864,/z_drive,starboard,,,-0.3,-0.3048,0.0,,0.0,0.0,0.0,1.0
1402414603855135230,,errorv,,0,,1402414603,781759977,/enu,/base_link,,,7.10183894551,14.7602676145,-10.1523965983,,-0.0382812357244,-0.0148207631832,0.738287641067,0.673235657863
1402414603855341803,,errorv,,0,,1402414603,791759014,/enu,/base_link,,,7.09439231462,14.7614447458,-10.1504693243,,-0.0383701408575,-0.0148548125849,0.73799357011,0.673552193456
1402414603855365272,,errorv,,0,,1402414603,801758050,/enu,/base_link,,,7.08665647973,14.7625642673,-10.1485037568,,-0.0384170214091,-0.014842264676,0.737699209584,0.673872180628
1402414603855385738,,errorv,,0,,1402414603,811728954,/enu,/base_link,,,7.07912559305,14.7638735864,-10.1469098608,,-0.0384537200337,-0.0147679766784,0.73742494705,0.674171836959
1402414603865301967,,errorv,,0,,1402414603,864814382,base_link,/z_drive,,,0.0,0.0,0.0,,0.0,0.0,0.0,1.0
1402414603865332026,,errorv,,0,,1402414603,864848502,/z_drive,port,,,-0.3,0.3048,0.0,,0.0,0.0,0.0,1.0
1402414603865352427,,errorv,,0,,1402414603,864861803,/z_drive,starboard,,,-0.3,-0.3048,0.0,,0.0,0.0,0.0,1.0
1402414603885085136,,errorv,,0,,1402414603,884772380,base_link,/z_drive,,,0.0,0.0,0.0,,0.0,0.0,0.0,1.0
1402414603885119053,,errorv,,0,,1402414603,884807305,/z_drive,port,,,-0.3,0.3048,0.0,,0.0,0.0,0.0,1.0
1402414603885137960,,errorv,,0,,1402414603,884820583,/z_drive,starboard,,,-0.3,-0.3048,0.0,,0.0,0.0,0.0,1.0
1402414603895065937,,errorv,,0,,1402414603,822729110,/enu,/base_link,,,7.07050323739,14.7650349619,-10.1446341396,,-0.0385219517679,-0.0146895763671,0.737117587615,0.67450569872
1402414603895304253,,errorv,,0,,1402414603,832727909,/enu,/base_link,,,7.18091565492,14.6658221119,-10.2530032179,,-0.0273162901047,-0.0119461344549,0.738931959269,0.67312010053
1402414603895326122,,errorv,,0,,1402414603,842732906,/enu,/base_link,,,7.17534107186,14.6655787673,-10.2512680191,,-0.0274468198763,-0.0119788232059,0.738661821362,0.673410642577
1402414603895344505,,errorv,,0,,1402414603,852704048,/enu,/base_link,,,7.16962580751,14.6653621316,-10.2497316409,,-0.0275262097624,-0.0119828280498,0.738405821665,0.673688030277
1402414603905161255,,errorv,,0,,1402414603,904808402,base_link,/z_drive,,,0.0,0.0,0.0,,0.0,0.0,0.0,1.0
1402414603905189291,,errorv,,0,,1402414603,904829331,/z_drive,port,,,-0.3,0.3048,0.0,,0.0,0.0,0.0,1.0
1402414603905244123,,errorv,,0,,1402414603,904840052,/z_drive,starboard,,,-0.3,-0.3048,0.0,,0.0,0.0,0.0,1.0
1402414603925043796,,errorv,,0,,1402414603,924776872,base_link,/z_drive,,,0.0,0.0,0.0,,0.0,0.0,0.0,1.0
1402414603927002873,,errorv,,0,,1402414603,924802154,/z_drive,port,,,-0.3,0.3048,0.0,,0.0,0.0,0.0,1.0
1402414603927027248,,errorv,,0,,1402414603,924843042,/z_drive,starboard,,,-0.3,-0.3048,0.0,,0.0,0.0,0.0,1.0
1402414603934448660,,errorv,,0,,1402414604,34220345,base_link,imu,,,0.13,0.0,-0.1,,1.0,0.0,0.0,0.0
1402414603935291442,,errorv,,0,,1402414603,863703966,/enu,/base_link,,,7.16323471348,14.6650653059,-10.2478377688,,-0.0275699550597,-0.0119090468631,0.738084850915,0.674039186569
1402414603935365123,,errorv,,0,,1402414603,873704910,/enu,/base_link,,,7.15735798546,14.6645386639,-10.2457109856,,-0.0275507775877,-0.0118199658814,0.737807441495,0.674345180405
1402414603935386139,,errorv,,0,,1402414603,883704900,/enu,/base_link,,,7.24732573862,14.6031259649,-10.3853724513,,-0.0197675224683,-0.00789167707271,0.738973467772,0.673398233156
1402414603935550981,,errorv,,0,,1402414603,893699884,/enu,/base_link,,,7.24327032005,14.6021794184,-10.3840470113,,-0.0197980960487,-0.00779972370001,0.738715607092,0.67368126851
1402414603936202066,,errorv,,0,,1402414604,36001816,/base_link,/gps,,,-0.84,0.0,-0.14,,0.0,0.0,0.0,1.0
1402414603945961883,,errorv,,0,,1402414603,944803173,base_link,/z_drive,,,0.0,0.0,0.0,,0.0,0.0,0.0,1.0
1402414603945987038,,errorv,,0,,1402414603,945814926,/z_drive,port,,,-0.3,0.3048,0.0,,0.0,0.0,0.0,1.0
1402414603946002569,,errorv,,0,,1402414603,945824457,/z_drive,starboard,,,-0.3,-0.3048,0.0,,0.0,0.0,0.0,1.0
1402414603965017329,,errorv,,0,,1402414603,964773083,base_link,/z_drive,,,0.0,0.0,0.0,,0.0,0.0,0.0,1.0
1402414603965044893,,errorv,,0,,1402414603,964788352,/z_drive,port,,,-0.3,0.3048,0.0,,0.0,0.0,0.0,1.0
1402414603965063817,,errorv,,0,,1402414603,964816769,/z_drive,starboard,,,-0.3,-0.3048,0.0,,0.0,0.0,0.0,1.0
1402414603975086793,,errorv,,0,,1402414603,903700113,/enu,/base_link,,,7.238976435,14.601175044,-10.382503903,,-0.0198620500418,-0.00776450195453,0.738449569397,0.673971397712
1402414603975112223,,errorv,,0,,1402414603,914694070,/enu,/base_link,,,7.23433199049,14.5999390402,-10.3807619396,,-0.0199663152897,-0.00778037088015,0.73816864669,0.674275804939
1402414603975159702,,errorv,,0,,1402414603,924664974,/enu,/base_link,,,7.23003403959,14.5987967096,-10.379205461,,-0.0200264183214,-0.0077494775847,0.737915103316,0.674551842681
1402414603975185903,,errorv,,0,,1402414603,934667110,/enu,/base_link,,,7.22582234075,14.597767183,-10.3778077048,,-0.0200555977565,-0.00769236296446,0.737653328307,0.674837882598
1402414603975204393,,errorv,,0,,1402414603,944678068,/enu,/base_link,,,7.22148977659,14.5965705517,-10.3761990031,,-0.0200398433518,-0.00760011833787,0.737385316945,0.67513223685
1402414603985074628,,errorv,,0,,1402414603,984816486,base_link,/z_drive,,,0.0,0.0,0.0,,0.0,0.0,0.0,1.0
1402414603985106084,,errorv,,0,,1402414603,984834836,/z_drive,port,,,-0.3,0.3048,0.0,,0.0,0.0,0.0,1.0
1402414603985227803,,errorv,,0,,1402414603,984839601,/z_drive,starboard,,,-0.3,-0.3048,0.0,,0.0,0.0,0.0,1.0
1402414604005003787,,errorv,,0,,1402414604,4821356,base_link,/z_drive,,,0.0,0.0,0.0,,0.0,0.0,0.0,1.0
1402414604005134106,,errorv,,0,,1402414604,4837782,/z_drive,port,,,-0.3,0.3048,0.0,,0.0,0.0,0.0,1.0
1402414604005160443,,errorv,,0,,1402414604,4842554,/z_drive,starboard,,,-0.3,-0.3048,0.0,,0.0,0.0,0.0,1.0
1402414604015232318,,errorv,,0,,1402414603,954679965,/enu,/base_link,,,7.21714949371,14.5955673409,-10.3749838732,,-0.0200124651093,-0.00744039687011,0.737136479263,0.675406509203
1402414604015260823,,errorv,,0,,1402414603,965663909,/enu,/base_link,,,7.21225923547,14.5941338577,-10.3730515396,,-0.0200221923543,-0.00731242946939,0.736815099131,0.675758203709
1402414604015283556,,errorv,,0,,1402414603,975667953,/enu,/base_link,,,7.20784140395,14.5928721231,-10.3714198506,,-0.0200484948917,-0.00725222980404,0.736543917903,0.676053636937
1402414604023315130,,errorv,,0,,1402414603,985668897,/enu,/base_link,,,7.20798988337,14.6251932551,-10.2617593775,,-0.0208946532449,-0.00499538669616,0.735280983477,0.677421829376
1402414604023402378,,errorv,,0,,1402414603,995654106,/enu,/base_link,,,7.20366584587,14.6244785191,-10.2602209608,,-0.0209010033207,-0.00493648961243,0.735038826475,0.677684810737
1402414604024963427,,errorv,,0,,1402414604,24769051,base_link,/z_drive,,,0.0,0.0,0.0,,0.0,0.0,0.0,1.0
1402414604025054203,,errorv,,0,,1402414604,24785025,/z_drive,port,,,-0.3,0.3048,0.0,,0.0,0.0,0.0,1.0
1402414604025086168,,errorv,,0,,1402414604,24791317,/z_drive,starboard,,,-0.3,-0.3048,0.0,,0.0,0.0,0.0,1.0
1402414604034602220,,errorv,,0,,1402414604,134323712,base_link,imu,,,0.13,0.0,-0.1,,1.0,0.0,0.0,0.0
1402414604036340733,,errorv,,0,,1402414604,136110614,/base_link,/gps,,,-0.84,0.0,-0.14,,0.0,0.0,0.0,1.0
1402414604044973296,,errorv,,0,,1402414604,44767870,base_link,/z_drive,,,0.0,0.0,0.0,,0.0,0.0,0.0,1.0
1402414604045049922,,errorv,,0,,1402414604,44785784,/z_drive,port,,,-0.3,0.3048,0.0,,0.0,0.0,0.0,1.0
1402414604045076460,,errorv,,0,,1402414604,44796067,/z_drive,starboard,,,-0.3,-0.3048,0.0,,0.0,0.0,0.0,1.0
1402414604063122979,,errorv,,0,,1402414604,5692005,/enu,/base_link,,,7.19932869267,14.6235725685,-10.2583632434,,-0.020906476872,-0.00485318104195,0.734799183993,0.677945075255
1402414604063157328,,errorv,,0,,1402414604,15650033,/enu,/base_link,,,7.19513457508,14.6226333271,-10.2564084738,,-0.0208522150465,-0.00472395644078,0.734568103777,0.678198031755
1402414604065042968,,errorv,,0,,1402414604,64786595,base_link,/z_drive,,,0.0,0.0,0.0,,0.0,0.0,0.0,1.0
1402414604065106597,,errorv,,0,,1402414604,64802119,/z_drive,port,,,-0.3,0.3048,0.0,,0.0,0.0,0.0,1.0
1402414604065132427,,errorv,,0,,1402414604,64809156,/z_drive,starboard,,,-0.3,-0.3048,0.0,,0.0,0.0,0.0,1.0
1402414604085202183,,errorv,,0,,1402414604,84858724,base_link,/z_drive,,,0.0,0.0,0.0,,0.0,0.0,0.0,1.0
1402414604085225894,,errorv,,0,,1402414604,84880178,/z_drive,port,,,-0.3,0.3048,0.0,,0.0,0.0,0.0,1.0
1402414604085332633,,errorv,,0,,1402414604,84889978,/z_drive,starboard,,,-0.3,-0.3048,0.0,,0.0,0.0,0.0,1.0
1402414604103168633,,errorv,,0,,1402414604,26628017,/enu,/base_link,,,7.19008835187,14.6218134136,-10.2547164889,,-0.0207900915975,-0.00456308753163,0.734296464182,0.678495138533
1402414604103198277,,errorv,,0,,1402414604,36624908,/enu,/base_link,,,7.18570286049,14.6209340421,-10.2529734867,,-0.0207677219134,-0.00445320496714,0.734057153508,0.678755453809
1402414604103222407,,errorv,,0,,1402414604,46623945,/enu,/base_link,,,7.18120419473,14.6201008037,-10.2513366264,,-0.0207268360769,-0.00431482458496,0.733806170435,0.679028927798
1402414604103241991,,errorv,,0,,1402414604,56619882,/enu,/base_link,,,7.17676177593,14.619245793,-10.2496735972,,-0.0206545815131,-0.00421232089118,0.733556564124,0.679301414577
1402414604104948555,,errorv,,0,,1402414604,104784124,base_link,/z_drive,,,0.0,0.0,0.0,,0.0,0.0,0.0,1.0
1402414604105052610,,errorv,,0,,1402414604,104798587,/z_drive,port,,,-0.3,0.3048,0.0,,0.0,0.0,0.0,1.0
1402414604105077349,,errorv,,0,,1402414604,104802843,/z_drive,starboard,,,-0.3,-0.3048,0.0,,0.0,0.0,0.0,1.0
1402414604124977757,,errorv,,0,,1402414604,124730245,base_link,/z_drive,,,0.0,0.0,0.0,,0.0,0.0,0.0,1.0
1402414604125099346,,errorv,,0,,1402414604,124747876,/z_drive,port,,,-0.3,0.3048,0.0,,0.0,0.0,0.0,1.0
1402414604125120430,,errorv,,0,,1402414604,124757898,/z_drive,starboard,,,-0.3,-0.3048,0.0,,0.0,0.0,0.0,1.0
1402414604134633843,,errorv,,0,,1402414604,234436701,base_link,imu,,,0.13,0.0,-0.1,,1.0,0.0,0.0,0.0
1402414604136405573,,errorv,,0,,1402414604,236217734,/base_link,/gps,,,-0.84,0.0,-0.14,,0.0,0.0,0.0,1.0
1402414604143256001,,errorv,,0,,1402414604,66622972,/enu,/base_link,,,7.17226788927,14.6181860825,-10.2477199168,,-0.0205850676284,-0.00411019377592,0.733334229752,0.679544162488
1402414604143326864,,errorv,,0,,1402414604,76622009,/enu,/base_link,,,7.16769459137,14.6172214026,-10.2459852022,,-0.0205080780472,-0.00395838794816,0.733092608206,0.67980804474
1402414604143353413,,errorv,,0,,1402414604,87622880,/enu,/base_link,,,7.26950428544,14.6085676771,-10.3803770772,,-0.0144673223963,0.00500052141296,0.734208939174,0.678751003686
1402414604143379380,,errorv,,0,,1402414604,97594976,/enu,/base_link,,,7.26690653674,14.607781125,-10.3785970337,,-0.0143861154911,0.00514546770238,0.733968895209,0.679011211033
1402414604145043142,,errorv,,0,,1402414604,144770879,base_link,/z_drive,,,0.0,0.0,0.0,,0.0,0.0,0.0,1.0
1402414604145072165,,errorv,,0,,1402414604,144791670,/z_drive,port,,,-0.3,0.3048,0.0,,0.0,0.0,0.0,1.0
1402414604145117507,,errorv,,0,,1402414604,144802423,/z_drive,starboard,,,-0.3,-0.3048,0.0,,0.0,0.0,0.0,1.0
1402414604165148749,,errorv,,0,,1402414604,164781056,base_link,/z_drive,,,0.0,0.0,0.0,,0.0,0.0,0.0,1.0
1402414604165180017,,errorv,,0,,1402414604,164835316,/z_drive,port,,,-0.3,0.3048,0.0,,0.0,0.0,0.0,1.0
1402414604165213134,,errorv,,0,,1402414604,164844067,/z_drive,starboard,,,-0.3,-0.3048,0.0,,0.0,0.0,0.0,1.0
1402414604183156658,,errorv,,0,,1402414604,107598066,/enu,/base_link,,,7.26439822693,14.6072741689,-10.3773389088,,-0.0143172702486,0.00524645355752,0.733740377181,0.679258823566
1402414604183183607,,errorv,,0,,1402414604,117597103,/enu,/base_link,,,7.2617088422,14.6065144894,-10.3756344866,,-0.0142528695268,0.00533851760156,0.7335065522,0.679511952669
1402414604183202083,,errorv,,0,,1402414604,127595901,/enu,/base_link,,,7.25914136226,14.605845041,-10.37415611,,-0.0141983014495,0.00540639028416,0.733292995649,0.679743011522
1402414604183262639,,errorv,,0,,1402414604,137595891,/enu,/base_link,,,7.36010915163,14.6619311137,-10.5576371073,,-0.0118140131526,0.0185484043004,0.732363032709,0.68055916283
1402414604185061290,,errorv,,0,,1402414604,184816950,base_link,/z_drive,,,0.0,0.0,0.0,,0.0,0.0,0.0,1.0
1402414604185090753,,errorv,,0,,1402414604,184834282,/z_drive,port,,,-0.3,0.3048,0.0,,0.0,0.0,0.0,1.0
1402414604185115077,,errorv,,0,,1402414604,184839115,/z_drive,starboard,,,-0.3,-0.3048,0.0,,0.0,0.0,0.0,1.0
1402414604205098235,,errorv,,0,,1402414604,204925712,base_link,/z_drive,,,0.0,0.0,0.0,,0.0,0.0,0.0,1.0
1402414604205214617,,errorv,,0,,1402414604,204948615,/z_drive,port,,,-0.3,0.3048,0.0,,0.0,0.0,0.0,1.0
1402414604205238914,,errorv,,0,,1402414604,204959230,/z_drive,starboard,,,-0.3,-0.3048,0.0,,0.0,0.0,0.0,1.0
1402414604223125491,,errorv,,0,,1402414604,148593902,/enu,/base_link,,,7.35961753959,14.662777194,-10.5561593726,,-0.0117052852924,0.0186760428028,0.732069511959,0.680873278504
1402414604223155975,,errorv,,0,,1402414604,158596992,/enu,/base_link,,,7.35903713438,14.6634224517,-10.5545208769,,-0.0116575289243,0.0187313901929,0.731811862338,0.681149495473
1402414604223185826,,errorv,,0,,1402414604,168567895,/enu,/base_link,,,7.35841154943,14.6642091062,-10.5532663833,,-0.0115723131571,0.0188551143427,0.731565740115,0.681411868198
1402414604223209622,,errorv,,0,,1402414604,178570032,/enu,/base_link,,,7.35796213515,14.6650944115,-10.5520095116,,-0.0115086147213,0.018927404181,0.731328039243,0.681666050332
1402414604225047457,,errorv,,0,,1402414604,224797853,base_link,/z_drive,,,0.0,0.0,0.0,,0.0,0.0,0.0,1.0
1402414604225120332,,errorv,,0,,1402414604,224823947,/z_drive,port,,,-0.3,0.3048,0.0,,0.0,0.0,0.0,1.0
1402414604225165631,,errorv,,0,,1402414604,224837750,/z_drive,starboard,,,-0.3,-0.3048,0.0,,0.0,0.0,0.0,1.0
1402414604234728974,,errorv,,0,,1402414604,334533363,base_link,imu,,,0.13,0.0,-0.1,,1.0,0.0,0.0,0.0
1402414604236477146,,errorv,,0,,1402414604,336312238,/base_link,/gps,,,-0.84,0.0,-0.14,,0.0,0.0,0.0,1.0
1402414604244960165,,errorv,,0,,1402414604,244757461,base_link,/z_drive,,,0.0,0.0,0.0,,0.0,0.0,0.0,1.0
1402414604245069973,,errorv,,0,,1402414604,244773774,/z_drive,port,,,-0.3,0.3048,0.0,,0.0,0.0,0.0,1.0
1402414604245094964,,errorv,,0,,1402414604,244781883,/z_drive,starboard,,,-0.3,-0.3048,0.0,,0.0,0.0,0.0,1.0
1402414604263392851,,errorv,,0,,1402414604,188571929,/enu,/base_link,,,7.42830358158,14.6530986368,-10.6493195023,,-0.00727089028947,0.0244994735626,0.732477864286,0.680311023195
1402414604263423294,,errorv,,0,,1402414604,198569059,/enu,/base_link,,,7.42913116711,14.6540145379,-10.648060494,,-0.00723196304618,0.0245233224683,0.73224029226,0.680566278739
1402414604263445513,,errorv,,0,,1402414604,209544897,/enu,/base_link,,,7.42996327281,14.654994779,-10.6466959794,,-0.00715292917626,0.0245536704177,0.731975766108,0.680850520088
1402414604263507286,,errorv,,0,,1402414604,219543933,/enu,/base_link,,,7.43099237693,14.6559624996,-10.6456174546,,-0.00709097797249,0.0246156804594,0.73172027614,0.681123501131
1402414604265136835,,errorv,,0,,1402414604,264803671,base_link,/z_drive,,,0.0,0.0,0.0,,0.0,0.0,0.0,1.0
1402414604265165143,,errorv,,0,,1402414604,264820959,/z_drive,port,,,-0.3,0.3048,0.0,,0.0,0.0,0.0,1.0
1402414604265187644,,errorv,,0,,1402414604,264829284,/z_drive,starboard,,,-0.3,-0.3048,0.0,,0.0,0.0,0.0,1.0
1402414604285067897,,errorv,,0,,1402414604,284772462,base_link,/z_drive,,,0.0,0.0,0.0,,0.0,0.0,0.0,1.0
1402414604285155679,,errorv,,0,,1402414604,284796615,/z_drive,port,,,-0.3,0.3048,0.0,,0.0,0.0,0.0,1.0
1402414604285200844,,errorv,,0,,1402414604,284808149,/z_drive,starboard,,,-0.3,-0.3048,0.0,,0.0,0.0,0.0,1.0
1402414604303108479,,errorv,,0,,1402414604,229543924,/enu,/base_link,,,7.43187922106,14.6567973416,-10.6442122111,,-0.00705202056328,0.0246865136943,0.731453178456,0.681408168996
1402414604303132784,,errorv,,0,,1402414604,239542007,/enu,/base_link,,,7.43279355888,14.6577312425,-10.6429047347,,-0.0069655399232,0.0247623858977,0.731209492203,0.681667795932
1402414604303158985,,errorv,,0,,1402414604,249548912,/enu,/base_link,,,7.43381311293,14.6585500696,-10.6415127638,,-0.00691651653302,0.0247897094511,0.730972478816,0.681921452455
1402414604303182133,,errorv,,0,,1402414604,259521961,/enu,/base_link,,,7.43488531271,14.6595767794,-10.6404755119,,-0.00683749010874,0.0248600491301,0.730729100814,0.682180480452
1402414604305119455,,errorv,,0,,1402414604,304810326,base_link,/z_drive,,,0.0,0.0,0.0,,0.0,0.0,0.0,1.0
1402414604305147853,,errorv,,0,,1402414604,304828111,/z_drive,port,,,-0.3,0.3048,0.0,,0.0,0.0,0.0,1.0
1402414604305170797,,errorv,,0,,1402414604,304837923,/z_drive,starboard,,,-0.3,-0.3048,0.0,,0.0,0.0,0.0,1.0
1402414604325104524,,errorv,,0,,1402414604,324772014,base_link,/z_drive,,,0.0,0.0,0.0,,0.0,0.0,0.0,1.0
1402414604325180594,,errorv,,0,,1402414604,324793551,/z_drive,port,,,-0.3,0.3048,0.0,,0.0,0.0,0.0,1.0
1402414604325212661,,errorv,,0,,1402414604,324802655,/z_drive,starboard,,,-0.3,-0.3048,0.0,,0.0,0.0,0.0,1.0
1402414604334832080,,errorv,,0,,1402414604,434629331,base_link,imu,,,0.13,0.0,-0.1,,1.0,0.0,0.0,0.0
1402414604336584283,,errorv,,0,,1402414604,436405847,/base_link,/gps,,,-0.84,0.0,-0.14,,0.0,0.0,0.0,1.0
1402414604343150737,,errorv,,0,,1402414604,269521951,/enu,/base_link,,,7.44468070722,14.6660206287,-10.6868141122,,-0.00703748364647,0.026111373613,0.730370128731,0.682516040141
1402414604343183837,,errorv,,0,,1402414604,280522108,/enu,/base_link,,,7.44592914712,14.6670757316,-10.6851675566,,-0.0069517992418,0.0261123072871,0.730094734545,0.682811466282
1402414604343213701,,errorv,,0,,1402414604,290568113,/enu,/base_link,,,7.44722571819,14.6683436952,-10.6842033631,,-0.00687758088149,0.0261058410847,0.729833681517,0.68309148821
1402414604343237291,,errorv,,0,,1402414604,300504922,/enu,/base_link,,,7.44851853928,14.6694463708,-10.6829029834,,-0.00680298828331,0.0261495945992,0.72957809454,0.68336353577
1402414604345062065,,errorv,,0,,1402414604,344790298,base_link,/z_drive,,,0.0,0.0,0.0,,0.0,0.0,0.0,1.0
1402414604345085454,,errorv,,0,,1402414604,344808595,/z_drive,port,,,-0.3,0.3048,0.0,,0.0,0.0,0.0,1.0
1402414604345110492,,errorv,,0,,1402414604,344818930,/z_drive,starboard,,,-0.3,-0.3048,0.0,,0.0,0.0,0.0,1.0
1402414604365154495,,errorv,,0,,1402414604,364750003,base_link,/z_drive,,,0.0,0.0,0.0,,0.0,0.0,0.0,1.0
1402414604365183004,,errorv,,0,,1402414604,364805815,/z_drive,port,,,-0.3,0.3048,0.0,,0.0,0.0,0.0,1.0
1402414604365202663,,errorv,,0,,1402414604,364814656,/z_drive,starboard,,,-0.3,-0.3048,0.0,,0.0,0.0,0.0,1.0
1402414604383229112,,errorv,,0,,1402414604,310508966,/enu,/base_link,,,7.44977444413,14.6705037703,-10.6814934971,,-0.00677094107844,0.0261750546536,0.729324371378,0.683633660804
1402414604383256220,,errorv,,0,,1402414604,320494890,/enu,/base_link,,,7.38993162381,14.6738216265,-10.5839597924,,-0.0102206870706,0.0205251175898,0.727771841545,0.68543592243
1402414604383330130,,errorv,,0,,1402414604,330480098,/enu,/base_link,,,7.3899033888,14.67497111,-10.5829915561,,-0.0101856335381,0.0205014508589,0.72751505208,0.685709699785
1402414604383355085,,errorv,,0,,1402414604,340478897,/enu,/base_link,,,7.39013679877,14.6757856112,-10.5814155402,,-0.0101424088425,0.0204541763143,0.727258694091,0.685983636892
1402414604385132887,,errorv,,0,,1402414604,384812273,base_link,/z_drive,,,0.0,0.0,0.0,,0.0,0.0,0.0,1.0
1402414604385193528,,errorv,,0,,1402414604,384830112,/z_drive,port,,,-0.3,0.3048,0.0,,0.0,0.0,0.0,1.0
1402414604385221011,,errorv,,0,,1402414604,384839755,/z_drive,starboard,,,-0.3,-0.3048,0.0,,0.0,0.0,0.0,1.0
1402414604405140750,,errorv,,0,,1402414604,404800833,base_link,/z_drive,,,0.0,0.0,0.0,,0.0,0.0,0.0,1.0
1402414604405231925,,errorv,,0,,1402414604,404824674,/z_drive,port,,,-0.3,0.3048,0.0,,0.0,0.0,0.0,1.0
1402414604405296646,,errorv,,0,,1402414604,404834718,/z_drive,starboard,,,-0.3,-0.3048,0.0,,0.0,0.0,0.0,1.0
1402414604423094388,,errorv,,0,,1402414604,350478887,/enu,/base_link,,,7.39018271694,14.6766673004,-10.5799509964,,-0.010112992123,0.0204276221086,0.727004869909,0.686253858841
1402414604423297613,,errorv,,0,,1402414604,360480070,/enu,/base_link,,,7.32990834799,14.6753839925,-10.4777083844,,-0.0132854659976,0.0143950149315,0.725446069572,0.688000203547
1402414604423325657,,errorv,,0,,1402414604,371479988,/enu,/base_link,,,7.32856179373,14.6759215881,-10.4757849349,,-0.0132151436804,0.0143174006995,0.725162160222,0.688302414203
1402414604423352121,,errorv,,0,,1402414604,381480932,/enu,/base_link,,,7.32744518962,14.6764056937,-10.4740910312,,-0.0131746282705,0.0142485951613,0.724906632935,0.688573728973
1402414604425196199,,errorv,,0,,1402414604,424844034,base_link,/z_drive,,,0.0,0.0,0.0,,0.0,0.0,0.0,1.0
1402414604425230824,,errorv,,0,,1402414604,424864095,/z_drive,port,,,-0.3,0.3048,0.0,,0.0,0.0,0.0,1.0
1402414604425254440,,errorv,,0,,1402414604,424873871,/z_drive,starboard,,,-0.3,-0.3048,0.0,,0.0,0.0,0.0,1.0
1402414604434938950,,errorv,,0,,1402414604,534739419,base_link,imu,,,0.13,0.0,-0.1,,1.0,0.0,0.0,0.0
1402414604436688689,,errorv,,0,,1402414604,536499742,/base_link,/gps,,,-0.84,0.0,-0.14,,0.0,0.0,0.0,1.0
1402414604445146698,,errorv,,0,,1402414604,444791811,base_link,/z_drive,,,0.0,0.0,0.0,,0.0,0.0,0.0,1.0
1402414604445232275,,errorv,,0,,1402414604,444812881,/z_drive,port,,,-0.3,0.3048,0.0,,0.0,0.0,0.0,1.0
1402414604445257938,,errorv,,0,,1402414604,444823089,/z_drive,starboard,,,-0.3,-0.3048,0.0,,0.0,0.0,0.0,1.0
1402414604463113864,,errorv,,0,,1402414604,391478061,/enu,/base_link,,,7.3177033958,14.668038798,-10.4496105154,,-0.0133131463973,0.0126716623015,0.724458713123,0.6890731181
1402414604463139742,,errorv,,0,,1402414604,401453018,/enu,/base_link,,,7.31649576109,14.6684993553,-10.4480785498,,-0.0133042505263,0.0126100568382,0.724210891161,0.689334873997
1402414604463160210,,errorv,,0,,1402414604,411451101,/enu,/base_link,,,7.31501943217,14.6687576,-10.4461644404,,-0.0133123897285,0.0125073235491,0.723941734296,0.68961925182
1402414604463242397,,errorv,,0,,1402414604,422450065,/enu,/base_link,,,7.31364757105,14.6694147521,-10.4446062084,,-0.0134127433217,0.0122516280658,0.723672499508,0.689904420468
1402414604463266266,,errorv,,0,,1402414604,432452917,/enu,/base_link,,,7.31222457198,14.6699338042,-10.4428047247,,-0.0134708335953,0.0119834364558,0.723464982772,0.69012560639
1402414604465216869,,errorv,,0,,1402414604,464800295,base_link,/z_drive,,,0.0,0.0,0.0,,0.0,0.0,0.0,1.0
1402414604465279511,,errorv,,0,,1402414604,464818807,/z_drive,port,,,-0.3,0.3048,0.0,,0.0,0.0,0.0,1.0
1402414604465341736,,errorv,,0,,1402414604,464828854,/z_drive,starboard,,,-0.3,-0.3048,0.0,,0.0,0.0,0.0,1.0
1402414604485191977,,errorv,,0,,1402414604,484837101,base_link,/z_drive,,,0.0,0.0,0.0,,0.0,0.0,0.0,1.0
1402414604485223905,,errorv,,0,,1402414604,484859796,/z_drive,port,,,-0.3,0.3048,0.0,,0.0,0.0,0.0,1.0
1402414604485245955,,errorv,,0,,1402414604,484869007,/z_drive,starboard,,,-0.3,-0.3048,0.0,,0.0,0.0,0.0,1.0
1402414604503129454,,errorv,,0,,1402414604,442452907,/enu,/base_link,,,7.31081273887,14.6706289071,-10.4412008133,,-0.0133011745036,0.0120100603633,0.723272170826,0.690330503538
1402414604503157349,,errorv,,0,,1402414604,452426910,/enu,/base_link,,,7.30951407342,14.6713237891,-10.4393849496,,-0.0129273873388,0.0120220527281,0.723109395532,0.690507896405
1402414604503185687,,errorv,,0,,1402414604,463427066,/enu,/base_link,,,7.30799336069,14.6723611366,-10.4374312629,,-0.0125842093756,0.0121344114997,0.722963632323,0.69066488261
1402414604505077100,,errorv,,0,,1402414604,504772488,base_link,/z_drive,,,0.0,0.0,0.0,,0.0,0.0,0.0,1.0
1402414604505105258,,errorv,,0,,1402414604,504790023,/z_drive,port,,,-0.3,0.3048,0.0,,0.0,0.0,0.0,1.0
1402414604505127725,,errorv,,0,,1402414604,504799889,/z_drive,starboard,,,-0.3,-0.3048,0.0,,0.0,0.0,0.0,1.0
1402414604511277344,,errorv,,0,,1402414604,473424911,/enu,/base_link,,,7.30639871338,14.6733712759,-10.435618105,,-0.0123242371991,0.011910498382,0.722815434582,0.69082856103
1402414604511309931,,errorv,,0,,1402414604,483423948,/enu,/base_link,,,7.32032736695,14.6732593028,-10.5009843412,,-0.0118944389365,0.0130790956271,0.722253392081,0.691402557999
1402414604525098047,,errorv,,0,,1402414604,524856431,base_link,/z_drive,,,0.0,0.0,0.0,,0.0,0.0,0.0,1.0
1402414604525119728,,errorv,,0,,1402414604,524873148,/z_drive,port,,,-0.3,0.3048,0.0,,0.0,0.0,0.0,1.0
1402414604525134169,,errorv,,0,,1402414604,524882193,/z_drive,starboard,,,-0.3,-0.3048,0.0,,0.0,0.0,0.0,1.0
1402414604535055685,,errorv,,0,,1402414604,634853763,base_link,imu,,,0.13,0.0,-0.1,,1.0,0.0,0.0,0.0
1402414604536821700,,errorv,,0,,1402414604,636606641,/base_link,/gps,,,-0.84,0.0,-0.14,,0.0,0.0,0.0,1.0
1402414604545062924,,errorv,,0,,1402414604,544738613,base_link,/z_drive,,,0.0,0.0,0.0,,0.0,0.0,0.0,1.0
1402414604545112183,,errorv,,0,,1402414604,544764419,/z_drive,port,,,-0.3,0.3048,0.0,,0.0,0.0,0.0,1.0
1402414604545137711,,errorv,,0,,1402414604,544774118,/z_drive,starboard,,,-0.3,-0.3048,0.0,,0.0,0.0,0.0,1.0
1402414604551015585,,errorv,,0,,1402414604,493427038,/enu,/base_link,,,7.31896317073,14.6747153653,-10.4991597703,,-0.0117494737419,0.0127245550342,0.722142997165,0.691526953351
1402414604551101986,,errorv,,0,,1402414604,504400014,/enu,/base_link,,,7.3177039931,14.6765817849,-10.497205264,,-0.0113747310197,0.0125056986308,0.722019032034,0.69166663963
1402414604565124525,,errorv,,0,,1402414604,564770527,base_link,/z_drive,,,0.0,0.0,0.0,,0.0,0.0,0.0,1.0
1402414604565155350,,errorv,,0,,1402414604,564790037,/z_drive,port,,,-0.3,0.3048,0.0,,0.0,0.0,0.0,1.0
1402414604565195947,,errorv,,0,,1402414604,564795210,/z_drive,starboard,,,-0.3,-0.3048,0.0,,0.0,0.0,0.0,1.0
1402414604584999057,,errorv,,0,,1402414604,584778069,base_link,/z_drive,,,0.0,0.0,0.0,,0.0,0.0,0.0,1.0
1402414604585027168,,errorv,,0,,1402414604,584803597,/z_drive,port,,,-0.3,0.3048,0.0,,0.0,0.0,0.0,1.0
1402414604585086595,,errorv,,0,,1402414604,584815188,/z_drive,starboard,,,-0.3,-0.3048,0.0,,0.0,0.0,0.0,1.0
1402414604591304137,,errorv,,0,,1402414604,514398097,/enu,/base_link,,,7.31648576509,14.6785652654,-10.4955694922,,-0.0108469591383,0.0123110445411,0.721923269358,0.691778559092
1402414604591389260,,errorv,,0,,1402414604,524398088,/enu,/base_link,,,7.31523565179,14.6805825295,-10.4937424307,,-0.0103593968621,0.0121140271126,0.721838410048,0.691878055023
1402414604591415650,,errorv,,0,,1402414604,534395933,/enu,/base_link,,,7.35073690256,14.6833526018,-10.5528342403,,-0.00826797323068,0.0148375345126,0.718985820954,0.694817153973
1402414604591439185,,errorv,,0,,1402414604,545398950,/enu,/base_link,,,7.35002952622,14.6861914765,-10.5508818536,,-0.00780289761998,0.0143100585013,0.718894910123,0.694927654662
1402414604605160231,,errorv,,0,,1402414604,604822052,base_link,/z_drive,,,0.0,0.0,0.0,,0.0,0.0,0.0,1.0
1402414604605193122,,errorv,,0,,1402414604,604843443,/z_drive,port,,,-0.3,0.3048,0.0,,0.0,0.0,0.0,1.0
1402414604605214096,,errorv,,0,,1402414604,604850528,/z_drive,starboard,,,-0.3,-0.3048,0.0,,0.0,0.0,0.0,1.0
1402414604625164114,,errorv,,0,,1402414604,624774211,base_link,/z_drive,,,0.0,0.0,0.0,,0.0,0.0,0.0,1.0
1402414604625189847,,errorv,,0,,1402414604,624797049,/z_drive,port,,,-0.3,0.3048,0.0,,0.0,0.0,0.0,1.0
1402414604625303513,,errorv,,0,,1402414604,624807875,/z_drive,starboard,,,-0.3,-0.3048,0.0,,0.0,0.0,0.0,1.0
1402414604631146490,,errorv,,0,,1402414604,555396080,/enu,/base_link,,,7.34924240955,14.6889988709,-10.5491631105,,-0.00733463384946,0.0138178007623,0.71880349797,0.695037267227
1402414604631300959,,errorv,,0,,1402414604,566400051,/enu,/base_link,,,7.3485137822,14.6921858995,-10.5469107559,,-0.00673979933834,0.0133456955521,0.718712314954,0.695146801654
1402414604631365918,,errorv,,0,,1402414604,576396942,/enu,/base_link,,,7.34813403166,14.695466292,-10.5451728691,,-0.00620330499716,0.0128269972908,0.718635923098,0.695240531889
1402414604631390455,,errorv,,0,,1402414604,586400985,/enu,/base_link,,,7.31970563248,14.7277943811,-10.4938272059,,-0.00837716463852,0.01241532881,0.720983771779,0.692790071778
1402414604635198130,,errorv,,0,,1402414604,734954688,base_link,imu,,,0.13,0.0,-0.1,,1.0,0.0,0.0,0.0
1402414604636895424,,errorv,,0,,1402414604,736715655,/base_link,/gps,,,-0.84,0.0,-0.14,,0.0,0.0,0.0,1.0
1402414604645111322,,errorv,,0,,1402414604,644782752,base_link,/z_drive,,,0.0,0.0,0.0,,0.0,0.0,0.0,1.0
1402414604645239370,,errorv,,0,,1402414604,644802482,/z_drive,port,,,-0.3,0.3048,0.0,,0.0,0.0,0.0,1.0
1402414604645260906,,errorv,,0,,1402414604,644812718,/z_drive,starboard,,,-0.3,-0.3048,0.0,,0.0,0.0,0.0,1.0
1402414604665196477,,errorv,,0,,1402414604,664783100,base_link,/z_drive,,,0.0,0.0,0.0,,0.0,0.0,0.0,1.0
1402414604665230249,,errorv,,0,,1402414604,664801688,/z_drive,port,,,-0.3,0.3048,0.0,,0.0,0.0,0.0,1.0
1402414604665372032,,errorv,,0,,1402414604,664811164,/z_drive,starboard,,,-0.3,-0.3048,0.0,,0.0,0.0,0.0,1.0
1402414604671215428,,errorv,,0,,1402414604,597397089,/enu,/base_link,,,7.31867213802,14.7321701714,-10.4915332358,,-0.00747220341242,0.0119508842522,0.720845229546,0.692952738347
1402414604671318251,,errorv,,0,,1402414604,607399940,/enu,/base_link,,,7.3177647046,14.7364603061,-10.4894989892,,-0.00681878054727,0.0115534202335,0.720711295586,0.693105512262
1402414604671343540,,errorv,,0,,1402414604,618400096,/enu,/base_link,,,7.3163889677,14.7413946795,-10.4874693537,,-0.00615576702995,0.01078723835,0.720536701815,0.693305562763
1402414604671387596,,errorv,,0,,1402414604,628401994,/enu,/base_link,,,7.31534513636,14.7459081086,-10.4850771843,,-0.00553502816208,0.0102637459348,0.720360496207,0.693501820104
1402414604685103892,,errorv,,0,,1402414604,684792150,base_link,/z_drive,,,0.0,0.0,0.0,,0.0,0.0,0.0,1.0
1402414604685183115,,errorv,,0,,1402414604,684814439,/z_drive,port,,,-0.3,0.3048,0.0,,0.0,0.0,0.0,1.0
1402414604685211735,,errorv,,0,,1402414604,684824474,/z_drive,starboard,,,-0.3,-0.3048,0.0,,0.0,0.0,0.0,1.0
1402414604705068569,,errorv,,0,,1402414604,704756381,base_link,/z_drive,,,0.0,0.0,0.0,,0.0,0.0,0.0,1.0
1402414604705099556,,errorv,,0,,1402414604,704775398,/z_drive,port,,,-0.3,0.3048,0.0,,0.0,0.0,0.0,1.0
1402414604705124515,,errorv,,0,,1402414604,704785437,/z_drive,starboard,,,-0.3,-0.3048,0.0,,0.0,0.0,0.0,1.0
1402414604711274688,,errorv,,0,,1402414604,638398885,/enu,/base_link,,,7.31439382014,14.7508160885,-10.4831861674,,-0.00483651077083,0.00963521195939,0.720207891865,0.693674537049
1402414604712510985,,errorv,,0,,1402414604,648397922,/enu,/base_link,,,7.3133562559,14.7558736019,-10.4812255,,-0.0041609803421,0.00917295453383,0.720018784812,0.693881468744
1402414604712537058,,errorv,,0,,1402414604,659398078,/enu,/base_link,,,7.31219045059,14.7615714238,-10.4788943342,,-0.0034517245724,0.00865985726134,0.719803097647,0.694115691428
1402414604712557132,,errorv,,0,,1402414604,669399023,/enu,/base_link,,,7.31105964898,14.766970427,-10.4768110683,,-0.00293356327503,0.00814251751673,0.719593713836,0.694341400625
1402414604725116328,,errorv,,0,,1402414604,724774797,base_link,/z_drive,,,0.0,0.0,0.0,,0.0,0.0,0.0,1.0
1402414604725185793,,errorv,,0,,1402414604,724793763,/z_drive,port,,,-0.3,0.3048,0.0,,0.0,0.0,0.0,1.0
1402414604725211184,,errorv,,0,,1402414604,724804371,/z_drive,starboard,,,-0.3,-0.3048,0.0,,0.0,0.0,0.0,1.0
1402414604735276697,,errorv,,0,,1402414604,835070949,base_link,imu,,,0.13,0.0,-0.1,,1.0,0.0,0.0,0.0
1402414604736993702,,errorv,,0,,1402414604,836823928,/base_link,/gps,,,-0.84,0.0,-0.14,,0.0,0.0,0.0,1.0
1402414604744991889,,errorv,,0,,1402414604,744754720,base_link,/z_drive,,,0.0,0.0,0.0,,0.0,0.0,0.0,1.0
1402414604745020385,,errorv,,0,,1402414604,744775770,/z_drive,port,,,-0.3,0.3048,0.0,,0.0,0.0,0.0,1.0
1402414604745048245,,errorv,,0,,1402414604,744783622,/z_drive,starboard,,,-0.3,-0.3048,0.0,,0.0,0.0,0.0,1.0
1402414604751204957,,errorv,,0,,1402414604,679399967,/enu,/base_link,,,7.30988041719,14.7725762968,-10.4748434181,,-0.00232639715136,0.00762280271261,0.719375670756,0.694575499913
1402414604751232731,,errorv,,0,,1402414604,690399885,/enu,/base_link,,,7.31689729143,14.7882840982,-10.4730126454,,-0.00210536099314,0.00820094359482,0.717322202391,0.696690153466
1402414604751275779,,errorv,,0,,1402414604,700401067,/enu,/base_link,,,7.31598355505,14.7945714306,-10.4712856513,,-0.00162402858029,0.00769443986283,0.717094858649,0.696931217428
1402414604751298754,,errorv,,0,,1402414604,710397958,/enu,/base_link,,,7.31511731834,14.8010123058,-10.4694987798,,-0.00120147323463,0.00727598474223,0.716871061192,0.697166764937
1402414604751319901,,errorv,,0,,1402414604,721396923,/enu,/base_link,,,7.31395603799,14.8081765392,-10.4672964618,,-0.000740301394112,0.00678670345424,0.716599716498,0.697451244837
1402414604765091550,,errorv,,0,,1402414604,764766214,base_link,/z_drive,,,0.0,0.0,0.0,,0.0,0.0,0.0,1.0
1402414604765117570,,errorv,,0,,1402414604,764789759,/z_drive,port,,,-0.3,0.3048,0.0,,0.0,0.0,0.0,1.0
1402414604765135819,,errorv,,0,,1402414604,764801127,/z_drive,starboard,,,-0.3,-0.3048,0.0,,0.0,0.0,0.0,1.0
1402414604785041879,,errorv,,0,,1402414604,784781651,base_link,/z_drive,,,0.0,0.0,0.0,,0.0,0.0,0.0,1.0
1402414604785161626,,errorv,,0,,1402414604,784801746,/z_drive,port,,,-0.3,0.3048,0.0,,0.0,0.0,0.0,1.0
1402414604785189040,,errorv,,0,,1402414604,784808683,/z_drive,starboard,,,-0.3,-0.3048,0.0,,0.0,0.0,0.0,1.0
1402414604791151429,,errorv,,0,,1402414604,731318950,/enu,/base_link,,,7.30224220294,14.8109080799,-10.4710381721,,-0.000953659830675,0.00582086841428,0.718600920404,0.695397674154
1402414604791187789,,errorv,,0,,1402414604,742319107,/enu,/base_link,,,7.30101088342,14.8187165716,-10.4692644053,,-0.000599075327137,0.00542503047003,0.718345097229,0.695665531301
1402414604791213084,,errorv,,0,,1402414604,752399921,/enu,/base_link,,,7.29998451797,14.8259157114,-10.4673172063,,-0.000381600540193,0.00509866505959,0.718091220533,0.695930209855
1402414604799415132,,errorv,,0,,1402414604,762396097,/enu,/base_link,,,7.2988236177,14.8332372949,-10.4654487809,,-0.000142625298116,0.0048221514981,0.717829971185,0.696201737272
1402414604799437715,,errorv,,0,,1402414604,773303985,/enu,/base_link,,,7.29756631508,14.841489207,-10.4634637021,,-1.21504194761e-05,0.00463780827487,0.717554534798,0.696486884426
1402414604805321189,,errorv,,0,,1402414604,804796536,base_link,/z_drive,,,0.0,0.0,0.0,,0.0,0.0,0.0,1.0
1402414604805347726,,errorv,,0,,1402414604,804814376,/z_drive,port,,,-0.3,0.3048,0.0,,0.0,0.0,0.0,1.0
1402414604805363266,,errorv,,0,,1402414604,804821025,/z_drive,starboard,,,-0.3,-0.3048,0.0,,0.0,0.0,0.0,1.0
1402414604825254116,,errorv,,0,,1402414604,824934309,base_link,/z_drive,,,0.0,0.0,0.0,,0.0,0.0,0.0,1.0
1402414604825283438,,errorv,,0,,1402414604,824949340,/z_drive,port,,,-0.3,0.3048,0.0,,0.0,0.0,0.0,1.0
1402414604825308903,,errorv,,0,,1402414604,824955738,/z_drive,starboard,,,-0.3,-0.3048,0.0,,0.0,0.0,0.0,1.0
1402414604835398921,,errorv,,0,,1402414604,935171740,base_link,imu,,,0.13,0.0,-0.1,,1.0,0.0,0.0,0.0
1402414604837104698,,errorv,,0,,1402414604,936928090,/base_link,/gps,,,-0.84,0.0,-0.14,,0.0,0.0,0.0,1.0
1402414604839059076,,errorv,,0,,1402414604,783303022,/enu,/base_link,,,7.28502262145,14.8460968559,-10.4456758261,,-0.00033236046154,0.00379073866317,0.719633050724,0.694344145322
1402414604839087505,,errorv,,0,,1402414604,793292045,/enu,/base_link,,,7.28370979331,14.853839207,-10.4436825817,,-0.000238454316881,0.00368395740076,0.71934944073,0.694638577765
1402414604845083981,,errorv,,0,,1402414604,844808321,base_link,/z_drive,,,0.0,0.0,0.0,,0.0,0.0,0.0,1.0
1402414604845146837,,errorv,,0,,1402414604,844826829,/z_drive,port,,,-0.3,0.3048,0.0,,0.0,0.0,0.0,1.0
1402414604845219809,,errorv,,0,,1402414604,844835613,/z_drive,starboard,,,-0.3,-0.3048,0.0,,0.0,0.0,0.0,1.0
1402414604865137088,,errorv,,0,,1402414604,864758816,base_link,/z_drive,,,0.0,0.0,0.0,,0.0,0.0,0.0,1.0
1402414604865163096,,errorv,,0,,1402414604,864774392,/z_drive,port,,,-0.3,0.3048,0.0,,0.0,0.0,0.0,1.0
1402414604865322308,,errorv,,0,,1402414604,864807694,/z_drive,starboard,,,-0.3,-0.3048,0.0,,0.0,0.0,0.0,1.0
1402414604879090989,,errorv,,0,,1402414604,803294897,/enu,/base_link,,,7.28249156519,14.8621294548,-10.4423515767,,-0.000180379389659,0.00352211822471,0.719094056298,0.69490380654
1402414604879311678,,errorv,,0,,1402414604,814305067,/enu,/base_link,,,7.28101573426,14.8711654178,-10.4403917343,,-0.00025417747245,0.00339325427218,0.718780609427,0.6952286363
1402414604879360692,,errorv,,0,,1402414604,824276924,/enu,/base_link,,,7.27962255654,14.8795610535,-10.4387598865,,-0.00027920241298,0.00337535124871,0.718479502417,0.69553988646
1402414604879457488,,errorv,,0,,1402414604,834283113,/enu,/base_link,,,7.19805162781,14.8722144663,-10.3038178902,,-0.0030232921624,-0.00196265212156,0.734677653587,0.678406775483
1402414604885139197,,errorv,,0,,1402414604,884813267,base_link,/z_drive,,,0.0,0.0,0.0,,0.0,0.0,0.0,1.0
1402414604885168914,,errorv,,0,,1402414604,884834995,/z_drive,port,,,-0.3,0.3048,0.0,,0.0,0.0,0.0,1.0
1402414604885190676,,errorv,,0,,1402414604,884864937,/z_drive,starboard,,,-0.3,-0.3048,0.0,,0.0,0.0,0.0,1.0
1402414604904990672,,errorv,,0,,1402414604,904755925,base_link,/z_drive,,,0.0,0.0,0.0,,0.0,0.0,0.0,1.0
1402414604905013495,,errorv,,0,,1402414604,904771950,/z_drive,port,,,-0.3,0.3048,0.0,,0.0,0.0,0.0,1.0
1402414604905174845,,errorv,,0,,1402414604,904787063,/z_drive,starboard,,,-0.3,-0.3048,0.0,,0.0,0.0,0.0,1.0
1402414604919285004,,errorv,,0,,1402414604,845273017,/enu,/base_link,,,7.19507549926,14.8813681554,-10.3015551743,,-0.00310259374981,-0.00196008932744,0.73437902847,0.678729677048
1402414604919307643,,errorv,,0,,1402414604,855269908,/enu,/base_link,,,7.19235040184,14.8900679425,-10.2998531077,,-0.00324962431761,-0.0019451314853,0.734122164769,0.679006850922
1402414604919331642,,errorv,,0,,1402414604,866282939,/enu,/base_link,,,7.18938022666,14.9000197525,-10.2982929443,,-0.00341537764055,-0.00181578427358,0.733787020532,0.67936856464
1402414604919358444,,errorv,,0,,1402414604,876296043,/enu,/base_link,,,7.1866680815,14.9090314977,-10.296562803,,-0.00367865372146,-0.00174323021434,0.733485318987,0.679693103897
1402414604925119878,,errorv,,0,,1402414604,924811193,base_link,/z_drive,,,0.0,0.0,0.0,,0.0,0.0,0.0,1.0
1402414604925186719,,errorv,,0,,1402414604,924834283,/z_drive,port,,,-0.3,0.3048,0.0,,0.0,0.0,0.0,1.0
1402414604925211600,,errorv,,0,,1402414604,924843632,/z_drive,starboard,,,-0.3,-0.3048,0.0,,0.0,0.0,0.0,1.0
1402414604935516847,,errorv,,0,,1402414605,35275541,base_link,imu,,,0.13,0.0,-0.1,,1.0,0.0,0.0,0.0
1402414604937216862,,errorv,,0,,1402414605,37032380,/base_link,/gps,,,-0.84,0.0,-0.14,,0.0,0.0,0.0,1.0
1402414604945009045,,errorv,,0,,1402414604,944842666,base_link,/z_drive,,,0.0,0.0,0.0,,0.0,0.0,0.0,1.0
1402414604945106837,,errorv,,0,,1402414604,944867739,/z_drive,port,,,-0.3,0.3048,0.0,,0.0,0.0,0.0,1.0
1402414604945134708,,errorv,,0,,1402414604,944877696,/z_drive,starboard,,,-0.3,-0.3048,0.0,,0.0,0.0,0.0,1.0
1402414604959211913,,errorv,,0,,1402414604,887281894,/enu,/base_link,,,7.11692539087,14.8927643345,-10.1714361413,,-0.00540640369757,-0.00689393731828,0.747300383233,0.664428612905
1402414604959241209,,errorv,,0,,1402414604,897274017,/enu,/base_link,,,7.11310523156,14.9015538658,-10.1696701154,,-0.00562742944752,-0.00681333349949,0.746991442476,0.66477492085
1402414604959305000,,errorv,,0,,1402414604,908252954,/enu,/base_link,,,7.10873120804,14.9114018106,-10.1676456807,,-0.00597517964268,-0.00668874902764,0.746642933028,0.665164557402
1402414604959333737,,errorv,,0,,1402414604,918277025,/enu,/base_link,,,7.10482977561,14.9206353648,-10.1660427662,,-0.00628713151233,-0.00660093980057,0.746335859568,0.665507088087
1402414604959356735,,errorv,,0,,1402414604,928246974,/enu,/base_link,,,7.10084208771,14.9299431987,-10.1644495483,,-0.00662163039885,-0.00648456593579,0.746066105841,0.665807382154
1402414604965047913,,errorv,,0,,1402414604,964814031,base_link,/z_drive,,,0.0,0.0,0.0,,0.0,0.0,0.0,1.0
1402414604965129175,,errorv,,0,,1402414604,964835337,/z_drive,port,,,-0.3,0.3048,0.0,,0.0,0.0,0.0,1.0
1402414604965154949,,errorv,,0,,1402414604,964844168,/z_drive,starboard,,,-0.3,-0.3048,0.0,,0.0,0.0,0.0,1.0
1402414604984999194,,errorv,,0,,1402414604,984811409,base_link,/z_drive,,,0.0,0.0,0.0,,0.0,0.0,0.0,1.0
1402414604985074981,,errorv,,0,,1402414604,984827911,/z_drive,port,,,-0.3,0.3048,0.0,,0.0,0.0,0.0,1.0
1402414604985195915,,errorv,,0,,1402414604,984832166,/z_drive,starboard,,,-0.3,-0.3048,0.0,,0.0,0.0,0.0,1.0
