rosbagTimestamp,control_method,x_current,x_desired,y_current,y_desired,z_current,z_desired,x_velocity_current,x_velocity_desired,y_velocity_current,y_velocity_desired,z_velocity_current,z_velocity_desired,yaw_current,yaw_desired,yaw_velocity_current,yaw_velocity_desired,roll_current,roll_desired,roll_velocity_current,roll_velocity_desired,pitch_current,pitch_desired,pitch_velocity_current,pitch_velocity_desired,required_force_x,required_force_y,required_moment_z,resultant_force_x,resultant_force_y,resultant_moment_z,current_port_servo_angle,current_port_thruster_force,current_starboard_servo_angle,current_starboard_thruster_force,estimated_port_servo_angle,estimated_port_thruster_force,estimated_starboard_servo_angle,estimated_starboard_thruster_force,cost_value,step,user_defined_1,user_defined_2,user_defined_3,user_defined_4,user_defined_5
1402758563627617526,3,-20.7203187813,-7.1377884924,5.68842383658,2.38304939926,31.7073074517,-3.84635974695,-0.0129393917254,0.0,-0.0361081074325,0.0,0.0661476024542,0.0,-3.12005068515,0.0,0.00774725134812,0.0,-0.00526261484562,0.0,0.0141801878978,0.0,0.0709859254946,0.0,0.00392047419534,0.0,-0.0,-0.0,0.592139422894,-11.0,-110.851251684,99.7524210943,1.04412874381,0.0,-1.04719749291,0.0,1.0471975512,-75.0,-1.0471975512,53.0,11108600.7306,0.0,0.0,0.0,0.0,0.0,0.0
1402758563647067328,3,-20.7209804435,-7.1377884924,5.6869233711,2.38304939926,31.7100335144,-3.84635974695,-0.0127050842294,0.0,-0.0362164163195,0.0,0.067082889919,0.0,-3.11977928208,0.0,0.00618886330607,0.0,-0.00576503149092,0.0,0.0139273387838,0.0,0.070799171225,0.0,0.00536050968361,0.0,-0.0,-0.0,0.592139422894,-11.0,-110.851251684,99.7524210943,1.04412874381,0.0,-1.04719749291,0.0,1.0471975512,-75.0,-1.0471975512,53.0,11108600.7306,0.0,0.0,0.0,0.0,0.0,0.0
1402758563667270525,3,-20.7209804435,-7.1377884924,5.6869233711,2.38304939926,31.7100335144,-3.84635974695,-0.0127050842294,0.0,-0.0362164163195,0.0,0.067082889919,0.0,-3.11977928208,0.0,0.00618886330607,0.0,-0.00576503149092,0.0,0.0139273387838,0.0,0.070799171225,0.0,0.00536050968361,0.0,-0.0,-0.0,0.592139422894,-11.0,-110.851251684,99.7524210943,1.04412874381,0.0,-1.04566326936,0.0,1.0471975512,-75.0,-1.0471975512,53.0,11108600.7306,0.0,0.0,0.0,0.0,0.0,0.0
1402758563687248240,3,-20.7256930593,-7.1377884924,5.68733135381,2.38304939926,31.7236537581,-3.84635974695,-0.0190114262168,0.0,-0.0315070591385,0.0,0.0686004116624,0.0,-3.11940718482,0.0,0.00717301821611,0.0,-0.00577338641871,0.0,0.00460981504211,0.0,0.0713312581713,0.0,0.0026084122626,0.0,-0.0,-0.0,0.592139422894,-11.0,-110.851251684,99.7524210943,1.04412874381,0.0,-1.04566326936,0.0,1.0471975512,-75.0,-1.0471975512,53.0,11108600.7306,0.0,0.0,0.0,0.0,0.0,0.0
1402758563707006178,3,-20.7256930593,-7.1377884924,5.68733135381,2.38304939926,31.7236537581,-3.84635974695,-0.0190114262168,0.0,-0.0315070591385,0.0,0.0686004116624,0.0,-3.11940718482,0.0,0.00717301821611,0.0,-0.00577338641871,0.0,0.00460981504211,0.0,0.0713312581713,0.0,0.0026084122626,0.0,-0.0,-0.0,0.592139422894,-11.0,-110.851251684,99.7524210943,1.04412874381,0.0,-1.04566326936,0.0,1.0471975512,-75.0,-1.0471975512,53.0,11108600.7306,0.0,0.0,0.0,0.0,0.0,0.0
1402758563727225756,3,-20.7286401898,-7.1377884924,5.68627184192,2.38304939926,31.7216489074,-3.84635974695,-0.0192440323024,0.0,-0.0286182241032,0.0,0.0633017344531,0.0,-3.11909669986,0.0,0.00311239330202,0.0,-0.00531586280798,0.0,-0.00698941660246,0.0,0.071152975053,0.0,-0.00061375033297,0.0,-0.0,-0.0,0.592139422894,-11.0,-110.851251684,99.7524210943,1.04412874381,0.0,-1.04719749291,0.0,1.0471975512,-75.0,-1.0471975512,53.0,11108600.7306,0.0,0.0,0.0,0.0,0.0,0.0
1402758563747548564,3,-20.7286401898,-7.1377884924,5.68627184192,2.38304939926,31.7216489074,-3.84635974695,-0.0192440323024,0.0,-0.0286182241032,0.0,0.0633017344531,0.0,-3.11909669986,0.0,0.00311239330202,0.0,-0.00531586280798,0.0,-0.00698941660246,0.0,0.071152975053,0.0,-0.00061375033297,0.0,-0.0,-0.0,0.592139422894,-11.0,-110.851251684,99.7524210943,1.04412874381,0.0,-1.04566326936,0.0,1.0471975512,-75.0,-1.0471975512,53.0,11108600.7306,0.0,0.0,0.0,0.0,0.0,0.0
1402758563767269641,3,-20.7313267978,-7.1377884924,5.68454950718,2.38304939926,31.7223205084,-3.84635974695,-0.0191468006049,0.0,-0.0269373334346,0.0,0.058852388748,0.0,-3.11868696719,0.0,0.00365533118445,0.0,-0.00482528932112,0.0,-0.0162674797356,0.0,0.0709904797396,0.0,-0.00337418717916,0.0,-0.0,-0.0,0.592139422894,-11.0,-110.851251684,99.7524210943,1.04412874381,0.0,-1.04566326936,0.0,1.0471975512,-75.0,-1.0471975512,53.0,11108600.7306,0.0,0.0,0.0,0.0,0.0,0.0
1402758563786933801,3,-20.7313267978,-7.1377884924,5.68454950718,2.38304939926,31.7223205084,-3.84635974695,-0.0191468006049,0.0,-0.0269373334346,0.0,0.058852388748,0.0,-3.11868696719,0.0,0.00365533118445,0.0,-0.00482528932112,0.0,-0.0162674797356,0.0,0.0709904797396,0.0,-0.00337418717916,0.0,-0.0,-0.0,0.592139422894,-11.0,-110.851251684,99.7524210943,1.04412874381,0.0,-1.04566326936,0.0,1.0471975512,-75.0,-1.0471975512,53.0,11108600.7306,0.0,0.0,0.0,0.0,0.0,0.0
1402758563807525650,3,-20.7296634729,-7.1377884924,5.69050522926,2.38304939926,31.7264560108,-3.84635974695,-0.0110375366283,0.0,-0.00696709016827,0.0,0.0554020018657,0.0,-3.11821363095,0.0,0.00485466039829,0.0,-0.00184810143676,0.0,-0.0263165204511,0.0,0.0701567364302,0.0,-0.00327449236928,0.0,-0.0,-0.0,0.592139422894,-11.0,-110.851251684,99.7524210943,1.04412874381,0.0,-1.04719749291,0.0,1.0471975512,-75.0,-1.0471975512,53.0,11108600.7306,0.0,0.0,0.0,0.0,0.0,0.0
1402758563827068116,3,-20.7296634729,-7.1377884924,5.69050522926,2.38304939926,31.7264560108,-3.84635974695,-0.0110375366283,0.0,-0.00696709016827,0.0,0.0554020018657,0.0,-3.11821363095,0.0,0.00485466039829,0.0,-0.00184810143676,0.0,-0.0263165204511,0.0,0.0701567364302,0.0,-0.00327449236928,0.0,-0.0,-0.0,0.592139422894,-11.0,-110.851251684,99.7524210943,1.04412874381,0.0,-1.04566326936,0.0,1.0471975512,-75.0,-1.0471975512,53.0,11108600.7306,0.0,0.0,0.0,0.0,0.0,0.0
1402758563847180779,3,-20.736597181,-7.1377884924,5.68471487417,2.38304939926,31.7292371594,-3.84635974695,-0.021616760237,0.0,-0.0171983984261,0.0,0.0533698891184,0.0,-3.11797375708,0.0,0.00443676907094,0.0,-0.00213114030581,0.0,-0.0363220075278,0.0,0.0712313406266,0.0,-0.00539805119308,0.0,-0.0,-0.0,0.592139422894,-11.0,-110.851251684,99.7524210943,1.04412874381,0.0,-1.04566326936,0.0,1.0471975512,-75.0,-1.0471975512,53.0,11108600.7306,0.0,0.0,0.0,0.0,0.0,0.0
1402758563867632878,3,-20.736597181,-7.1377884924,5.68471487417,2.38304939926,31.7292371594,-3.84635974695,-0.021616760237,0.0,-0.0171983984261,0.0,0.0533698891184,0.0,-3.11797375708,0.0,0.00443676907094,0.0,-0.00213114030581,0.0,-0.0363220075278,0.0,0.0712313406266,0.0,-0.00539805119308,0.0,-0.0,-0.0,0.592139422894,-11.0,-110.851251684,99.7524210943,1.04412874381,0.0,-1.04566326936,0.0,1.0471975512,-75.0,-1.0471975512,53.0,11108600.7306,0.0,0.0,0.0,0.0,0.0,0.0
1402758563887024495,3,-20.7394447151,-7.1377884924,5.68480833381,2.38304939926,31.7377914117,-3.84635974695,-0.0237445882039,0.0,-0.0134964506039,0.0,0.0527318118966,0.0,-3.1174658896,0.0,0.00805582703033,0.0,-0.000522032358949,0.0,-0.0354072546233,0.0,0.0715500745909,0.0,0.00102276762596,0.0,-0.0,-0.0,0.592139422894,-11.0,-110.851251684,99.7524210943,1.04412874381,0.0,-1.04566326936,0.0,1.0471975512,-75.0,-1.0471975512,53.0,11108600.7306,0.0,0.0,0.0,0.0,0.0,0.0
1402758563907141235,3,-20.7394447151,-7.1377884924,5.68480833381,2.38304939926,31.7377914117,-3.84635974695,-0.0237445882039,0.0,-0.0134964506039,0.0,0.0527318118966,0.0,-3.1174658896,0.0,0.00805582703033,0.0,-0.000522032358949,0.0,-0.0354072546233,0.0,0.0715500745909,0.0,0.00102276762596,0.0,-0.0,-0.0,0.592139422894,-11.0,-110.851251684,99.7524210943,1.04412874381,0.0,-1.04719749291,0.0,1.0471975512,-75.0,-1.0471975512,53.0,11108600.7306,0.0,0.0,0.0,0.0,0.0,0.0
1402758563927469816,3,-20.7466115573,-7.1377884924,5.68594593646,2.38304939926,31.7432873944,-3.84635974695,-0.0366326666896,0.0,-0.00946627555982,0.0,0.0530602812425,0.0,-3.11713843911,0.0,-0.00473060170315,0.0,0.00166722303886,0.0,-0.0308730706177,0.0,0.0728598743498,0.0,-0.0018596766294,0.0,-0.0,-0.0,0.592139422894,-11.0,-110.851251684,99.7524210943,1.04412874381,-75.0,-1.04566326936,53.0,1.0471975512,-75.0,-1.0471975512,53.0,11108600.7306,0.0,0.0,0.0,0.0,0.0,0.0
1402758563946792245,3,-20.7466115573,-7.1377884924,5.68594593646,2.38304939926,31.7432873944,-3.84635974695,-0.0366326666896,0.0,-0.00946627555982,0.0,0.0530602812425,0.0,-3.11713843911,0.0,-0.00473060170315,0.0,0.00166722303886,0.0,-0.0308730706177,0.0,0.0728598743498,0.0,-0.0018596766294,0.0,-0.0,-0.0,0.592139422894,-11.0,-110.851251684,99.7524210943,1.04412874381,-75.0,-1.04566326936,53.0,1.0471975512,-75.0,-1.0471975512,53.0,11108600.7306,0.0,0.0,0.0,0.0,0.0,0.0
1402758563966815845,3,-20.7414355955,-7.1377884924,5.68654795638,2.38304939926,31.7406673944,-3.84635974695,-0.0191030216939,0.0,-0.00720466324301,0.0,0.0512223700934,0.0,-3.11704217082,0.0,-0.00288630658018,0.0,0.00292739198264,0.0,-0.0308271284487,0.0,0.0709648672086,0.0,-0.00926135037197,0.0,-0.0,-0.0,0.592139422894,-11.0,-110.851251684,99.7524210943,1.04412874381,-75.0,-1.04566326936,53.0,1.0471975512,-75.0,-1.0471975512,53.0,11108600.7306,0.0,0.0,0.0,0.0,0.0,0.0
1402758563987005972,3,-20.7414355955,-7.1377884924,5.68654795638,2.38304939926,31.7406673944,-3.84635974695,-0.0191030216939,0.0,-0.00720466324301,0.0,0.0512223700934,0.0,-3.11704217082,0.0,-0.00288630658018,0.0,0.00292739198264,0.0,-0.0308271284487,0.0,0.0709648672086,0.0,-0.00926135037197,0.0,-0.0,-0.0,0.592139422894,-11.0,-110.851251684,99.7524210943,1.04412874381,-75.0,-1.04566326936,53.0,1.0471975512,-75.0,-1.0471975512,53.0,11108600.7306,0.0,0.0,0.0,0.0,0.0,0.0
1402758564006919623,3,-20.7421681632,-7.1377884924,5.68622435013,2.38304939926,31.7427125363,-3.84635974695,-0.0190271748122,0.0,-0.00925927921381,0.0,0.0521021342609,0.0,-3.11672621501,0.0,0.00608579004357,0.0,0.00377460067413,0.0,-0.0167242143218,0.0,0.0711151752515,0.0,-0.00513458744094,0.0,-0.0,-0.0,0.592139422894,-11.0,-110.851251684,99.7524210943,1.04412874381,-75.0,-1.0395258983,53.0,1.0471975512,-75.0,-1.0471975512,53.0,11108600.7306,0.0,0.0,0.0,0.0,0.0,0.0
1402758564027366154,3,-20.7421681632,-7.1377884924,5.68622435013,2.38304939926,31.7427125363,-3.84635974695,-0.0190271748122,0.0,-0.00925927921381,0.0,0.0521021342609,0.0,-3.11672621501,0.0,0.00608579004357,0.0,0.00377460067413,0.0,-0.0167242143218,0.0,0.0711151752515,0.0,-0.00513458744094,0.0,-0.0,-0.0,0.592139422894,-11.0,-110.851251684,99.7524210943,1.04412874381,-75.0,-1.04106012185,53.0,1.0471975512,-75.0,-1.0471975512,53.0,11108600.7306,0.0,0.0,0.0,0.0,0.0,0.0
1402758564047688362,3,-20.7443640304,-7.1377884924,5.68392847484,2.38304939926,31.7413707768,-3.84635974695,-0.0140917653436,0.0,-0.0163699441893,0.0,0.0514495265117,0.0,-3.11653970934,0.0,0.000633329434587,0.0,0.00379535475801,0.0,-0.0108655951893,0.0,0.0707531639544,0.0,-0.00236134992491,0.0,-0.0,-0.0,0.592139422894,-11.0,-110.851251684,99.7524210943,1.04259428183,-75.0,-1.04259458383,53.0,1.0471975512,-75.0,-1.0471975512,53.0,11108600.7306,0.0,0.0,0.0,0.0,0.0,0.0
1402758564066917530,3,-20.7443640304,-7.1377884924,5.68392847484,2.38304939926,31.7413707768,-3.84635974695,-0.0140917653436,0.0,-0.0163699441893,0.0,0.0514495265117,0.0,-3.11653970934,0.0,0.000633329434587,0.0,0.00379535475801,0.0,-0.0108655951893,0.0,0.0707531639544,0.0,-0.00236134992491,0.0,-0.0,-0.0,0.592139422894,-11.0,-110.851251684,99.7524210943,1.04259428183,-75.0,-1.0395258983,53.0,1.0471975512,-75.0,-1.0471975512,53.0,11108600.7306,0.0,0.0,0.0,0.0,0.0,0.0
1402758564086916762,3,-20.7490287512,-7.1377884924,5.6809127085,2.38304939926,31.746460223,-3.84635974695,-0.0178559970254,0.0,-0.0260150753783,0.0,0.0525312053225,0.0,-3.11643126827,0.0,0.00173548394039,0.0,0.00312080726171,0.0,0.00770449667627,0.0,0.0714895385359,0.0,-0.00399605386153,0.0,-0.0,-0.0,0.592139422894,-11.0,-110.851251684,99.7524210943,1.04412874381,-75.0,-1.0395258983,53.0,1.0471975512,-75.0,-1.0471975512,53.0,11108600.7306,0.0,0.0,0.0,0.0,0.0,0.0
1402758564107964564,3,-20.7490287512,-7.1377884924,5.6809127085,2.38304939926,31.746460223,-3.84635974695,-0.0178559970254,0.0,-0.0260150753783,0.0,0.0525312053225,0.0,-3.11643126827,0.0,0.00173548394039,0.0,0.00312080726171,0.0,0.00770449667627,0.0,0.0714895385359,0.0,-0.00399605386153,0.0,-0.0,-0.0,0.592139422894,-11.0,-110.851251684,99.7524210943,1.04259428183,-75.0,-1.0395258983,53.0,1.0471975512,-75.0,-1.0471975512,53.0,11108600.7306,0.0,0.0,0.0,0.0,0.0,0.0
1402758564126892285,3,-20.7521490356,-7.1377884924,5.67924422188,2.38304939926,31.7421169074,-3.84635974695,-0.0157139355213,0.0,-0.0449904046268,0.0,0.0598739273778,0.0,-3.11675244568,0.0,-0.0267154975581,0.0,0.00142508104074,0.0,-0.00604637946044,0.0,0.0717338232611,0.0,0.00755083087982,0.0,-0.0,-0.0,0.592139422894,-11.0,-110.851251684,99.7524210943,1.04259428183,-75.0,-1.0395258983,53.0,1.0471975512,-75.0,-1.0471975512,53.0,11108600.7306,0.0,0.0,0.0,0.0,0.0,0.0
1402758564146945422,3,-20.7521490356,-7.1377884924,5.67924422188,2.38304939926,31.7421169074,-3.84635974695,-0.0157139355213,0.0,-0.0449904046268,0.0,0.0598739273778,0.0,-3.11675244568,0.0,-0.0267154975581,0.0,0.00142508104074,0.0,-0.00604637946044,0.0,0.0717338232611,0.0,0.00755083087982,0.0,-0.0,-0.0,0.592139422894,-11.0,-110.851251684,99.7524210943,1.04259428183,-75.0,-1.0395258983,53.0,1.0471975512,-75.0,-1.0471975512,53.0,11108600.7306,0.0,0.0,0.0,0.0,0.0,0.0
1402758564167465408,3,-20.7537599022,-7.1377884924,5.67835395612,2.38304939926,31.7595800533,-3.84635974695,-0.00797330099326,0.0,-0.0576654910721,0.0,0.0584480884144,0.0,-3.11815940095,0.0,-0.0375232533728,0.0,0.00364228817225,0.0,0.076010571056,0.0,0.0721881513705,0.0,0.00969477747879,0.0,-0.0,-0.0,0.592139422894,-11.0,-110.851251684,99.7524210943,1.04259428183,-75.0,-1.04106012185,53.0,1.0471975512,-75.0,-1.0471975512,53.0,11108600.7306,0.0,0.0,0.0,0.0,0.0,0.0
1402758564187245350,3,-20.7537599022,-7.1377884924,5.67835395612,2.38304939926,31.7595800533,-3.84635974695,-0.00797330099326,0.0,-0.0576654910721,0.0,0.0584480884144,0.0,-3.11815940095,0.0,-0.0375232533728,0.0,0.00364228817225,0.0,0.076010571056,0.0,0.0721881513705,0.0,0.00969477747879,0.0,-0.0,-0.0,0.592139422894,-11.0,-110.851251684,99.7524210943,1.04259428183,-75.0,-1.04106012185,53.0,1.0471975512,-75.0,-1.0471975512,53.0,11108600.7306,0.0,0.0,0.0,0.0,0.0,0.0
1402758564206912436,3,-20.7567942339,-7.1377884924,5.67516844198,2.38304939926,31.7583535429,-3.84635974695,-0.00743561105769,0.0,-0.0535283303293,0.0,0.0576682265068,0.0,-3.12077506986,0.0,-0.08147955301,0.0,0.00597000403698,0.0,-0.149245529532,0.0,0.0729370957548,0.0,-0.00573245429675,0.0,-0.0,-0.0,0.592139422894,-11.0,-110.851251684,99.7524210943,1.04259428183,-75.0,-1.04106012185,53.0,1.0471975512,-75.0,-1.0471975512,53.0,11108600.7306,0.0,0.0,0.0,0.0,0.0,0.0
1402758564227630850,3,-20.7567942339,-7.1377884924,5.67516844198,2.38304939926,31.7583535429,-3.84635974695,-0.00743561105769,0.0,-0.0535283303293,0.0,0.0576682265068,0.0,-3.12077506986,0.0,-0.08147955301,0.0,0.00597000403698,0.0,-0.149245529532,0.0,0.0729370957548,0.0,-0.00573245429675,0.0,-0.0,-0.0,0.592139422894,-11.0,-110.851251684,99.7524210943,1.04259428183,-75.0,-1.04106012185,53.0,1.0471975512,-75.0,-1.0471975512,53.0,11108600.7306,0.0,0.0,0.0,0.0,0.0,0.0
1402758564247243461,3,-20.7575917153,-7.1377884924,5.66522890797,2.38304939926,31.7379746913,-3.84635974695,0.00152885379635,0.0,-0.08481012706,0.0,0.0561061650615,0.0,-3.12342582782,0.0,-0.0940396459838,0.0,0.00652766777921,0.0,-0.0619380699738,0.0,0.0724420796795,0.0,0.0038197145305,0.0,-0.0,-0.0,0.592139422894,-11.0,-110.851251684,99.7524210943,1.04259428183,-75.0,-1.04106012185,53.0,1.0471975512,-75.0,-1.0471975512,53.0,11108600.7306,0.0,0.0,0.0,0.0,0.0,0.0
1402758564267096115,3,-20.7575917153,-7.1377884924,5.66522890797,2.38304939926,31.7379746913,-3.84635974695,0.00152885379635,0.0,-0.08481012706,0.0,0.0561061650615,0.0,-3.12342582782,0.0,-0.0940396459838,0.0,0.00652766777921,0.0,-0.0619380699738,0.0,0.0724420796795,0.0,0.0038197145305,0.0,-0.0,-0.0,0.592139422894,-11.0,-110.851251684,99.7524210943,1.04259428183,-75.0,-1.04259458383,53.0,1.0471975512,-75.0,-1.0471975512,53.0,11108600.7306,0.0,0.0,0.0,0.0,0.0,0.0
1402758564287039024,3,-20.7575841535,-7.1377884924,5.66153725299,2.38304939926,31.7404293785,-3.84635974695,0.00446942136454,0.0,-0.092209513113,0.0,0.0562241971488,0.0,-3.12743719978,0.0,-0.113242934362,0.0,0.00936328719797,0.0,-0.0271070929259,0.0,0.0724202865667,0.0,0.00565133176799,0.0,-0.0,-0.0,0.592139422894,-11.0,-110.851251684,99.7524210943,1.04259428183,-75.0,-1.04106012185,53.0,1.0471975512,-75.0,-1.0471975512,53.0,11108600.7306,0.0,0.0,0.0,0.0,0.0,0.0
1402758564306940687,3,-20.7575841535,-7.1377884924,5.66153725299,2.38304939926,31.7404293785,-3.84635974695,0.00446942136454,0.0,-0.092209513113,0.0,0.0562241971488,0.0,-3.12743719978,0.0,-0.113242934362,0.0,0.00936328719797,0.0,-0.0271070929259,0.0,0.0724202865667,0.0,0.00565133176799,0.0,-0.0,-0.0,0.592139422894,-11.0,-110.851251684,99.7524210943,1.04259428183,-75.0,-1.04259458383,53.0,1.0471975512,-75.0,-1.0471975512,53.0,11108600.7306,0.0,0.0,0.0,0.0,0.0,0.0
1402758564327100981,3,-20.761199203,-7.1377884924,5.65736801783,2.38304939926,31.743769853,-3.84635974695,0.000895966239464,0.0,-0.0974535271436,0.0,0.05171779343,0.0,-3.13312830559,0.0,-0.131238261823,0.0,0.0109007772702,0.0,-0.0492588087849,0.0,0.0727846447873,0.0,0.0127802443755,0.0,-0.0,-0.0,0.592139422894,-11.0,-110.851251684,99.7524210943,1.04259428183,-75.0,-1.04106012185,53.0,1.0471975512,-75.0,-1.0471975512,53.0,11108600.7306,0.0,0.0,0.0,0.0,0.0,0.0
1402758564347971446,3,-20.761199203,-7.1377884924,5.65736801783,2.38304939926,31.743769853,-3.84635974695,0.000895966239464,0.0,-0.0974535271436,0.0,0.05171779343,0.0,-3.13312830559,0.0,-0.131238261823,0.0,0.0109007772702,0.0,-0.0492588087849,0.0,0.0727846447873,0.0,0.0127802443755,0.0,-0.0,-0.0,0.592139422894,-11.0,-110.851251684,99.7524210943,1.04259428183,-75.0,-1.04106012185,53.0,1.0471975512,-75.0,-1.0471975512,53.0,11108600.7306,0.0,0.0,0.0,0.0,0.0,0.0
1402758564366942096,3,-20.7603201573,-7.1377884924,5.6531466473,2.38304939926,31.7505556251,-3.84635974695,0.00889934726325,0.0,-0.104382389648,0.0,0.057305635525,0.0,-3.13856685259,0.0,-0.148361805984,0.0,0.0119111388944,0.0,-0.0148420959576,0.0,0.0719957603834,0.0,0.0157722973098,0.0,-0.0,-0.0,0.592139422894,-11.0,-110.851251684,99.7524210943,1.04105981986,-75.0,-1.04106012185,53.0,1.0471975512,-75.0,-1.0471975512,53.0,11108600.7306,0.0,0.0,0.0,0.0,0.0,0.0
1402758564386832308,3,-20.7603201573,-7.1377884924,5.6531466473,2.38304939926,31.7505556251,-3.84635974695,0.00889934726325,0.0,-0.104382389648,0.0,0.057305635525,0.0,-3.13856685259,0.0,-0.148361805984,0.0,0.0119111388944,0.0,-0.0148420959576,0.0,0.0719957603834,0.0,0.0157722973098,0.0,-0.0,-0.0,0.592139422894,-11.0,-110.851251684,99.7524210943,1.04105981986,-75.0,-1.04106012185,53.0,1.0471975512,-75.0,-1.0471975512,53.0,11108600.7306,0.0,0.0,0.0,0.0,0.0,0.0
1402758564407322152,3,-20.7557748996,-7.1377884924,5.6507533226,2.38304939926,31.7445326873,-3.84635974695,0.0239825892831,0.0,-0.0988570845312,0.0,0.0540403184323,0.0,3.14006597548,0.0,-0.16493631387,0.0,0.0139418937459,0.0,-0.00929656161478,0.0,0.0703132440962,0.0,0.0254592849074,0.0,-0.0,-0.0,0.592139422894,-11.0,-110.851251684,99.7524210943,1.04259428183,-75.0,-1.04106012185,53.0,1.0471975512,-75.0,-1.0471975512,53.0,11108600.7306,0.0,0.0,0.0,0.0,0.0,0.0
1402758564427051374,3,-20.7557748996,-7.1377884924,5.6507533226,2.38304939926,31.7445326873,-3.84635974695,0.0239825892831,0.0,-0.0988570845312,0.0,0.0540403184323,0.0,3.14006597548,0.0,-0.16493631387,0.0,0.0139418937459,0.0,-0.00929656161478,0.0,0.0703132440962,0.0,0.0254592849074,0.0,-0.0,-0.0,0.592139422894,-11.0,-110.851251684,99.7524210943,1.04105981986,-75.0,-1.04259458383,53.0,1.0471975512,-75.0,-1.0471975512,53.0,11108600.7306,0.0,0.0,0.0,0.0,0.0,0.0
1402758564447160930,3,-20.761324226,-7.1377884924,5.63678433933,2.38304939926,31.7519145047,-3.84635974695,0.0184079213132,0.0,-0.128350303453,0.0,0.0573942384073,0.0,3.12927911627,0.0,-0.182244105237,0.0,0.011166239894,0.0,0.0137525873439,0.0,0.0704442744052,0.0,0.0205499032449,0.0,-0.0,-0.0,0.592139422894,-11.0,-110.851251684,99.7524210943,1.04105981986,-75.0,-1.04259458383,53.0,1.0471975512,-75.0,-1.0471975512,53.0,11108600.7306,0.0,0.0,0.0,0.0,0.0,0.0
1402758564467451763,3,-20.761324226,-7.1377884924,5.63678433933,2.38304939926,31.7519145047,-3.84635974695,0.0184079213132,0.0,-0.128350303453,0.0,0.0573942384073,0.0,3.12927911627,0.0,-0.182244105237,0.0,0.011166239894,0.0,0.0137525873439,0.0,0.0704442744052,0.0,0.0205499032449,0.0,-0.0,-0.0,0.592139422894,-11.0,-110.851251684,99.7524210943,1.04105981986,-75.0,-1.04106012185,53.0,1.0471975512,-75.0,-1.0471975512,53.0,11108600.7306,0.0,0.0,0.0,0.0,0.0,0.0
1402758564486959142,3,-20.7604785958,-7.1377884924,5.63267199646,2.38304939926,31.7538303304,-3.84635974695,0.020972152919,0.0,-0.138005737477,0.0,0.0550906336325,0.0,3.12371595337,0.0,-0.186497026617,0.0,0.0102296929691,0.0,0.0368401474087,0.0,0.0696740764086,0.0,0.0208363774062,0.0,-0.0,-0.0,0.592139422894,-11.0,-110.851251684,99.7524210943,1.04105981986,-75.0,-1.04106012185,53.0,1.0471975512,-75.0,-1.0471975512,53.0,11108600.7306,0.0,0.0,0.0,0.0,0.0,0.0
1402758564507373215,3,-20.757253993,-7.1377884924,5.63466520494,2.38304939926,31.7599053685,-3.84635974695,0.0291596485612,0.0,-0.123392695339,0.0,0.0690078554862,0.0,3.12066144537,0.0,-0.192739381118,0.0,0.0120808276122,0.0,0.0206515095981,0.0,0.0689441439281,0.0,0.0185546188108,0.0,-0.0,-0.0,0.592139422894,-11.0,-110.851251684,99.7524210943,1.04105981986,-75.0,-1.04106012185,53.0,1.0471975512,-75.0,-1.0471975512,53.0,11108600.7306,0.0,0.0,0.0,0.0,0.0,0.0
1402758564527294788,3,-20.757253993,-7.1377884924,5.63466520494,2.38304939926,31.7599053685,-3.84635974695,0.0291596485612,0.0,-0.123392695339,0.0,0.0690078554862,0.0,3.12066144537,0.0,-0.192739381118,0.0,0.0120808276122,0.0,0.0206515095981,0.0,0.0689441439281,0.0,0.0185546188108,0.0,-0.0,-0.0,0.592139422894,-11.0,-110.851251684,99.7524210943,1.04105981986,-75.0,-1.04259458383,53.0,1.0471975512,-75.0,-1.0471975512,53.0,11108600.7306,0.0,0.0,0.0,0.0,0.0,0.0
1402758564547431238,3,-20.7563922733,-7.1377884924,5.63207160558,2.38304939926,31.7613778517,-3.84635974695,0.0321075460108,0.0,-0.129398554887,0.0,0.0652877234035,0.0,3.11681001994,0.0,-0.187691967041,0.0,0.0113831513416,0.0,0.050355902808,0.0,0.0684937227232,0.0,0.0252021004184,0.0,-0.0,-0.0,0.592139422894,-11.0,-110.851251684,99.7524210943,1.04105981986,-75.0,-1.04106012185,53.0,1.0471975512,-75.0,-1.0471975512,53.0,11108600.7306,0.0,0.0,0.0,0.0,0.0,0.0
1402758564566964774,3,-20.7563922733,-7.1377884924,5.63207160558,2.38304939926,31.7613778517,-3.84635974695,0.0321075460108,0.0,-0.129398554887,0.0,0.0652877234035,0.0,3.11681001994,0.0,-0.187691967041,0.0,0.0113831513416,0.0,0.050355902808,0.0,0.0684937227232,0.0,0.0252021004184,0.0,-0.0,-0.0,0.592139422894,-11.0,-110.851251684,99.7524210943,1.04105981986,-75.0,-1.04106012185,53.0,1.0471975512,-75.0,-1.0471975512,53.0,11108600.7306,0.0,0.0,0.0,0.0,0.0,0.0
1402758564588053704,3,-20.7552294743,-7.1377884924,5.62684891985,2.38304939926,31.7639030216,-3.84635974695,0.0374274827978,0.0,-0.137004922464,0.0,0.0737173333481,0.0,3.10895835102,0.0,-0.200779815557,0.0,0.0100757726061,0.0,0.0204559364367,0.0,0.0675658322556,0.0,0.0243794825433,0.0,-0.0,-0.0,0.592139422894,-11.0,-110.851251684,99.7524210943,1.04105981986,-75.0,-1.04259458383,53.0,1.0471975512,-75.0,-1.0471975512,53.0,11108600.7306,0.0,0.0,0.0,0.0,0.0,0.0
1402758564607609503,3,-20.7552294743,-7.1377884924,5.62684891985,2.38304939926,31.7639030216,-3.84635974695,0.0374274827978,0.0,-0.137004922464,0.0,0.0737173333481,0.0,3.10895835102,0.0,-0.200779815557,0.0,0.0100757726061,0.0,0.0204559364367,0.0,0.0675658322556,0.0,0.0243794825433,0.0,-0.0,-0.0,0.592139422894,-11.0,-110.851251684,99.7524210943,1.04105981986,-75.0,-1.04106012185,53.0,1.0471975512,-75.0,-1.0471975512,53.0,11108600.7306,0.0,0.0,0.0,0.0,0.0,0.0
1402758564627014048,3,-20.7516517246,-7.1377884924,5.61959252055,2.38304939926,31.743269898,-3.84635974695,0.0477782930279,0.0,-0.141220954594,0.0,0.0669478541861,0.0,3.10169160937,0.0,-0.203174164094,0.0,0.009601705313,0.0,0.0251186893464,0.0,0.0660634873861,0.0,0.0181516603665,0.0,-0.0,-0.0,0.592139422894,-11.0,-110.851251684,99.7524210943,1.04105981986,-75.0,-1.04106012185,53.0,1.0471975512,-75.0,-1.0471975512,53.0,11108600.7306,0.0,0.0,0.0,0.0,0.0,0.0
1402758564647088571,3,-20.7516517246,-7.1377884924,5.61959252055,2.38304939926,31.743269898,-3.84635974695,0.0477782930279,0.0,-0.141220954594,0.0,0.0669478541861,0.0,3.10169160937,0.0,-0.203174164094,0.0,0.009601705313,0.0,0.0251186893464,0.0,0.0660634873861,0.0,0.0181516603665,0.0,-0.0,-0.0,0.592139422894,-11.0,-110.851251684,99.7524210943,1.04105981986,-75.0,-1.04106012185,53.0,1.0471975512,-75.0,-1.0471975512,53.0,11108600.7306,0.0,0.0,0.0,0.0,0.0,0.0
1402758564668122496,3,-20.7517432619,-7.1377884924,5.6137028733,2.38304939926,31.7441708126,-3.84635974695,0.0438696215897,0.0,-0.144511183778,0.0,0.0695377530422,0.0,3.09285194239,0.0,-0.201525435212,0.0,0.00935303673414,0.0,0.0358443117282,0.0,0.0662394680636,0.0,0.00431317142323,0.0,-0.0,-0.0,0.592139422894,-11.0,-110.851251684,99.7524210943,1.04105981986,-75.0,-1.04106012185,53.0,1.0471975512,-75.0,-1.0471975512,53.0,11108600.7306,0.0,0.0,0.0,0.0,0.0,0.0
1402758564687333360,3,-20.7517432619,-7.1377884924,5.6137028733,2.38304939926,31.7441708126,-3.84635974695,0.0438696215897,0.0,-0.144511183778,0.0,0.0695377530422,0.0,3.09285194239,0.0,-0.201525435212,0.0,0.00935303673414,0.0,0.0358443117282,0.0,0.0662394680636,0.0,0.00431317142323,0.0,-0.0,-0.0,0.592139422894,-11.0,-110.851251684,99.7524210943,1.04105981986,-75.0,-1.04106012185,53.0,1.0471975512,-75.0,-1.0471975512,53.0,11108600.7306,0.0,0.0,0.0,0.0,0.0,0.0
1402758564707209959,3,-20.7452460832,-7.1377884924,5.60082747065,2.38304939926,31.7292334514,-3.84635974695,0.0609392725706,0.0,-0.164710286074,0.0,0.0711777463276,0.0,3.08557474914,0.0,-0.207209287311,0.0,0.00746212397378,0.0,0.0229607155888,0.0,0.0645434916451,0.0,0.000700803550636,0.0,-0.0,-0.0,0.592139422894,-11.0,-110.851251684,99.7524210943,1.03952583472,-75.0,-1.04106012185,53.0,1.0471975512,-75.0,-1.0471975512,53.0,11108600.7306,0.0,0.0,0.0,0.0,0.0,0.0
1402758564727461511,3,-20.7452460832,-7.1377884924,5.60082747065,2.38304939926,31.7292334514,-3.84635974695,0.0609392725706,0.0,-0.164710286074,0.0,0.0711777463276,0.0,3.08557474914,0.0,-0.207209287311,0.0,0.00746212397378,0.0,0.0229607155888,0.0,0.0645434916451,0.0,0.000700803550636,0.0,-0.0,-0.0,0.592139422894,-11.0,-110.851251684,99.7524210943,1.03952583472,-75.0,-1.04106012185,53.0,1.0471975512,-75.0,-1.0471975512,53.0,11108600.7306,0.0,0.0,0.0,0.0,0.0,0.0
1402758564747448554,3,-20.7470427606,-7.1377884924,5.58801067499,2.38304939926,31.7241176646,-3.84635974695,0.0562676288687,0.0,-0.179803478399,0.0,0.0751127579623,0.0,3.07595847645,0.0,-0.21140102185,0.0,0.0057827729558,0.0,0.00622496517028,0.0,0.0653290569911,0.0,0.00235550857547,0.0,-0.0,-0.0,0.592139422894,-11.0,-110.851251684,99.7524210943,1.03952583472,-75.0,-1.04106012185,53.0,1.0471975512,-75.0,-1.0471975512,53.0,11108600.7306,0.0,0.0,0.0,0.0,0.0,0.0
1402758564766940857,3,-20.7470427606,-7.1377884924,5.58801067499,2.38304939926,31.7241176646,-3.84635974695,0.0562676288687,0.0,-0.179803478399,0.0,0.0751127579623,0.0,3.07595847645,0.0,-0.21140102185,0.0,0.0057827729558,0.0,0.00622496517028,0.0,0.0653290569911,0.0,0.00235550857547,0.0,-0.0,-0.0,0.592139422894,-11.0,-110.851251684,99.7524210943,1.03952583472,-75.0,-1.04106012185,53.0,1.0471975512,-75.0,-1.0471975512,53.0,11108600.7306,0.0,0.0,0.0,0.0,0.0,0.0
1402758564787005060,3,-20.7461602824,-7.1377884924,5.57738627069,2.38304939926,31.7145658064,-3.84635974695,0.0577402004807,0.0,-0.186381822221,0.0,0.0742039021893,0.0,3.06718613581,0.0,-0.208749156355,0.0,0.00515846019378,0.0,0.0152274735757,0.0,0.0655716146,0.0,-0.00509288094195,0.0,-0.0,-0.0,0.592139422894,-11.0,-110.851251684,99.7524210943,1.03952583472,-75.0,-1.04106012185,53.0,1.0471975512,-75.0,-1.0471975512,53.0,11108600.7306,0.0,0.0,0.0,0.0,0.0,0.0
1402758564807074784,3,-20.7461602824,-7.1377884924,5.57738627069,2.38304939926,31.7145658064,-3.84635974695,0.0577402004807,0.0,-0.186381822221,0.0,0.0742039021893,0.0,3.06718613581,0.0,-0.208749156355,0.0,0.00515846019378,0.0,0.0152274735757,0.0,0.0655716146,0.0,-0.00509288094195,0.0,-0.0,-0.0,0.592139422894,-11.0,-110.851251684,99.7524210943,1.03952583472,-75.0,-1.04106012185,53.0,1.0471975512,-75.0,-1.0471975512,53.0,11108600.7306,0.0,0.0,0.0,0.0,0.0,0.0
1402758564826987997,3,-20.7463390425,-7.1377884924,5.55926542998,2.38304939926,31.7112430664,-3.84635974695,0.0577422940933,0.0,-0.215905639763,0.0,0.0876845791382,0.0,3.05744755299,0.0,-0.216507588117,0.0,0.00215916039089,0.0,0.021761539252,0.0,0.065895417494,0.0,-0.00651407598698,0.0,-0.0,-0.0,0.592139422894,-11.0,-110.851251684,99.7524210943,1.03952583472,-75.0,-1.04106012185,53.0,1.0471975512,-75.0,-1.0471975512,53.0,11108600.7306,0.0,0.0,0.0,0.0,0.0,0.0
1402758564847386486,3,-20.7463390425,-7.1377884924,5.55926542998,2.38304939926,31.7112430664,-3.84635974695,0.0577422940933,0.0,-0.215905639763,0.0,0.0876845791382,0.0,3.05744755299,0.0,-0.216507588117,0.0,0.00215916039089,0.0,0.021761539252,0.0,0.065895417494,0.0,-0.00651407598698,0.0,-0.0,-0.0,0.592139422894,-11.0,-110.851251684,99.7524210943,1.03952583472,-75.0,-1.04106012185,53.0,1.0471975512,-75.0,-1.0471975512,53.0,11108600.7306,0.0,0.0,0.0,0.0,0.0,0.0
1402758564867881049,3,-20.7483726723,-7.1377884924,5.55147298564,2.38304939926,31.6958611216,-3.84635974695,0.051529160717,0.0,-0.2110737201,0.0,0.0883064841855,0.0,3.04826984101,0.0,-0.217850150918,0.0,0.00330413363842,0.0,0.00991599635832,0.0,0.0672322027355,0.0,-0.00486427609451,0.0,-0.0,-0.0,0.592139422894,-11.0,-110.851251684,99.7524210943,1.03952583472,-75.0,-1.04106012185,53.0,1.0471975512,-75.0,-1.0471975512,53.0,11108600.7306,0.0,0.0,0.0,0.0,0.0,0.0
1402758564887250652,3,-20.7483726723,-7.1377884924,5.55147298564,2.38304939926,31.6958611216,-3.84635974695,0.051529160717,0.0,-0.2110737201,0.0,0.0883064841855,0.0,3.04826984101,0.0,-0.217850150918,0.0,0.00330413363842,0.0,0.00991599635832,0.0,0.0672322027355,0.0,-0.00486427609451,0.0,-0.0,-0.0,0.592139422894,-11.0,-110.851251684,99.7524210943,1.03952583472,-75.0,-1.04106012185,53.0,1.0471975512,-75.0,-1.0471975512,53.0,11108600.7306,0.0,0.0,0.0,0.0,0.0,0.0
1402758564907185274,3,-20.7378033214,-7.1377884924,5.53708355387,2.38304939926,31.669614562,-3.84635974695,0.076097743877,0.0,-0.224186884863,0.0,0.0714679970505,0.0,3.04079215446,0.0,-0.22470752466,0.0,0.0020022162716,0.0,0.0151767991738,0.0,0.0649610511606,0.0,-0.00375971978198,0.0,-0.0,-0.0,0.592139422894,-11.0,-110.851251684,99.7524210943,1.03952583472,-75.0,-1.04106012185,53.0,1.0471975512,-75.0,-1.0471975512,53.0,11108600.7306,0.0,0.0,0.0,0.0,0.0,0.0
1402758564927404311,3,-20.7378033214,-7.1377884924,5.53708355387,2.38304939926,31.669614562,-3.84635974695,0.076097743877,0.0,-0.224186884863,0.0,0.0714679970505,0.0,3.04079215446,0.0,-0.22470752466,0.0,0.0020022162716,0.0,0.0151767991738,0.0,0.0649610511606,0.0,-0.00375971978198,0.0,-0.0,-0.0,0.592139422894,-11.0,-110.851251684,99.7524210943,1.03952583472,-75.0,-1.04106012185,53.0,1.0471975512,-75.0,-1.0471975512,53.0,11108600.7306,0.0,0.0,0.0,0.0,0.0,0.0
1402758564946926770,3,-20.7345384408,-7.1377884924,5.52768892125,2.38304939926,31.6725911759,-3.84635974695,0.0801321221954,0.0,-0.230192657794,0.0,0.0603481561335,0.0,3.03154665375,0.0,-0.229748448405,0.0,0.00152724415778,0.0,0.0156232856077,0.0,0.0652650786399,0.0,-0.00618680846117,0.0,-0.0,-0.0,0.592139422894,-11.0,-110.851251684,99.7524210943,1.03952583472,-75.0,-1.04106012185,53.0,1.0471975512,-75.0,-1.0471975512,53.0,11108600.7306,0.0,0.0,0.0,0.0,0.0,0.0
1402758564966934958,3,-20.7345384408,-7.1377884924,5.52768892125,2.38304939926,31.6725911759,-3.84635974695,0.0801321221954,0.0,-0.230192657794,0.0,0.0603481561335,0.0,3.03154665375,0.0,-0.229748448405,0.0,0.00152724415778,0.0,0.0156232856077,0.0,0.0652650786399,0.0,-0.00618680846117,0.0,-0.0,-0.0,0.592139422894,-11.0,-110.851251684,99.7524210943,1.03952583472,-75.0,-1.04106012185,53.0,1.0471975512,-75.0,-1.0471975512,53.0,11108600.7306,0.0,0.0,0.0,0.0,0.0,0.0
1402758564987842867,3,-20.7326113729,-7.1377884924,5.51920288579,2.38304939926,31.6696190218,-3.84635974695,0.0793434695657,0.0,-0.223047387339,0.0,0.0646018698978,0.0,3.01971695747,0.0,-0.233173962404,0.0,0.00314450531847,0.0,0.00928913759362,0.0,0.0665017381712,0.0,-0.00343002994978,0.0,-0.0,-0.0,0.592139422894,-11.0,-110.851251684,99.7524210943,1.03952583472,-75.0,-1.04106012185,53.0,1.0471975512,-75.0,-1.0471975512,53.0,11108600.7306,0.0,0.0,0.0,0.0,0.0,0.0
1402758565007072737,3,-20.7326113729,-7.1377884924,5.51920288579,2.38304939926,31.6696190218,-3.84635974695,0.0793434695657,0.0,-0.223047387339,0.0,0.0646018698978,0.0,3.01971695747,0.0,-0.233173962404,0.0,0.00314450531847,0.0,0.00928913759362,0.0,0.0665017381712,0.0,-0.00343002994978,0.0,-0.0,-0.0,0.592139422894,-11.0,-110.851251684,99.7524210943,1.03952583472,-75.0,-1.04259458383,53.0,1.0471975512,-75.0,-1.0471975512,53.0,11108600.7306,0.0,0.0,0.0,0.0,0.0,0.0
1402758565026942459,3,-20.7303028141,-7.1377884924,5.50960875556,2.38304939926,31.6621773853,-3.84635974695,0.0809080160061,0.0,-0.217838712603,0.0,0.0682778341069,0.0,3.00792168804,0.0,-0.241441435843,0.0,0.00498260396462,0.0,-0.0105611318772,0.0,0.0672631837441,0.0,0.00311484361203,0.0,-0.0,-0.0,0.592139422894,-11.0,-110.851251684,99.7524210943,1.03952583472,-75.0,-1.04106012185,53.0,1.0471975512,-75.0,-1.0471975512,53.0,11108600.7306,0.0,0.0,0.0,0.0,0.0,0.0
1402758565047432885,3,-20.7303028141,-7.1377884924,5.50960875556,2.38304939926,31.6621773853,-3.84635974695,0.0809080160061,0.0,-0.217838712603,0.0,0.0682778341069,0.0,3.00792168804,0.0,-0.241441435843,0.0,0.00498260396462,0.0,-0.0105611318772,0.0,0.0672631837441,0.0,0.00311484361203,0.0,-0.0,-0.0,0.592139422894,-11.0,-110.851251684,99.7524210943,1.03952583472,-75.0,-1.04106012185,53.0,1.0471975512,-75.0,-1.0471975512,53.0,11108600.7306,0.0,0.0,0.0,0.0,0.0,0.0
1402758565067466325,3,-20.734013146,-7.1377884924,5.50220607389,2.38304939926,31.6541853939,-3.84635974695,0.0700308011214,0.0,-0.220850742105,0.0,0.0701175338414,0.0,3.00221149341,0.0,-0.23883325915,0.0,0.00515104972012,0.0,-0.00461538466126,0.0,0.0685905860083,0.0,0.0085600362439,0.0,-0.0,-0.0,0.592139422894,-11.0,-110.851251684,99.7524210943,1.03952583472,-75.0,-1.04106012185,53.0,1.0471975512,-75.0,-1.0471975512,53.0,11108600.7306,0.0,0.0,0.0,0.0,0.0,0.0
1402758565087285892,3,-20.734013146,-7.1377884924,5.50220607389,2.38304939926,31.6541853939,-3.84635974695,0.0700308011214,0.0,-0.220850742105,0.0,0.0701175338414,0.0,3.00221149341,0.0,-0.23883325915,0.0,0.00515104972012,0.0,-0.00461538466126,0.0,0.0685905860083,0.0,0.0085600362439,0.0,-0.0,-0.0,0.592139422894,-11.0,-110.851251684,99.7524210943,1.03952583472,-75.0,-1.04106012185,53.0,1.0471975512,-75.0,-1.0471975512,53.0,11108600.7306,0.0,0.0,0.0,0.0,0.0,0.0
1402758565106816494,3,-20.7273921342,-7.1377884924,5.48486969168,2.38304939926,31.6188339129,-3.84635974695,0.0835311029842,0.0,-0.238014071386,0.0,0.068730948777,0.0,2.9930625286,0.0,-0.237091133002,0.0,0.00437178573319,0.0,-0.0112759042622,0.0,0.0670164763182,0.0,0.00578681157637,0.0,-0.0,-0.0,0.592139422894,-11.0,-110.851251684,99.7524210943,1.03952583472,-75.0,-1.04106012185,53.0,1.0471975512,-75.0,-1.0471975512,53.0,11108600.7306,0.0,0.0,0.0,0.0,0.0,0.0
1402758565127905042,3,-20.7273921342,-7.1377884924,5.48486969168,2.38304939926,31.6188339129,-3.84635974695,0.0835311029842,0.0,-0.238014071386,0.0,0.068730948777,0.0,2.9930625286,0.0,-0.237091133002,0.0,0.00437178573319,0.0,-0.0112759042622,0.0,0.0670164763182,0.0,0.00578681157637,0.0,-0.0,-0.0,0.592139422894,-11.0,-110.851251684,99.7524210943,1.03952583472,-75.0,-1.04106012185,53.0,1.0471975512,-75.0,-1.0471975512,53.0,11108600.7306,0.0,0.0,0.0,0.0,0.0,0.0
1402758565146872368,3,-20.7240063221,-7.1377884924,5.47498871188,2.38304939926,31.6217657819,-3.84635974695,0.0859402182538,0.0,-0.24591128148,0.0,0.0671235087826,0.0,2.9834582505,0.0,-0.245638969408,0.0,0.0051031147791,0.0,-0.0188244278281,0.0,0.0668785820217,0.0,0.00398337262038,0.0,-0.0,-0.0,0.592139422894,-11.0,-110.851251684,99.7524210943,1.03952583472,-75.0,-1.04106012185,53.0,1.0471975512,-75.0,-1.0471975512,53.0,11108600.7306,0.0,0.0,0.0,0.0,0.0,0.0
1402758565166824603,3,-20.7240063221,-7.1377884924,5.47498871188,2.38304939926,31.6217657819,-3.84635974695,0.0859402182538,0.0,-0.24591128148,0.0,0.0671235087826,0.0,2.9834582505,0.0,-0.245638969408,0.0,0.0051031147791,0.0,-0.0188244278281,0.0,0.0668785820217,0.0,0.00398337262038,0.0,-0.0,-0.0,0.592139422894,-11.0,-110.851251684,99.7524210943,1.03952583472,-75.0,-1.04259458383,53.0,1.0471975512,-75.0,-1.0471975512,53.0,11108600.7306,0.0,0.0,0.0,0.0,0.0,0.0
1402758565186787531,3,-20.7147970351,-7.1377884924,5.46116503967,2.38304939926,31.6126630899,-3.84635974695,0.101297314723,0.0,-0.255646053532,0.0,0.0676853852354,0.0,2.97435961329,0.0,-0.241258261842,0.0,0.00542487058807,0.0,-0.0201000143634,0.0,0.0649885747387,0.0,0.0128342872905,0.0,-0.0,-0.0,0.592139422894,-11.0,-110.851251684,99.7524210943,1.03952583472,-75.0,-1.04106012185,53.0,1.0471975512,-75.0,-1.0471975512,53.0,11108600.7306,0.0,0.0,0.0,0.0,0.0,0.0
1402758565207030062,3,-20.7147970351,-7.1377884924,5.46116503967,2.38304939926,31.6126630899,-3.84635974695,0.101297314723,0.0,-0.255646053532,0.0,0.0676853852354,0.0,2.97435961329,0.0,-0.241258261842,0.0,0.00542487058807,0.0,-0.0201000143634,0.0,0.0649885747387,0.0,0.0128342872905,0.0,-0.0,-0.0,0.592139422894,-11.0,-110.851251684,99.7524210943,1.03952583472,-75.0,-1.04106012185,53.0,1.0471975512,-75.0,-1.0471975512,53.0,11108600.7306,0.0,0.0,0.0,0.0,0.0,0.0
1402758565226827482,3,-20.7125091528,-7.1377884924,5.44699350185,2.38304939926,31.5964519818,-3.84635974695,0.101570013883,0.0,-0.263295631274,0.0,0.0567603854074,0.0,2.96512707051,0.0,-0.227312605399,0.0,0.00599040835727,0.0,-0.009235265816,0.0,0.0647233613783,0.0,0.0138510058456,0.0,-0.0,-0.0,0.592139422894,-11.0,-110.851251684,99.7524210943,1.03952583472,-75.0,-1.04106012185,53.0,1.0471975512,-75.0,-1.0471975512,53.0,11108600.7306,0.0,0.0,0.0,0.0,0.0,0.0
1402758565247561081,3,-20.7125091528,-7.1377884924,5.44699350185,2.38304939926,31.5964519818,-3.84635974695,0.101570013883,0.0,-0.263295631274,0.0,0.0567603854074,0.0,2.96512707051,0.0,-0.227312605399,0.0,0.00599040835727,0.0,-0.009235265816,0.0,0.0647233613783,0.0,0.0138510058456,0.0,-0.0,-0.0,0.592139422894,-11.0,-110.851251684,99.7524210943,1.03952583472,-75.0,-1.04106012185,53.0,1.0471975512,-75.0,-1.0471975512,53.0,11108600.7306,0.0,0.0,0.0,0.0,0.0,0.0
1402758565266949063,3,-20.7141038177,-7.1377884924,5.44053103137,2.38304939926,31.595854072,-3.84635974695,0.0899385270835,0.0,-0.254484904343,0.0,0.0650294937145,0.0,2.95602496062,0.0,-0.2285320539,0.0,0.00859111473228,0.0,-0.00885012733028,0.0,0.0662035582761,0.0,0.00585917582849,0.0,-0.0,-0.0,0.592139422894,-11.0,-110.851251684,99.7524210943,1.03952583472,-75.0,-1.04106012185,53.0,1.0471975512,-75.0,-1.0471975512,53.0,11108600.7306,0.0,0.0,0.0,0.0,0.0,0.0
1402758565287101186,3,-20.7141038177,-7.1377884924,5.44053103137,2.38304939926,31.595854072,-3.84635974695,0.0899385270835,0.0,-0.254484904343,0.0,0.0650294937145,0.0,2.95602496062,0.0,-0.2285320539,0.0,0.00859111473228,0.0,-0.00885012733028,0.0,0.0662035582761,0.0,0.00585917582849,0.0,-0.0,-0.0,0.592139422894,-11.0,-110.851251684,99.7524210943,1.03952583472,-75.0,-1.04106012185,53.0,1.0471975512,-75.0,-1.0471975512,53.0,11108600.7306,0.0,0.0,0.0,0.0,0.0,0.0
1402758565307590660,3,-20.7074264359,-7.1377884924,5.42748858554,2.38304939926,31.5918526828,-3.84635974695,0.0969316055123,0.0,-0.260820627636,0.0,0.0625431882699,0.0,2.94702068618,0.0,-0.220100857453,0.0,0.00875684683925,0.0,-0.00344408834521,0.0,0.065057528371,0.0,0.00638075774777,0.0,-0.0,-0.0,0.592139422894,-11.0,-110.851251684,99.7524210943,1.03952583472,-75.0,-1.04259458383,53.0,1.0471975512,-75.0,-1.0471975512,53.0,11108600.7306,0.0,0.0,0.0,0.0,0.0,0.0
1402758565326801216,3,-20.7074264359,-7.1377884924,5.42748858554,2.38304939926,31.5918526828,-3.84635974695,0.0969316055123,0.0,-0.260820627636,0.0,0.0625431882699,0.0,2.94702068618,0.0,-0.220100857453,0.0,0.00875684683925,0.0,-0.00344408834521,0.0,0.065057528371,0.0,0.00638075774777,0.0,-0.0,-0.0,0.592139422894,-11.0,-110.851251684,99.7524210943,1.03799137275,-75.0,-1.04106012185,53.0,1.0471975512,-75.0,-1.0471975512,53.0,11108600.7306,0.0,0.0,0.0,0.0,0.0,0.0
1402758565347877588,3,-20.7035105053,-7.1377884924,5.41688351243,2.38304939926,31.5945307433,-3.84635974695,0.0978986480383,0.0,-0.268478958058,0.0,0.0743677688427,0.0,2.93832718379,0.0,-0.219124563149,0.0,0.00897813587719,0.0,-0.00339075012913,0.0,0.064606350797,0.0,0.0126863230493,0.0,-0.0,-0.0,0.592139422894,-11.0,-110.851251684,99.7524210943,1.03952583472,-75.0,-1.04106012185,53.0,1.0471975512,-75.0,-1.0471975512,53.0,11108600.7306,0.0,0.0,0.0,0.0,0.0,0.0
1402758565367462893,3,-20.7035105053,-7.1377884924,5.41688351243,2.38304939926,31.5945307433,-3.84635974695,0.0978986480383,0.0,-0.268478958058,0.0,0.0743677688427,0.0,2.93832718379,0.0,-0.219124563149,0.0,0.00897813587719,0.0,-0.00339075012913,0.0,0.064606350797,0.0,0.0126863230493,0.0,-0.0,-0.0,0.592139422894,-11.0,-110.851251684,99.7524210943,1.03952583472,-75.0,-1.04106012185,53.0,1.0471975512,-75.0,-1.0471975512,53.0,11108600.7306,0.0,0.0,0.0,0.0,0.0,0.0
1402758565386985201,3,-20.6947637239,-7.1377884924,5.39122347153,2.38304939926,31.54458845,-3.84635974695,0.111825913322,0.0,-0.302126217336,0.0,0.0636175376521,0.0,2.92921482631,0.0,-0.214921619619,0.0,0.00636610789762,0.0,0.00695730069681,0.0,0.0617352409945,0.0,0.0145063201816,0.0,-0.0,-0.0,0.592139422894,-11.0,-110.851251684,99.7524210943,1.03952583472,-75.0,-1.04106012185,53.0,1.0471975512,-75.0,-1.0471975512,53.0,11108600.7306,0.0,0.0,0.0,0.0,0.0,0.0
1402758565407054253,3,-20.6947637239,-7.1377884924,5.39122347153,2.38304939926,31.54458845,-3.84635974695,0.111825913322,0.0,-0.302126217336,0.0,0.0636175376521,0.0,2.92921482631,0.0,-0.214921619619,0.0,0.00636610789762,0.0,0.00695730069681,0.0,0.0617352409945,0.0,0.0145063201816,0.0,-0.0,-0.0,0.592139422894,-11.0,-110.851251684,99.7524210943,1.03952583472,-75.0,-1.04106012185,53.0,1.0471975512,-75.0,-1.0471975512,53.0,11108600.7306,0.0,0.0,0.0,0.0,0.0,0.0
1402758565427528520,3,-20.6861428697,-7.1377884924,5.37120867837,2.38304939926,31.5460212071,-3.84635974695,0.12136541895,0.0,-0.327463276833,0.0,0.063376376612,0.0,2.92027315792,0.0,-0.212599797119,0.0,0.00450084545884,0.0,-0.00650364316811,0.0,0.0597199399971,0.0,0.0171339383493,0.0,-0.0,-0.0,0.592139422894,-11.0,-110.851251684,99.7524210943,1.03952583472,-75.0,-1.04106012185,53.0,1.0471975512,-75.0,-1.0471975512,53.0,11108600.7306,0.0,0.0,0.0,0.0,0.0,0.0
1402758565447085610,3,-20.6861428697,-7.1377884924,5.37120867837,2.38304939926,31.5460212071,-3.84635974695,0.12136541895,0.0,-0.327463276833,0.0,0.063376376612,0.0,2.92027315792,0.0,-0.212599797119,0.0,0.00450084545884,0.0,-0.00650364316811,0.0,0.0597199399971,0.0,0.0171339383493,0.0,-0.0,-0.0,0.592139422894,-11.0,-110.851251684,99.7524210943,1.03952583472,-75.0,-1.04106012185,53.0,1.0471975512,-75.0,-1.0471975512,53.0,11108600.7306,0.0,0.0,0.0,0.0,0.0,0.0
1402758565466903233,3,-20.6874726494,-7.1377884924,5.36514715593,2.38304939926,31.5554145239,-3.84635974695,0.10583342908,0.0,-0.315324352107,0.0,0.0738672266115,0.0,2.91233924057,0.0,-0.207667080292,0.0,0.00690842246212,0.0,0.00147298625215,0.0,0.0617618756044,0.0,0.0107803309214,0.0,-0.0,-0.0,0.592139422894,-11.0,-110.851251684,99.7524210943,1.03952583472,-75.0,-1.04106012185,53.0,1.0471975512,-75.0,-1.0471975512,53.0,11108600.7306,0.0,0.0,0.0,0.0,0.0,0.0
1402758565487026177,3,-20.6874726494,-7.1377884924,5.36514715593,2.38304939926,31.5554145239,-3.84635974695,0.10583342908,0.0,-0.315324352107,0.0,0.0738672266115,0.0,2.91233924057,0.0,-0.207667080292,0.0,0.00690842246212,0.0,0.00147298625215,0.0,0.0617618756044,0.0,0.0107803309214,0.0,-0.0,-0.0,0.592139422894,-11.0,-110.851251684,99.7524210943,1.03952583472,-75.0,-1.04106012185,53.0,1.0471975512,-75.0,-1.0471975512,53.0,11108600.7306,0.0,0.0,0.0,0.0,0.0,0.0
1402758565506931692,3,-20.6824313151,-7.1377884924,5.34947950735,2.38304939926,31.5560813665,-3.84635974695,0.107676213315,0.0,-0.330056754018,0.0,0.0884839692456,0.0,2.90402120403,0.0,-0.211415322301,0.0,0.00649693910656,0.0,0.00297764645195,0.0,0.0609590996517,0.0,0.00412256698501,0.0,-0.0,-0.0,0.592139422894,-11.0,-110.851251684,99.7524210943,1.03952583472,-75.0,-1.04106012185,53.0,1.0471975512,-75.0,-1.0471975512,53.0,11108600.7306,0.0,0.0,0.0,0.0,0.0,0.0
1402758565526988717,3,-20.6824313151,-7.1377884924,5.34947950735,2.38304939926,31.5560813665,-3.84635974695,0.107676213315,0.0,-0.330056754018,0.0,0.0884839692456,0.0,2.90402120403,0.0,-0.211415322301,0.0,0.00649693910656,0.0,0.00297764645195,0.0,0.0609590996517,0.0,0.00412256698501,0.0,-0.0,-0.0,0.592139422894,-11.0,-110.851251684,99.7524210943,1.03952583472,-75.0,-1.04106012185,53.0,1.0471975512,-75.0,-1.0471975512,53.0,11108600.7306,0.0,0.0,0.0,0.0,0.0,0.0
1402758565547559886,3,-20.6780819082,-7.1377884924,5.33603586171,2.38304939926,31.5594866675,-3.84635974695,0.10773021926,0.0,-0.337952817484,0.0,0.077020004787,0.0,2.89587794051,0.0,-0.203812632832,0.0,0.006631334428,0.0,-0.00450747150444,0.0,0.0607332173571,0.0,0.00623730924627,0.0,-0.0,-0.0,0.592139422894,-11.0,-110.851251684,99.7524210943,1.03952583472,-75.0,-1.04106012185,53.0,1.0471975512,-75.0,-1.0471975512,53.0,11108600.7306,0.0,0.0,0.0,0.0,0.0,0.0
1402758565566931464,3,-20.6780819082,-7.1377884924,5.33603586171,2.38304939926,31.5594866675,-3.84635974695,0.10773021926,0.0,-0.337952817484,0.0,0.077020004787,0.0,2.89587794051,0.0,-0.203812632832,0.0,0.006631334428,0.0,-0.00450747150444,0.0,0.0607332173571,0.0,0.00623730924627,0.0,-0.0,-0.0,0.592139422894,-11.0,-110.851251684,99.7524210943,1.03952583472,-75.0,-1.04106012185,53.0,1.0471975512,-75.0,-1.0471975512,53.0,11108600.7306,0.0,0.0,0.0,0.0,0.0,0.0
1402758565587100141,3,-20.6737061938,-7.1377884924,5.32205602113,2.38304939926,31.5626677083,-3.84635974695,0.105805278143,0.0,-0.346666933679,0.0,0.0750706385314,0.0,2.88767231625,0.0,-0.197938763671,0.0,0.00656414933151,0.0,0.00169107721924,0.0,0.0608226126968,0.0,-0.00348670110868,0.0,-0.0,-0.0,0.592139422894,-11.0,-110.851251684,99.7524210943,1.03952583472,-75.0,-1.04106012185,53.0,1.0471975512,-75.0,-1.0471975512,53.0,11108600.7306,0.0,0.0,0.0,0.0,0.0,0.0
1402758565607609752,3,-20.6737061938,-7.1377884924,5.32205602113,2.38304939926,31.5626677083,-3.84635974695,0.105805278143,0.0,-0.346666933679,0.0,0.0750706385314,0.0,2.88767231625,0.0,-0.197938763671,0.0,0.00656414933151,0.0,0.00169107721924,0.0,0.0608226126968,0.0,-0.00348670110868,0.0,-0.0,-0.0,0.592139422894,-11.0,-110.851251684,99.7524210943,1.03952583472,-75.0,-1.04106012185,53.0,1.0471975512,-75.0,-1.0471975512,53.0,11108600.7306,0.0,0.0,0.0,0.0,0.0,0.0
1402758565626791384,3,-20.6781221553,-7.1377884924,5.3015126439,2.38304939926,31.5435435703,-3.84635974695,0.0899322049057,0.0,-0.364919857224,0.0,0.0732085906023,0.0,2.8802836268,0.0,-0.197735154878,0.0,0.00504652011944,0.0,-0.00124001762866,0.0,0.0624029441568,0.0,-0.0116711346559,0.0,-0.0,-0.0,0.592139422894,-11.0,-110.851251684,99.7524210943,1.03952583472,-75.0,-1.04106012185,53.0,1.0471975512,-75.0,-1.0471975512,53.0,11108600.7306,0.0,0.0,0.0,0.0,0.0,0.0
1402758565646736892,3,-20.6781221553,-7.1377884924,5.3015126439,2.38304939926,31.5435435703,-3.84635974695,0.0899322049057,0.0,-0.364919857224,0.0,0.0732085906023,0.0,2.8802836268,0.0,-0.197735154878,0.0,0.00504652011944,0.0,-0.00124001762866,0.0,0.0624029441568,0.0,-0.0116711346559,0.0,-0.0,-0.0,0.592139422894,-11.0,-110.851251684,99.7524210943,1.03952583472,-75.0,-1.04106012185,53.0,1.0471975512,-75.0,-1.0471975512,53.0,11108600.7306,0.0,0.0,0.0,0.0,0.0,0.0
1402758565667590729,3,-20.6755987713,-7.1377884924,5.28357888708,2.38304939926,31.5147078018,-3.84635974695,0.0908043778411,0.0,-0.372391470632,0.0,0.0582997386682,0.0,2.87212943008,0.0,-0.19253619013,0.0,0.00515665382813,0.0,0.0140740007547,0.0,0.0628002303052,0.0,-0.0206148547427,0.0,-0.0,-0.0,0.592139422894,-11.0,-110.851251684,99.7524210943,1.03952583472,-75.0,-1.04106012185,53.0,1.0471975512,-75.0,-1.0471975512,53.0,11108600.7306,0.0,0.0,0.0,0.0,0.0,0.0
1402758565686665304,3,-20.6755987713,-7.1377884924,5.28357888708,2.38304939926,31.5147078018,-3.84635974695,0.0908043778411,0.0,-0.372391470632,0.0,0.0582997386682,0.0,2.87212943008,0.0,-0.19253619013,0.0,0.00515665382813,0.0,0.0140740007547,0.0,0.0628002303052,0.0,-0.0206148547427,0.0,-0.0,-0.0,0.592139422894,-11.0,-110.851251684,99.7524210943,1.03952583472,-75.0,-1.04106012185,53.0,1.0471975512,-75.0,-1.0471975512,53.0,11108600.7306,0.0,0.0,0.0,0.0,0.0,0.0
1402758565707218755,3,-20.6725644307,-7.1377884924,5.27066179033,2.38304939926,31.5058242366,-3.84635974695,0.0930290847193,0.0,-0.367293404146,0.0,0.045006506292,0.0,2.86419064978,0.0,-0.188364700419,0.0,0.00620497616044,0.0,0.0023352832628,0.0,0.0635428578583,0.0,-0.0241558687631,0.0,-0.0,-0.0,0.592139422894,-11.0,-110.851251684,99.7524210943,1.03952583472,-75.0,-1.04106012185,53.0,1.0471975512,-75.0,-1.0471975512,53.0,11108600.7306,0.0,0.0,0.0,0.0,0.0,0.0
1402758565727719327,3,-20.6725644307,-7.1377884924,5.27066179033,2.38304939926,31.5058242366,-3.84635974695,0.0930290847193,0.0,-0.367293404146,0.0,0.045006506292,0.0,2.86419064978,0.0,-0.188364700419,0.0,0.00620497616044,0.0,0.0023352832628,0.0,0.0635428578583,0.0,-0.0241558687631,0.0,-0.0,-0.0,0.592139422894,-11.0,-110.851251684,99.7524210943,1.03952583472,-75.0,-1.04106012185,53.0,1.0471975512,-75.0,-1.0471975512,53.0,11108600.7306,0.0,0.0,0.0,0.0,0.0,0.0
1402758565747197461,3,-20.6711012783,-7.1377884924,5.25385118093,2.38304939926,31.5104701532,-3.84635974695,0.0889593762493,0.0,-0.37615943264,0.0,0.0546114271225,0.0,2.85644126654,0.0,-0.1974513507,0.0,0.00566226648592,0.0,-0.00522413343781,0.0,0.0644744728553,0.0,-0.0150495021198,0.0,-0.0,-0.0,0.592139422894,-11.0,-110.851251684,99.7524210943,1.03952583472,-75.0,-1.04106012185,53.0,1.0471975512,-75.0,-1.0471975512,53.0,11108600.7306,0.0,0.0,0.0,0.0,0.0,0.0
1402758565766923208,3,-20.6711012783,-7.1377884924,5.25385118093,2.38304939926,31.5104701532,-3.84635974695,0.0889593762493,0.0,-0.37615943264,0.0,0.0546114271225,0.0,2.85644126654,0.0,-0.1974513507,0.0,0.00566226648592,0.0,-0.00522413343781,0.0,0.0644744728553,0.0,-0.0150495021198,0.0,-0.0,-0.0,0.592139422894,-11.0,-110.851251684,99.7524210943,1.03952583472,-75.0,-1.04106012185,53.0,1.0471975512,-75.0,-1.0471975512,53.0,11108600.7306,0.0,0.0,0.0,0.0,0.0,0.0
1402758565787261304,3,-20.6749184707,-7.1377884924,5.24033419084,2.38304939926,31.5110035109,-3.84635974695,0.0700612435068,0.0,-0.372274059471,0.0,0.0629995805588,0.0,2.84891456089,0.0,-0.186925950223,0.0,0.00593730381676,0.0,0.00213639898376,0.0,0.0674413727673,0.0,-0.0289088962588,0.0,-0.0,-0.0,0.592139422894,-11.0,-110.851251684,99.7524210943,1.03952583472,-75.0,-1.04106012185,53.0,1.0471975512,-75.0,-1.0471975512,53.0,11108600.7306,0.0,0.0,0.0,0.0,0.0,0.0
1402758565806889186,3,-20.6749184707,-7.1377884924,5.24033419084,2.38304939926,31.5110035109,-3.84635974695,0.0700612435068,0.0,-0.372274059471,0.0,0.0629995805588,0.0,2.84891456089,0.0,-0.186925950223,0.0,0.00593730381676,0.0,0.00213639898376,0.0,0.0674413727673,0.0,-0.0289088962588,0.0,-0.0,-0.0,0.592139422894,-11.0,-110.851251684,99.7524210943,1.03952583472,-75.0,-1.04106012185,53.0,1.0471975512,-75.0,-1.0471975512,53.0,11108600.7306,0.0,0.0,0.0,0.0,0.0,0.0
1402758565827563137,3,-20.6642510626,-7.1377884924,5.21362341634,2.38304939926,31.4724724955,-3.84635974695,0.0927639096842,0.0,-0.397900964675,0.0,0.044434617579,0.0,2.84080390011,0.0,-0.189942916548,0.0,0.00429073580685,0.0,0.00488544697452,0.0,0.0650521647783,0.0,-0.0263036202599,0.0,-0.0,-0.0,0.592139422894,-11.0,-110.851251684,99.7524210943,1.03952583472,-75.0,-1.04106012185,53.0,1.0471975512,-75.0,-1.0471975512,53.0,11108600.7306,0.0,0.0,0.0,0.0,0.0,0.0
1402758565847597972,3,-20.6642510626,-7.1377884924,5.21362341634,2.38304939926,31.4724724955,-3.84635974695,0.0927639096842,0.0,-0.397900964675,0.0,0.044434617579,0.0,2.84080390011,0.0,-0.189942916548,0.0,0.00429073580685,0.0,0.00488544697452,0.0,0.0650521647783,0.0,-0.0263036202599,0.0,-0.0,-0.0,0.592139422894,-11.0,-110.851251684,99.7524210943,1.03952583472,-75.0,-1.04106012185,53.0,1.0471975512,-75.0,-1.0471975512,53.0,11108600.7306,0.0,0.0,0.0,0.0,0.0,0.0
1402758565867073045,3,-20.6580484668,-7.1377884924,5.19849145578,2.38304939926,31.4681360909,-3.84635974695,0.0981431149735,0.0,-0.388283860238,0.0,0.0453567325859,0.0,2.83036799524,0.0,-0.194662217809,0.0,0.00628295609002,0.0,0.00455450867743,0.0,0.0657099304513,0.0,-0.0178297714378,0.0,-0.0,-0.0,0.592139422894,-11.0,-110.851251684,99.7524210943,1.03952583472,-75.0,-1.04106012185,53.0,1.0471975512,-75.0,-1.0471975512,53.0,11108600.7306,0.0,0.0,0.0,0.0,0.0,0.0
1402758565886821352,3,-20.6580484668,-7.1377884924,5.19849145578,2.38304939926,31.4681360909,-3.84635974695,0.0981431149735,0.0,-0.388283860238,0.0,0.0453567325859,0.0,2.83036799524,0.0,-0.194662217809,0.0,0.00628295609002,0.0,0.00455450867743,0.0,0.0657099304513,0.0,-0.0178297714378,0.0,-0.0,-0.0,0.592139422894,-11.0,-110.851251684,99.7524210943,1.03952583472,-75.0,-1.04106012185,53.0,1.0471975512,-75.0,-1.0471975512,53.0,11108600.7306,0.0,0.0,0.0,0.0,0.0,0.0
1402758565907104918,3,-20.6617612526,-7.1377884924,5.18635220959,2.38304939926,31.4698458799,-3.84635974695,0.0855410558251,0.0,-0.377645573191,0.0,0.0455645432127,0.0,2.8228857566,0.0,-0.185278824003,0.0,0.00754584573507,0.0,-0.0060776106096,0.0,0.0679559912904,0.0,-0.00841313187396,0.0,-0.0,-0.0,0.592139422894,-11.0,-110.851251684,99.7524210943,1.03952583472,-75.0,-1.04106012185,53.0,1.0471975512,-75.0,-1.0471975512,53.0,11108600.7306,0.0,0.0,0.0,0.0,0.0,0.0
1402758565926910441,3,-20.6608676143,-7.1377884924,5.18268903885,2.38304939926,31.4700461232,-3.84635974695,0.0845135248351,0.0,-0.380514514487,0.0,0.0434169796884,0.0,2.82110091718,0.0,-0.179595709667,0.0,0.00741325363407,0.0,0.0126589544366,0.0,0.0679518462414,0.0,-0.00374211848683,0.0,-0.0,-0.0,0.592139422894,-11.0,-110.851251684,99.7524210943,1.03952583472,-75.0,-1.04106012185,53.0,1.0471975512,-75.0,-1.0471975512,53.0,11108600.7306,0.0,0.0,0.0,0.0,0.0,0.0
1402758565946911508,3,-20.6566858643,-7.1377884924,5.16552611984,2.38304939926,31.4533223009,-3.84635974695,0.0963902715087,0.0,-0.400500601598,0.0,0.0483068164698,0.0,2.81733407266,0.0,-0.182645758366,0.0,0.00587478985663,0.0,0.000164788922097,0.0,0.0660271311602,0.0,-0.00502622371395,0.0,-0.0,-0.0,0.592139422894,-11.0,-110.851251684,99.7524210943,1.03952583472,-75.0,-1.04106012185,53.0,1.0471975512,-75.0,-1.0471975512,53.0,11108600.7306,0.0,0.0,0.0,0.0,0.0,0.0
1402758565967719938,3,-20.6566858643,-7.1377884924,5.16552611984,2.38304939926,31.4533223009,-3.84635974695,0.0963902715087,0.0,-0.400500601598,0.0,0.0483068164698,0.0,2.81733407266,0.0,-0.182645758366,0.0,0.00587478985663,0.0,0.000164788922097,0.0,0.0660271311602,0.0,-0.00502622371395,0.0,-0.0,-0.0,0.592139422894,-11.0,-110.851251684,99.7524210943,1.03952583472,-75.0,-1.04106012185,53.0,1.0471975512,-75.0,-1.0471975512,53.0,11108600.7306,0.0,0.0,0.0,0.0,0.0,0.0
1402758565986761788,3,-20.6528542779,-7.1377884924,5.14935965075,2.38304939926,31.4551467251,-3.84635974695,0.0940804550634,0.0,-0.407110166703,0.0,0.0462381688216,0.0,2.81019936099,0.0,-0.178322604325,0.0,0.00571127280394,0.0,0.0130747320922,0.0,0.0658450999462,0.0,-0.000784863179551,0.0,-0.0,-0.0,0.592139422894,-11.0,-110.851251684,99.7524210943,1.03952583472,-75.0,-1.04106012185,53.0,1.0471975512,-75.0,-1.0471975512,53.0,11108600.7306,0.0,0.0,0.0,0.0,0.0,0.0
1402758566006865409,3,-20.6528542779,-7.1377884924,5.14935965075,2.38304939926,31.4551467251,-3.84635974695,0.0940804550634,0.0,-0.407110166703,0.0,0.0462381688216,0.0,2.81019936099,0.0,-0.178322604325,0.0,0.00571127280394,0.0,0.0130747320922,0.0,0.0658450999462,0.0,-0.000784863179551,0.0,-0.0,-0.0,0.592139422894,-11.0,-110.851251684,99.7524210943,1.03952583472,-75.0,-1.04106012185,53.0,1.0471975512,-75.0,-1.0471975512,53.0,11108600.7306,0.0,0.0,0.0,0.0,0.0,0.0
1402758566027113130,3,-20.6536444008,-7.1377884924,5.12996402125,2.38304939926,31.4239793222,-3.84635974695,0.0913647314642,0.0,-0.412340594649,0.0,0.0348939954721,0.0,2.80324186009,0.0,-0.170943694087,0.0,0.00570729794841,0.0,0.015605818292,0.0,0.0655287754137,0.0,0.0183004017895,0.0,-0.0,-0.0,0.592139422894,-11.0,-110.851251684,99.7524210943,1.03952583472,-75.0,-1.04106012185,53.0,1.0471975512,-75.0,-1.0471975512,53.0,11108600.7306,0.0,0.0,0.0,0.0,0.0,0.0
1402758566046979417,3,-20.6536444008,-7.1377884924,5.12996402125,2.38304939926,31.4239793222,-3.84635974695,0.0913647314642,0.0,-0.412340594649,0.0,0.0348939954721,0.0,2.80324186009,0.0,-0.170943694087,0.0,0.00570729794841,0.0,0.015605818292,0.0,0.0655287754137,0.0,0.0183004017895,0.0,-0.0,-0.0,0.592139422894,-11.0,-110.851251684,99.7524210943,1.03952583472,-75.0,-1.04106012185,53.0,1.0471975512,-75.0,-1.0471975512,53.0,11108600.7306,0.0,0.0,0.0,0.0,0.0,0.0
1402758566067322243,3,-20.6488962492,-7.1377884924,5.11245146352,2.38304939926,31.4315497081,-3.84635974695,0.0950261912803,0.0,-0.420593647117,0.0,0.0549699310084,0.0,2.79622578539,0.0,-0.16887559384,0.0,0.00555696246738,0.0,0.0138815082831,0.0,0.0643192069795,0.0,0.00750986984885,0.0,-0.0,-0.0,0.592139422894,-11.0,-110.851251684,99.7524210943,1.03952583472,-75.0,-1.04106012185,53.0,1.0471975512,-75.0,-1.0471975512,53.0,11108600.7306,0.0,0.0,0.0,0.0,0.0,0.0
1402758566088581731,3,-20.6488962492,-7.1377884924,5.11245146352,2.38304939926,31.4315497081,-3.84635974695,0.0950261912803,0.0,-0.420593647117,0.0,0.0549699310084,0.0,2.79622578539,0.0,-0.16887559384,0.0,0.00555696246738,0.0,0.0138815082831,0.0,0.0643192069795,0.0,0.00750986984885,0.0,-0.0,-0.0,0.592139422894,-11.0,-110.851251684,99.7524210943,1.03952583472,-75.0,-1.0395258983,53.0,1.0471975512,-75.0,-1.0471975512,53.0,11108600.7306,0.0,0.0,0.0,0.0,0.0,0.0
1402758566106863291,3,-20.6512405121,-7.1377884924,5.1033383325,2.38304939926,31.436639289,-3.84635974695,0.0878298480004,0.0,-0.402723093074,0.0,0.0599376442298,0.0,2.78934472883,0.0,-0.160370213541,0.0,0.00774083101852,0.0,0.00928273231826,0.0,0.0652441991294,0.0,0.0164527367511,0.0,-0.0,-0.0,0.592139422894,-11.0,-110.851251684,99.7524210943,1.03952583472,-75.0,-1.04106012185,53.0,1.0471975512,-75.0,-1.0471975512,53.0,11108600.7306,0.0,0.0,0.0,0.0,0.0,0.0
1402758566126898240,3,-20.6512405121,-7.1377884924,5.1033383325,2.38304939926,31.436639289,-3.84635974695,0.0878298480004,0.0,-0.402723093074,0.0,0.0599376442298,0.0,2.78934472883,0.0,-0.160370213541,0.0,0.00774083101852,0.0,0.00928273231826,0.0,0.0652441991294,0.0,0.0164527367511,0.0,-0.0,-0.0,0.592139422894,-11.0,-110.851251684,99.7524210943,1.03952583472,-75.0,-1.04106012185,53.0,1.0471975512,-75.0,-1.0471975512,53.0,11108600.7306,0.0,0.0,0.0,0.0,0.0,0.0
1402758566147058594,3,-20.6436925191,-7.1377884924,5.07147630262,2.38304939926,31.4109892993,-3.84635974695,0.103607872871,0.0,-0.440960678558,0.0,0.0496182026683,0.0,2.78269495076,0.0,-0.162959293269,0.0,0.00457558870679,0.0,0.0047773338307,0.0,0.0611993807934,0.0,0.0287982811517,0.0,-0.0,-0.0,0.592139422894,-11.0,-110.851251684,99.7524210943,1.03952583472,-75.0,-1.04106012185,53.0,1.0471975512,-75.0,-1.0471975512,53.0,11108600.7306,0.0,0.0,0.0,0.0,0.0,0.0
