rosbagTimestamp,header,seq,stamp,secs,nsecs,frame_id,child_frame_id,pose,pose,position,x,y,z,orientation,x,y,z,w,covariance,twist,twist,linear,x,y,z,angular,x,y,z,covariance
1402416313283258980,,231430,,1402416313,247535943,/enu,/base_link,,,,10.8330040446,26.540247412,-18.3434330875,,-0.0212813657888,-0.0160168986319,0.606101895398,-0.794940912788,"[0.04158720759836089, -0.0037101890337220677, -0.0038048350132921446, 3.2538369914702246e-07, -0.00016687966186647145, 0.0001285512763663786, -0.0037101890337220677, 0.045566642661929904, 0.002552200041595361, 0.00016563578281128557, 5.2616934103599225e-06, -4.7771087092348565e-06, -0.0038048350132921446, 0.002552200041595361, 0.22841231657422495, 1.5050503692590954e-06, -2.2330326993496213e-05, -5.329415097786497e-06, 3.2538369914702246e-07, 0.00016563578281128557, 1.5050503692590954e-06, 7.901743203454366e-06, -2.2000521691529796e-07, 2.0744778390293607e-06, -0.00016687966186647145, 5.2616934103599225e-06, -2.2330326993496213e-05, -2.2000521691529796e-07, 8.127422201394417e-06, -1.7228029308809504e-06, 0.0001285512763663786, -4.7771087092348565e-06, -5.329415097786497e-06, 2.0744778390293607e-06, -1.7228029308809504e-06, 0.00011572491945784584]",,,,0.163547523161,0.464321504615,0.17203120054,,-0.0354069548015,-0.0122616799905,0.273982248087,"[0.0004876480487705489, -9.615241017211286e-05, 2.747839201438349e-05, -3.971835901717124e-09, 1.5926981163905784e-08, 1.6458756849724795e-08, -9.615241017211286e-05, 0.0008320683130617826, -0.00010626369664266193, -1.719673745179298e-08, -8.72707345943966e-09, -1.251094683952464e-08, 2.747839201438349e-05, -0.00010626369664266193, 0.0003448091916989192, -1.2441792416075104e-10, 7.027567338998613e-10, 5.687317631793965e-10, -3.971835901717124e-09, -1.719673745179298e-08, -1.2441792416075104e-10, 2.223445324579394e-09, 4.864017470171365e-12, 1.215993132914354e-11, 1.5926981163905784e-08, -8.72707345943966e-09, 7.027567338998613e-10, 4.864017470171365e-12, 2.199824335393652e-09, 8.249492278623357e-13, 1.6458756849724795e-08, -1.251094683952464e-08, 5.687317631793965e-10, 1.215993132914354e-11, 8.249492278623357e-13, 2.2195802236006833e-09]"
1402416313283288931,,231431,,1402416313,257538080,/enu,/base_link,,,,10.8379007012,26.5397536653,-18.3417572329,,-0.0214832364263,-0.0159826666855,0.605009992573,-0.795767512409,"[0.04160723853009179, -0.0037016191302704816, -0.003810725990597526, 2.834831505603985e-07, -0.00016649642491567337, 0.00012845965999627737, -0.0037016191302704816, 0.04557911181043654, 0.0025462099627896577, 0.0001653043751277219, 5.300897285760698e-06, -4.59078790941252e-06, -0.003810725990597526, 0.0025462099627896577, 0.22845396274915705, 1.511700567353601e-06, -2.2367751062426822e-05, -5.322492032437439e-06, 2.834831505603985e-07, 0.0001653043751277219, 1.511700567353601e-06, 7.94151356316757e-06, -2.2003993930441898e-07, 2.0742741490172624e-06, -0.00016649642491567337, 5.300897285760698e-06, -2.2367751062426822e-05, -2.2003993930441898e-07, 8.167332907071638e-06, -1.7247836517935395e-06, 0.00012845965999627737, -4.59078790941252e-06, -5.322492032437439e-06, 2.0742741490172624e-06, -1.7247836517935395e-06, 0.00011574753662205803]",,,,0.172440954554,0.460014563816,0.180267407773,,0.0293154330788,0.0213144378794,0.273982251196,"[0.0004932764329258598, -9.5693142868519e-05, 2.7638760377223664e-05, -4.0569394245118084e-09, 1.6352807663648646e-08, 1.6502427112732004e-08, -9.5693142868519e-05, 0.0008404168175493186, -0.00010665310255460094, -1.765701415569121e-08, -8.831268446720006e-09, -1.2693911044840615e-08, 2.7638760377223664e-05, -0.00010665310255460094, 0.0003452818204047356, -1.263636913104054e-10, 7.365099037545277e-10, 5.811507874614107e-10, -4.0569394245118084e-09, -1.765701415569121e-08, -1.263636913104054e-10, 2.223445226381184e-09, 4.8640190270794585e-12, 1.2160631527574763e-11, 1.6352807663648646e-08, -8.831268446720006e-09, 7.365099037545277e-10, 4.8640190270794585e-12, 2.1998242128116207e-09, 8.24831311877269e-13, 1.6502427112732004e-08, -1.2693911044840615e-08, 5.811507874614107e-10, 1.2160631527574763e-11, 8.24831311877269e-13, 2.2195751430243644e-09]"
1402416313283322897,,231432,,1402416313,268527030,/enu,/base_link,,,,10.8433041504,26.5392033224,-18.3399438957,,-0.0214068177669,-0.0159274095912,0.60381730956,-0.796676046115,"[0.04162912723580416, -0.0036921839948778224, -0.0038172117177290026, 2.3701024278880566e-07, -0.00016606636003906533, 0.00012834901320816152, -0.0036921839948778224, 0.045592648237468156, 0.0025396246550346635, 0.0001649319207499562, 5.344238646946011e-06, -4.387391925924336e-06, -0.0038172117177290026, 0.0025396246550346635, 0.22849970994637467, 1.5198954038137088e-06, -2.2409048822111652e-05, -5.31535306104827e-06, 2.3701024278880566e-07, 0.0001649319207499562, 1.5198954038137088e-06, 7.989575743366732e-06, -2.2007512223059914e-07, 2.074066072729875e-06, -0.00016606636003906533, 5.344238646946011e-06, -2.2409048822111652e-05, -2.2007512223059914e-07, 8.21553711907573e-06, -1.7267791480080204e-06, 0.00012834901320816152, -4.387391925924336e-06, -5.31535306104827e-06, 2.074066072729875e-06, -1.7267791480080204e-06, 0.00011577855350621557]",,,,0.166217052796,0.456853977603,0.173054331786,,-0.0118815830294,-0.0141392954997,0.27199419615,"[0.0004996959297506218, -9.523818957742696e-05, 2.772450243659534e-05, -4.153137269831549e-09, 1.682292918728613e-08, 1.654999779718031e-08, -9.523818957742696e-05, 0.0008499024508857491, -0.0001068227254331457, -1.8164797608555207e-08, -8.948433358275151e-09, -1.2895233965053872e-08, 2.772450243659534e-05, -0.0001068227254331457, 0.00034572345147447855, -1.3453261448731334e-10, 7.634145630961195e-10, 5.827848099883767e-10, -4.153137269831549e-09, -1.8164797608555207e-08, -1.3453261448731334e-10, 2.2234451273163773e-09, 4.864020603436056e-12, 1.2161334597304666e-11, 1.682292918728613e-08, -8.948433358275151e-09, 7.634145630961195e-10, 4.864020603436056e-12, 2.199824089094706e-09, 8.247127153706355e-13, 1.654999779718031e-08, -1.2895233965053872e-08, 5.827848099883767e-10, 1.2161334597304666e-11, 8.247127153706355e-13, 2.219570062291462e-09]"
1402416313283351673,,231433,,1402416313,279537916,/enu,/base_link,,,,11.0490236335,26.3646648652,-18.0730488492,,-0.023730321258,-0.0253388875357,0.601879939965,-0.797831655488,"[0.04148335325086805, -0.0037431544723727167, -0.0037764415669789813, 4.3018667162359117e-07, -0.00016995258031995438, 0.00012892238336856528, -0.0037431544723727167, 0.045510111135421166, 0.0025903738596648428, 0.00016683779080972836, 4.346468266276856e-06, -3.386179009019516e-06, -0.0037764415669789813, 0.0025903738596648428, 0.22830924803227418, 1.1189364032181497e-06, -2.111994102630742e-05, -5.466330558641237e-06, 4.3018667162359117e-07, 0.00016683779080972836, 1.1189364032181497e-06, 7.861274940508624e-06, -2.6206325647360107e-07, 2.040730215767237e-06, -0.00016995258031995438, 4.346468266276856e-06, -2.111994102630742e-05, -2.6206325647360107e-07, 8.065857581492822e-06, -1.7174496777639644e-06, 0.00012892238336856528, -3.386179009019516e-06, -5.466330558641237e-06, 2.040730215767237e-06, -1.7174496777639644e-06, 0.00011580128809098192]",,,,0.431928594321,0.577612338379,0.254881346167,,0.0314072693098,0.0472773723087,0.279505278128,"[0.00046517451488858766, -0.00011290185465401222, 3.3291464078583664e-05, -3.504062196378305e-09, 1.5589694595036676e-08, 2.441949485075546e-08, -0.00011290185465401222, 0.0008071944365940265, -9.691414722407057e-05, -1.670858686217891e-08, -8.896873661555234e-09, -2.8744514694184996e-08, 3.3291464078583664e-05, -9.691414722407057e-05, 0.00034254142244855224, -1.142731426655095e-09, 1.974233116993464e-09, 1.4279241963131543e-09, -3.504062196378305e-09, -1.670858686217891e-08, -1.142731426655095e-09, 2.2233937651807057e-09, 4.875160925999854e-12, 1.215761558753241e-11, 1.5589694595036676e-08, -8.896873661555234e-09, 1.974233116993464e-09, 4.875160925999854e-12, 2.199770300688486e-09, 8.150059628103243e-13, 2.441949485075546e-08, -2.8744514694184996e-08, 1.4279241963131543e-09, 1.215761558753241e-11, 8.150059628103243e-13, 2.2195623962425946e-09]"
1402416313323392214,,231434,,1402416313,289527893,/enu,/base_link,,,,11.0557499976,26.3619328726,-18.070810652,,-0.0235646423985,-0.0253192260617,0.600793113672,-0.798655920272,"[0.04150094598425617, -0.003734985507346271, -0.00378203137206363, 3.834519571851621e-07, -0.00016958186262964, 0.0001288237970017036, -0.003734985507346271, 0.04552097400816993, 0.0025846450644751006, 0.00016651003971331603, 4.388582235139556e-06, -3.2053604954952896e-06, -0.00378203137206363, 0.0025846450644751006, 0.2283502935195541, 1.1253903538158364e-06, -2.115448458154085e-05, -5.459904988110495e-06, 3.834519571851621e-07, 0.00016651003971331603, 1.1253903538158364e-06, 7.900951744163781e-06, -2.6209474000820105e-07, 2.040550897997535e-06, -0.00016958186262964, 4.388582235139556e-06, -2.115448458154085e-05, -2.6209474000820105e-07, 8.105673803338362e-06, -1.719424668471188e-06, 0.0001288237970017036, -3.2053604954952896e-06, -5.459904988110495e-06, 2.040550897997535e-06, -1.719424668471188e-06, 0.00011582377667813097]",,,,0.424588784761,0.588602094896,0.243087119074,,-0.033425567599,-0.0217524811516,0.271773937088,"[0.00047054203316407853, -0.00011268874164108557, 3.3633391250185144e-05, -3.587030071830817e-09, 1.600989760858415e-08, 2.441828240089498e-08, -0.00011268874164108557, 0.0008156285975733482, -9.68143223055735e-05, -1.71659577866235e-08, -9.003921248997429e-09, -2.895191454448248e-08, 3.3633391250185144e-05, -9.68143223055735e-05, 0.0003429091883018701, -1.1604756521108313e-09, 2.008475009954362e-09, 1.4179226204996858e-09, -3.587030071830817e-09, -1.71659577866235e-08, -1.1604756521108313e-09, 2.2233936675587755e-09, 4.875161142885578e-12, 1.2158312390758787e-11, 1.600989760858415e-08, -9.003921248997429e-09, 2.008475009954362e-09, 4.875161142885578e-12, 2.1997701796362326e-09, 8.148893575510281e-13, 2.441828240089498e-08, -2.895191454448248e-08, 1.4179226204996858e-09, 1.2158312390758787e-11, 8.148893575510281e-13, 2.2195573097996754e-09]"
1402416313323419042,,231435,,1402416313,299540042,/enu,/base_link,,,,11.0624360227,26.3590872618,-18.0684328561,,-0.0238489435015,-0.0252848784974,0.599693341257,-0.799474702079,"[0.041518478191422674, -0.0037267457753993876, -0.0037876828604966615, 3.3641874612802235e-07, -0.0001692020778024198, 0.0001287326950400353, -0.0037267457753993876, 0.045531606388074713, 0.0025788088066941417, 0.0001661732090157975, 4.431115959018395e-06, -3.0307941254901136e-06, -0.0037876828604966615, 0.0025788088066941417, 0.22839167891286152, 1.1310928407363557e-06, -2.1188778734245163e-05, -5.453749179883654e-06, 3.3641874612802235e-07, 0.0001661732090157975, 1.1310928407363557e-06, 7.940803171744999e-06, -2.621264322042882e-07, 2.0403721938427103e-06, -0.0001692020778024198, 4.431115959018395e-06, -2.1188778734245163e-05, -2.621264322042882e-07, 8.145665834014708e-06, -1.7214106953429506e-06, 0.0001287326950400353, -3.0307941254901136e-06, -5.453749179883654e-06, 2.0403721938427103e-06, -1.7214106953429506e-06, 0.00011584643924244023]",,,,0.435841736428,0.578674421945,0.253578665132,,0.0401326413956,0.0300475170194,0.275087371393,"[0.00047602355192660507, -0.0001123792965633996, 3.4134063366667364e-05, -3.672667450152318e-09, 1.6431400148998074e-08, 2.441434065606042e-08, -0.0001123792965633996, 0.0008241050833621558, -9.712463746637763e-05, -1.7626810384734764e-08, -9.112822047467768e-09, -2.916012040551671e-08, 3.4134063366667364e-05, -9.712463746637763e-05, 0.00034345747743524263, -1.1675436909108381e-09, 2.0579327365385167e-09, 1.4416852546821191e-09, -3.672667450152318e-09, -1.7626810384734764e-08, -1.1675436909108381e-09, 2.2233935692365835e-09, 4.8751613604348806e-12, 1.2159011633987966e-11, 1.6431400148998074e-08, -9.112822047467768e-09, 2.0579327365385167e-09, 4.8751613604348806e-12, 2.199770057436118e-09, 8.147720676241459e-13, 2.441434065606042e-08, -2.916012040551671e-08, 1.4416852546821191e-09, 1.2159011633987966e-11, 8.147720676241459e-13, 2.2195522222364414e-09]"
1402416313323442457,,231436,,1402416313,310525894,/enu,/base_link,,,,11.0702008549,26.3561918453,-18.0662658835,,-0.0238267492388,-0.0253522915327,0.598459848044,-0.800397000003,"[0.04153732226143283, -0.0037176434684272675, -0.003794069299983982, 2.8457319382265735e-07, -0.0001687760545914659, 0.00012862521002205717, -0.0037176434684272675, 0.04554308772724729, 0.0025723918774462596, 0.0001657951727752515, 4.478058866406172e-06, -2.8389392511664287e-06, -0.003794069299983982, 0.0025723918774462596, 0.22843709962196954, 1.1380617996902234e-06, -2.1226479406561236e-05, -5.4475676940330504e-06, 2.8457319382265735e-07, 0.0001657951727752515, 1.1380617996902234e-06, 7.98883893408134e-06, -2.621586304331519e-07, 2.0401898315408297e-06, -0.0001687760545914659, 4.478058866406172e-06, -2.1226479406561236e-05, -2.621586304331519e-07, 8.193843852029038e-06, -1.7234123882791208e-06, 0.00012862521002205717, -2.8389392511664287e-06, -5.4475676940330504e-06, 2.0401898315408297e-06, -1.7234123882791208e-06, 0.00011587739248116388]",,,,0.433004903683,0.578640691517,0.247505351312,,-0.0201718373451,0.00884154445586,0.279394836846,"[0.0004822498815323401, -0.00011205688072348215, 3.4588484147084593e-05, -3.770809461639516e-09, 1.6895754642350793e-08, 2.4408097812246036e-08, -0.00011205688072348215, 0.00083376828712492, -9.712677685574335e-05, -1.8133572057609955e-08, -9.237112993143477e-09, -2.9391285457951003e-08, 3.4588484147084593e-05, -9.712677685574335e-05, 0.0003439567443441435, -1.1857764517123738e-09, 2.1027481241807953e-09, 1.4430322830183347e-09, -3.770809461639516e-09, -1.8133572057609955e-08, -1.1857764517123738e-09, 2.2233934699738016e-09, 4.8751615131962196e-12, 1.21597148148427e-11, 1.6895754642350793e-08, -9.237112993143477e-09, 2.1027481241807953e-09, 4.8751615131962196e-12, 2.1997699341644963e-09, 8.146541018334972e-13, 2.4408097812246036e-08, -2.9391285457951003e-08, 1.4430322830183347e-09, 1.21597148148427e-11, 8.146541018334972e-13, 2.2195471305155855e-09]"
1402416313362847586,,231437,,1402416313,320501089,/enu,/base_link,,,,11.2102420973,26.2811426291,-17.9142272124,,-0.0246269213182,-0.0320006709988,0.596699641402,-0.801448070528,"[0.04141738462829718, -0.003763991314201409, -0.003758545897241601, 6.884209004638908e-07, -0.00017200932992766764, 0.00012904918535776267, -0.003763991314201409, 0.04547157975718821, 0.0026210914898571603, 0.00016730027207975573, 3.3883262853109295e-06, -1.8895290869713483e-06, -0.003758545897241601, 0.0026210914898571603, 0.2282457985506462, 7.592731814143534e-07, -2.003138553520525e-05, -5.576202827626622e-06, 6.884209004638908e-07, 0.00016730027207975573, 7.592731814143534e-07, 7.845549142792086e-06, -3.0097631403605423e-07, 1.995447620862813e-06, -0.00017200932992766764, 3.3883262853109295e-06, -2.003138553520525e-05, -3.0097631403605423e-07, 8.037347550797838e-06, -1.7199536083492365e-06, 0.00012904918535776267, -1.8895290869713483e-06, -5.576202827626622e-06, 1.995447620862813e-06, -1.7199536083492365e-06, 0.00011588733353507819]",,,,0.599735292944,0.693760886003,0.290119621628,,-0.000517265665801,-0.00319220375441,0.274535766926,"[0.00045362933838712614, -0.00012908333672903124, 3.570652249073058e-05, -3.182359064069643e-09, 1.5701372853367482e-08, 3.0771138702812475e-08, -0.00012908333672903124, 0.0007985695150404572, -8.948084174513891e-05, -1.679551617853262e-08, -9.103633697324455e-09, -3.942922553409607e-08, 3.570652249073058e-05, -8.948084174513891e-05, 0.0003410206575194907, -1.9586649972662453e-09, 2.7502092470860788e-09, 2.0027191265563647e-09, -3.182359064069643e-09, -1.679551617853262e-08, -1.9586649972662453e-09, 2.2233417937584723e-09, 4.885933943234463e-12, 1.2157396629799297e-11, 1.5701372853367482e-08, -9.103633697324455e-09, 2.7502092470860788e-09, 4.885933943234463e-12, 2.199712525157068e-09, 8.016400800167504e-13, 3.0771138702812475e-08, -3.942922553409607e-08, 2.0027191265563647e-09, 1.2157396629799297e-11, 8.016400800167504e-13, 2.219538503898214e-09]"
1402416313402843073,,231438,,1402416313,331500053,/enu,/base_link,,,,11.2193570924,26.2765739933,-17.9114518679,,-0.0249396834688,-0.0320636435302,0.595473073235,-0.802347651585,"[0.041434269555971036, -0.003755343030643453, -0.003764564836642955, 6.327453871946577e-07, -0.000171603424936726, 0.00012895101980540656, -0.003755343030643453, 0.045481723892133466, 0.0026147926882024294, 0.00016693433251742834, 3.4376010317798107e-06, -1.6922606887923578e-06, -0.003764564836642955, 0.0026147926882024294, 0.22829098635895154, 7.646927838504817e-07, -2.006669182249581e-05, -5.570662012214311e-06, 6.327453871946577e-07, 0.00016693433251742834, 7.646927838504817e-07, 7.893708075574703e-06, -3.010050533471008e-07, 1.995289046493334e-06, -0.000171603424936726, 3.4376010317798107e-06, -2.006669182249581e-05, -3.010050533471008e-07, 8.085646000890957e-06, -1.7219331101548345e-06, 0.00012895101980540656, -1.6922606887923578e-06, -5.570662012214311e-06, 1.995289046493334e-06, -1.7219331101548345e-06, 0.00011591838698078112]",,,,0.607714950879,0.682256289878,0.302926096175,,0.0276469131318,0.0437480926427,0.277738753171,"[0.0004593949649640766, -0.00012887191308971258, 3.6463073223172385e-05, -3.274878856641968e-09, 1.615720402674864e-08, 3.07316174885926e-08, -0.00012887191308971258, 0.0008079440763863502, -8.964517504781606e-05, -1.72993934334115e-08, -9.226614846210156e-09, -3.968054522402281e-08, 3.6463073223172385e-05, -8.964517504781606e-05, 0.00034170032905578323, -1.975344026759113e-09, 2.8149057598975126e-09, 2.034184233703946e-09, -3.274878856641968e-09, -1.72993934334115e-08, -1.975344026759113e-09, 2.2233416962817136e-09, 4.885932777444704e-12, 1.2158092176997865e-11, 1.615720402674864e-08, -9.226614846210156e-09, 2.8149057598975126e-09, 4.885932777444704e-12, 2.199712404940203e-09, 8.015249117826753e-13, 3.07316174885926e-08, -3.968054522402281e-08, 2.034184233703946e-09, 1.2158092176997865e-11, 8.015249117826753e-13, 2.219533411277118e-09]"
1402416313402873199,,231439,,1402416313,341506958,/enu,/base_link,,,,11.2277435018,26.2722674902,-17.9086879579,,-0.0252478266605,-0.0320363093367,0.594343809257,-0.803175982292,"[0.04144939329423186, -0.003747420868778633, -0.0037700096324271896, 5.818865049745464e-07, -0.0001712257563345553, 0.00012886704603631916, -0.003747420868778633, 0.04549068740165558, 0.002609145104184137, 0.00016659260153858746, 3.482834525035359e-06, -1.518883059013136e-06, -0.0037700096324271896, 0.002609145104184137, 0.2283318659949043, 7.68998663778726e-07, -2.0098719130293962e-05, -5.565077242751176e-06, 5.818865049745464e-07, 0.00016659260153858746, 7.68998663778726e-07, 7.933518616244325e-06, -3.010336552110178e-07, 1.995135157866475e-06, -0.0001712257563345553, 3.482834525035359e-06, -2.0098719130293962e-05, -3.010336552110178e-07, 8.125597038488903e-06, -1.7239210627560918e-06, 0.00012886704603631916, -1.518883059013136e-06, -5.565077242751176e-06, 1.995135157866475e-06, -1.7239210627560918e-06, 0.00011594097518453739]",,,,0.614126906519,0.679852522838,0.306368437216,,0.0413424352626,0.0330346572385,0.28182532036,"[0.0004647456427648924, -0.00012865717556114511, 3.717266803679815e-05, -3.362603018658636e-09, 1.6573394151964115e-08, 3.0692651355043005e-08, -0.00012865717556114511, 0.0008165877807970635, -8.985298335261927e-05, -1.7759875542031138e-08, -9.341253316241837e-09, -3.991046684329732e-08, 3.717266803679815e-05, -8.985298335261927e-05, 0.0003422992503902477, -1.9875057302741815e-09, 2.8740608079267268e-09, 2.064957230139768e-09, -3.362603018658636e-09, -1.7759875542031138e-08, -1.9875057302741815e-09, 2.2233415978402273e-09, 4.885931637013028e-12, 1.2158791255586091e-11, 1.6573394151964115e-08, -9.341253316241837e-09, 2.8740608079267268e-09, 4.885931637013028e-12, 2.1997122835347416e-09, 8.014090243149777e-13, 3.0692651355043005e-08, -3.991046684329732e-08, 2.064957230139768e-09, 1.2158791255586091e-11, 8.014090243149777e-13, 2.2195283151464198e-09]"
1402416313402903015,,231440,,1402416313,351480007,/enu,/base_link,,,,11.2158772598,26.2824541255,-17.9536688271,,-0.0245213464151,-0.0307700761865,0.593452699341,-0.803906586381,"[0.041348754865934555, -0.003788337562331551, -0.0037398385333094852, 1.1265781196106744e-06, -0.0001738624431850451, 0.00012900961306088626, -0.003788337562331551, 0.04542782186736245, 0.0026554387656972686, 0.00016772896887445066, 2.3813496373413864e-06, -8.49536492099547e-07, -0.0037398385333094852, 0.0026554387656972686, 0.22814458517179395, 4.2860242433328684e-07, -1.9001967320268675e-05, -5.636083445128992e-06, 1.1265781196106744e-06, 0.00016772896887445066, 4.2860242433328684e-07, 7.792403898821695e-06, -3.353100199554015e-07, 1.953499516894532e-06, -0.0001738624431850451, 2.3813496373413864e-06, -1.9001967320268675e-05, -3.353100199554015e-07, 7.977491646106285e-06, -1.7252086611180082e-06, 0.00012900961306088626, -8.49536492099547e-07, -5.636083445128992e-06, 1.953499516894532e-06, -1.7252086611180082e-06, 0.000115953022157131]",,,,0.574774763578,0.68003070266,0.281592244445,,-0.0292330392716,-0.0145697388364,0.278511646815,"[0.00043166915297355817, -0.0001269295785802025, 3.159764099611455e-05, -2.8991738299388188e-09, 1.5605244932674276e-08, 3.0008949131139806e-08, -0.0001269295785802025, 0.0007604231819032221, -8.656643483529624e-05, -1.6715487067168622e-08, -9.033151589710011e-09, -3.759433788376066e-08, 3.159764099611455e-05, -8.656643483529624e-05, 0.0003370136347633642, -1.92310496978661e-09, 2.4982086240450797e-09, 1.8990319579587948e-09, -2.8991738299388188e-09, -1.6715487067168622e-08, -1.92310496978661e-09, 2.223291488658495e-09, 4.895653062179936e-12, 1.2157547074584408e-11, 1.5605244932674276e-08, -9.033151589710011e-09, 2.4982086240450797e-09, 4.895653062179936e-12, 2.1996543684644324e-09, 7.892645831561222e-13, 3.0008949131139806e-08, -3.759433788376066e-08, 1.8990319579587948e-09, 1.2157547074584408e-11, 7.892645831561222e-13, 2.2195203661871916e-09]"
1402416313402927418,,231441,,1402416313,362498998,/enu,/base_link,,,,11.2250201982,26.2781441714,-17.9508049335,,-0.0246252558572,-0.0307424888287,0.592198472991,-0.804828841892,"[0.041363535763337275, -0.0037800380827387224, -0.0037455420453868637, 1.0675479195615318e-06, -0.00017346490441453978, 0.00012891286947504883, -0.0037800380827387224, 0.04543650947014452, 0.0026493855765783304, 0.00016736548321364815, 2.432642044514364e-06, -6.464416543079078e-07, -0.0037455420453868637, 0.0026493855765783304, 0.22818921650987373, 4.3321311169533677e-07, -1.903528238685758e-05, -5.631010577293859e-06, 1.0675479195615318e-06, 0.00016736548321364815, 4.3321311169533677e-07, 7.840743635750083e-06, -3.35335722946698e-07, 1.953356578930456e-06, -0.00017346490441453978, 2.432642044514364e-06, -1.903528238685758e-05, -3.35335722946698e-07, 8.025969436402768e-06, -1.7271714934252863e-06, 0.00012891286947504883, -6.464416543079078e-07, -5.631010577293859e-06, 1.953356578930456e-06, -1.7271714934252863e-06, 0.00011598423506445653]",,,,0.584299730754,0.679156042364,0.289539930957,,0.00710427384199,0.00796160224277,0.282819111129,"[0.00043737871583805575, -0.00012684003519229447, 3.222864071809924e-05, -2.9926480811503457e-09, 1.6058542871697995e-08, 2.99703032894945e-08, -0.00012684003519229447, 0.0007697279920064014, -8.656472076605301e-05, -1.7218362247459966e-08, -9.160104620562477e-09, -3.7846068712743466e-08, 3.222864071809924e-05, -8.656472076605301e-05, 0.0003376127647823602, -1.9412911847695254e-09, 2.552909206737528e-09, 1.9091503251244467e-09, -2.9926480811503457e-09, -1.7218362247459966e-08, -1.9412911847695254e-09, 2.223291391991444e-09, 4.895650757056131e-12, 1.215823904458591e-11, 1.6058542871697995e-08, -9.160104620562477e-09, 2.552909206737528e-09, 4.895650757056131e-12, 2.19965425011396e-09, 7.891512842947917e-13, 2.99703032894945e-08, -3.7846068712743466e-08, 1.9091503251244467e-09, 1.215823904458591e-11, 7.891512842947917e-13, 2.219515266328905e-09]"
1402416313402951001,,231442,,1402416313,373470067,/enu,/base_link,,,,11.2340684049,26.27395065,-17.9481211014,,-0.0247228369533,-0.0308063783923,0.590956203258,-0.805736007768,"[0.04137804245100308, -0.003771748639210406, -0.003751327620656589, 1.0084324663903458e-06, -0.00017305949785706808, 0.00012881877520157833, -0.003771748639210406, 0.04544487195283576, 0.0026433794089597814, 0.0001669939158258174, 2.4842227475306444e-06, -4.449074117117037e-07, -0.003751327620656589, 0.0026433794089597814, 0.22823365769113463, 4.3751594409844404e-07, -1.9068732307454993e-05, -5.625833348216413e-06, 1.0084324663903458e-06, 0.0001669939158258174, 4.3751594409844404e-07, 7.888657819940245e-06, -3.353616108558467e-07, 1.953214744047895e-06, -0.00017305949785706808, 2.4842227475306444e-06, -1.9068732307454993e-05, -3.353616108558467e-07, 8.07402306514693e-06, -1.729147600837855e-06, 0.00012881877520157833, -4.449074117117037e-07, -5.625833348216413e-06, 1.953214744047895e-06, -1.729147600837855e-06, 0.00011601501166126788]",,,,0.586264354884,0.671869554102,0.293367649863,,-0.00349871204446,0.0207735401907,0.28005791965,"[0.0004432257905148349, -0.00012673960509571735, 3.287742203069426e-05, -3.0881049697537104e-09, 1.6511655091008712e-08, 2.993120549918196e-08, -0.00012673960509571735, 0.0007791952120544786, -8.653184200339424e-05, -1.7721034173986243e-08, -9.289230218521664e-09, -3.8096512313292834e-08, 3.287742203069426e-05, -8.653184200339424e-05, 0.000338197519201859, -1.9615922651270054e-09, 2.608887648426896e-09, 1.9190546247610384e-09, -3.0881049697537104e-09, -1.7721034173986243e-08, -1.9615922651270054e-09, 2.223291294340105e-09, 4.895648396508493e-12, 1.2158934808176708e-11, 1.6511655091008712e-08, -9.289230218521664e-09, 2.608887648426896e-09, 4.895648396508493e-12, 2.1996541305590326e-09, 7.890371525154609e-13, 2.993120549918196e-08, -3.8096512313292834e-08, 1.9190546247610384e-09, 1.2158934808176708e-11, 7.890371525154609e-13, 2.2195101651897e-09]"
1402416313442825509,,231443,,1402416313,383471965,/enu,/base_link,,,,11.2423275563,26.2700948148,-17.9456777707,,-0.0245803088606,-0.0307021401855,0.589818532539,-0.806577513744,"[0.04139101331605698, -0.0037641317488852416, -0.003756647787230409, 9.542254241346878e-07, -0.00017268217775690795, 0.00012872659665754711, -0.0037641317488852416, 0.04545229218669202, 0.002637734385405665, 0.00016664741996425512, 2.5314230697800993e-06, -2.615489463043662e-07, -0.003756647787230409, 0.002637734385405665, 0.22827465897751598, 4.4148928121392416e-07, -1.9099100384925847e-05, -5.6206467782522025e-06, 9.542254241346878e-07, 0.00016664741996425512, 4.4148928121392416e-07, 7.928428926020674e-06, -3.353873136478556e-07, 1.9530778178606396e-06, -0.00017268217775690795, 2.5314230697800993e-06, -1.9099100384925847e-05, -3.353873136478556e-07, 8.113934602554832e-06, -1.731131981954527e-06, 0.00012872659665754711, -2.615489463043662e-07, -5.6206467782522025e-06, 1.9530778178606396e-06, -1.731131981954527e-06, 0.00011603753087565012]",,,,0.584702705682,0.681139986595,0.284301755547,,-0.021722593337,-0.0327936267725,0.282156428497,"[0.0004486948430535545, -0.00012668181506181615, 3.340305247234075e-05, -3.17920933195545e-09, 1.692752357135501e-08, 2.989433230822816e-08, -0.00012668181506181615, 0.0007879933932134361, -8.635294443042853e-05, -1.8180913211342097e-08, -9.410206801597576e-09, -3.8326096641511585e-08, 3.340305247234075e-05, -8.635294443042853e-05, 0.00033862757734983296, -1.9818887562262295e-09, 2.6496704248436895e-09, 1.905016983400812e-09, -3.17920933195545e-09, -1.8180913211342097e-08, -1.9818887562262295e-09, 2.2232911956902294e-09, 4.89564595725104e-12, 1.2159633946721919e-11, 1.692752357135501e-08, -9.410206801597576e-09, 2.6496704248436895e-09, 4.89564595725104e-12, 2.199654009826672e-09, 7.889222078068887e-13, 2.989433230822816e-08, -3.8326096641511585e-08, 1.905016983400812e-09, 1.2159633946721919e-11, 7.889222078068887e-13, 2.2195050635915564e-09]"
1402416313442866836,,231444,,1402416313,393485069,/enu,/base_link,,,,11.1689364342,26.2728839175,-18.048593864,,-0.0247266498289,-0.0264861649734,0.588968852302,-0.807343029245,"[0.04130390055589442, -0.003800280662118162, -0.0037304465241786945, 1.6101125820344193e-06, -0.0001748254869137704, 0.00012883670377865578, -0.003800280662118162, 0.04539474386788764, 0.002682034583472608, 0.00016745660259044148, 1.4201252130375272e-06, 2.3915141138911836e-07, -0.0037304465241786945, 0.002682034583472608, 0.22809048410597613, 1.2542083314549286e-07, -1.808054672622609e-05, -5.679567542579657e-06, 1.6101125820344193e-06, 0.00016745660259044148, 1.2542083314549286e-07, 7.787888718724782e-06, -3.6650325097825555e-07, 1.9154974887245837e-06, -0.0001748254869137704, 1.4201252130375272e-06, -1.808054672622609e-05, -3.6650325097825555e-07, 7.971030094968474e-06, -1.730723824927358e-06, 0.00012883670377865578, 2.3915141138911836e-07, -5.679567542579657e-06, 1.9154974887245837e-06, -1.730723824927358e-06, 0.00011605162595052529]",,,,0.507865682666,0.59426279802,0.263909148999,,0.0460956684925,0.0340242480015,0.286905417557,"[0.0004121373900654764, -0.00011693823684573587, 2.699901323978047e-05, -2.798448145206763e-09, 1.601007440472917e-08, 2.5122097294875336e-08, -0.00011693823684573587, 0.0007293141439774747, -8.645910849448542e-05, -1.7263722255665218e-08, -9.063518947179462e-09, -3.2780452961680125e-08, 2.699901323978047e-05, -8.645910849448542e-05, 0.00033334156929715067, -1.4801836171524863e-09, 2.081632097995339e-09, 1.5488840115011173e-09, -2.798448145206763e-09, -1.7263722255665218e-08, -1.4801836171524863e-09, 2.2232417848779105e-09, 4.9045385525526406e-12, 1.2157748751659716e-11, 1.601007440472917e-08, -9.063518947179462e-09, 2.081632097995339e-09, 4.9045385525526406e-12, 2.1995952992851082e-09, 7.779066908565931e-13, 2.5122097294875336e-08, -3.2780452961680125e-08, 1.5488840115011173e-09, 1.2157748751659716e-11, 7.779066908565931e-13, 2.219497537939655e-09]"
1402416313442903633,,231445,,1402416313,404455900,/enu,/base_link,,,,11.1769498983,26.2692727449,-18.0460493134,,-0.024946825471,-0.0264759820614,0.587714181382,-0.808250406294,"[0.04131657262114742, -0.0037923655252795887, -0.0037359880289240493, 1.5483582282305244e-06, -0.00017442748486902243, 0.00012874273120171812, -0.0037923655252795887, 0.04540186277625057, 0.002676103239331513, 0.00016708775776919132, 1.4732970822232266e-06, 4.42884381259846e-07, -0.0037359880289240493, 0.002676103239331513, 0.22813455178451728, 1.2880258589403626e-07, -1.8111817632880682e-05, -5.674893977870733e-06, 1.5483582282305244e-06, 0.00016708775776919132, 1.2880258589403626e-07, 7.835804841153891e-06, -3.6652633906643136e-07, 1.9153664234014904e-06, -0.00017442748486902243, 1.4732970822232266e-06, -1.8111817632880682e-05, -3.6652633906643136e-07, 8.019084034587303e-06, -1.732683049678369e-06, 0.00012874273120171812, 4.42884381259846e-07, -5.674893977870733e-06, 1.9153664234014904e-06, -1.732683049678369e-06, 0.0001160823801457068]",,,,0.50848970105,0.600738687012,0.256269897479,,0.0234538765864,0.0237526039182,0.282818852793,"[0.0004179698644956066, -0.00011686396872013778, 2.756334838613996e-05, -2.8943802757756172e-09, 1.6459957916638365e-08, 2.5093546582315137e-08, -0.00011686396872013778, 0.0007385682989240191, -8.66186836930473e-05, -1.776594555306249e-08, -9.194768113543725e-09, -3.301549621444334e-08, 2.756334838613996e-05, -8.66186836930473e-05, 0.0003339444981353953, -1.4905426718521103e-09, 2.1358209665076796e-09, 1.568719001821925e-09, -2.8943802757756172e-09, -1.776594555306249e-08, -1.4905426718521103e-09, 2.2232416879396798e-09, 4.904535110685962e-12, 1.2158441800168375e-11, 1.6459957916638365e-08, -9.194768113543725e-09, 2.1358209665076796e-09, 4.904535110685962e-12, 2.1995951816217093e-09, 7.777940167463169e-13, 2.5093546582315137e-08, -3.301549621444334e-08, 1.568719001821925e-09, 1.2158441800168375e-11, 7.777940167463169e-13, 2.2194924314535367e-09]"
1402416313451097697,,231446,,1402416313,414472103,/enu,/base_link,,,,11.1843282799,26.266256914,-18.0440821371,,-0.0248980165264,-0.026496163259,0.586552315303,-0.809094817384,"[0.041327902284361395, -0.0037850472903863475, -0.003741125415401486, 1.4916927128251453e-06, -0.00017405640147592026, 0.00012865084790129392, -0.0037850472903863475, 0.045408129793889127, 0.002670670001238567, 0.0001667432250038275, 1.5222002946027821e-06, 6.316630541787869e-07, -0.003741125415401486, 0.002670670001238567, 0.2281749690980561, 1.3192237015479477e-07, -1.8140914673700414e-05, -5.669784945846975e-06, 1.4916927128251453e-06, 0.0001667432250038275, 1.3192237015479477e-07, 7.875694741922333e-06, -3.6654920651438483e-07, 1.9152405882042723e-06, -0.00017405640147592026, 1.5222002946027821e-06, -1.8140914673700414e-05, -3.6654920651438483e-07, 8.059112745825563e-06, -1.7346509746880317e-06, 0.00012865084790129392, 6.316630541787869e-07, -5.669784945846975e-06, 1.9152405882042723e-06, -1.7346509746880317e-06, 0.00011610499522219557]",,,,0.504414386307,0.601023945196,0.25409139332,,-0.0205043332561,-0.00076680151491,0.286021839276,"[0.0004234088583978099, -0.00011680811594007786, 2.801872442858885e-05, -2.985600813656853e-09, 1.687249732668426e-08, 2.506527659046317e-08, -0.00011680811594007786, 0.0007472324032027391, -8.65605987162325e-05, -1.8225678283448148e-08, -9.318431133993503e-09, -3.323182146248004e-08, 2.801872442858885e-05, -8.65605987162325e-05, 0.0003343693682084481, -1.5068931784653906e-09, 2.177475158179572e-09, 1.5661924681714465e-09, -2.985600813656853e-09, -1.8225678283448148e-08, -1.5068931784653906e-09, 2.223241590033447e-09, 4.904531633607732e-12, 1.2159137464814683e-11, 1.687249732668426e-08, -9.318431133993503e-09, 2.177475158179572e-09, 4.904531633607732e-12, 2.1995950628496617e-09, 7.776805304926684e-13, 2.506527659046317e-08, -3.323182146248004e-08, 1.5661924681714465e-09, 1.2159137464814683e-11, 7.776805304926684e-13, 2.2194873244135456e-09]"
1402416313451128619,,231447,,1402416313,425443887,/enu,/base_link,,,,11.1921900606,26.2625438762,-18.0412373248,,-0.0247907271932,-0.0264107983974,0.585276037199,-0.810024598302,"[0.04134006996989472, -0.0037769995118033107, -0.0037468007709734437, 1.4290221299553087e-06, -0.0001736407493201283, 0.00012854215098520764, -0.0037769995118033107, 0.04541470614928856, 0.002664779623396247, 0.00016635729728842636, 1.5760357832641692e-06, 8.377899312617275e-07, -0.0037468007709734437, 0.002664779623396247, 0.22821927613546925, 1.3619658144715828e-07, -1.817253427983366e-05, -5.664932932954253e-06, 1.4290221299553087e-06, 0.00016635729728842636, 1.3619658144715828e-07, 7.923612737726934e-06, -3.6657262842883424e-07, 1.915111247691086e-06, -0.0001736407493201283, 1.5760357832641692e-06, -1.817253427983366e-05, -3.6657262842883424e-07, 8.107171130615377e-06, -1.7366344571593402e-06, 0.00012854215098520764, 8.377899312617275e-07, -5.664932932954253e-06, 1.915111247691086e-06, -1.7366344571593402e-06, 0.00011613574295282533]",,,,0.508530241569,0.60635742422,0.2519425859,,-0.016970005593,-0.0224145651429,0.287126319379,"[0.0004295781154283845, -0.00011675264630803855, 2.8512166575588424e-05, -3.0892611180980162e-09, 1.7326435023986658e-08, 2.5033540019505157e-08, -0.00011675264630803855, 0.0007569444051082574, -8.648597776052925e-05, -1.873118380791935e-08, -9.456932244205475e-09, -3.346973154489996e-08, 2.8512166575588424e-05, -8.648597776052925e-05, 0.0003348702303205805, -1.5237117267800718e-09, 2.2196755699925432e-09, 1.55872802412683e-09, -3.0892611180980162e-09, -1.873118380791935e-08, -1.5237117267800718e-09, 2.2232414912469426e-09, 4.904528074555517e-12, 1.2159836642831793e-11, 1.7326435023986658e-08, -9.456932244205475e-09, 2.2196755699925432e-09, 4.904528074555517e-12, 2.199594942907643e-09, 7.775662455351536e-13, 2.5033540019505157e-08, -3.346973154489996e-08, 1.55872802412683e-09, 1.2159836642831793e-11, 7.775662455351536e-13, 2.219482213302658e-09]"
1402416313490865596,,231448,,1402416313,435446023,/enu,/base_link,,,,11.2138048927,26.2544920758,-17.9861392919,,-0.0245359345557,-0.027430304727,0.584144072511,-0.81081518785,"[0.04126443883975014, -0.0038079763540352883, -0.003723842441537115, 2.1993896059286615e-06, -0.00017532225148590605, 0.00012871014259574734, -0.0038079763540352883, 0.04536113898816225, 0.002707151584572822, 0.00016681003890245988, 4.192782636416534e-07, 1.3596349872909442e-06, -0.003723842441537115, 0.002707151584572822, 0.2280378164739511, -1.6131763528701565e-07, -1.7210931030981222e-05, -5.713124381977073e-06, 2.1993896059286615e-06, 0.00016681003890245988, -1.6131763528701565e-07, 7.776300281287035e-06, -3.968383926963712e-07, 1.877107131985393e-06, -0.00017532225148590605, 4.192782636416534e-07, -1.7210931030981222e-05, -3.968383926963712e-07, 7.961569201149368e-06, -1.7362373917126056e-06, 0.00012871014259574734, 1.3596349872909442e-06, -5.713124381977073e-06, 1.877107131985393e-06, -1.7362373917126056e-06, 0.00011614986876841344]",,,,0.528503215736,0.623931377404,0.267074216946,,0.0157214084594,0.0307110707256,0.285027755085,"[0.000403082393213402, -0.00011845139213599141, 2.5473214843571276e-05, -2.688747152362062e-09, 1.6312939656184393e-08, 2.6507710782090427e-08, -0.00011845139213599141, 0.0007153604326926101, -8.224073822434813e-05, -1.769402971285916e-08, -9.173948256817064e-09, -3.425772129461632e-08, 2.5473214843571276e-05, -8.224073822434813e-05, 0.0003305597116512332, -1.7109540952514907e-09, 2.1172784517518237e-09, 1.6121293776682771e-09, -2.688747152362062e-09, -1.769402971285916e-08, -1.7109540952514907e-09, 2.223190668400549e-09, 4.913184742828535e-12, 1.2157668326925444e-11, 1.6312939656184393e-08, -9.173948256817064e-09, 2.1172784517518237e-09, 4.913184742828535e-12, 2.1995331713257964e-09, 7.664078857153663e-13, 2.6507710782090427e-08, -3.425772129461632e-08, 1.6121293776682771e-09, 1.2157668326925444e-11, 7.664078857153663e-13, 2.2194747121268907e-09]"
1402416313490895918,,231449,,1402416313,446463108,/enu,/base_link,,,,11.2222796453,26.2510881985,-17.9839492207,,-0.0242541433363,-0.0273403143525,0.582888816022,-0.811729555886,"[0.04127516091642273, -0.00380032978287776, -0.0037291954627098225, 2.134610911729984e-06, -0.00017492029672914414, 0.00012859865008949038, -0.00380032978287776, 0.0453669069282344, 0.0027012994039257543, 0.0001664341380882109, 4.745490432761106e-07, 1.574667774455477e-06, -0.0037291954627098225, 0.0027012994039257543, 0.2280818919996812, -1.5762427251087478e-07, -1.7241372157049328e-05, -5.708234118583293e-06, 2.134610911729984e-06, 0.0001664341380882109, -1.5762427251087478e-07, 7.824624716982512e-06, -3.968590819645795e-07, 1.8769929301963435e-06, -0.00017492029672914414, 4.745490432761106e-07, -1.7241372157049328e-05, -3.968590819645795e-07, 8.01003077321494e-06, -1.7381955819148952e-06, 0.00012859865008949038, 1.574667774455477e-06, -5.708234118583293e-06, 1.8769929301963435e-06, -1.7381955819148952e-06, 0.00011618100545878848]",,,,0.52529018393,0.635744760831,0.253060493222,,-0.0421532195265,-0.0417426634377,0.280388951262,"[0.0004090442560931749, -0.00011852530826053513, 2.593436443472504e-05, -2.7885584428957705e-09, 1.676305151197216e-08, 2.6473144499124707e-08, -0.00011852530826053513, 0.0007248926482171026, -8.197937992273522e-05, -1.8197508138046787e-08, -9.31170527374603e-09, -3.449955013610651e-08, 2.593436443472504e-05, -8.197937992273522e-05, 0.0003310141756477929, -1.7335780218137858e-09, 2.154062219948331e-09, 1.5885318059176644e-09, -2.7885584428957705e-09, -1.8197508138046787e-08, -1.7335780218137858e-09, 2.223190571329556e-09, 4.913180302849519e-12, 1.2158360828149406e-11, 1.676305151197216e-08, -9.31170527374603e-09, 2.154062219948331e-09, 4.913180302849519e-12, 2.1995330547684595e-09, 7.662958986931184e-13, 2.6473144499124707e-08, -3.449955013610651e-08, 1.5885318059176644e-09, 1.2158360828149406e-11, 7.662958986931184e-13, 2.2194695993001145e-09]"
1402416313530949365,,231450,,1402416313,456465959,/enu,/base_link,,,,11.2299656364,26.2476361057,-17.9814111949,,-0.0244661560894,-0.0274251923668,0.581740649654,-0.812543588105,"[0.04128471328922713, -0.003793363341980133, -0.0037341740809533792, 2.0756422273381204e-06, -0.00017454672542293077, 0.00012851174329378838, -0.003793363341980133, 0.04537175913029383, 0.002696059682428844, 0.00016608364064370123, 5.251965849842805e-07, 1.7693870506569664e-06, -0.0037341740809533792, 0.002696059682428844, 0.2281218615364481, -1.5563088100634554e-07, -1.726911480794611e-05, -5.703500207312878e-06, 2.0756422273381204e-06, 0.00016608364064370123, -1.5563088100634554e-07, 7.864408648038298e-06, -3.9687947368411795e-07, 1.8768842415402663e-06, -0.00017454672542293077, 5.251965849842805e-07, -1.726911480794611e-05, -3.9687947368411795e-07, 8.049952827470214e-06, -1.7401622000807785e-06, 0.00012851174329378838, 1.7693870506569664e-06, -5.703500207312878e-06, 1.8768842415402663e-06, -1.7401622000807785e-06, 0.000116203481822704]",,,,0.537835504725,0.627947262002,0.271552344491,,0.0143960340036,0.0399886781396,0.281714325945,"[0.00041451620308718273, -0.00011849548714619408, 2.649652028700581e-05, -2.8806863387989616e-09, 1.7171554076158694e-08, 2.643845082330396e-08, -0.00011849548714619408, 0.0007335882537651456, -8.206100502613694e-05, -1.8657385133279026e-08, -9.438416524963651e-09, -3.471888886548504e-08, 2.649652028700581e-05, -8.206100502613694e-05, 0.0003315238198450007, -1.7463067025414964e-09, 2.2064325834396032e-09, 1.6079575471496193e-09, -2.8806863387989616e-09, -1.8657385133279026e-08, -1.7463067025414964e-09, 2.2231904731876396e-09, 4.9131757033814306e-12, 1.2159056220294806e-11, 1.7171554076158694e-08, -9.438416524963651e-09, 2.2064325834396032e-09, 4.9131757033814306e-12, 2.1995329368568527e-09, 7.661830184273194e-13, 2.643845082330396e-08, -3.471888886548504e-08, 1.6079575471496193e-09, 1.2159056220294806e-11, 7.661830184273194e-13, 2.219464483689559e-09]"
1402416313530983055,,231451,,1402416313,467446088,/enu,/base_link,,,,11.2385146866,26.2440766085,-17.9788069134,,-0.0241442251815,-0.0274408619824,0.580473936251,-0.813458090388,"[0.04129493703903707, -0.0037856692369078004, -0.0037396096969154785, 2.010029057237703e-06, -0.00017412777418711323, 0.00012839905067318905, -0.0037856692369078004, 0.0453768993041694, 0.0026902818427441333, 0.00016569101022267295, 5.808384241650888e-07, 1.987324513181506e-06, -0.0037396096969154785, 0.0026902818427441333, 0.22816594244490015, -1.5205362517284711e-07, -1.7299593204228528e-05, -5.698839107172176e-06, 2.010029057237703e-06, 0.00016569101022267295, -1.5205362517284711e-07, 7.912401066876919e-06, -3.9690045068259135e-07, 1.876772102263195e-06, -0.00017412777418711323, 5.808384241650888e-07, -1.7299593204228528e-05, -3.9690045068259135e-07, 8.098084937892985e-06, -1.742144531667042e-06, 0.00012839905067318905, 1.987324513181506e-06, -5.698839107172176e-06, 1.876772102263195e-06, -1.742144531667042e-06, 0.00011623427379397545]",,,,0.53052678046,0.635028732479,0.257212048599,,-0.0596039672314,-0.0303665485539,0.282377014667,"[0.0004207620372074909, -0.00011853603402382237, 2.6967375278126738e-05, -2.986399222020241e-09, 1.762320998994262e-08, 2.6400527533578046e-08, -0.00011853603402382237, 0.0007434949016048758, -8.173162167029286e-05, -1.916277983164753e-08, -9.582029640352242e-09, -3.496172896866937e-08, 2.6967375278126738e-05, -8.173162167029286e-05, 0.0003319523328975341, -1.7732868972849215e-09, 2.2433058270444092e-09, 1.5808603806695335e-09, -2.986399222020241e-09, -1.916277983164753e-08, -1.7732868972849215e-09, 2.223190374174819e-09, 4.913171110816841e-12, 1.2159755026408708e-11, 1.762320998994262e-08, -9.582029640352242e-09, 2.2433058270444092e-09, 4.913171110816841e-12, 2.1995328178855124e-09, 7.660693421703e-13, 2.6400527533578046e-08, -3.496172896866937e-08, 1.5808603806695335e-09, 1.2159755026408708e-11, 7.660693421703e-13, 2.2194593686165363e-09]"
1402416313531004517,,231452,,1402416313,477452039,/enu,/base_link,,,,11.2463174608,26.2408269153,-17.9765982137,,-0.0241647327269,-0.0274974921509,0.579332416551,-0.814268938835,"[0.04130407408888696, -0.003778642796753264, -0.0037446197844034435, 1.9500981490349114e-06, -0.00017373800952541753, 0.00012830436661216612, -0.003778642796753264, 0.04538135778191385, 0.0026850010018692485, 0.00016532473532761282, 6.321945198737089e-07, 2.1786164187451394e-06, -0.0037446197844034435, 0.0026850010018692485, 0.22820606360407727, -1.4986061012616678e-07, -1.732726454953021e-05, -5.694006481474717e-06, 1.9500981490349114e-06, 0.00016532473532761282, -1.4986061012616678e-07, 7.952203226172626e-06, -3.969211475059632e-07, 1.8766653840871766e-06, -0.00017373800952541753, 6.321945198737089e-07, -1.732726454953021e-05, -3.969211475059632e-07, 8.138027795947944e-06, -1.7441353166689544e-06, 0.00012830436661216612, 2.1786164187451394e-06, -5.694006481474717e-06, 1.8766653840871766e-06, -1.7441353166689544e-06, 0.00011625676037858836]",,,,0.538270475317,0.623423890602,0.260830350893,,-0.0133263554827,0.0130394195992,0.279394925998,"[0.00042654476855580515, -0.00011852367274177726, 2.7505792890908937e-05, -3.0840798904078824e-09, 1.80359100395027e-08, 2.6364648874627837e-08, -0.00011852367274177726, 0.0007525727125829287, -8.166742563034317e-05, -1.962623201951724e-08, -9.713963212665161e-09, -3.5181786983879274e-08, 2.7505792890908937e-05, -8.166742563034317e-05, 0.0003324049593467236, -1.7905585629759974e-09, 2.2889509315160424e-09, 1.5834652359054847e-09, -3.0840798904078824e-09, -1.962623201951724e-08, -1.7905585629759974e-09, 2.2231902741803204e-09, 4.913166453064528e-12, 1.2160457660851415e-11, 1.80359100395027e-08, -9.713963212665161e-09, 2.2889509315160424e-09, 4.913166453064528e-12, 2.1995326977476598e-09, 7.659547675594507e-13, 2.6364648874627837e-08, -3.5181786983879274e-08, 1.5834652359054847e-09, 1.2160457660851415e-11, 7.659547675594507e-13, 2.2194542499938287e-09]"
1402416313531055280,,231453,,1402416313,488460063,/enu,/base_link,,,,11.2273242987,26.2259918634,-18.0246481883,,-0.0234953787099,-0.0250713350845,0.57825728699,-0.815130606332,"[0.04123908279304639, -0.0038033412486642914, -0.00372544217383188, 2.8657575045317967e-06, -0.00017492974203033978, 0.0001283875475158674, -0.0038033412486642914, 0.045331263100495574, 0.0027254081529203477, 0.00016533243694668749, -6.218350018599167e-07, 2.5688926131192706e-06, -0.00372544217383188, 0.0027254081529203477, 0.2280306052099088, -4.20814306647295e-07, -1.6370768198420736e-05, -5.732422290081129e-06, 2.8657575045317967e-06, 0.00016533243694668749, -4.20814306647295e-07, 7.796073436850474e-06, -4.2923238896884435e-07, 1.8381473315677733e-06, -0.00017492974203033978, -6.218350018599167e-07, -1.6370768198420736e-05, -4.2923238896884435e-07, 7.987598421595504e-06, -1.7433916263294315e-06, 0.0001283875475158674, 2.5688926131192706e-06, -5.732422290081129e-06, 1.8381473315677733e-06, -1.7433916263294315e-06, 0.00011627989867603448]",,,,0.485138538193,0.601036420751,0.234091072086,,-0.0514291219162,-0.0418551413498,0.282487293457,"[0.00039685840957039527, -0.00011326919919641358, 2.2599001214358043e-05, -2.726937396873928e-09, 1.705267869827795e-08, 2.421362556572055e-08, -0.00011326919919641358, 0.0007056902469903146, -7.980311291133681e-05, -1.868187319380017e-08, -9.39686169929509e-09, -3.207081001405209e-08, 2.2599001214358043e-05, -7.980311291133681e-05, 0.0003276247554329437, -1.5764540124311638e-09, 1.873710027870087e-09, 1.3515892574373342e-09, -2.726937396873928e-09, -1.868187319380017e-08, -1.5764540124311638e-09, 2.2231349737195462e-09, 4.922441841073235e-12, 1.2157737725385967e-11, 1.705267869827795e-08, -9.39686169929509e-09, 1.873710027870087e-09, 4.922441841073235e-12, 2.199464013883044e-09, 7.546727768486578e-13, 2.421362556572055e-08, -3.207081001405209e-08, 1.3515892574373342e-09, 1.2157737725385967e-11, 7.546727768486578e-13, 2.219446844215434e-09]"
1402416313570844592,,231454,,1402416313,498428106,/enu,/base_link,,,,11.2344683092,26.2231578304,-18.0225620928,,-0.0237137790521,-0.0251210608064,0.577080658396,-0.815956189199,"[0.041247047445027996, -0.0037967237647236066, -0.0037302876913571205, 2.804393860112128e-06, -0.00017455536933470956, 0.00012829627646470401, -0.0037967237647236066, 0.045334969636658166, 0.00272022706406793, 0.00016497840272409724, -5.69581645905549e-07, 2.759330275907977e-06, -0.0037302876913571205, 0.00272022706406793, 0.22807032322668236, -4.193732624346816e-07, -1.6396261816078827e-05, -5.72817731150911e-06, 2.804393860112128e-06, 0.00016497840272409724, -4.193732624346816e-07, 7.835581228503968e-06, -4.2925007004099555e-07, 1.8380534217447695e-06, -0.00017455536933470956, -5.69581645905549e-07, -1.6396261816078827e-05, -4.2925007004099555e-07, 8.02724296576197e-06, -1.7453510637676902e-06, 0.00012829627646470401, 2.759330275907977e-06, -5.72817731150911e-06, 1.8380534217447695e-06, -1.7453510637676902e-06, 0.00011630206270798217]",,,,0.495627834782,0.587077568987,0.251437426043,,0.0202514749618,0.0352373943048,0.288782817725,"[0.0004023908717919401, -0.00011324992230063024, 2.3102083151511847e-05, -2.8225996258483697e-09, 1.7456001197588962e-08, 2.417985639898607e-08, -0.00011324992230063024, 0.0007144227032228467, -7.99103146506878e-05, -1.913985954209967e-08, -9.52846918897967e-09, -3.228474214646919e-08, 2.3102083151511847e-05, -7.99103146506878e-05, 0.00032811974190453296, -1.5859802201540042e-09, 1.922753053723776e-09, 1.3702791038340713e-09, -2.8225996258483697e-09, -1.913985954209967e-08, -1.5859802201540042e-09, 2.2231348757952025e-09, 4.922436197589232e-12, 1.2158431888622923e-11, 1.7456001197588962e-08, -9.52846918897967e-09, 1.922753053723776e-09, 4.922436197589232e-12, 2.199463897625898e-09, 7.545608892973746e-13, 2.417985639898607e-08, -3.228474214646919e-08, 1.3702791038340713e-09, 1.2158431888622923e-11, 7.545608892973746e-13, 2.219441722613443e-09]"
1402416313570877685,,231455,,1402416313,509430885,/enu,/base_link,,,,11.2425277844,26.2199447305,-18.020056646,,-0.0233279740091,-0.0251055808579,0.575792356378,-0.81687739458,"[0.041255562716662, -0.0037893336112492545, -0.003735671686808324, 2.7360695461403205e-06, -0.00017413355495040717, 0.00012817445116020397, -0.0037893336112492545, 0.045338865778139406, 0.0027145999217199836, 0.0001645799984843327, -5.115148076485923e-07, 2.9727279562522995e-06, -0.003735671686808324, 0.0027145999217199836, 0.22811399574868005, -4.1621764160853163e-07, -1.642478057733765e-05, -5.723629255019395e-06, 2.7360695461403205e-06, 0.0001645799984843327, -4.1621764160853163e-07, 7.883775247272157e-06, -4.2926837761737973e-07, 1.837955599717172e-06, -0.00017413355495040717, -5.115148076485923e-07, -1.642478057733765e-05, -4.2926837761737973e-07, 8.075575304015528e-06, -1.7473261516625228e-06, 0.00012817445116020397, 2.9727279562522995e-06, -5.723629255019395e-06, 1.837955599717172e-06, -1.7473261516625228e-06, 0.00011633302682158164]",,,,0.485106693969,0.597539982577,0.232589429689,,-0.0653455412917,-0.0410820114575,0.285690282489,"[0.0004087457776655721, -0.00011331864992523226, 2.3503928231843597e-05, -2.9320278267429634e-09, 1.7904779892662364e-08, 2.4143997341610793e-08, -0.00011331864992523226, 0.0007244334150593704, -7.956780507134472e-05, -1.964609024049224e-08, -9.677552726989809e-09, -3.252179578223886e-08, 2.3503928231843597e-05, -7.956780507134472e-05, 0.000328521921309551, -1.6122187015119687e-09, 1.9534369504580005e-09, 1.340434899622541e-09, -2.9320278267429634e-09, -1.964609024049224e-08, -1.6122187015119687e-09, 2.2231347769208265e-09, 4.9224305173502845e-12, 1.2159130079445381e-11, 1.7904779892662364e-08, -9.677552726989809e-09, 1.9534369504580005e-09, 4.9224305173502845e-12, 2.199463780197911e-09, 7.54448134085255e-13, 2.4143997341610793e-08, -3.252179578223886e-08, 1.340434899622541e-09, 1.2159130079445381e-11, 7.54448134085255e-13, 2.2194365990908765e-09]"
1402416313570897087,,231456,,1402416313,519428014,/enu,/base_link,,,,11.2498429888,26.217176324,-18.0181095218,,-0.0233642981049,-0.0251079033392,0.574598123811,-0.817716759567,"[0.04126308167819425, -0.0037826431606227135, -0.003740501976954803, 2.673563029157334e-06, -0.0001737419241853307, 0.00012807151514663499, -0.0037826431606227135, 0.04534214424321139, 0.0027094229798635796, 0.00016420929962612078, -4.58166963861448e-07, 3.162517509305122e-06, -0.003740501976954803, 0.0027094229798635796, 0.2281538517095146, -4.142840673722334e-07, -1.645079470178501e-05, -5.7189296147919365e-06, 2.673563029157334e-06, 0.00016420929962612078, -4.142840673722334e-07, 7.923509002902549e-06, -4.2928633958940826e-07, 1.8378635114020693e-06, -0.0001737419241853307, -4.58166963861448e-07, -1.645079470178501e-05, -4.2928633958940826e-07, 8.115448380831519e-06, -1.7493097792853105e-06, 0.00012807151514663499, 3.162517509305122e-06, -5.7189296147919365e-06, 1.8378635114020693e-06, -1.7493097792853105e-06, 0.00011635541176461038]",,,,0.495981454908,0.592177426294,0.246344859815,,-0.00415748169721,0.00630007619777,0.29187535816,"[0.0004145896781666329, -0.0001132985715236705, 2.398244947846778e-05, -3.0346535237990292e-09, 1.8312581720361038e-08, 2.410727900272332e-08, -0.0001132985715236705, 0.0007335784675740941, -7.954924259367771e-05, -2.0108599729895172e-08, -9.81561322187134e-09, -3.27381995134468e-08, 2.398244947846778e-05, -7.954924259367771e-05, 0.0003289694066108447, -1.625892301278674e-09, 1.995628978117506e-09, 1.3442611691284793e-09, -3.0346535237990292e-09, -2.0108599729895172e-08, -1.625892301278674e-09, 2.2231346769398434e-09, 4.9224247106377235e-12, 1.2159831450066399e-11, 1.8312581720361038e-08, -9.81561322187134e-09, 1.995628978117506e-09, 4.9224247106377235e-12, 2.1994636615970007e-09, 7.543344286740534e-13, 2.410727900272332e-08, -3.27381995134468e-08, 1.3442611691284793e-09, 1.2159831450066399e-11, 7.543344286740534e-13, 2.2194314724429503e-09]"
1402416313570966544,,231457,,1402416313,530405998,/enu,/base_link,,,,11.2578960898,26.2139577989,-18.0157299635,,-0.0232116929014,-0.0251594574562,0.573317191847,-0.818618113986,"[0.04127105043556944, -0.0037752244009646692, -0.0037459583075908753, 2.6044091438990224e-06, -0.00017330253314716266, 0.00012795097789794013, -0.0037752244009646692, 0.04534550187118031, 0.0027037106143150006, 0.00016379369489354762, -3.9919486655885925e-07, 3.3722279357650223e-06, -0.0037459583075908753, 0.0027037106143150006, 0.22819796076666962, -4.1148774627761935e-07, -1.6479387822423338e-05, -5.714349011998986e-06, 2.6044091438990224e-06, 0.00016379369489354762, -4.1148774627761935e-07, 7.971478236800918e-06, -4.293049035365813e-07, 1.8377677971349416e-06, -0.00017330253314716266, -3.9919486655885925e-07, -1.6479387822423338e-05, -4.293049035365813e-07, 8.163558493278013e-06, -1.751308887526642e-06, 0.00012795097789794013, 3.3722279357650223e-06, -5.714349011998986e-06, 1.8377677971349416e-06, -1.751308887526642e-06, 0.00011638613990744237]",,,,0.493755223042,0.590024021323,0.237474582763,,-0.0377336019787,-0.00662231419265,0.284033568654,"[0.00042123374454097165, -0.00011331388722010765, 2.4474310981277594e-05, -3.149047335034871e-09, 1.8763299786336618e-08, 2.4068961211991895e-08, -0.00011331388722010765, 0.0007438885901020312, -7.936110437305726e-05, -2.0618184055527035e-08, -9.969187266345315e-09, -3.29747491114805e-08, 2.4474310981277594e-05, -7.936110437305726e-05, 0.0003294375900868251, -1.6478739850188871e-09, 2.0358698620216647e-09, 1.3330679447579923e-09, -3.149047335034871e-09, -2.0618184055527035e-08, -1.6478739850188871e-09, 2.223134576076921e-09, 4.9224188853874535e-12, 1.2160535923622907e-11, 1.8763299786336618e-08, -9.969187266345315e-09, 2.0358698620216647e-09, 4.9224188853874535e-12, 2.1994635419207463e-09, 7.542198783261808e-13, 2.4068961211991895e-08, -3.29747491114805e-08, 1.3330679447579923e-09, 1.2160535923622907e-11, 7.542198783261808e-13, 2.2194263457624535e-09]"
1402416313571017171,,231458,,1402416313,540401935,/enu,/base_link,,,,11.2275735721,26.1811109981,-18.0895558317,,-0.0232288347397,-0.0207319838163,0.572367440244,-0.819405955209,"[0.041211308192287854, -0.0037955835386119163, -0.003728801534168466, 3.638806617359506e-06, -0.00017411681483032914, 0.00012805530809094316, -0.0037955835386119163, 0.04529588181833864, 0.0027433990591272917, 0.0001634720033678684, -1.7240662799674157e-06, 3.6375412401185914e-06, -0.003728801534168466, 0.0027433990591272917, 0.22802015966323638, -6.618556208331854e-07, -1.5539689999540033e-05, -5.763907910098326e-06, 3.638806617359506e-06, 0.0001634720033678684, -6.618556208331854e-07, 7.79408417909472e-06, -4.62270094293918e-07, 1.7954782678155805e-06, -0.00017411681483032914, -1.7240662799674157e-06, -1.5539689999540033e-05, -4.62270094293918e-07, 7.99505460915951e-06, -1.748070182217036e-06, 0.00012805530809094316, 3.6375412401185914e-06, -5.763907910098326e-06, 1.7954782678155805e-06, -1.748070182217036e-06, 0.00011639935955131073]",,,,0.413584336571,0.504737809427,0.219891396547,,-0.0111119816887,0.0167893262468,0.286463267176,"[0.00038863679837746265, -0.0001044179132810344, 1.8906981712447864e-05, -2.801009622972839e-09, 1.768209331425986e-08, 1.9332745065081618e-08, -0.0001044179132810344, 0.0006936714942648826, -7.994427189226687e-05, -1.962033058458301e-08, -9.60627114675672e-09, -2.770458416367267e-08, 1.8906981712447864e-05, -7.994427189226687e-05, 0.0003247778649737174, -1.1383462873377094e-09, 1.492891275219541e-09, 1.0160992406068041e-09, -2.801009622972839e-09, -1.962033058458301e-08, -1.1383462873377094e-09, 2.223075870018942e-09, 4.931840580908704e-12, 1.215670068366758e-11, 1.768209331425986e-08, -9.60627114675672e-09, 1.492891275219541e-09, 4.931840580908704e-12, 2.199389693536878e-09, 7.418505069089083e-13, 1.9332745065081618e-08, -2.770458416367267e-08, 1.0160992406068041e-09, 1.215670068366758e-11, 7.418505069089083e-13, 2.2194185131644836e-09]"
1402416313610827177,,231459,,1402416313,551403999,/enu,/base_link,,,,11.2345076159,26.1787255719,-18.0876075478,,-0.0227562647255,-0.0206959984123,0.571088975041,-0.820311654587,"[0.04121823665601808, -0.003788586660582717, -0.003734054277828414, 3.5677872025159586e-06, -0.0001736929939126311, 0.00012792372197764336, -0.003788586660582717, 0.04529861290193769, 0.0027378015611887858, 0.00016306933743513775, -1.6636646203605934e-06, 3.841026830062451e-06, -0.003734054277828414, 0.0027378015611887858, 0.2280637927038449, -6.589790425361972e-07, -1.5565801708895452e-05, -5.759731945684833e-06, 3.5677872025159586e-06, 0.00016306933743513775, -6.589790425361972e-07, 7.84227493249258e-06, -4.622855746987551e-07, 1.79539320731866e-06, -0.0001736929939126311, -1.6636646203605934e-06, -1.5565801708895452e-05, -4.622855746987551e-07, 8.043381739981438e-06, -1.7500346098860052e-06, 0.00012792372197764336, 3.841026830062451e-06, -5.759731945684833e-06, 1.79539320731866e-06, -1.7500346098860052e-06, 0.00011643028657087335]",,,,0.4056190894,0.514870961822,0.203784256345,,-0.0751716844325,-0.0522405270338,0.282597598317,"[0.00039510754688009385, -0.00010451235644598736, 1.919315745009273e-05, -2.9123940747820464e-09, 1.8126836326004017e-08, 1.93069501832376e-08, -0.00010451235644598736, 0.0007037204531489664, -7.963117397145195e-05, -2.0126043382445922e-08, -9.758829471143419e-09, -2.7924719298442272e-08, 1.919315745009273e-05, -7.963117397145195e-05, 0.0003251346542513588, -1.1619943928125658e-09, 1.5146929366594467e-09, 9.866320992098584e-10, -2.9123940747820464e-09, -2.0126043382445922e-08, -1.1619943928125658e-09, 2.223075771453506e-09, 4.9318337967468535e-12, 1.2157396537912823e-11, 1.8126836326004017e-08, -9.758829471143419e-09, 1.5146929366594467e-09, 4.9318337967468535e-12, 2.1993895782713e-09, 7.41739118520258e-13, 1.93069501832376e-08, -2.7924719298442272e-08, 9.866320992098584e-10, 1.2157396537912823e-11, 7.41739118520258e-13, 2.2194133820786756e-09]"
