rosbagTimestamp,transforms,-,header,seq,stamp,secs,nsecs,frame_id,child_frame_id,transform,translation,x,y,z,rotation,x,y,z,w
1402416313257687625,,errorv,,0,,1402416313,257517679,base_link,/z_drive,,,0.0,0.0,0.0,,0.0,0.0,0.0,1.0
1402416313257812023,,errorv,,0,,1402416313,257544313,/z_drive,port,,,-0.3,0.3048,0.0,,0.0,0.0,0.0,1.0
1402416313257849925,,errorv,,0,,1402416313,257583963,/z_drive,starboard,,,-0.3,-0.3048,0.0,,0.0,0.0,0.0,1.0
1402416313277727095,,errorv,,0,,1402416313,277530656,base_link,/z_drive,,,0.0,0.0,0.0,,0.0,0.0,0.0,1.0
1402416313277759842,,errorv,,0,,1402416313,277573472,/z_drive,port,,,-0.3,0.3048,0.0,,0.0,0.0,0.0,1.0
1402416313277787547,,errorv,,0,,1402416313,277583387,/z_drive,starboard,,,-0.3,-0.3048,0.0,,0.0,0.0,0.0,1.0
1402416313283089480,,errorv,,0,,1402416313,205547094,/enu,/base_link,,,10.8127159871,26.5426807004,-18.3507347255,,0.0210427661709,0.0159053217957,-0.61069634081,0.791425424188
1402416313283217003,,errorv,,0,,1402416313,216552972,/enu,/base_link,,,10.8178888999,26.5419667695,-18.3487408356,,0.0212253762222,0.0159710581356,-0.609491834104,0.792347217366
1402416313283242166,,errorv,,0,,1402416313,226552009,/enu,/base_link,,,10.8229427562,26.5413880918,-18.3469080536,,0.021057907885,0.0159450687173,-0.60840041729,0.793190551847
1402416313283267313,,errorv,,0,,1402416313,237683057,/enu,/base_link,,,10.8283086729,26.5406709315,-18.3449340656,,0.0214362621141,0.0159887158059,-0.607178777194,0.794115092514
1402416313297734477,,errorv,,0,,1402416313,297524208,base_link,/z_drive,,,0.0,0.0,0.0,,0.0,0.0,0.0,1.0
1402416313297770508,,errorv,,0,,1402416313,297544151,/z_drive,port,,,-0.3,0.3048,0.0,,0.0,0.0,0.0,1.0
1402416313297793673,,errorv,,0,,1402416313,297556234,/z_drive,starboard,,,-0.3,-0.3048,0.0,,0.0,0.0,0.0,1.0
1402416313316719851,,errorv,,0,,1402416313,416518731,/base_link,/gps,,,-0.84,0.0,-0.14,,0.0,0.0,0.0,1.0
1402416313316919461,,errorv,,0,,1402416313,416741778,base_link,imu,,,0.13,0.0,-0.1,,1.0,0.0,0.0,0.0
1402416313317697948,,errorv,,0,,1402416313,317503107,base_link,/z_drive,,,0.0,0.0,0.0,,0.0,0.0,0.0,1.0
1402416313317724985,,errorv,,0,,1402416313,317519548,/z_drive,port,,,-0.3,0.3048,0.0,,0.0,0.0,0.0,1.0
1402416313317747357,,errorv,,0,,1402416313,317524222,/z_drive,starboard,,,-0.3,-0.3048,0.0,,0.0,0.0,0.0,1.0
1402416313323031577,,errorv,,0,,1402416313,247535943,/enu,/base_link,,,10.8330040446,26.540247412,-18.3434330875,,0.0212813657888,0.0160168986319,-0.606101895398,0.794940912788
1402416313323444280,,errorv,,0,,1402416313,257538080,/enu,/base_link,,,10.8379007012,26.5397536653,-18.3417572329,,0.0214832364263,0.0159826666855,-0.605009992573,0.795767512409
1402416313323467334,,errorv,,0,,1402416313,268527030,/enu,/base_link,,,10.8433041504,26.5392033224,-18.3399438957,,0.0214068177669,0.0159274095912,-0.60381730956,0.796676046115
1402416313323489644,,errorv,,0,,1402416313,279537916,/enu,/base_link,,,11.0490236335,26.3646648652,-18.0730488492,,0.023730321258,0.0253388875357,-0.601879939965,0.797831655488
1402416313337651584,,errorv,,0,,1402416313,337474253,base_link,/z_drive,,,0.0,0.0,0.0,,0.0,0.0,0.0,1.0
1402416313337681272,,errorv,,0,,1402416313,337494849,/z_drive,port,,,-0.3,0.3048,0.0,,0.0,0.0,0.0,1.0
1402416313337704674,,errorv,,0,,1402416313,337501929,/z_drive,starboard,,,-0.3,-0.3048,0.0,,0.0,0.0,0.0,1.0
1402416313357697655,,errorv,,0,,1402416313,357453550,base_link,/z_drive,,,0.0,0.0,0.0,,0.0,0.0,0.0,1.0
1402416313357725607,,errorv,,0,,1402416313,357530395,/z_drive,port,,,-0.3,0.3048,0.0,,0.0,0.0,0.0,1.0
1402416313357764753,,errorv,,0,,1402416313,357540149,/z_drive,starboard,,,-0.3,-0.3048,0.0,,0.0,0.0,0.0,1.0
1402416313363150230,,errorv,,0,,1402416313,289527893,/enu,/base_link,,,11.0557499976,26.3619328726,-18.070810652,,0.0235646423985,0.0253192260617,-0.600793113672,0.798655920272
1402416313363178353,,errorv,,0,,1402416313,299540042,/enu,/base_link,,,11.0624360227,26.3590872618,-18.0684328561,,0.0238489435015,0.0252848784974,-0.599693341257,0.799474702079
1402416313363202691,,errorv,,0,,1402416313,310525894,/enu,/base_link,,,11.0702008549,26.3561918453,-18.0662658835,,0.0238267492388,0.0253522915327,-0.598459848044,0.800397000003
1402416313363227084,,errorv,,0,,1402416313,320501089,/enu,/base_link,,,11.2102420973,26.2811426291,-17.9142272124,,0.0246269213182,0.0320006709988,-0.596699641402,0.801448070528
1402416313377675579,,errorv,,0,,1402416313,377495563,base_link,/z_drive,,,0.0,0.0,0.0,,0.0,0.0,0.0,1.0
1402416313377792065,,errorv,,0,,1402416313,377514715,/z_drive,port,,,-0.3,0.3048,0.0,,0.0,0.0,0.0,1.0
1402416313377835251,,errorv,,0,,1402416313,377551846,/z_drive,starboard,,,-0.3,-0.3048,0.0,,0.0,0.0,0.0,1.0
1402416313397737995,,errorv,,0,,1402416313,397518962,base_link,/z_drive,,,0.0,0.0,0.0,,0.0,0.0,0.0,1.0
1402416313397768152,,errorv,,0,,1402416313,397544252,/z_drive,port,,,-0.3,0.3048,0.0,,0.0,0.0,0.0,1.0
1402416313397792169,,errorv,,0,,1402416313,397551470,/z_drive,starboard,,,-0.3,-0.3048,0.0,,0.0,0.0,0.0,1.0
1402416313403223115,,errorv,,0,,1402416313,331500053,/enu,/base_link,,,11.2193570924,26.2765739933,-17.9114518679,,0.0249396834688,0.0320636435302,-0.595473073235,0.802347651585
1402416313403281267,,errorv,,0,,1402416313,341506958,/enu,/base_link,,,11.2277435018,26.2722674902,-17.9086879579,,0.0252478266605,0.0320363093367,-0.594343809257,0.803175982292
1402416313403301714,,errorv,,0,,1402416313,351480007,/enu,/base_link,,,11.2158772598,26.2824541255,-17.9536688271,,0.0245213464151,0.0307700761865,-0.593452699341,0.803906586381
1402416313403330506,,errorv,,0,,1402416313,362498998,/enu,/base_link,,,11.2250201982,26.2781441714,-17.9508049335,,0.0246252558572,0.0307424888287,-0.592198472991,0.804828841892
1402416313403408274,,errorv,,0,,1402416313,373470067,/enu,/base_link,,,11.2340684049,26.27395065,-17.9481211014,,0.0247228369533,0.0308063783923,-0.590956203258,0.805736007768
1402416313416852439,,errorv,,0,,1402416313,516628909,/base_link,/gps,,,-0.84,0.0,-0.14,,0.0,0.0,0.0,1.0
1402416313417053381,,errorv,,0,,1402416313,516844122,base_link,imu,,,0.13,0.0,-0.1,,1.0,0.0,0.0,0.0
1402416313417889229,,errorv,,0,,1402416313,417726075,base_link,/z_drive,,,0.0,0.0,0.0,,0.0,0.0,0.0,1.0
1402416313417919983,,errorv,,0,,1402416313,417746840,/z_drive,port,,,-0.3,0.3048,0.0,,0.0,0.0,0.0,1.0
1402416313417944365,,errorv,,0,,1402416313,417756963,/z_drive,starboard,,,-0.3,-0.3048,0.0,,0.0,0.0,0.0,1.0
1402416313437885680,,errorv,,0,,1402416313,437519037,base_link,/z_drive,,,0.0,0.0,0.0,,0.0,0.0,0.0,1.0
1402416313437912771,,errorv,,0,,1402416313,437540839,/z_drive,port,,,-0.3,0.3048,0.0,,0.0,0.0,0.0,1.0
1402416313437936094,,errorv,,0,,1402416313,437548914,/z_drive,starboard,,,-0.3,-0.3048,0.0,,0.0,0.0,0.0,1.0
1402416313443104691,,errorv,,0,,1402416313,383471965,/enu,/base_link,,,11.2423275563,26.2700948148,-17.9456777707,,0.0245803088606,0.0307021401855,-0.589818532539,0.806577513744
1402416313443131514,,errorv,,0,,1402416313,393485069,/enu,/base_link,,,11.1689364342,26.2728839175,-18.048593864,,0.0247266498289,0.0264861649734,-0.588968852302,0.807343029245
1402416313443156522,,errorv,,0,,1402416313,404455900,/enu,/base_link,,,11.1769498983,26.2692727449,-18.0460493134,,0.024946825471,0.0264759820614,-0.587714181382,0.808250406294
1402416313451298554,,errorv,,0,,1402416313,414472103,/enu,/base_link,,,11.1843282799,26.266256914,-18.0440821371,,0.0248980165264,0.026496163259,-0.586552315303,0.809094817384
1402416313451318274,,errorv,,0,,1402416313,425443887,/enu,/base_link,,,11.1921900606,26.2625438762,-18.0412373248,,0.0247907271932,0.0264107983974,-0.585276037199,0.810024598302
1402416313457652551,,errorv,,0,,1402416313,457478583,base_link,/z_drive,,,0.0,0.0,0.0,,0.0,0.0,0.0,1.0
1402416313457782965,,errorv,,0,,1402416313,457502404,/z_drive,port,,,-0.3,0.3048,0.0,,0.0,0.0,0.0,1.0
1402416313457811007,,errorv,,0,,1402416313,457541884,/z_drive,starboard,,,-0.3,-0.3048,0.0,,0.0,0.0,0.0,1.0
1402416313477689276,,errorv,,0,,1402416313,477431696,base_link,/z_drive,,,0.0,0.0,0.0,,0.0,0.0,0.0,1.0
1402416313477726718,,errorv,,0,,1402416313,477443390,/z_drive,port,,,-0.3,0.3048,0.0,,0.0,0.0,0.0,1.0
1402416313477752585,,errorv,,0,,1402416313,477447269,/z_drive,starboard,,,-0.3,-0.3048,0.0,,0.0,0.0,0.0,1.0
1402416313491083055,,errorv,,0,,1402416313,435446023,/enu,/base_link,,,11.2138048927,26.2544920758,-17.9861392919,,0.0245359345557,0.027430304727,-0.584144072511,0.81081518785
1402416313491109013,,errorv,,0,,1402416313,446463108,/enu,/base_link,,,11.2222796453,26.2510881985,-17.9839492207,,0.0242541433363,0.0273403143525,-0.582888816022,0.811729555886
1402416313497820638,,errorv,,0,,1402416313,497524763,base_link,/z_drive,,,0.0,0.0,0.0,,0.0,0.0,0.0,1.0
1402416313497859385,,errorv,,0,,1402416313,497544502,/z_drive,port,,,-0.3,0.3048,0.0,,0.0,0.0,0.0,1.0
1402416313497876774,,errorv,,0,,1402416313,497548831,/z_drive,starboard,,,-0.3,-0.3048,0.0,,0.0,0.0,0.0,1.0
1402416313516979387,,errorv,,0,,1402416313,616739629,/base_link,/gps,,,-0.84,0.0,-0.14,,0.0,0.0,0.0,1.0
1402416313517153277,,errorv,,0,,1402416313,616949103,base_link,imu,,,0.13,0.0,-0.1,,1.0,0.0,0.0,0.0
1402416313517779554,,errorv,,0,,1402416313,517487519,base_link,/z_drive,,,0.0,0.0,0.0,,0.0,0.0,0.0,1.0
1402416313517804148,,errorv,,0,,1402416313,517508896,/z_drive,port,,,-0.3,0.3048,0.0,,0.0,0.0,0.0,1.0
1402416313517831969,,errorv,,0,,1402416313,517513547,/z_drive,starboard,,,-0.3,-0.3048,0.0,,0.0,0.0,0.0,1.0
1402416313531319065,,errorv,,0,,1402416313,456465959,/enu,/base_link,,,11.2299656364,26.2476361057,-17.9814111949,,0.0244661560894,0.0274251923668,-0.581740649654,0.812543588105
1402416313531344574,,errorv,,0,,1402416313,467446088,/enu,/base_link,,,11.2385146866,26.2440766085,-17.9788069134,,0.0241442251815,0.0274408619824,-0.580473936251,0.813458090388
1402416313531406070,,errorv,,0,,1402416313,477452039,/enu,/base_link,,,11.2463174608,26.2408269153,-17.9765982137,,0.0241647327269,0.0274974921509,-0.579332416551,0.814268938835
1402416313531479814,,errorv,,0,,1402416313,488460063,/enu,/base_link,,,11.2273242987,26.2259918634,-18.0246481883,,0.0234953787099,0.0250713350845,-0.57825728699,0.815130606332
1402416313537755391,,errorv,,0,,1402416313,537501566,base_link,/z_drive,,,0.0,0.0,0.0,,0.0,0.0,0.0,1.0
1402416313537830157,,errorv,,0,,1402416313,537526391,/z_drive,port,,,-0.3,0.3048,0.0,,0.0,0.0,0.0,1.0
1402416313537858007,,errorv,,0,,1402416313,537530859,/z_drive,starboard,,,-0.3,-0.3048,0.0,,0.0,0.0,0.0,1.0
1402416313557659434,,errorv,,0,,1402416313,557445574,base_link,/z_drive,,,0.0,0.0,0.0,,0.0,0.0,0.0,1.0
1402416313557735852,,errorv,,0,,1402416313,557499935,/z_drive,port,,,-0.3,0.3048,0.0,,0.0,0.0,0.0,1.0
1402416313557870817,,errorv,,0,,1402416313,557517876,/z_drive,starboard,,,-0.3,-0.3048,0.0,,0.0,0.0,0.0,1.0
1402416313571118011,,errorv,,0,,1402416313,498428106,/enu,/base_link,,,11.2344683092,26.2231578304,-18.0225620928,,0.0237137790521,0.0251210608064,-0.577080658396,0.815956189199
1402416313571146768,,errorv,,0,,1402416313,509430885,/enu,/base_link,,,11.2425277844,26.2199447305,-18.020056646,,0.0233279740091,0.0251055808579,-0.575792356378,0.81687739458
1402416313571212665,,errorv,,0,,1402416313,519428014,/enu,/base_link,,,11.2498429888,26.217176324,-18.0181095218,,0.0233642981049,0.0251079033392,-0.574598123811,0.817716759567
1402416313571233316,,errorv,,0,,1402416313,530405998,/enu,/base_link,,,11.2578960898,26.2139577989,-18.0157299635,,0.0232116929014,0.0251594574562,-0.573317191847,0.818618113986
1402416313571251492,,errorv,,0,,1402416313,540401935,/enu,/base_link,,,11.2275735721,26.1811109981,-18.0895558317,,0.0232288347397,0.0207319838163,-0.572367440244,0.819405955209
1402416313577727920,,errorv,,0,,1402416313,577507695,base_link,/z_drive,,,0.0,0.0,0.0,,0.0,0.0,0.0,1.0
1402416313577757565,,errorv,,0,,1402416313,577526874,/z_drive,port,,,-0.3,0.3048,0.0,,0.0,0.0,0.0,1.0
1402416313577809231,,errorv,,0,,1402416313,577531126,/z_drive,starboard,,,-0.3,-0.3048,0.0,,0.0,0.0,0.0,1.0
1402416313597676429,,errorv,,0,,1402416313,597447995,base_link,/z_drive,,,0.0,0.0,0.0,,0.0,0.0,0.0,1.0
1402416313597745212,,errorv,,0,,1402416313,597494308,/z_drive,port,,,-0.3,0.3048,0.0,,0.0,0.0,0.0,1.0
1402416313597760977,,errorv,,0,,1402416313,597551154,/z_drive,starboard,,,-0.3,-0.3048,0.0,,0.0,0.0,0.0,1.0
1402416313611076776,,errorv,,0,,1402416313,551403999,/enu,/base_link,,,11.2345076159,26.1787255719,-18.0876075478,,0.0227562647255,0.0206959984123,-0.571088975041,0.820311654587
1402416313614784049,,errorv,,0,,1402416313,561403989,/enu,/base_link,,,11.2406677382,26.1763916485,-18.0857084671,,0.0228584936124,0.0206732184902,-0.569902074626,0.821134418134
1402416313614812828,,errorv,,0,,1402416313,572402000,/enu,/base_link,,,11.2475640819,26.1737575483,-18.0832297102,,0.0225931067702,0.0207289151569,-0.568629365429,0.82202220674
1402416313617060269,,errorv,,0,,1402416313,716846539,/base_link,/gps,,,-0.84,0.0,-0.14,,0.0,0.0,0.0,1.0
1402416313617246161,,errorv,,0,,1402416313,717057600,base_link,imu,,,0.13,0.0,-0.1,,1.0,0.0,0.0,0.0
1402416313617641523,,errorv,,0,,1402416313,617480935,base_link,/z_drive,,,0.0,0.0,0.0,,0.0,0.0,0.0,1.0
1402416313617727977,,errorv,,0,,1402416313,617497836,/z_drive,port,,,-0.3,0.3048,0.0,,0.0,0.0,0.0,1.0
1402416313617791262,,errorv,,0,,1402416313,617535096,/z_drive,starboard,,,-0.3,-0.3048,0.0,,0.0,0.0,0.0,1.0
1402416313619322282,,errorv,,0,,1402416313,582403898,/enu,/base_link,,,11.213987716,26.1485304078,-18.2331230119,,0.0237165435853,0.0170227962459,-0.567337049853,0.822968056387
1402416313619348590,,errorv,,0,,1402416313,593406915,/enu,/base_link,,,11.2197759564,26.146181681,-18.2312582009,,0.0236930649994,0.017134902246,-0.565999332414,0.823887000446
1402416313637651092,,errorv,,0,,1402416313,637447558,base_link,/z_drive,,,0.0,0.0,0.0,,0.0,0.0,0.0,1.0
1402416313637730628,,errorv,,0,,1402416313,637464823,/z_drive,port,,,-0.3,0.3048,0.0,,0.0,0.0,0.0,1.0
1402416313637808835,,errorv,,0,,1402416313,637493565,/z_drive,starboard,,,-0.3,-0.3048,0.0,,0.0,0.0,0.0,1.0
1402416313657776642,,errorv,,0,,1402416313,657588737,base_link,/z_drive,,,0.0,0.0,0.0,,0.0,0.0,0.0,1.0
1402416313657803104,,errorv,,0,,1402416313,657606048,/z_drive,port,,,-0.3,0.3048,0.0,,0.0,0.0,0.0,1.0
1402416313657867133,,errorv,,0,,1402416313,657612145,/z_drive,starboard,,,-0.3,-0.3048,0.0,,0.0,0.0,0.0,1.0
1402416313659073258,,errorv,,0,,1402416313,603406906,/enu,/base_link,,,11.2247052768,26.1439198577,-18.2293830395,,0.0237843813723,0.0171690146603,-0.564815016261,0.824696020085
1402416313659101539,,errorv,,0,,1402416313,613403081,/enu,/base_link,,,11.2300295013,26.1420496798,-18.2280403324,,0.0233901732404,0.0171649410429,-0.563628800938,0.825518527562
1402416313677731266,,errorv,,0,,1402416313,677477449,base_link,/z_drive,,,0.0,0.0,0.0,,0.0,0.0,0.0,1.0
1402416313677759950,,errorv,,0,,1402416313,677503501,/z_drive,port,,,-0.3,0.3048,0.0,,0.0,0.0,0.0,1.0
1402416313677784940,,errorv,,0,,1402416313,677513292,/z_drive,starboard,,,-0.3,-0.3048,0.0,,0.0,0.0,0.0,1.0
1402416313697767290,,errorv,,0,,1402416313,697484601,base_link,/z_drive,,,0.0,0.0,0.0,,0.0,0.0,0.0,1.0
1402416313697795259,,errorv,,0,,1402416313,697520849,/z_drive,port,,,-0.3,0.3048,0.0,,0.0,0.0,0.0,1.0
1402416313697837848,,errorv,,0,,1402416313,697533048,/z_drive,starboard,,,-0.3,-0.3048,0.0,,0.0,0.0,0.0,1.0
1402416313699155954,,errorv,,0,,1402416313,624407052,/enu,/base_link,,,11.2356227763,26.1396967437,-18.2261315172,,0.0232643752143,0.017118766513,-0.562331881541,0.826407025431
1402416313699183938,,errorv,,0,,1402416313,634404897,/enu,/base_link,,,11.2350397865,26.1780810903,-18.1395867597,,0.023260569563,0.0218543617473,-0.560952381016,0.827232590635
1402416313699205454,,errorv,,0,,1402416313,645406961,/enu,/base_link,,,11.2416682645,26.1752244327,-18.137687515,,0.0228368564787,0.0217419748332,-0.55967084146,0.828114915779
1402416313699223492,,errorv,,0,,1402416313,656384944,/enu,/base_link,,,11.2484599728,26.1722644839,-18.1357332087,,0.0229260945012,0.0218529663073,-0.558341171399,0.82900662143
1402416313717131875,,errorv,,0,,1402416313,816954914,/base_link,/gps,,,-0.84,0.0,-0.14,,0.0,0.0,0.0,1.0
1402416313717380022,,errorv,,0,,1402416313,817162947,base_link,imu,,,0.13,0.0,-0.1,,1.0,0.0,0.0,0.0
1402416313717923423,,errorv,,0,,1402416313,717507334,base_link,/z_drive,,,0.0,0.0,0.0,,0.0,0.0,0.0,1.0
1402416313717958081,,errorv,,0,,1402416313,717524579,/z_drive,port,,,-0.3,0.3048,0.0,,0.0,0.0,0.0,1.0
1402416313717983360,,errorv,,0,,1402416313,717531828,/z_drive,starboard,,,-0.3,-0.3048,0.0,,0.0,0.0,0.0,1.0
1402416313737716179,,errorv,,0,,1402416313,737485732,base_link,/z_drive,,,0.0,0.0,0.0,,0.0,0.0,0.0,1.0
1402416313737745497,,errorv,,0,,1402416313,737510918,/z_drive,port,,,-0.3,0.3048,0.0,,0.0,0.0,0.0,1.0
1402416313737867134,,errorv,,0,,1402416313,737520055,/z_drive,starboard,,,-0.3,-0.3048,0.0,,0.0,0.0,0.0,1.0
1402416313739171926,,errorv,,0,,1402416313,666384935,/enu,/base_link,,,11.254584579,26.1697236949,-18.1340565921,,0.0224672673831,0.0218152308635,-0.557141012694,0.829827216698
1402416313739199524,,errorv,,0,,1402416313,676387071,/enu,/base_link,,,11.2610642155,26.167193658,-18.1325770379,,0.0221599629057,0.0218805584592,-0.55595778397,0.830626943729
1402416313739261528,,errorv,,0,,1402416313,687377929,/enu,/base_link,,,11.247903562,26.1820062262,-18.0004786618,,0.0226205756793,0.0248724572627,-0.554371124811,0.831590239482
1402416313739328679,,errorv,,0,,1402416313,697376012,/enu,/base_link,,,11.2545189067,26.1787261502,-17.9983830941,,0.0226566503547,0.0249752997927,-0.553150140726,0.832398842148
1402416313757712804,,errorv,,0,,1402416313,757477241,base_link,/z_drive,,,0.0,0.0,0.0,,0.0,0.0,0.0,1.0
1402416313757827024,,errorv,,0,,1402416313,757499897,/z_drive,port,,,-0.3,0.3048,0.0,,0.0,0.0,0.0,1.0
1402416313757851535,,errorv,,0,,1402416313,757509793,/z_drive,starboard,,,-0.3,-0.3048,0.0,,0.0,0.0,0.0,1.0
1402416313777708289,,errorv,,0,,1402416313,777503964,base_link,/z_drive,,,0.0,0.0,0.0,,0.0,0.0,0.0,1.0
1402416313777734229,,errorv,,0,,1402416313,777537328,/z_drive,port,,,-0.3,0.3048,0.0,,0.0,0.0,0.0,1.0
1402416313777803505,,errorv,,0,,1402416313,777546136,/z_drive,starboard,,,-0.3,-0.3048,0.0,,0.0,0.0,0.0,1.0
1402416313779220766,,errorv,,0,,1402416313,708374977,/enu,/base_link,,,11.261918782,26.1756106267,-17.9969974405,,0.0221285164713,0.0248690103956,-0.55182611786,0.833294543801
1402416313779249655,,errorv,,0,,1402416313,718369007,/enu,/base_link,,,11.2684028971,26.1722579502,-17.9948703523,,0.0222282591364,0.0249916620919,-0.550617403913,0.834087402992
1402416313779280407,,errorv,,0,,1402416313,729370117,/enu,/base_link,,,11.275932401,26.168787141,-17.9928939877,,0.021723079518,0.0249782079931,-0.549271086037,0.834988305898
1402416313779301570,,errorv,,0,,1402416313,739378929,/enu,/base_link,,,11.2798279901,26.1905158274,-17.9176798575,,0.0208709087802,0.0275285242252,-0.548171927655,0.835651915125
1402416313779353031,,errorv,,0,,1402416313,750353097,/enu,/base_link,,,11.2880105635,26.1870907304,-17.9157386498,,0.0204084236429,0.027420735633,-0.546789586471,0.836572021782
1402416313797791134,,errorv,,0,,1402416313,797517024,base_link,/z_drive,,,0.0,0.0,0.0,,0.0,0.0,0.0,1.0
1402416313797824062,,errorv,,0,,1402416313,797536937,/z_drive,port,,,-0.3,0.3048,0.0,,0.0,0.0,0.0,1.0
1402416313797850959,,errorv,,0,,1402416313,797545129,/z_drive,starboard,,,-0.3,-0.3048,0.0,,0.0,0.0,0.0,1.0
1402416313817488955,,errorv,,0,,1402416313,917063614,/base_link,/gps,,,-0.84,0.0,-0.14,,0.0,0.0,0.0,1.0
1402416313817606911,,errorv,,0,,1402416313,917319072,base_link,imu,,,0.13,0.0,-0.1,,1.0,0.0,0.0,0.0
1402416313817850310,,errorv,,0,,1402416313,817637814,base_link,/z_drive,,,0.0,0.0,0.0,,0.0,0.0,0.0,1.0
1402416313817877346,,errorv,,0,,1402416313,817673762,/z_drive,port,,,-0.3,0.3048,0.0,,0.0,0.0,0.0,1.0
1402416313817897158,,errorv,,0,,1402416313,817683468,/z_drive,starboard,,,-0.3,-0.3048,0.0,,0.0,0.0,0.0,1.0
1402416313819060688,,errorv,,0,,1402416313,760358095,/enu,/base_link,,,11.2953984874,26.1837316136,-17.9135998733,,0.0205893070917,0.0275709019336,-0.545535347768,0.837381102089
1402416313819090815,,errorv,,0,,1402416313,771358013,/enu,/base_link,,,11.3037202742,26.1803684676,-17.9118640389,,0.0201317358637,0.0274073845629,-0.544196549497,0.838268253006
1402416313819137760,,errorv,,0,,1402416313,781353950,/enu,/base_link,,,11.311081737,26.1769472501,-17.9096397201,,0.0201466798067,0.0274969991463,-0.542946006272,0.839075479682
1402416313831570769,,errorv,,0,,1402416313,792356014,/enu,/base_link,,,11.2432976596,26.2503656143,-17.6698588716,,0.021257346936,0.0356326036313,-0.541277441054,0.839819727421
1402416313831599527,,errorv,,0,,1402416313,802330017,/enu,/base_link,,,11.2519360602,26.24608062,-17.6677994396,,0.0210358630814,0.0355893772388,-0.540022669159,0.840634525514
1402416313837782624,,errorv,,0,,1402416313,837529057,base_link,/z_drive,,,0.0,0.0,0.0,,0.0,0.0,0.0,1.0
1402416313837815217,,errorv,,0,,1402416313,837565896,/z_drive,port,,,-0.3,0.3048,0.0,,0.0,0.0,0.0,1.0
1402416313837881248,,errorv,,0,,1402416313,837597495,/z_drive,starboard,,,-0.3,-0.3048,0.0,,0.0,0.0,0.0,1.0
1402416313857830169,,errorv,,0,,1402416313,857526829,base_link,/z_drive,,,0.0,0.0,0.0,,0.0,0.0,0.0,1.0
1402416313857862772,,errorv,,0,,1402416313,857574703,/z_drive,port,,,-0.3,0.3048,0.0,,0.0,0.0,0.0,1.0
1402416313857892187,,errorv,,0,,1402416313,857584786,/z_drive,starboard,,,-0.3,-0.3048,0.0,,0.0,0.0,0.0,1.0
1402416313871178590,,errorv,,0,,1402416313,812345981,/enu,/base_link,,,11.2609861822,26.2416863523,-17.6655917669,,0.0206588347914,0.0354395545074,-0.538780312961,0.841446982814
1402416313871205285,,errorv,,0,,1402416313,823379993,/enu,/base_link,,,11.2708584325,26.2365266045,-17.6628374893,,0.0208629993544,0.035685559353,-0.537372230346,0.842331503723
1402416313877700369,,errorv,,0,,1402416313,877517542,base_link,/z_drive,,,0.0,0.0,0.0,,0.0,0.0,0.0,1.0
1402416313877929722,,errorv,,0,,1402416313,877540395,/z_drive,port,,,-0.3,0.3048,0.0,,0.0,0.0,0.0,1.0
1402416313877960741,,errorv,,0,,1402416313,877788908,/z_drive,starboard,,,-0.3,-0.3048,0.0,,0.0,0.0,0.0,1.0
1402416313897710953,,errorv,,0,,1402416313,897514216,base_link,/z_drive,,,0.0,0.0,0.0,,0.0,0.0,0.0,1.0
1402416313897767237,,errorv,,0,,1402416313,897538616,/z_drive,port,,,-0.3,0.3048,0.0,,0.0,0.0,0.0,1.0
1402416313897824823,,errorv,,0,,1402416313,897547847,/z_drive,starboard,,,-0.3,-0.3048,0.0,,0.0,0.0,0.0,1.0
1402416313911253035,,errorv,,0,,1402416313,833373069,/enu,/base_link,,,11.3246152252,26.1802984918,-17.7568739742,,0.0197527466124,0.0309317427062,-0.536303123777,0.843227143611
1402416313911333603,,errorv,,0,,1402416313,844326972,/enu,/base_link,,,11.3336282419,26.1760698578,-17.754622061,,0.0196947162599,0.0310105866273,-0.534925902667,0.844099958728
1402416313911356083,,errorv,,0,,1402416313,854327917,/enu,/base_link,,,11.3417810593,26.1720715756,-17.7523493636,,0.0197334169007,0.0311299887283,-0.533670220736,0.84488911199
1402416313911376557,,errorv,,0,,1402416313,865328073,/enu,/base_link,,,11.3511176906,26.1678189868,-17.7499268208,,0.0194426022215,0.0310081520461,-0.532276659953,0.845778952797
1402416313917372407,,errorv,,0,,1402416314,17186779,/base_link,/gps,,,-0.84,0.0,-0.14,,0.0,0.0,0.0,1.0
1402416313917626833,,errorv,,0,,1402416314,17427606,base_link,imu,,,0.13,0.0,-0.1,,1.0,0.0,0.0,0.0
1402416313917930444,,errorv,,0,,1402416313,917683244,base_link,/z_drive,,,0.0,0.0,0.0,,0.0,0.0,0.0,1.0
1402416313917956495,,errorv,,0,,1402416313,917706945,/z_drive,port,,,-0.3,0.3048,0.0,,0.0,0.0,0.0,1.0
1402416313917979456,,errorv,,0,,1402416313,917735425,/z_drive,starboard,,,-0.3,-0.3048,0.0,,0.0,0.0,0.0,1.0
1402416313937669846,,errorv,,0,,1402416313,937467747,base_link,/z_drive,,,0.0,0.0,0.0,,0.0,0.0,0.0,1.0
1402416313937709307,,errorv,,0,,1402416313,937481384,/z_drive,port,,,-0.3,0.3048,0.0,,0.0,0.0,0.0,1.0
1402416313937745370,,errorv,,0,,1402416313,937485743,/z_drive,starboard,,,-0.3,-0.3048,0.0,,0.0,0.0,0.0,1.0
1402416313951172811,,errorv,,0,,1402416313,875324010,/enu,/base_link,,,11.359293574,26.1639638763,-17.7478391428,,0.0191403861315,0.0308767093904,-0.531020321569,0.846579997707
1402416313951198345,,errorv,,0,,1402416313,886322021,/enu,/base_link,,,11.3868725932,26.1403853859,-17.7641107261,,0.0182149886593,0.0295837090855,-0.529748022772,0.847443243359
1402416313951256685,,errorv,,0,,1402416313,896325111,/enu,/base_link,,,11.3951116696,26.1369978121,-17.7622349769,,0.0181308020076,0.0295557382807,-0.528472773264,0.848241864253
1402416313954802447,,errorv,,0,,1402416313,907325029,/enu,/base_link,,,11.4042242261,26.1331068045,-17.7599327838,,0.0180490199174,0.029546902212,-0.527084475209,0.849107277936
1402416313957675837,,errorv,,0,,1402416313,957473281,base_link,/z_drive,,,0.0,0.0,0.0,,0.0,0.0,0.0,1.0
1402416313957703409,,errorv,,0,,1402416313,957519570,/z_drive,port,,,-0.3,0.3048,0.0,,0.0,0.0,0.0,1.0
1402416313957796387,,errorv,,0,,1402416313,957528735,/z_drive,starboard,,,-0.3,-0.3048,0.0,,0.0,0.0,0.0,1.0
1402416313977580771,,errorv,,0,,1402416313,977430279,base_link,/z_drive,,,0.0,0.0,0.0,,0.0,0.0,0.0,1.0
1402416313977718253,,errorv,,0,,1402416313,977442782,/z_drive,port,,,-0.3,0.3048,0.0,,0.0,0.0,0.0,1.0
1402416313977747292,,errorv,,0,,1402416313,977507028,/z_drive,starboard,,,-0.3,-0.3048,0.0,,0.0,0.0,0.0,1.0
1402416313991180641,,errorv,,0,,1402416313,917475938,/enu,/base_link,,,11.4124313019,26.1293067914,-17.7574542666,,0.0182026987576,0.0296982626394,-0.525779558045,0.849907366303
1402416313991206411,,errorv,,0,,1402416313,928323030,/enu,/base_link,,,11.4213862218,26.1256369037,-17.7555049012,,0.0179289382622,0.0295973458341,-0.524395606128,0.850771296275
1402416313991226000,,errorv,,0,,1402416313,938333034,/enu,/base_link,,,11.4298636051,26.1219715015,-17.7532751089,,0.0180015251565,0.0298811113339,-0.523101734055,0.851556011139
1402416313991265319,,errorv,,0,,1402416313,949287891,/enu,/base_link,,,11.4388252117,26.1182327133,-17.7511167565,,0.0179045240984,0.0300205142581,-0.521686311562,0.852421016323
1402416313997690775,,errorv,,0,,1402416313,997526827,base_link,/z_drive,,,0.0,0.0,0.0,,0.0,0.0,0.0,1.0
1402416313997720726,,errorv,,0,,1402416313,997544110,/z_drive,port,,,-0.3,0.3048,0.0,,0.0,0.0,0.0,1.0
1402416313997744548,,errorv,,0,,1402416313,997548588,/z_drive,starboard,,,-0.3,-0.3048,0.0,,0.0,0.0,0.0,1.0
1402416314017501040,,errorv,,0,,1402416314,117297428,/base_link,/gps,,,-0.84,0.0,-0.14,,0.0,0.0,0.0,1.0
1402416314017720677,,errorv,,0,,1402416314,117531213,base_link,imu,,,0.13,0.0,-0.1,,1.0,0.0,0.0,0.0
1402416314017851267,,errorv,,0,,1402416314,17641082,base_link,/z_drive,,,0.0,0.0,0.0,,0.0,0.0,0.0,1.0
1402416314017880359,,errorv,,0,,1402416314,17656305,/z_drive,port,,,-0.3,0.3048,0.0,,0.0,0.0,0.0,1.0
1402416314017903247,,errorv,,0,,1402416314,17663333,/z_drive,starboard,,,-0.3,-0.3048,0.0,,0.0,0.0,0.0,1.0
1402416314031130342,,errorv,,0,,1402416313,960287094,/enu,/base_link,,,11.4479445314,26.1141375952,-17.7483994537,,0.0180386259655,0.0300322561292,-0.520261695589,0.853288016832
1402416314031154971,,errorv,,0,,1402416313,970285892,/enu,/base_link,,,11.4560856123,26.1105248908,-17.7462022497,,0.0179704045798,0.0300176246115,-0.518974768647,0.854073296784
1402416314031220764,,errorv,,0,,1402416313,981262922,/enu,/base_link,,,11.4653458789,26.1067583473,-17.7441800863,,0.0180717623351,0.0301909049004,-0.517571337387,0.854916271563
1402416314031284571,,errorv,,0,,1402416313,991285085,/enu,/base_link,,,11.4968386722,26.0691217815,-17.6947846467,,0.0182303819985,0.0277548267857,-0.516248276372,0.855794975392
1402416314031307618,,errorv,,0,,1402416314,2258062,/enu,/base_link,,,11.5053452162,26.0654579565,-17.6922153689,,0.0180761262019,0.027968419427,-0.514833665693,0.856643051595
1402416314037698790,,errorv,,0,,1402416314,37506805,base_link,/z_drive,,,0.0,0.0,0.0,,0.0,0.0,0.0,1.0
1402416314037729195,,errorv,,0,,1402416314,37542616,/z_drive,port,,,-0.3,0.3048,0.0,,0.0,0.0,0.0,1.0
1402416314037751595,,errorv,,0,,1402416314,37548025,/z_drive,starboard,,,-0.3,-0.3048,0.0,,0.0,0.0,0.0,1.0
1402416314057762315,,errorv,,0,,1402416314,57578233,base_link,/z_drive,,,0.0,0.0,0.0,,0.0,0.0,0.0,1.0
1402416314057792013,,errorv,,0,,1402416314,57598437,/z_drive,port,,,-0.3,0.3048,0.0,,0.0,0.0,0.0,1.0
1402416314057863672,,errorv,,0,,1402416314,57608955,/z_drive,starboard,,,-0.3,-0.3048,0.0,,0.0,0.0,0.0,1.0
1402416314071703580,,errorv,,0,,1402416314,12249946,/enu,/base_link,,,11.5131039565,26.0620297399,-17.6896940011,,0.0180026110278,0.0281166020802,-0.513570940826,0.857397370781
1402416314071725060,,errorv,,0,,1402416314,23248910,/enu,/base_link,,,11.5217012161,26.058347186,-17.6871309334,,0.0181040877375,0.0281451178203,-0.512189899978,0.858220018824
1402416314071744808,,errorv,,0,,1402416314,34239053,/enu,/base_link,,,11.5813991128,25.9971594595,-17.7074293104,,0.0181523380483,0.0238078042694,-0.510601911029,0.859295856811
1402416314077784834,,errorv,,0,,1402416314,77562151,base_link,/z_drive,,,0.0,0.0,0.0,,0.0,0.0,0.0,1.0
1402416314077833373,,errorv,,0,,1402416314,77578282,/z_drive,port,,,-0.3,0.3048,0.0,,0.0,0.0,0.0,1.0
1402416314077852962,,errorv,,0,,1402416314,77583191,/z_drive,starboard,,,-0.3,-0.3048,0.0,,0.0,0.0,0.0,1.0
1402416314083657741,,errorv,,0,,1402416314,44234037,/enu,/base_link,,,11.5881870416,25.9940426355,-17.7047065021,,0.0180405632128,0.0238978812108,-0.50935498394,0.860035423508
1402416314083730384,,errorv,,0,,1402416314,55223941,/enu,/base_link,,,11.5957599757,25.9907380801,-17.7020009724,,0.0182011655503,0.0239123062198,-0.507987254398,0.860840210813
1402416314083746683,,errorv,,0,,1402416314,65222978,/enu,/base_link,,,11.6027069816,25.9881687944,-17.7002744236,,0.0182928473754,0.0238727958187,-0.506768247071,0.861557546027
1402416314083917641,,errorv,,0,,1402416314,76239109,/enu,/base_link,,,11.6102602337,25.9847646728,-17.6973357964,,0.0182256209262,0.0240603104581,-0.505432858155,0.862337842206
1402416314097752005,,errorv,,0,,1402416314,97564248,base_link,/z_drive,,,0.0,0.0,0.0,,0.0,0.0,0.0,1.0
1402416314097776810,,errorv,,0,,1402416314,97585360,/z_drive,port,,,-0.3,0.3048,0.0,,0.0,0.0,0.0,1.0
1402416314097841494,,errorv,,0,,1402416314,97591181,/z_drive,starboard,,,-0.3,-0.3048,0.0,,0.0,0.0,0.0,1.0
1402416314117610060,,errorv,,0,,1402416314,217395180,/base_link,/gps,,,-0.84,0.0,-0.14,,0.0,0.0,0.0,1.0
1402416314117719543,,errorv,,0,,1402416314,117456146,base_link,/z_drive,,,0.0,0.0,0.0,,0.0,0.0,0.0,1.0
1402416314117758252,,errorv,,0,,1402416314,117471839,/z_drive,port,,,-0.3,0.3048,0.0,,0.0,0.0,0.0,1.0
1402416314117795773,,errorv,,0,,1402416314,117481033,/z_drive,starboard,,,-0.3,-0.3048,0.0,,0.0,0.0,0.0,1.0
1402416314117917195,,errorv,,0,,1402416314,217639890,base_link,imu,,,0.13,0.0,-0.1,,1.0,0.0,0.0,0.0
1402416314123782095,,errorv,,0,,1402416314,87232112,/enu,/base_link,,,11.6588321671,25.9561453079,-17.8077010216,,0.0181450721738,0.0208462216193,-0.50394627884,0.863292731027
1402416314123806081,,errorv,,0,,1402416314,97209930,/enu,/base_link,,,11.6649453175,25.9532738793,-17.8050197834,,0.0183546247578,0.0208993811124,-0.502751881342,0.863983141865
1402416314137683108,,errorv,,0,,1402416314,137494595,base_link,/z_drive,,,0.0,0.0,0.0,,0.0,0.0,0.0,1.0
1402416314137759376,,errorv,,0,,1402416314,137510699,/z_drive,port,,,-0.3,0.3048,0.0,,0.0,0.0,0.0,1.0
1402416314137787764,,errorv,,0,,1402416314,137514912,/z_drive,starboard,,,-0.3,-0.3048,0.0,,0.0,0.0,0.0,1.0
1402416314157618105,,errorv,,0,,1402416314,157427711,base_link,/z_drive,,,0.0,0.0,0.0,,0.0,0.0,0.0,1.0
1402416314157699342,,errorv,,0,,1402416314,157454082,/z_drive,port,,,-0.3,0.3048,0.0,,0.0,0.0,0.0,1.0
1402416314157821287,,errorv,,0,,1402416314,157513691,/z_drive,starboard,,,-0.3,-0.3048,0.0,,0.0,0.0,0.0,1.0
1402416314163081587,,errorv,,0,,1402416314,108251094,/enu,/base_link,,,11.6718515236,25.9505489849,-17.8027879635,,0.0180807337142,0.0209344397104,-0.501417661444,0.864763068762
1402416314163109043,,errorv,,0,,1402416314,119220972,/enu,/base_link,,,11.6785483449,25.9477118181,-17.8004694015,,0.018326062739,0.0209896002347,-0.500066970168,0.865538339679
1402416314177586382,,errorv,,0,,1402416314,177431926,base_link,/z_drive,,,0.0,0.0,0.0,,0.0,0.0,0.0,1.0
1402416314177778222,,errorv,,0,,1402416314,177458486,/z_drive,port,,,-0.3,0.3048,0.0,,0.0,0.0,0.0,1.0
1402416314177805010,,errorv,,0,,1402416314,177510823,/z_drive,starboard,,,-0.3,-0.3048,0.0,,0.0,0.0,0.0,1.0
1402416314197789025,,errorv,,0,,1402416314,197491274,base_link,/z_drive,,,0.0,0.0,0.0,,0.0,0.0,0.0,1.0
1402416314197819605,,errorv,,0,,1402416314,197509095,/z_drive,port,,,-0.3,0.3048,0.0,,0.0,0.0,0.0,1.0
1402416314197844743,,errorv,,0,,1402416314,197513300,/z_drive,starboard,,,-0.3,-0.3048,0.0,,0.0,0.0,0.0,1.0
1402416314203044014,,errorv,,0,,1402416314,129235029,/enu,/base_link,,,11.6847686442,25.945187139,-17.7983403795,,0.0182760368512,0.0209651440509,-0.498855621071,0.86623871914
1402416314203150902,,errorv,,0,,1402416314,145206928,/enu,/base_link,,,11.7116877605,25.9287891524,-17.8896813829,,0.0165240055509,0.0202659446491,-0.497049709693,0.867327985725
1402416314203187714,,errorv,,0,,1402416314,150237083,/enu,/base_link,,,11.7146939677,25.927655088,-17.88851247,,0.0164042836572,0.0202430826421,-0.496452849301,0.86767256814
1402416314203212166,,errorv,,0,,1402416314,161207914,/enu,/base_link,,,11.7215303737,25.925497001,-17.8863119481,,0.0167145266693,0.0204130347454,-0.495136133626,0.868414729141
1402416314217657581,,errorv,,0,,1402416314,217475482,base_link,/z_drive,,,0.0,0.0,0.0,,0.0,0.0,0.0,1.0
1402416314217720928,,errorv,,0,,1402416314,217489059,/z_drive,port,,,-0.3,0.3048,0.0,,0.0,0.0,0.0,1.0
1402416314217788697,,errorv,,0,,1402416314,217493305,/z_drive,starboard,,,-0.3,-0.3048,0.0,,0.0,0.0,0.0,1.0
1402416314217882874,,errorv,,0,,1402416314,317493368,/base_link,/gps,,,-0.84,0.0,-0.14,,0.0,0.0,0.0,1.0
1402416314217953504,,errorv,,0,,1402416314,317776630,base_link,imu,,,0.13,0.0,-0.1,,1.0,0.0,0.0,0.0
1402416314237659815,,errorv,,0,,1402416314,237449461,base_link,/z_drive,,,0.0,0.0,0.0,,0.0,0.0,0.0,1.0
1402416314237686835,,errorv,,0,,1402416314,237467730,/z_drive,port,,,-0.3,0.3048,0.0,,0.0,0.0,0.0,1.0
1402416314237752452,,errorv,,0,,1402416314,237479340,/z_drive,starboard,,,-0.3,-0.3048,0.0,,0.0,0.0,0.0,1.0
1402416314243270162,,errorv,,0,,1402416314,172178030,/enu,/base_link,,,11.728558766,25.9232902031,-17.8840248937,,0.0164136102454,0.0203959783311,-0.493827203833,0.869165858868
1402416314243335052,,errorv,,0,,1402416314,182179927,/enu,/base_link,,,11.7347381922,25.9213344384,-17.8819489158,,0.0165125058166,0.0204361663308,-0.492635724724,0.869838917837
1402416314243355586,,errorv,,0,,1402416314,193178892,/enu,/base_link,,,11.7585314654,25.9148490939,-17.960229381,,0.0153626227363,0.0194745620404,-0.491399688473,0.870580885056
1402416314243385820,,errorv,,0,,1402416314,203330993,/enu,/base_link,,,11.7648878992,25.9130020794,-17.9579434854,,0.0155752495247,0.0197303876528,-0.490196980591,0.871249128335
1402416314243409281,,errorv,,0,,1402416314,214178085,/enu,/base_link,,,11.7715838555,25.9113810874,-17.9559715985,,0.0152197879576,0.0196279032869,-0.4888988055,0.871986847061
1402416314257826816,,errorv,,0,,1402416314,257579165,base_link,/z_drive,,,0.0,0.0,0.0,,0.0,0.0,0.0,1.0
1402416314257855275,,errorv,,0,,1402416314,257617869,/z_drive,port,,,-0.3,0.3048,0.0,,0.0,0.0,0.0,1.0
1402416314257959174,,errorv,,0,,1402416314,257646749,/z_drive,starboard,,,-0.3,-0.3048,0.0,,0.0,0.0,0.0,1.0
1402416314277724529,,errorv,,0,,1402416314,277506571,base_link,/z_drive,,,0.0,0.0,0.0,,0.0,0.0,0.0,1.0
1402416314277788610,,errorv,,0,,1402416314,277526563,/z_drive,port,,,-0.3,0.3048,0.0,,0.0,0.0,0.0,1.0
1402416314277848983,,errorv,,0,,1402416314,277538696,/z_drive,starboard,,,-0.3,-0.3048,0.0,,0.0,0.0,0.0,1.0
1402416314283129599,,errorv,,0,,1402416314,224179983,/enu,/base_link,,,11.777945194,25.9096865571,-17.9538604051,,0.0154801677228,0.0198047447479,-0.487678471755,0.872661357388
1402416314283155634,,errorv,,0,,1402416314,235182046,/enu,/base_link,,,11.7847742474,25.9080797352,-17.9518003791,,0.0153241626231,0.0198382625869,-0.486351889792,0.873403373404
1402416314283190038,,errorv,,0,,1402416314,246179103,/enu,/base_link,,,11.7915120598,25.9061923011,-17.9493824328,,0.0152790883941,0.0199410597641,-0.484979545675,0.874164597699
1402416314295240360,,errorv,,0,,1402416314,256150960,/enu,/base_link,,,11.7977510729,25.9046764856,-17.9474113111,,0.0150234766332,0.0198448230842,-0.483769498241,0.874841443188
1402416314295482602,,errorv,,0,,1402416314,267153978,/enu,/base_link,,,11.8046084946,25.9030257374,-17.9452796327,,0.0153053002347,0.0201377292128,-0.482432609298,0.875567814126
1402416314297694969,,errorv,,0,,1402416314,297498815,base_link,/z_drive,,,0.0,0.0,0.0,,0.0,0.0,0.0,1.0
1402416314297723827,,errorv,,0,,1402416314,297519229,/z_drive,port,,,-0.3,0.3048,0.0,,0.0,0.0,0.0,1.0
1402416314297799511,,errorv,,0,,1402416314,297528068,/z_drive,starboard,,,-0.3,-0.3048,0.0,,0.0,0.0,0.0,1.0
1402416314317629327,,errorv,,0,,1402416314,317442570,base_link,/z_drive,,,0.0,0.0,0.0,,0.0,0.0,0.0,1.0
1402416314317655051,,errorv,,0,,1402416314,317457648,/z_drive,port,,,-0.3,0.3048,0.0,,0.0,0.0,0.0,1.0
1402416314317716564,,errorv,,0,,1402416314,317461995,/z_drive,starboard,,,-0.3,-0.3048,0.0,,0.0,0.0,0.0,1.0
1402416314317813035,,errorv,,0,,1402416314,417622540,/base_link,/gps,,,-0.84,0.0,-0.14,,0.0,0.0,0.0,1.0
1402416314318056732,,errorv,,0,,1402416314,417875468,base_link,imu,,,0.13,0.0,-0.1,,1.0,0.0,0.0,0.0
1402416314335088220,,errorv,,0,,1402416314,277152061,/enu,/base_link,,,11.8208227584,25.8844613244,-17.9658531556,,0.0137739371485,0.0193004887066,-0.481404276817,0.876177888362
1402416314335118563,,errorv,,0,,1402416314,288152933,/enu,/base_link,,,11.8278265087,25.883223509,-17.9636584899,,0.0139246961624,0.0195430333352,-0.480032151267,0.876922634236
1402416314337635117,,errorv,,0,,1402416314,337470950,base_link,/z_drive,,,0.0,0.0,0.0,,0.0,0.0,0.0,1.0
1402416314337684673,,errorv,,0,,1402416314,337485808,/z_drive,port,,,-0.3,0.3048,0.0,,0.0,0.0,0.0,1.0
1402416314337709008,,errorv,,0,,1402416314,337490388,/z_drive,starboard,,,-0.3,-0.3048,0.0,,0.0,0.0,0.0,1.0
1402416314357669139,,errorv,,0,,1402416314,357486299,base_link,/z_drive,,,0.0,0.0,0.0,,0.0,0.0,0.0,1.0
1402416314357746303,,errorv,,0,,1402416314,357509790,/z_drive,port,,,-0.3,0.3048,0.0,,0.0,0.0,0.0,1.0
1402416314357823926,,errorv,,0,,1402416314,357547663,/z_drive,starboard,,,-0.3,-0.3048,0.0,,0.0,0.0,0.0,1.0
1402416314375209916,,errorv,,0,,1402416314,299120903,/enu,/base_link,,,11.8345515651,25.881980219,-17.9614421442,,0.0138943922365,0.0196198796095,-0.478655008057,0.877673851411
1402416314375234382,,errorv,,0,,1402416314,309123039,/enu,/base_link,,,11.840835674,25.8809049145,-17.9594126249,,0.0137782331367,0.019696540832,-0.477408635051,0.878352549805
1402416314375361113,,errorv,,0,,1402416314,320125102,/enu,/base_link,,,11.8577396101,25.8564399371,-17.9335994123,,0.0130354707096,0.0184444329155,-0.476018042224,0.879145438978
1402416314375386549,,errorv,,0,,1402416314,330096960,/enu,/base_link,,,11.863669338,25.8554904011,-17.931387019,,0.0131547894409,0.0187926621521,-0.474726158887,0.879834564809
1402416314377825903,,errorv,,0,,1402416314,377456526,base_link,/z_drive,,,0.0,0.0,0.0,,0.0,0.0,0.0,1.0
1402416314377850777,,errorv,,0,,1402416314,377599491,/z_drive,port,,,-0.3,0.3048,0.0,,0.0,0.0,0.0,1.0
1402416314377921468,,errorv,,0,,1402416314,377607246,/z_drive,starboard,,,-0.3,-0.3048,0.0,,0.0,0.0,0.0,1.0
1402416314397661726,,errorv,,0,,1402416314,397424668,base_link,/z_drive,,,0.0,0.0,0.0,,0.0,0.0,0.0,1.0
1402416314397687270,,errorv,,0,,1402416314,397442534,/z_drive,port,,,-0.3,0.3048,0.0,,0.0,0.0,0.0,1.0
1402416314397706791,,errorv,,0,,1402416314,397453024,/z_drive,starboard,,,-0.3,-0.3048,0.0,,0.0,0.0,0.0,1.0
1402416314415332181,,errorv,,0,,1402416314,341098070,/enu,/base_link,,,11.8703089838,25.8547014726,-17.9291430595,,0.013083240425,0.0187186293774,-0.473336409616,0.88058564891
1402416314415357231,,errorv,,0,,1402416314,351104974,/enu,/base_link,,,11.8661686142,25.8580840293,-17.9284644027,,0.0131290795922,0.0191440663621,-0.47205889896,0.881261327816
1402416314415417063,,errorv,,0,,1402416314,362106084,/enu,/base_link,,,11.8727834819,25.8571361802,-17.9261077099,,0.0132517822109,0.0192601476644,-0.470596514915,0.882038750356
1402416314415442264,,errorv,,0,,1402416314,372107982,/enu,/base_link,,,11.8787042342,25.856501833,-17.9242939401,,0.0131704057087,0.0193265159943,-0.469302882911,0.882727494918
1402416314417673686,,errorv,,0,,1402416314,417503884,base_link,/z_drive,,,0.0,0.0,0.0,,0.0,0.0,0.0,1.0
1402416314417750211,,errorv,,0,,1402416314,417521470,/z_drive,port,,,-0.3,0.3048,0.0,,0.0,0.0,0.0,1.0
1402416314417774369,,errorv,,0,,1402416314,417530609,/z_drive,starboard,,,-0.3,-0.3048,0.0,,0.0,0.0,0.0,1.0
1402416314417933577,,errorv,,0,,1402416314,517725276,/base_link,/gps,,,-0.84,0.0,-0.14,,0.0,0.0,0.0,1.0
1402416314418177686,,errorv,,0,,1402416314,517992831,base_link,imu,,,0.13,0.0,-0.1,,1.0,0.0,0.0,0.0
1402416314437711049,,errorv,,0,,1402416314,437463872,base_link,/z_drive,,,0.0,0.0,0.0,,0.0,0.0,0.0,1.0
1402416314437764128,,errorv,,0,,1402416314,437498805,/z_drive,port,,,-0.3,0.3048,0.0,,0.0,0.0,0.0,1.0
1402416314437834123,,errorv,,0,,1402416314,437508390,/z_drive,starboard,,,-0.3,-0.3048,0.0,,0.0,0.0,0.0,1.0
1402416314455215562,,errorv,,0,,1402416314,383109092,/enu,/base_link,,,11.8853790828,25.8556006165,-17.9218074857,,0.013049552437,0.0193115336057,-0.467849256517,0.883500903807
1402416314455286028,,errorv,,0,,1402416314,394099950,/enu,/base_link,,,11.872187771,25.8656958252,-17.9210744338,,0.0124232438345,0.0208099454676,-0.466579646592,0.884147070667
1402416314455313646,,errorv,,0,,1402416314,404102087,/enu,/base_link,,,11.8784644783,25.8649109643,-17.9187347047,,0.0125101173791,0.0207866695477,-0.465247895252,0.884847900656
1402416314455374168,,errorv,,0,,1402416314,415117025,/enu,/base_link,,,11.8855391454,25.8642596087,-17.9164971271,,0.0125183000835,0.0209685388337,-0.463785806131,0.885610715029
1402416314455453718,,errorv,,0,,1402416314,425093889,/enu,/base_link,,,11.8920196676,25.8636737356,-17.9143521964,,0.0126676202422,0.0209885031925,-0.46245311894,0.886304759614
1402416314457731144,,errorv,,0,,1402416314,457495580,base_link,/z_drive,,,0.0,0.0,0.0,,0.0,0.0,0.0,1.0
1402416314457785177,,errorv,,0,,1402416314,457528829,/z_drive,port,,,-0.3,0.3048,0.0,,0.0,0.0,0.0,1.0
1402416314457840543,,errorv,,0,,1402416314,457538937,/z_drive,starboard,,,-0.3,-0.3048,0.0,,0.0,0.0,0.0,1.0
1402416314477627068,,errorv,,0,,1402416314,477447607,base_link,/z_drive,,,0.0,0.0,0.0,,0.0,0.0,0.0,1.0
1402416314477692542,,errorv,,0,,1402416314,477463046,/z_drive,port,,,-0.3,0.3048,0.0,,0.0,0.0,0.0,1.0
1402416314477713533,,errorv,,0,,1402416314,477469958,/z_drive,starboard,,,-0.3,-0.3048,0.0,,0.0,0.0,0.0,1.0
1402416314495085215,,errorv,,0,,1402416314,436079978,/enu,/base_link,,,11.8532507144,25.8967615221,-17.9140435164,,0.0127115912194,0.0239396482146,-0.461124953915,0.886921127028
1402416314495113385,,errorv,,0,,1402416314,446104049,/enu,/base_link,,,11.860349191,25.8959503036,-17.9118916762,,0.0127843557889,0.0239491354322,-0.459769464807,0.887623252507
1402416314495197937,,errorv,,0,,1402416314,457073926,/enu,/base_link,,,11.8679263576,25.8949030048,-17.9091763224,,0.0126811324085,0.024136758709,-0.458256836494,0.888401529471
1402416314497667567,,errorv,,0,,1402416314,497522598,base_link,/z_drive,,,0.0,0.0,0.0,,0.0,0.0,0.0,1.0
1402416314497778857,,errorv,,0,,1402416314,497538885,/z_drive,port,,,-0.3,0.3048,0.0,,0.0,0.0,0.0,1.0
1402416314497803606,,errorv,,0,,1402416314,497578100,/z_drive,starboard,,,-0.3,-0.3048,0.0,,0.0,0.0,0.0,1.0
1402416314503379499,,errorv,,0,,1402416314,468072891,/enu,/base_link,,,11.8756544878,25.8941431787,-17.9069486056,,0.0128546411486,0.0241054271371,-0.45676145263,0.889169647466
1402416314503403432,,errorv,,0,,1402416314,478079080,/enu,/base_link,,,11.8828022621,25.8932969988,-17.9046680955,,0.0127825865689,0.0242115531048,-0.455387252484,0.889872382116
1402416314517699138,,errorv,,0,,1402416314,517492770,base_link,/z_drive,,,0.0,0.0,0.0,,0.0,0.0,0.0,1.0
1402416314517790198,,errorv,,0,,1402416314,517519093,/z_drive,port,,,-0.3,0.3048,0.0,,0.0,0.0,0.0,1.0
1402416314517819489,,errorv,,0,,1402416314,517523540,/z_drive,starboard,,,-0.3,-0.3048,0.0,,0.0,0.0,0.0,1.0
1402416314518058509,,errorv,,0,,1402416314,617841926,/base_link,/gps,,,-0.84,0.0,-0.14,,0.0,0.0,0.0,1.0
1402416314518288727,,errorv,,0,,1402416314,618097285,base_link,imu,,,0.13,0.0,-0.1,,1.0,0.0,0.0,0.0
1402416314537733238,,errorv,,0,,1402416314,537503721,base_link,/z_drive,,,0.0,0.0,0.0,,0.0,0.0,0.0,1.0
1402416314537768022,,errorv,,0,,1402416314,537534637,/z_drive,port,,,-0.3,0.3048,0.0,,0.0,0.0,0.0,1.0
1402416314537917528,,errorv,,0,,1402416314,537571849,/z_drive,starboard,,,-0.3,-0.3048,0.0,,0.0,0.0,0.0,1.0
1402416314543063981,,errorv,,0,,1402416314,489070892,/enu,/base_link,,,11.88522429,25.8905245605,-18.0067324194,,0.0108310872846,0.0244201952035,-0.45435689759,0.890419087412
1402416314543088622,,errorv,,0,,1402416314,499053955,/enu,/base_link,,,11.8927319647,25.8901781258,-18.0046588814,,0.0109274694593,0.0244933551644,-0.452952392142,0.891131189229
1402416314557703593,,errorv,,0,,1402416314,557471830,base_link,/z_drive,,,0.0,0.0,0.0,,0.0,0.0,0.0,1.0
1402416314557729361,,errorv,,0,,1402416314,557486030,/z_drive,port,,,-0.3,0.3048,0.0,,0.0,0.0,0.0,1.0
1402416314557751428,,errorv,,0,,1402416314,557490162,/z_drive,starboard,,,-0.3,-0.3048,0.0,,0.0,0.0,0.0,1.0
1402416314577634132,,errorv,,0,,1402416314,577438559,base_link,/z_drive,,,0.0,0.0,0.0,,0.0,0.0,0.0,1.0
1402416314577664029,,errorv,,0,,1402416314,577462417,/z_drive,port,,,-0.3,0.3048,0.0,,0.0,0.0,0.0,1.0
1402416314577804250,,errorv,,0,,1402416314,577471212,/z_drive,starboard,,,-0.3,-0.3048,0.0,,0.0,0.0,0.0,1.0
1402416314583125519,,errorv,,0,,1402416314,510035991,/enu,/base_link,,,11.9007951765,25.889929291,-18.0023695431,,0.0110766691233,0.0245287392428,-0.451420098024,0.891905568686
1402416314583144449,,errorv,,0,,1402416314,520034074,/enu,/base_link,,,11.9081296062,25.8894948981,-17.999838533,,0.0109142497487,0.024578100957,-0.450023330372,0.892611784723
1402416314583215924,,errorv,,0,,1402416314,531037092,/enu,/base_link,,,11.9163521082,25.8893974841,-17.9976657712,,0.0110576260151,0.02455854382,-0.448469137829,0.893392432947
1402416314583236312,,errorv,,0,,1402416314,542035102,/enu,/base_link,,,11.9635617519,25.8780137188,-18.0690227556,,0.0109988345237,0.0221933090999,-0.446699562755,0.894341088906
1402416314583303064,,errorv,,0,,1402416314,552033901,/enu,/base_link,,,11.9703700524,25.8780645908,-18.0669170043,,0.0109346692041,0.0221191608427,-0.445264524479,0.895059036585
1402416314597669619,,errorv,,0,,1402416314,597512245,base_link,/z_drive,,,0.0,0.0,0.0,,0.0,0.0,0.0,1.0
1402416314597719917,,errorv,,0,,1402416314,597530484,/z_drive,port,,,-0.3,0.3048,0.0,,0.0,0.0,0.0,1.0
1402416314597743995,,errorv,,0,,1402416314,597534431,/z_drive,starboard,,,-0.3,-0.3048,0.0,,0.0,0.0,0.0,1.0
1402416314617830689,,errorv,,0,,1402416314,617462130,base_link,/z_drive,,,0.0,0.0,0.0,,0.0,0.0,0.0,1.0
1402416314617865486,,errorv,,0,,1402416314,617475085,/z_drive,port,,,-0.3,0.3048,0.0,,0.0,0.0,0.0,1.0
1402416314617909544,,errorv,,0,,1402416314,617479331,/z_drive,starboard,,,-0.3,-0.3048,0.0,,0.0,0.0,0.0,1.0
1402416314618152361,,errorv,,0,,1402416314,717947847,/base_link,/gps,,,-0.84,0.0,-0.14,,0.0,0.0,0.0,1.0
1402416314618414747,,errorv,,0,,1402416314,718204778,base_link,imu,,,0.13,0.0,-0.1,,1.0,0.0,0.0,0.0
1402416314623050080,,errorv,,0,,1402416314,563009023,/enu,/base_link,,,11.9778644589,25.878209638,-18.0646107058,,0.0110669539975,0.0222191569918,-0.443703108698,0.895829996664
1402416314623079384,,errorv,,0,,1402416314,573009014,/enu,/base_link,,,11.9848255064,25.878142275,-18.062386698,,0.0112775581882,0.0222371511163,-0.442323245461,0.896509047537
1402416314623093277,,errorv,,0,,1402416314,584007978,/enu,/base_link,,,11.9637907822,25.9122577999,-18.0241208109,,0.0121335057354,0.0245491780974,-0.44082051607,0.89717745653
1402416314631315321,,errorv,,0,,1402416314,595010995,/enu,/base_link,,,11.9715044011,25.912024651,-18.0219023094,,0.0121313534258,0.024480958858,-0.439303617728,0.897923072634
1402416314631340092,,errorv,,0,,1402416314,604984045,/enu,/base_link,,,11.9788106865,25.9116022065,-18.0195286037,,0.0121973490798,0.0245511405378,-0.437904635054,0.898603358981
1402416314637859359,,errorv,,0,,1402416314,637677742,base_link,/z_drive,,,0.0,0.0,0.0,,0.0,0.0,0.0,1.0
1402416314637882918,,errorv,,0,,1402416314,637702976,/z_drive,port,,,-0.3,0.3048,0.0,,0.0,0.0,0.0,1.0
1402416314637998338,,errorv,,0,,1402416314,637713525,/z_drive,starboard,,,-0.3,-0.3048,0.0,,0.0,0.0,0.0,1.0
1402416314657607020,,errorv,,0,,1402416314,657447793,base_link,/z_drive,,,0.0,0.0,0.0,,0.0,0.0,0.0,1.0
1402416314657675578,,errorv,,0,,1402416314,657462571,/z_drive,port,,,-0.3,0.3048,0.0,,0.0,0.0,0.0,1.0
1402416314657797416,,errorv,,0,,1402416314,657467168,/z_drive,starboard,,,-0.3,-0.3048,0.0,,0.0,0.0,0.0,1.0
1402416314671098969,,errorv,,0,,1402416314,615982055,/enu,/base_link,,,11.9866447395,25.9115255705,-18.017444236,,0.0118427450916,0.0244052583161,-0.436387848617,0.899349641871
1402416314671189854,,errorv,,0,,1402416314,626988887,/enu,/base_link,,,11.9948164403,25.9111520636,-18.0149111191,,0.0121177970229,0.0244404403223,-0.434857932027,0.90008577526
1402416314677638438,,errorv,,0,,1402416314,677483080,base_link,/z_drive,,,0.0,0.0,0.0,,0.0,0.0,0.0,1.0
1402416314677714288,,errorv,,0,,1402416314,677499723,/z_drive,port,,,-0.3,0.3048,0.0,,0.0,0.0,0.0,1.0
1402416314677783854,,errorv,,0,,1402416314,677537868,/z_drive,starboard,,,-0.3,-0.3048,0.0,,0.0,0.0,0.0,1.0
1402416314697730559,,errorv,,0,,1402416314,697505076,base_link,/z_drive,,,0.0,0.0,0.0,,0.0,0.0,0.0,1.0
1402416314697765602,,errorv,,0,,1402416314,697525727,/z_drive,port,,,-0.3,0.3048,0.0,,0.0,0.0,0.0,1.0
1402416314697787073,,errorv,,0,,1402416314,697530341,/z_drive,starboard,,,-0.3,-0.3048,0.0,,0.0,0.0,0.0,1.0
1402416314711138573,,errorv,,0,,1402416314,636981964,/enu,/base_link,,,12.0474452798,25.886201449,-18.0724888633,,0.0111827297918,0.0214648600872,-0.433380919027,0.900885778198
1402416314711164860,,errorv,,0,,1402416314,647957086,/enu,/base_link,,,12.0547873846,25.8865034194,-18.0701379254,,0.0111114494812,0.0214654008545,-0.431898680665,0.901598193153
1402416314711183728,,errorv,,0,,1402416314,657968044,/enu,/base_link,,,12.0614379411,25.886850642,-18.0680267892,,0.0108210550047,0.0212844126351,-0.430542153573,0.902254583
1402416314711209980,,errorv,,0,,1402416314,668956041,/enu,/base_link,,,12.0687954265,25.8873331799,-18.0659133362,,0.0110137183142,0.0213607065803,-0.429061868928,0.902955331595
1402416314717871769,,errorv,,0,,1402416314,717512291,base_link,/z_drive,,,0.0,0.0,0.0,,0.0,0.0,0.0,1.0
1402416314717900473,,errorv,,0,,1402416314,717530964,/z_drive,port,,,-0.3,0.3048,0.0,,0.0,0.0,0.0,1.0
1402416314717926699,,errorv,,0,,1402416314,717540825,/z_drive,starboard,,,-0.3,-0.3048,0.0,,0.0,0.0,0.0,1.0
1402416314718216981,,errorv,,0,,1402416314,818046402,/base_link,/gps,,,-0.84,0.0,-0.14,,0.0,0.0,0.0,1.0
1402416314718481559,,errorv,,0,,1402416314,818309225,base_link,imu,,,0.13,0.0,-0.1,,1.0,0.0,0.0,0.0
1402416314737727938,,errorv,,0,,1402416314,737504269,base_link,/z_drive,,,0.0,0.0,0.0,,0.0,0.0,0.0,1.0
1402416314737758229,,errorv,,0,,1402416314,737559457,/z_drive,port,,,-0.3,0.3048,0.0,,0.0,0.0,0.0,1.0
1402416314737781530,,errorv,,0,,1402416314,737567890,/z_drive,starboard,,,-0.3,-0.3048,0.0,,0.0,0.0,0.0,1.0
1402416314751098220,,errorv,,0,,1402416314,678973913,/enu,/base_link,,,12.0754522751,25.8876801055,-18.0637494546,,0.0106964783192,0.0210697331807,-0.427730865528,0.903597232383
1402416314751141313,,errorv,,0,,1402416314,689960002,/enu,/base_link,,,12.0863674158,25.8882239446,-18.0374898277,,0.0111764142357,0.0207184251781,-0.426118491134,0.904361026436
1402416314751171566,,errorv,,0,,1402416314,699954032,/enu,/base_link,,,12.0929395697,25.8886498577,-18.0353459072,,0.010982183952,0.0205618202498,-0.424740908996,0.905014786293
1402416314751196856,,errorv,,0,,1402416314,711338043,/enu,/base_link,,,12.1003396605,25.8889044941,-18.0325439486,,0.0110794103965,0.0205354543321,-0.423210143996,0.905731039437
1402416314751220715,,errorv,,0,,1402416314,720968961,/enu,/base_link,,,12.1066113601,25.8893773307,-18.0305378368,,0.0107528531598,0.0202461747614,-0.421923255534,0.90634167674
1402416314757691152,,errorv,,0,,1402416314,757503655,base_link,/z_drive,,,0.0,0.0,0.0,,0.0,0.0,0.0,1.0
1402416314757718238,,errorv,,0,,1402416314,757538842,/z_drive,port,,,-0.3,0.3048,0.0,,0.0,0.0,0.0,1.0
1402416314757784967,,errorv,,0,,1402416314,757543906,/z_drive,starboard,,,-0.3,-0.3048,0.0,,0.0,0.0,0.0,1.0
1402416314777626806,,errorv,,0,,1402416314,777446467,base_link,/z_drive,,,0.0,0.0,0.0,,0.0,0.0,0.0,1.0
1402416314777651866,,errorv,,0,,1402416314,777461052,/z_drive,port,,,-0.3,0.3048,0.0,,0.0,0.0,0.0,1.0
1402416314777829614,,errorv,,0,,1402416314,777465364,/z_drive,starboard,,,-0.3,-0.3048,0.0,,0.0,0.0,0.0,1.0
1402416314791049149,,errorv,,0,,1402416314,731930017,/enu,/base_link,,,12.1136888928,25.8896374363,-18.0277669624,,0.0108345673831,0.0203086836997,-0.420443378133,0.907026755559
1402416314791094560,,errorv,,0,,1402416314,742963075,/enu,/base_link,,,12.0754132373,25.9185970021,-17.9769975264,,0.0107838514777,0.0234004707487,-0.419485003272,0.907396527735
1402416314791117234,,errorv,,0,,1402416314,752931118,/enu,/base_link,,,12.082540812,25.9187847776,-17.9747211919,,0.0106893775552,0.023382154954,-0.418142163823,0.908017699646
1402416314797762796,,errorv,,0,,1402416314,797520147,base_link,/z_drive,,,0.0,0.0,0.0,,0.0,0.0,0.0,1.0
1402416314797786095,,errorv,,0,,1402416314,797538998,/z_drive,port,,,-0.3,0.3048,0.0,,0.0,0.0,0.0,1.0
1402416314797850870,,errorv,,0,,1402416314,797547919,/z_drive,starboard,,,-0.3,-0.3048,0.0,,0.0,0.0,0.0,1.0
1402416314799230851,,errorv,,0,,1402416314,763927936,/enu,/base_link,,,12.0903200875,25.9189374654,-17.9720839816,,0.0103314854489,0.02314929441,-0.416659540567,0.908709083167
1402416314799343586,,errorv,,0,,1402416314,773926973,/enu,/base_link,,,12.0975519955,25.9190231082,-17.9695237135,,0.0104050363969,0.0231266726483,-0.41531031139,0.909326254698
1402416314817689035,,errorv,,0,,1402416314,817523930,base_link,/z_drive,,,0.0,0.0,0.0,,0.0,0.0,0.0,1.0
1402416314817753172,,errorv,,0,,1402416314,817536608,/z_drive,port,,,-0.3,0.3048,0.0,,0.0,0.0,0.0,1.0
1402416314817836586,,errorv,,0,,1402416314,817540653,/z_drive,starboard,,,-0.3,-0.3048,0.0,,0.0,0.0,0.0,1.0
1402416314818313035,,errorv,,0,,1402416314,918142718,/base_link,/gps,,,-0.84,0.0,-0.14,,0.0,0.0,0.0,1.0
1402416314818596812,,errorv,,0,,1402416314,918413130,base_link,imu,,,0.13,0.0,-0.1,,1.0,0.0,0.0,0.0
1402416314837734095,,errorv,,0,,1402416314,837490986,base_link,/z_drive,,,0.0,0.0,0.0,,0.0,0.0,0.0,1.0
1402416314837765289,,errorv,,0,,1402416314,837510179,/z_drive,port,,,-0.3,0.3048,0.0,,0.0,0.0,0.0,1.0
1402416314837815377,,errorv,,0,,1402416314,837517496,/z_drive,starboard,,,-0.3,-0.3048,0.0,,0.0,0.0,0.0,1.0
1402416314839031209,,errorv,,0,,1402416314,784925937,/enu,/base_link,,,12.1311162732,25.9014806792,-17.9982668001,,0.00912047113072,0.0208357070347,-0.413726535153,0.910117049851
1402416314839079553,,errorv,,0,,1402416314,794933080,/enu,/base_link,,,12.1380135122,25.9019813616,-17.995799027,,0.00908676701061,0.0207913241638,-0.412360155155,0.910738301569
1402416314857738422,,errorv,,0,,1402416314,857490624,base_link,/z_drive,,,0.0,0.0,0.0,,0.0,0.0,0.0,1.0
1402416314857766088,,errorv,,0,,1402416314,857508445,/z_drive,port,,,-0.3,0.3048,0.0,,0.0,0.0,0.0,1.0
1402416314857787322,,errorv,,0,,1402416314,857513142,/z_drive,starboard,,,-0.3,-0.3048,0.0,,0.0,0.0,0.0,1.0
1402416314877699353,,errorv,,0,,1402416314,877406677,base_link,/z_drive,,,0.0,0.0,0.0,,0.0,0.0,0.0,1.0
1402416314877765797,,errorv,,0,,1402416314,877468585,/z_drive,port,,,-0.3,0.3048,0.0,,0.0,0.0,0.0,1.0
1402416314877827883,,errorv,,0,,1402416314,877474167,/z_drive,starboard,,,-0.3,-0.3048,0.0,,0.0,0.0,0.0,1.0
1402416314879369272,,errorv,,0,,1402416314,805927991,/enu,/base_link,,,12.1455205287,25.9027310115,-17.9933388446,,0.00901350259298,0.0204637907301,-0.410886652379,0.911412172914
1402416314879399595,,errorv,,0,,1402416314,815924882,/enu,/base_link,,,12.1520619528,25.903362836,-17.9908444228,,0.0087592737152,0.0203502853139,-0.409521739438,0.912031296579
1402416314879484518,,errorv,,0,,1402416314,826925992,/enu,/base_link,,,12.1596599975,25.9041350324,-17.9883049656,,0.0087630700944,0.0201999825793,-0.408045034833,0.912696235806
1402416314879502050,,errorv,,0,,1402416314,836929082,/enu,/base_link,,,12.172797736,25.9009827064,-18.0254579077,,0.00872110145225,0.0200483008434,-0.406664376636,0.913315987377
1402416314897758334,,errorv,,0,,1402416314,897521580,base_link,/z_drive,,,0.0,0.0,0.0,,0.0,0.0,0.0,1.0
1402416314897786535,,errorv,,0,,1402416314,897541976,/z_drive,port,,,-0.3,0.3048,0.0,,0.0,0.0,0.0,1.0
1402416314897799430,,errorv,,0,,1402416314,897546301,/z_drive,starboard,,,-0.3,-0.3048,0.0,,0.0,0.0,0.0,1.0
1402416314917689336,,errorv,,0,,1402416314,917455034,base_link,/z_drive,,,0.0,0.0,0.0,,0.0,0.0,0.0,1.0
1402416314917725248,,errorv,,0,,1402416314,917474541,/z_drive,port,,,-0.3,0.3048,0.0,,0.0,0.0,0.0,1.0
1402416314917746450,,errorv,,0,,1402416314,917478832,/z_drive,starboard,,,-0.3,-0.3048,0.0,,0.0,0.0,0.0,1.0
1402416314918421908,,errorv,,0,,1402416315,18239178,/base_link,/gps,,,-0.84,0.0,-0.14,,0.0,0.0,0.0,1.0
1402416314918702165,,errorv,,0,,1402416315,18517011,base_link,imu,,,0.13,0.0,-0.1,,1.0,0.0,0.0,0.0
1402416314919166023,,errorv,,0,,1402416314,847929000,/enu,/base_link,,,12.1801503354,25.9017125744,-18.0226898926,,0.00864861530322,0.0198169769189,-0.405150298629,0.913994378757
1402416314919192738,,errorv,,0,,1402416314,857928991,/enu,/base_link,,,12.1868655826,25.902590405,-18.020484848,,0.00848164830678,0.0197419230522,-0.403775670203,0.914605667087
1402416314919219528,,errorv,,0,,1402416314,868928909,/enu,/base_link,,,12.1942739965,25.9036626773,-18.0181793313,,0.00855181447155,0.0195884870703,-0.402236271714,0.915286370138
1402416314919245863,,errorv,,0,,1402416314,878928899,/enu,/base_link,,,12.2010930726,25.904656331,-18.0158753166,,0.00825304702449,0.0195243423384,-0.400844118929,0.91590102063
1402416314919273973,,errorv,,0,,1402416314,888926982,/enu,/base_link,,,12.2154417431,25.8996223419,-18.0625812459,,0.00771766385079,0.0192706441296,-0.399569205103,0.916467964673
1402416314937719252,,errorv,,0,,1402416314,937530392,base_link,/z_drive,,,0.0,0.0,0.0,,0.0,0.0,0.0,1.0
1402416314937747119,,errorv,,0,,1402416314,937568103,/z_drive,port,,,-0.3,0.3048,0.0,,0.0,0.0,0.0,1.0
1402416314937818481,,errorv,,0,,1402416314,937580453,/z_drive,starboard,,,-0.3,-0.3048,0.0,,0.0,0.0,0.0,1.0
1402416314957681168,,errorv,,0,,1402416314,957478137,base_link,/z_drive,,,0.0,0.0,0.0,,0.0,0.0,0.0,1.0
1402416314957713324,,errorv,,0,,1402416314,957491228,/z_drive,port,,,-0.3,0.3048,0.0,,0.0,0.0,0.0,1.0
1402416314957769791,,errorv,,0,,1402416314,957495363,/z_drive,starboard,,,-0.3,-0.3048,0.0,,0.0,0.0,0.0,1.0
1402416314959019941,,errorv,,0,,1402416314,899930000,/enu,/base_link,,,12.2231736509,25.9008093386,-18.0600677735,,0.00757767929399,0.0191346377462,-0.398032638029,0.917140372832
1402416314959070995,,errorv,,0,,1402416314,909929037,/enu,/base_link,,,12.2299433381,25.9018275991,-18.0576290529,,0.00770153935109,0.0191202533602,-0.39664364116,0.917741207602
