rosbagTimestamp,control_method,x_current,x_desired,y_current,y_desired,z_current,z_desired,x_velocity_current,x_velocity_desired,y_velocity_current,y_velocity_desired,z_velocity_current,z_velocity_desired,yaw_current,yaw_desired,yaw_velocity_current,yaw_velocity_desired,roll_current,roll_desired,roll_velocity_current,roll_velocity_desired,pitch_current,pitch_desired,pitch_velocity_current,pitch_velocity_desired,required_force_x,required_force_y,required_moment_z,resultant_force_x,resultant_force_y,resultant_moment_z,current_port_servo_angle,current_port_thruster_force,current_starboard_servo_angle,current_starboard_thruster_force,estimated_port_servo_angle,estimated_port_thruster_force,estimated_starboard_servo_angle,estimated_starboard_thruster_force,cost_value,step,user_defined_1,user_defined_2,user_defined_3,user_defined_4,user_defined_5
1402760433794151938,3,-8.8425614544,-7.1377884924,1.27616923936,2.38304939926,2.34265577131,-3.84635974695,-0.0222282224295,0.0,-0.0077774239128,0.0,0.0536824398985,0.0,-0.601699856401,0.0,-0.0100341594357,0.0,0.00213089973791,0.0,-0.0129929515544,0.0,0.0703113471164,0.0,0.0159120561013,0.0,-0.0,-0.0,0.592139422894,-19.5,139.430090009,-125.469842158,1.04412874381,0.0,-1.05026641687,0.0,1.0471975512,61.0,-1.0471975512,-100.0,17753804.1,0.0,0.0,0.0,0.0,0.0,0.0
1402760433813526462,3,-8.8425614544,-7.1377884924,1.27616923936,2.38304939926,2.34265577131,-3.84635974695,-0.0222282224295,0.0,-0.0077774239128,0.0,0.0536824398985,0.0,-0.601699856401,0.0,-0.0100341594357,0.0,0.00213089973791,0.0,-0.0129929515544,0.0,0.0703113471164,0.0,0.0159120561013,0.0,-0.0,-0.0,0.592139422894,-19.5,139.430090009,-125.469842158,1.04412874381,0.0,-1.05026641687,0.0,1.0471975512,61.0,-1.0471975512,-100.0,17753804.1,0.0,0.0,0.0,0.0,0.0,0.0
1402760433834059094,3,-8.84303459641,-7.1377884924,1.27604004236,2.38304939926,2.34368436033,-3.84635974695,-0.0226710717881,0.0,-0.00890937221161,0.0,0.0538087771571,0.0,-0.601846824752,0.0,-0.00170891033429,0.0,0.00172839272976,0.0,-0.0110312763973,0.0,0.0704958643121,0.0,0.0191009507241,0.0,-0.0,-0.0,0.592139422894,-19.5,139.430090009,-125.469842158,1.04412874381,0.0,-1.05026641687,0.0,1.0471975512,61.0,-1.0471975512,-100.0,17753804.1,0.0,0.0,0.0,0.0,0.0,0.0
1402760433853492960,3,-8.84303459641,-7.1377884924,1.27604004236,2.38304939926,2.34368436033,-3.84635974695,-0.0226710717881,0.0,-0.00890937221161,0.0,0.0538087771571,0.0,-0.601846824752,0.0,-0.00170891033429,0.0,0.00172839272976,0.0,-0.0110312763973,0.0,0.0704958643121,0.0,0.0191009507241,0.0,-0.0,-0.0,0.592139422894,-19.5,139.430090009,-125.469842158,1.04412874381,0.0,-1.05026641687,0.0,1.0471975512,61.0,-1.0471975512,-100.0,17753804.1,0.0,0.0,0.0,0.0,0.0,0.0
1402760433873545137,3,-8.82877523186,-7.1377884924,1.28260254411,2.38304939926,2.33358108124,-3.84635974695,-0.0209076244174,0.0,-0.0027598240969,0.0,0.053676904529,0.0,-0.60248053537,0.0,-0.00773794859149,0.0,9.54505344225e-05,0.0,-0.0122068432715,0.0,0.0704080901255,0.0,0.0165680412564,0.0,-0.0,-0.0,0.592139422894,-19.5,139.430090009,-125.469842158,1.04412874381,0.0,-1.05026641687,0.0,1.0471975512,61.0,-1.0471975512,-100.0,17753804.1,0.0,0.0,0.0,0.0,0.0,0.0
1402760433894072305,3,-8.82877523186,-7.1377884924,1.28260254411,2.38304939926,2.33358108124,-3.84635974695,-0.0209076244174,0.0,-0.0027598240969,0.0,0.053676904529,0.0,-0.60248053537,0.0,-0.00773794859149,0.0,9.54505344225e-05,0.0,-0.0122068432715,0.0,0.0704080901255,0.0,0.0165680412564,0.0,-0.0,-0.0,0.592139422894,-19.5,139.430090009,-125.469842158,1.04412874381,0.0,-1.05026641687,0.0,1.0471975512,61.0,-1.0471975512,-100.0,17753804.1,0.0,0.0,0.0,0.0,0.0,0.0
1402760433913831911,3,-8.81778247745,-7.1377884924,1.28538953648,2.38304939926,2.32440529243,-3.84635974695,-0.0253126882813,0.0,-0.00977549301636,0.0,0.05424537568,0.0,-0.602939138349,0.0,-0.0060105381303,0.0,0.000464137593487,0.0,-0.0129938844223,0.0,0.0709408991419,0.0,0.0140397123554,0.0,-0.0,-0.0,0.592139422894,-19.5,139.430090009,-125.469842158,1.04412874381,0.0,-1.05026641687,0.0,1.0471975512,61.0,-1.0471975512,-100.0,17753804.1,0.0,0.0,0.0,0.0,0.0,0.0
1402760433933513063,3,-8.81778247745,-7.1377884924,1.28538953648,2.38304939926,2.32440529243,-3.84635974695,-0.0253126882813,0.0,-0.00977549301636,0.0,0.05424537568,0.0,-0.602939138349,0.0,-0.0060105381303,0.0,0.000464137593487,0.0,-0.0129938844223,0.0,0.0709408991419,0.0,0.0140397123554,0.0,-0.0,-0.0,0.592139422894,-19.5,139.430090009,-125.469842158,1.04412874381,0.0,-1.05026641687,0.0,1.0471975512,61.0,-1.0471975512,-100.0,17753804.1,0.0,0.0,0.0,0.0,0.0,0.0
1402760433954027040,3,-8.79852665419,-7.1377884924,1.29238251559,2.38304939926,2.3072863708,-3.84635974695,-0.0157829935009,0.0,-0.00700808345741,0.0,0.0522965063025,0.0,-0.603575354092,0.0,-0.0105259874938,0.0,-0.00106921068389,0.0,-0.00475271269515,0.0,0.0717500141966,0.0,0.0129150799207,0.0,-0.0,-0.0,0.592139422894,-19.5,139.430090009,-125.469842158,1.04412874381,0.0,-1.05026641687,0.0,1.0471975512,61.0,-1.0471975512,-100.0,17753804.1,0.0,0.0,0.0,0.0,0.0,0.0
1402760433973532847,3,-8.79852665419,-7.1377884924,1.29238251559,2.38304939926,2.3072863708,-3.84635974695,-0.0157829935009,0.0,-0.00700808345741,0.0,0.0522965063025,0.0,-0.603575354092,0.0,-0.0105259874938,0.0,-0.00106921068389,0.0,-0.00475271269515,0.0,0.0717500141966,0.0,0.0129150799207,0.0,-0.0,-0.0,0.592139422894,-19.5,139.430090009,-125.469842158,1.04412874381,0.0,-1.05026641687,0.0,1.0471975512,61.0,-1.0471975512,-100.0,17753804.1,0.0,0.0,0.0,0.0,0.0,0.0
1402760433993631618,3,-8.79913219751,-7.1377884924,1.29207127385,2.38304939926,2.30912947263,-3.84635974695,-0.0156388317513,0.0,-0.00603533450456,0.0,0.053431072934,0.0,-0.603862066989,0.0,-0.0105584803077,0.0,-0.00141399916728,0.0,-0.0112223319078,0.0,0.0719020214361,0.0,0.0134852501524,0.0,-0.0,-0.0,0.592139422894,-19.5,139.430090009,-125.469842158,1.04412874381,0.0,-1.05026641687,0.0,1.0471975512,61.0,-1.0471975512,-100.0,17753804.1,0.0,0.0,0.0,0.0,0.0,0.0
1402760434014062468,3,-8.78908742235,-7.1377884924,1.29551977262,2.38304939926,2.30161495968,-3.84635974695,-0.0232452137595,0.0,-0.0103649934992,0.0,0.0546963562591,0.0,-0.604128328158,0.0,-0.0039017434806,0.0,-0.000857087980211,0.0,-0.00538051536936,0.0,0.0717039836665,0.0,0.00316674489721,0.0,-0.0,-0.0,0.592139422894,-19.5,139.430090009,-125.469842158,1.04412874381,0.0,-1.05026641687,0.0,1.0471975512,61.0,-1.0471975512,-100.0,17753804.1,0.0,0.0,0.0,0.0,0.0,0.0
1402760434034084932,3,-8.78908742235,-7.1377884924,1.29551977262,2.38304939926,2.30161495968,-3.84635974695,-0.0232452137595,0.0,-0.0103649934992,0.0,0.0546963562591,0.0,-0.604128328158,0.0,-0.0039017434806,0.0,-0.000857087980211,0.0,-0.00538051536936,0.0,0.0717039836665,0.0,0.00316674489721,0.0,-0.0,-0.0,0.592139422894,-19.5,139.430090009,-125.469842158,1.04412874381,0.0,-1.05026641687,0.0,1.0471975512,61.0,-1.0471975512,-100.0,17753804.1,0.0,0.0,0.0,0.0,0.0,0.0
1402760434053452732,3,-8.78953277328,-7.1377884924,1.29522719419,2.38304939926,2.3029823068,-3.84635974695,-0.0236376111508,0.0,-0.0109213665635,0.0,0.0557064039596,0.0,-0.60432954161,0.0,-0.00753486274733,0.0,-0.000809529745357,0.0,0.0039955741347,0.0,0.0717568055795,0.0,-0.00169796172291,0.0,-0.0,-0.0,0.592139422894,-19.5,139.430090009,-125.469842158,1.04412874381,0.0,-1.05026641687,0.0,1.0471975512,61.0,-1.0471975512,-100.0,17753804.1,0.0,0.0,0.0,0.0,0.0,0.0
1402760434073907929,3,-8.78953277328,-7.1377884924,1.29522719419,2.38304939926,2.3029823068,-3.84635974695,-0.0236376111508,0.0,-0.0109213665635,0.0,0.0557064039596,0.0,-0.60432954161,0.0,-0.00753486274733,0.0,-0.000809529745357,0.0,0.0039955741347,0.0,0.0717568055795,0.0,-0.00169796172291,0.0,-0.0,-0.0,0.592139422894,-19.5,139.430090009,-125.469842158,1.04412874381,0.0,-1.05026641687,0.0,1.0471975512,61.0,-1.0471975512,-100.0,17753804.1,0.0,0.0,0.0,0.0,0.0,0.0
1402760434093557273,3,-8.77091101568,-7.1377884924,1.30347892031,2.38304939926,2.28936871616,-3.84635974695,-0.0133362422168,0.0,-0.000400930118776,0.0,0.0548245859231,0.0,-0.605018732485,0.0,-0.00671693277276,0.0,-0.00226066720391,0.0,0.00132002769355,0.0,0.0718927825547,0.0,-0.00469611143617,0.0,-0.0,-0.0,0.592139422894,-19.5,139.430090009,-125.469842158,1.04412874381,0.0,-1.05026641687,0.0,1.0471975512,61.0,-1.0471975512,-100.0,17753804.1,0.0,0.0,0.0,0.0,0.0,0.0
1402760434113342956,3,-8.77091101568,-7.1377884924,1.30347892031,2.38304939926,2.28936871616,-3.84635974695,-0.0133362422168,0.0,-0.000400930118776,0.0,0.0548245859231,0.0,-0.605018732485,0.0,-0.00671693277276,0.0,-0.00226066720391,0.0,0.00132002769355,0.0,0.0718927825547,0.0,-0.00469611143617,0.0,-0.0,-0.0,0.592139422894,-19.5,139.430090009,-125.469842158,1.04412874381,0.0,-1.05026641687,0.0,1.0471975512,61.0,-1.0471975512,-100.0,17753804.1,0.0,0.0,0.0,0.0,0.0,0.0
1402760434135435463,3,-8.76494520788,-7.1377884924,1.30740830714,2.38304939926,2.27804768493,-3.84635974695,-0.0322137374393,0.0,-0.00433156662094,0.0,0.0547573461873,0.0,-0.605427013387,0.0,-0.0112339550178,0.0,-0.000264876572214,0.0,0.00615260036946,0.0,0.0703321885571,0.0,-0.0109837065895,0.0,-0.0,-0.0,0.592139422894,-19.5,139.430090009,-125.469842158,1.04412874381,0.0,-1.05026641687,0.0,1.0471975512,61.0,-1.0471975512,-100.0,17753804.1,0.0,0.0,0.0,0.0,0.0,0.0
1402760434153727466,3,-8.76494520788,-7.1377884924,1.30740830714,2.38304939926,2.27804768493,-3.84635974695,-0.0322137374393,0.0,-0.00433156662094,0.0,0.0547573461873,0.0,-0.605427013387,0.0,-0.0112339550178,0.0,-0.000264876572214,0.0,0.00615260036946,0.0,0.0703321885571,0.0,-0.0109837065895,0.0,-0.0,-0.0,0.592139422894,-19.5,139.430090009,-125.469842158,1.04412874381,0.0,-1.05026641687,0.0,1.0471975512,61.0,-1.0471975512,-100.0,17753804.1,0.0,0.0,0.0,0.0,0.0,0.0
1402760434173901798,3,-8.74894872592,-7.1377884924,1.31302877374,2.38304939926,2.26380301923,-3.84635974695,-0.0285577172196,0.0,-0.00385809779583,0.0,0.052274235519,0.0,-0.606139949541,0.0,-0.0131346450849,0.0,-5.84912309736e-05,0.0,0.00130636708351,0.0,0.0703943558327,0.0,-0.0128728056832,0.0,-0.0,-0.0,0.592139422894,-19.5,139.430090009,-125.469842158,1.04412874381,0.0,-1.05026641687,0.0,1.0471975512,61.0,-1.0471975512,-100.0,17753804.1,0.0,0.0,0.0,0.0,0.0,0.0
1402760434193506388,3,-8.74894872592,-7.1377884924,1.31302877374,2.38304939926,2.26380301923,-3.84635974695,-0.0285577172196,0.0,-0.00385809779583,0.0,0.052274235519,0.0,-0.606139949541,0.0,-0.0131346450849,0.0,-5.84912309736e-05,0.0,0.00130636708351,0.0,0.0703943558327,0.0,-0.0128728056832,0.0,-0.0,-0.0,0.592139422894,-19.5,139.430090009,-125.469842158,1.04412874381,0.0,-1.05026641687,0.0,1.0471975512,61.0,-1.0471975512,-100.0,17753804.1,0.0,0.0,0.0,0.0,0.0,0.0
1402760434213486355,3,-8.73579462392,-7.1377884924,1.31734492587,2.38304939926,2.24836576007,-3.84635974695,-0.0313149695559,0.0,-0.010024816541,0.0,0.04912169162,0.0,-0.606598215365,0.0,-0.00863935518326,0.0,0.00132525051597,0.0,0.00420608438886,0.0,0.0702210344376,0.0,-0.00963289252131,0.0,-0.0,-0.0,0.592139422894,-19.5,139.430090009,-125.469842158,1.04412874381,61.0,-1.05026641687,-100.0,1.0471975512,61.0,-1.0471975512,-100.0,17753804.1,0.0,0.0,0.0,0.0,0.0,0.0
1402760434233527175,3,-8.73579462392,-7.1377884924,1.31734492587,2.38304939926,2.24836576007,-3.84635974695,-0.0313149695559,0.0,-0.010024816541,0.0,0.04912169162,0.0,-0.606598215365,0.0,-0.00863935518326,0.0,0.00132525051597,0.0,0.00420608438886,0.0,0.0702210344376,0.0,-0.00963289252131,0.0,-0.0,-0.0,0.592139422894,-19.5,139.430090009,-125.469842158,1.04412874381,61.0,-1.05026641687,-100.0,1.0471975512,61.0,-1.0471975512,-100.0,17753804.1,0.0,0.0,0.0,0.0,0.0,0.0
1402760434254070503,3,-8.7268240846,-7.1377884924,1.32215911002,2.38304939926,2.24405441315,-3.84635974695,-0.0341374132647,0.0,-0.00542352482682,0.0,0.0490133638963,0.0,-0.607305513212,0.0,-0.00833741687852,0.0,0.0011459085203,0.0,-0.0046935453478,0.0,0.0690671271732,0.0,-0.00386082231683,0.0,-0.0,-0.0,0.592139422894,-19.5,139.430090009,-125.469842158,1.04412874381,61.0,-1.05026641687,-100.0,1.0471975512,61.0,-1.0471975512,-100.0,17753804.1,0.0,0.0,0.0,0.0,0.0,0.0
1402760434273443065,3,-8.7268240846,-7.1377884924,1.32215911002,2.38304939926,2.24405441315,-3.84635974695,-0.0341374132647,0.0,-0.00542352482682,0.0,0.0490133638963,0.0,-0.607305513212,0.0,-0.00833741687852,0.0,0.0011459085203,0.0,-0.0046935453478,0.0,0.0690671271732,0.0,-0.00386082231683,0.0,-0.0,-0.0,0.592139422894,-19.5,139.430090009,-125.469842158,1.04259428183,61.0,-1.05026641687,-100.0,1.0471975512,61.0,-1.0471975512,-100.0,17753804.1,0.0,0.0,0.0,0.0,0.0,0.0
1402760434293517303,3,-8.72745393193,-7.1377884924,1.32210389559,2.38304939926,2.24500078423,-3.84635974695,-0.0342603031981,0.0,-0.00547101500601,0.0,0.0484046857344,0.0,-0.607552958211,0.0,-0.00906712893901,0.0,0.00109666675272,0.0,-0.00686816450352,0.0,0.06897473565,0.0,-0.00302027825824,0.0,-0.0,-0.0,0.592139422894,-19.5,139.430090009,-125.469842158,1.04259428183,61.0,-1.05026641687,-100.0,1.0471975512,61.0,-1.0471975512,-100.0,17753804.1,0.0,0.0,0.0,0.0,0.0,0.0
1402760434314336395,3,-8.72745393193,-7.1377884924,1.32210389559,2.38304939926,2.24500078423,-3.84635974695,-0.0342603031981,0.0,-0.00547101500601,0.0,0.0484046857344,0.0,-0.607552958211,0.0,-0.00906712893901,0.0,0.00109666675272,0.0,-0.00686816450352,0.0,0.06897473565,0.0,-0.00302027825824,0.0,-0.0,-0.0,0.592139422894,-19.5,139.430090009,-125.469842158,1.04412874381,61.0,-1.05026641687,-100.0,1.0471975512,61.0,-1.0471975512,-100.0,17753804.1,0.0,0.0,0.0,0.0,0.0,0.0
1402760434333537324,3,-8.71292196989,-7.1377884924,1.32709656862,2.38304939926,2.23013920987,-3.84635974695,-0.0306578609379,0.0,-0.0066991571054,0.0,0.0448080312408,0.0,-0.608332697984,0.0,-0.0164526262912,0.0,0.00118196749841,0.0,-0.00525032239644,0.0,0.0693214708233,0.0,0.00273281042482,0.0,-0.0,-0.0,0.592139422894,-19.5,139.430090009,-125.469842158,1.04259428183,61.0,-1.05026641687,-100.0,1.0471975512,61.0,-1.0471975512,-100.0,17753804.1,0.0,0.0,0.0,0.0,0.0,0.0
1402760434353706026,3,-8.71292196989,-7.1377884924,1.32709656862,2.38304939926,2.23013920987,-3.84635974695,-0.0306578609379,0.0,-0.0066991571054,0.0,0.0448080312408,0.0,-0.608332697984,0.0,-0.0164526262912,0.0,0.00118196749841,0.0,-0.00525032239644,0.0,0.0693214708233,0.0,0.00273281042482,0.0,-0.0,-0.0,0.592139422894,-19.5,139.430090009,-125.469842158,1.04259428183,61.0,-1.05026641687,-100.0,1.0471975512,61.0,-1.0471975512,-100.0,17753804.1,0.0,0.0,0.0,0.0,0.0,0.0
1402760434374122175,3,-8.69440576624,-7.1377884924,1.33283642333,2.38304939926,2.22484684145,-3.84635974695,-0.0131969507908,0.0,-0.00392952197606,0.0,0.0459349418442,0.0,-0.60919900524,0.0,-0.00674388004392,0.0,-0.00067516415867,0.0,0.00499731713342,0.0,0.0704804804334,0.0,3.83703916778e-06,0.0,-0.0,-0.0,0.592139422894,-19.5,139.430090009,-125.469842158,1.04412874381,61.0,-1.05026641687,-100.0,1.0471975512,61.0,-1.0471975512,-100.0,17753804.1,0.0,0.0,0.0,0.0,0.0,0.0
1402760434394157189,3,-8.69440576624,-7.1377884924,1.33283642333,2.38304939926,2.22484684145,-3.84635974695,-0.0131969507908,0.0,-0.00392952197606,0.0,0.0459349418442,0.0,-0.60919900524,0.0,-0.00674388004392,0.0,-0.00067516415867,0.0,0.00499731713342,0.0,0.0704804804334,0.0,3.83703916778e-06,0.0,-0.0,-0.0,0.592139422894,-19.5,139.430090009,-125.469842158,1.04412874381,61.0,-1.04566326936,-100.0,1.0471975512,61.0,-1.0471975512,-100.0,17753804.1,0.0,0.0,0.0,0.0,0.0,0.0
1402760434413926651,3,-8.6835718635,-7.1377884924,1.33644859133,2.38304939926,2.20891907197,-3.84635974695,-0.0290490699267,0.0,-0.0202156765875,0.0,0.0443511422629,0.0,-0.608877418097,0.0,0.0302621264085,0.0,0.00119469293045,0.0,-0.0557274582225,0.0,0.070155770487,0.0,0.0347736112262,0.0,-0.0,-0.0,0.592139422894,-19.5,139.430090009,-125.469842158,1.04259428183,61.0,-1.04259458383,-100.0,1.0471975512,61.0,-1.0471975512,-100.0,17753804.1,0.0,0.0,0.0,0.0,0.0,0.0
1402760434433948392,3,-8.6835718635,-7.1377884924,1.33644859133,2.38304939926,2.20891907197,-3.84635974695,-0.0290490699267,0.0,-0.0202156765875,0.0,0.0443511422629,0.0,-0.608877418097,0.0,0.0302621264085,0.0,0.00119469293045,0.0,-0.0557274582225,0.0,0.070155770487,0.0,0.0347736112262,0.0,-0.0,-0.0,0.592139422894,-19.5,139.430090009,-125.469842158,1.04259428183,61.0,-1.04259458383,-100.0,1.0471975512,61.0,-1.0471975512,-100.0,17753804.1,0.0,0.0,0.0,0.0,0.0,0.0
1402760434453552321,3,-8.6771695321,-7.1377884924,1.34092644152,2.38304939926,2.20018466333,-3.84635974695,-0.0485867071292,0.0,-0.0278722782583,0.0,0.0333655535149,0.0,-0.608496914976,0.0,0.0593414306258,0.0,-0.00356048793638,0.0,-0.0532070719205,0.0,0.0687109114543,0.0,0.0430873501763,0.0,-0.0,-0.0,0.592139422894,-19.5,139.430090009,-125.469842158,1.04412874381,61.0,-1.04259458383,-100.0,1.0471975512,61.0,-1.0471975512,-100.0,17753804.1,0.0,0.0,0.0,0.0,0.0,0.0
1402760434473738983,3,-8.6771695321,-7.1377884924,1.34092644152,2.38304939926,2.20018466333,-3.84635974695,-0.0485867071292,0.0,-0.0278722782583,0.0,0.0333655535149,0.0,-0.608496914976,0.0,0.0593414306258,0.0,-0.00356048793638,0.0,-0.0532070719205,0.0,0.0687109114543,0.0,0.0430873501763,0.0,-0.0,-0.0,0.592139422894,-19.5,139.430090009,-125.469842158,1.04259428183,61.0,-1.0395258983,-100.0,1.0471975512,61.0,-1.0471975512,-100.0,17753804.1,0.0,0.0,0.0,0.0,0.0,0.0
1402760434493562536,3,-8.67859427539,-7.1377884924,1.3400247896,2.38304939926,2.2013833702,-3.84635974695,-0.0509970177976,0.0,-0.0288017027419,0.0,0.0413317093489,0.0,-0.606182356111,0.0,0.0884276916174,0.0,-0.00791536196515,0.0,-0.107797769713,0.0,0.0689405582062,0.0,0.0820703524895,0.0,-0.0,-0.0,0.592139422894,-19.5,139.430090009,-125.469842158,1.04259428183,61.0,-1.03799143632,-100.0,1.0471975512,61.0,-1.0471975512,-100.0,17753804.1,0.0,0.0,0.0,0.0,0.0,0.0
1402760434514024280,3,-8.66665461055,-7.1377884924,1.34361916369,2.38304939926,2.18540457149,-3.84635974695,-0.0627259456972,0.0,-0.0403370644429,0.0,0.0356418286284,0.0,-0.604126878917,0.0,0.106532473992,0.0,-0.0091180657548,0.0,-0.0779941692176,0.0,0.0689110147504,0.0,0.0692852960822,0.0,-0.0,-0.0,0.592139422894,-19.5,139.430090009,-125.469842158,1.04259428183,61.0,-1.03645697435,-100.0,1.0471975512,61.0,-1.0471975512,-100.0,17753804.1,0.0,0.0,0.0,0.0,0.0,0.0
1402760434533816241,3,-8.66665461055,-7.1377884924,1.34361916369,2.38304939926,2.18540457149,-3.84635974695,-0.0627259456972,0.0,-0.0403370644429,0.0,0.0356418286284,0.0,-0.604126878917,0.0,0.106532473992,0.0,-0.0091180657548,0.0,-0.0779941692176,0.0,0.0689110147504,0.0,0.0692852960822,0.0,-0.0,-0.0,0.592139422894,-19.5,139.430090009,-125.469842158,1.04259428183,61.0,-1.03492275079,-100.0,1.0471975512,61.0,-1.0471975512,-100.0,17753804.1,0.0,0.0,0.0,0.0,0.0,0.0
1402760434553572717,3,-8.66794638609,-7.1377884924,1.34288158036,2.38304939926,2.18602179454,-3.84635974695,-0.0671625278648,0.0,-0.0419092666385,0.0,0.039286160662,0.0,-0.601783378395,0.0,0.127312635609,0.0,-0.0120386094096,0.0,-0.113214444741,0.0,0.068898886936,0.0,0.0798626634414,0.0,-0.0,-0.0,0.592139422894,-19.5,139.430090009,-125.469842158,1.04259428183,61.0,-1.03645697435,-100.0,1.0471975512,61.0,-1.0471975512,-100.0,17753804.1,0.0,0.0,0.0,0.0,0.0,0.0
1402760434573925307,3,-8.66794638609,-7.1377884924,1.34288158036,2.38304939926,2.18602179454,-3.84635974695,-0.0671625278648,0.0,-0.0419092666385,0.0,0.039286160662,0.0,-0.601783378395,0.0,0.127312635609,0.0,-0.0120386094096,0.0,-0.113214444741,0.0,0.068898886936,0.0,0.0798626634414,0.0,-0.0,-0.0,0.592139422894,-19.5,139.430090009,-125.469842158,1.04412874381,61.0,-1.03645697435,-100.0,1.0471975512,61.0,-1.0471975512,-100.0,17753804.1,0.0,0.0,0.0,0.0,0.0,0.0
1402760434593607334,3,-8.67141475776,-7.1377884924,1.34089862817,2.38304939926,2.18770597509,-3.84635974695,-0.0819785685185,0.0,-0.0502834550725,0.0,0.0440904508753,0.0,-0.596337789933,0.0,0.151111817744,0.0,-0.0163249291692,0.0,-0.0850237902358,0.0,0.0687566153758,0.0,0.0538690659709,0.0,-0.0,-0.0,0.592139422894,-19.5,139.430090009,-125.469842158,1.04412874381,61.0,-1.03645697435,-100.0,1.0471975512,61.0,-1.0471975512,-100.0,17753804.1,0.0,0.0,0.0,0.0,0.0,0.0
1402760434613885349,3,-8.67141475776,-7.1377884924,1.34089862817,2.38304939926,2.18770597509,-3.84635974695,-0.0819785685185,0.0,-0.0502834550725,0.0,0.0440904508753,0.0,-0.596337789933,0.0,0.151111817744,0.0,-0.0163249291692,0.0,-0.0850237902358,0.0,0.0687566153758,0.0,0.0538690659709,0.0,-0.0,-0.0,0.592139422894,-19.5,139.430090009,-125.469842158,1.04259428183,61.0,-1.03492275079,-100.0,1.0471975512,61.0,-1.0471975512,-100.0,17753804.1,0.0,0.0,0.0,0.0,0.0,0.0
1402760434633518540,3,-8.64049792114,-7.1377884924,1.34955406876,2.38304939926,2.16770595778,-3.84635974695,-0.0774788882844,0.0,-0.0545407775613,0.0,0.0450143073466,0.0,-0.587470735701,0.0,0.16478939579,0.0,-0.0218972660026,0.0,-0.0576834019143,0.0,0.0693780583137,0.0,0.0266893715725,0.0,-0.0,-0.0,0.592139422894,-19.5,139.430090009,-125.469842158,1.04259428183,61.0,-1.03645697435,-100.0,1.0471975512,61.0,-1.0471975512,-100.0,17753804.1,0.0,0.0,0.0,0.0,0.0,0.0
1402760434654875791,3,-8.64049792114,-7.1377884924,1.34955406876,2.38304939926,2.16770595778,-3.84635974695,-0.0774788882844,0.0,-0.0545407775613,0.0,0.0450143073466,0.0,-0.587470735701,0.0,0.16478939579,0.0,-0.0218972660026,0.0,-0.0576834019143,0.0,0.0693780583137,0.0,0.0266893715725,0.0,-0.0,-0.0,0.592139422894,-19.5,139.430090009,-125.469842158,1.04259428183,61.0,-1.03492275079,-100.0,1.0471975512,61.0,-1.0471975512,-100.0,17753804.1,0.0,0.0,0.0,0.0,0.0,0.0
1402760434673552549,3,-8.62725122728,-7.1377884924,1.35220330876,2.38304939926,2.15763342949,-3.84635974695,-0.0841526133124,0.0,-0.0631522659837,0.0,0.0396486912743,0.0,-0.577806612427,0.0,0.180236383038,0.0,-0.0242823304641,0.0,-0.0092700185995,0.0,0.0690150528479,0.0,-0.0202632828032,0.0,-0.0,-0.0,0.592139422894,-19.5,139.430090009,-125.469842158,1.04412874381,61.0,-1.03492275079,-100.0,1.0471975512,61.0,-1.0471975512,-100.0,17753804.1,0.0,0.0,0.0,0.0,0.0,0.0
1402760434693643775,3,-8.62725122728,-7.1377884924,1.35220330876,2.38304939926,2.15763342949,-3.84635974695,-0.0841526133124,0.0,-0.0631522659837,0.0,0.0396486912743,0.0,-0.577806612427,0.0,0.180236383038,0.0,-0.0242823304641,0.0,-0.0092700185995,0.0,0.0690150528479,0.0,-0.0202632828032,0.0,-0.0,-0.0,0.592139422894,-19.5,139.430090009,-125.469842158,1.04259428183,61.0,-1.03492275079,-100.0,1.0471975512,61.0,-1.0471975512,-100.0,17753804.1,0.0,0.0,0.0,0.0,0.0,0.0
1402760434714032904,3,-8.62512993597,-7.1377884924,1.35521505658,2.38304939926,2.14880011564,-3.84635974695,-0.107119526478,0.0,-0.0609763431676,0.0,0.0420127412128,0.0,-0.577945043763,0.0,0.191703323105,0.0,-0.0240610958447,0.0,-0.018802187569,0.0,0.0665618380091,0.0,-0.000610477254643,0.0,-0.0,-0.0,0.592139422894,-19.5,139.430090009,-125.469842158,1.04412874381,61.0,-1.03645697435,-100.0,1.0471975512,61.0,-1.0471975512,-100.0,17753804.1,0.0,0.0,0.0,0.0,0.0,0.0
1402760434733394819,3,-8.62512993597,-7.1377884924,1.35521505658,2.38304939926,2.14880011564,-3.84635974695,-0.107119526478,0.0,-0.0609763431676,0.0,0.0420127412128,0.0,-0.577945043763,0.0,0.191703323105,0.0,-0.0240610958447,0.0,-0.018802187569,0.0,0.0665618380091,0.0,-0.000610477254643,0.0,-0.0,-0.0,0.592139422894,-19.5,139.430090009,-125.469842158,1.04412874381,61.0,-1.03492275079,-100.0,1.0471975512,61.0,-1.0471975512,-100.0,17753804.1,0.0,0.0,0.0,0.0,0.0,0.0
1402760434753548073,3,-8.61371274476,-7.1377884924,1.35577083435,2.38304939926,2.12774147568,-3.84635974695,-0.118285628784,0.0,-0.0830776029284,0.0,0.0301885846133,0.0,-0.56660490741,0.0,0.208155467898,0.0,-0.0216615530875,0.0,0.00505501173497,0.0,0.0666262022683,0.0,-0.0417062913046,0.0,-0.0,-0.0,0.592139422894,-19.5,139.430090009,-125.469842158,1.04259428183,61.0,-1.03645697435,-100.0,1.0471975512,61.0,-1.0471975512,-100.0,17753804.1,0.0,0.0,0.0,0.0,0.0,0.0
1402760434773982761,3,-8.61371274476,-7.1377884924,1.35577083435,2.38304939926,2.12774147568,-3.84635974695,-0.118285628784,0.0,-0.0830776029284,0.0,0.0301885846133,0.0,-0.56660490741,0.0,0.208155467898,0.0,-0.0216615530875,0.0,0.00505501173497,0.0,0.0666262022683,0.0,-0.0417062913046,0.0,-0.0,-0.0,0.592139422894,-19.5,139.430090009,-125.469842158,1.04259428183,61.0,-1.03492275079,-100.0,1.0471975512,61.0,-1.0471975512,-100.0,17753804.1,0.0,0.0,0.0,0.0,0.0,0.0
1402760434793542374,3,-8.6203292012,-7.1377884924,1.35092617326,2.38304939926,2.1295209457,-3.84635974695,-0.132968889577,0.0,-0.0974277582571,0.0,0.0338783064451,0.0,-0.555113867712,0.0,0.221087520766,0.0,-0.0200766342774,0.0,0.0234739150799,0.0,0.0656301544397,0.0,-0.0290546233871,0.0,-0.0,-0.0,0.592139422894,-19.5,139.430090009,-125.469842158,1.04412874381,61.0,-1.03645697435,-100.0,1.0471975512,61.0,-1.0471975512,-100.0,17753804.1,0.0,0.0,0.0,0.0,0.0,0.0
1402760434813802066,3,-8.6203292012,-7.1377884924,1.35092617326,2.38304939926,2.1295209457,-3.84635974695,-0.132968889577,0.0,-0.0974277582571,0.0,0.0338783064451,0.0,-0.555113867712,0.0,0.221087520766,0.0,-0.0200766342774,0.0,0.0234739150799,0.0,0.0656301544397,0.0,-0.0290546233871,0.0,-0.0,-0.0,0.592139422894,-19.5,139.430090009,-125.469842158,1.04259428183,61.0,-1.03492275079,-100.0,1.0471975512,61.0,-1.0471975512,-100.0,17753804.1,0.0,0.0,0.0,0.0,0.0,0.0
1402760434834559899,3,-8.62574202948,-7.1377884924,1.34563701165,2.38304939926,2.1272212637,-3.84635974695,-0.16087295366,0.0,-0.115739131794,0.0,0.0245393674777,0.0,-0.547910172928,0.0,0.230294276205,0.0,-0.016163767359,0.0,0.0286758123184,0.0,0.0642586506468,0.0,-0.0325129556008,0.0,-0.0,-0.0,0.592139422894,-19.5,139.430090009,-125.469842158,1.04259428183,61.0,-1.03492275079,-100.0,1.0471975512,61.0,-1.0471975512,-100.0,17753804.1,0.0,0.0,0.0,0.0,0.0,0.0
1402760434853422215,3,-8.61140890829,-7.1377884924,1.34708049471,2.38304939926,2.12095184742,-3.84635974695,-0.140945130309,0.0,-0.118116009838,0.0,0.0240969780335,0.0,-0.540548635948,0.0,0.228826793481,0.0,-0.0169581099796,0.0,0.039293970747,0.0,0.0659619417206,0.0,-0.0484984250779,0.0,-0.0,-0.0,0.592139422894,-19.5,139.430090009,-125.469842158,1.04259428183,61.0,-1.03492275079,-100.0,1.0471975512,61.0,-1.0471975512,-100.0,17753804.1,0.0,0.0,0.0,0.0,0.0,0.0
1402760434874615344,3,-8.61140890829,-7.1377884924,1.34708049471,2.38304939926,2.12095184742,-3.84635974695,-0.140945130309,0.0,-0.118116009838,0.0,0.0240969780335,0.0,-0.540548635948,0.0,0.228826793481,0.0,-0.0169581099796,0.0,0.039293970747,0.0,0.0659619417206,0.0,-0.0484984250779,0.0,-0.0,-0.0,0.592139422894,-19.5,139.430090009,-125.469842158,1.04259428183,61.0,-1.03645697435,-100.0,1.0471975512,61.0,-1.0471975512,-100.0,17753804.1,0.0,0.0,0.0,0.0,0.0,0.0
1402760434893531719,3,-8.61452547063,-7.1377884924,1.34471899702,2.38304939926,2.12127971529,-3.84635974695,-0.144778854396,0.0,-0.12143270169,0.0,0.0254486949224,0.0,-0.535609365849,0.0,0.237357155066,0.0,-0.0160844216377,0.0,0.023846551526,0.0,0.0657991974249,0.0,-0.0315191833849,0.0,-0.0,-0.0,0.592139422894,-19.5,139.430090009,-125.469842158,1.04259428183,61.0,-1.03492275079,-100.0,1.0471975512,61.0,-1.0471975512,-100.0,17753804.1,0.0,0.0,0.0,0.0,0.0,0.0
1402760434914006913,3,-8.61452547063,-7.1377884924,1.34471899702,2.38304939926,2.12127971529,-3.84635974695,-0.144778854396,0.0,-0.12143270169,0.0,0.0254486949224,0.0,-0.535609365849,0.0,0.237357155066,0.0,-0.0160844216377,0.0,0.023846551526,0.0,0.0657991974249,0.0,-0.0315191833849,0.0,-0.0,-0.0,0.592139422894,-19.5,139.430090009,-125.469842158,1.04259428183,61.0,-1.03492275079,-100.0,1.0471975512,61.0,-1.0471975512,-100.0,17753804.1,0.0,0.0,0.0,0.0,0.0,0.0
1402760434933718440,3,-8.61492488997,-7.1377884924,1.34308976954,2.38304939926,2.10757078574,-3.84635974695,-0.165113412207,0.0,-0.128986013384,0.0,0.0306356876256,0.0,-0.527339410742,0.0,0.239663848274,0.0,-0.0137211566818,0.0,0.0265696049891,0.0,0.0641207106206,0.0,-0.0296650001269,0.0,-0.0,-0.0,0.592139422894,-19.5,139.430090009,-125.469842158,1.04259428183,61.0,-1.03645697435,-100.0,1.0471975512,61.0,-1.0471975512,-100.0,17753804.1,0.0,0.0,0.0,0.0,0.0,0.0
1402760434953523566,3,-8.61492488997,-7.1377884924,1.34308976954,2.38304939926,2.10757078574,-3.84635974695,-0.165113412207,0.0,-0.128986013384,0.0,0.0306356876256,0.0,-0.527339410742,0.0,0.239663848274,0.0,-0.0137211566818,0.0,0.0265696049891,0.0,0.0641207106206,0.0,-0.0296650001269,0.0,-0.0,-0.0,0.592139422894,-19.5,139.430090009,-125.469842158,1.04259428183,61.0,-1.03492275079,-100.0,1.0471975512,61.0,-1.0471975512,-100.0,17753804.1,0.0,0.0,0.0,0.0,0.0,0.0
1402760434973503385,3,-8.61425414128,-7.1377884924,1.33570821418,2.38304939926,2.11036409033,-3.84635974695,-0.167998098791,0.0,-0.150194482782,0.0,0.0358939907889,0.0,-0.514414636874,0.0,0.247626293438,0.0,-0.0111104974658,0.0,0.0323546123315,0.0,0.0654032288445,0.0,-0.0214489890526,0.0,-0.0,-0.0,0.592139422894,-19.5,139.430090009,-125.469842158,1.04259428183,61.0,-1.03645697435,-100.0,1.0471975512,61.0,-1.0471975512,-100.0,17753804.1,0.0,0.0,0.0,0.0,0.0,0.0
1402760434993313564,3,-8.61425414128,-7.1377884924,1.33570821418,2.38304939926,2.11036409033,-3.84635974695,-0.167998098791,0.0,-0.150194482782,0.0,0.0358939907889,0.0,-0.514414636874,0.0,0.247626293438,0.0,-0.0111104974658,0.0,0.0323546123315,0.0,0.0654032288445,0.0,-0.0214489890526,0.0,-0.0,-0.0,0.592139422894,-19.5,139.430090009,-125.469842158,1.04259428183,61.0,-1.03645697435,-100.0,1.0471975512,61.0,-1.0471975512,-100.0,17753804.1,0.0,0.0,0.0,0.0,0.0,0.0
1402760435013542000,3,-8.62130133374,-7.1377884924,1.32925914778,2.38304939926,2.1118380308,-3.84635974695,-0.17413758373,0.0,-0.156582099447,0.0,0.0362532791507,0.0,-0.503948943413,0.0,0.250264429553,0.0,-0.00983726424109,0.0,0.0118277739015,0.0,0.0653984156395,0.0,-0.0102698472511,0.0,-0.0,-0.0,0.592139422894,-19.5,139.430090009,-125.469842158,1.04259428183,61.0,-1.03492275079,-100.0,1.0471975512,61.0,-1.0471975512,-100.0,17753804.1,0.0,0.0,0.0,0.0,0.0,0.0
1402760435034375434,3,-8.62130133374,-7.1377884924,1.32925914778,2.38304939926,2.1118380308,-3.84635974695,-0.17413758373,0.0,-0.156582099447,0.0,0.0362532791507,0.0,-0.503948943413,0.0,0.250264429553,0.0,-0.00983726424109,0.0,0.0118277739015,0.0,0.0653984156395,0.0,-0.0102698472511,0.0,-0.0,-0.0,0.592139422894,-19.5,139.430090009,-125.469842158,1.04259428183,61.0,-1.03492275079,-100.0,1.0471975512,61.0,-1.0471975512,-100.0,17753804.1,0.0,0.0,0.0,0.0,0.0,0.0
1402760435053795063,3,-8.62262480938,-7.1377884924,1.32865998546,2.38304939926,2.09768994564,-3.84635974695,-0.207335927127,0.0,-0.156511727576,0.0,0.0392253467722,0.0,-0.494048715757,0.0,0.252629458255,0.0,-0.00846029681728,0.0,0.0151231180143,0.0,0.0628247644185,0.0,-0.00433879762853,0.0,-0.0,-0.0,0.592139422894,-19.5,139.430090009,-125.469842158,1.04259428183,61.0,-1.03492275079,-100.0,1.0471975512,61.0,-1.0471975512,-100.0,17753804.1,0.0,0.0,0.0,0.0,0.0,0.0
1402760435073524540,3,-8.62262480938,-7.1377884924,1.32865998546,2.38304939926,2.09768994564,-3.84635974695,-0.207335927127,0.0,-0.156511727576,0.0,0.0392253467722,0.0,-0.494048715757,0.0,0.252629458255,0.0,-0.00846029681728,0.0,0.0151231180143,0.0,0.0628247644185,0.0,-0.00433879762853,0.0,-0.0,-0.0,0.592139422894,-19.5,139.430090009,-125.469842158,1.04259428183,61.0,-1.03492275079,-100.0,1.0471975512,61.0,-1.0471975512,-100.0,17753804.1,0.0,0.0,0.0,0.0,0.0,0.0
1402760435093652796,3,-8.62867726658,-7.1377884924,1.31961849477,2.38304939926,2.10096375636,-3.84635974695,-0.212081104737,0.0,-0.167800627103,0.0,0.0429207201614,0.0,-0.479804923142,0.0,0.252087365896,0.0,-0.00699316839032,0.0,0.0229643872029,0.0,0.063649081727,0.0,-0.0123246296164,0.0,-0.0,-0.0,0.592139422894,-19.5,139.430090009,-125.469842158,1.04259428183,61.0,-1.03492275079,-100.0,1.0471975512,61.0,-1.0471975512,-100.0,17753804.1,0.0,0.0,0.0,0.0,0.0,0.0
1402760435113572749,3,-8.62867726658,-7.1377884924,1.31961849477,2.38304939926,2.10096375636,-3.84635974695,-0.212081104737,0.0,-0.167800627103,0.0,0.0429207201614,0.0,-0.479804923142,0.0,0.252087365896,0.0,-0.00699316839032,0.0,0.0229643872029,0.0,0.063649081727,0.0,-0.0123246296164,0.0,-0.0,-0.0,0.592139422894,-19.5,139.430090009,-125.469842158,1.04259428183,61.0,-1.03492275079,-100.0,1.0471975512,61.0,-1.0471975512,-100.0,17753804.1,0.0,0.0,0.0,0.0,0.0,0.0
1402760435134015445,3,-8.63337142561,-7.1377884924,1.31613628662,2.38304939926,2.10182280558,-3.84635974695,-0.21559827679,0.0,-0.169109190486,0.0,0.0453366586358,0.0,-0.474387871394,0.0,0.25665969297,0.0,-0.006937495643,0.0,-0.00388288555107,0.0,0.0636438675262,0.0,-0.0085540957071,0.0,-0.0,-0.0,0.592139422894,-19.5,139.430090009,-125.469842158,1.04259428183,61.0,-1.03492275079,-100.0,1.0471975512,61.0,-1.0471975512,-100.0,17753804.1,0.0,0.0,0.0,0.0,0.0,0.0
1402760435153483858,3,-8.63337142561,-7.1377884924,1.31613628662,2.38304939926,2.10182280558,-3.84635974695,-0.21559827679,0.0,-0.169109190486,0.0,0.0453366586358,0.0,-0.474387871394,0.0,0.25665969297,0.0,-0.006937495643,0.0,-0.00388288555107,0.0,0.0636438675262,0.0,-0.0085540957071,0.0,-0.0,-0.0,0.592139422894,-19.5,139.430090009,-125.469842158,1.04412874381,61.0,-1.03492275079,-100.0,1.0471975512,61.0,-1.0471975512,-100.0,17753804.1,0.0,0.0,0.0,0.0,0.0,0.0
1402760435173758521,3,-8.63959954828,-7.1377884924,1.31221089848,2.38304939926,2.1009061479,-3.84635974695,-0.229457413742,0.0,-0.16657278267,0.0,0.0462837095799,0.0,-0.463898422228,0.0,0.26578150148,0.0,-0.00772581958604,0.0,0.000222397040127,0.0,0.0628434172241,0.0,-0.0105434717021,0.0,-0.0,-0.0,0.592139422894,-19.5,139.430090009,-125.469842158,1.04259428183,61.0,-1.03492275079,-100.0,1.0471975512,61.0,-1.0471975512,-100.0,17753804.1,0.0,0.0,0.0,0.0,0.0,0.0
1402760435193606942,3,-8.63959954828,-7.1377884924,1.31221089848,2.38304939926,2.1009061479,-3.84635974695,-0.229457413742,0.0,-0.16657278267,0.0,0.0462837095799,0.0,-0.463898422228,0.0,0.26578150148,0.0,-0.00772581958604,0.0,0.000222397040127,0.0,0.0628434172241,0.0,-0.0105434717021,0.0,-0.0,-0.0,0.592139422894,-19.5,139.430090009,-125.469842158,1.04412874381,61.0,-1.03492275079,-100.0,1.0471975512,61.0,-1.0471975512,-100.0,17753804.1,0.0,0.0,0.0,0.0,0.0,0.0
1402760435213563345,3,-8.64653893421,-7.1377884924,1.30841031391,2.38304939926,2.09150725706,-3.84635974695,-0.248332016388,0.0,-0.171022717662,0.0,0.0422361815217,0.0,-0.453663473798,0.0,0.270776157321,0.0,-0.00740033733235,0.0,-0.00663463166962,0.0,0.0611726323242,0.0,-0.00683510695051,0.0,-0.0,-0.0,0.592139422894,-19.5,139.430090009,-125.469842158,1.04259428183,61.0,-1.03492275079,-100.0,1.0471975512,61.0,-1.0471975512,-100.0,17753804.1,0.0,0.0,0.0,0.0,0.0,0.0
1402760435233823536,3,-8.64653893421,-7.1377884924,1.30841031391,2.38304939926,2.09150725706,-3.84635974695,-0.248332016388,0.0,-0.171022717662,0.0,0.0422361815217,0.0,-0.453663473798,0.0,0.270776157321,0.0,-0.00740033733235,0.0,-0.00663463166962,0.0,0.0611726323242,0.0,-0.00683510695051,0.0,-0.0,-0.0,0.592139422894,-19.5,139.430090009,-125.469842158,1.04259428183,61.0,-1.03492275079,-100.0,1.0471975512,61.0,-1.0471975512,-100.0,17753804.1,0.0,0.0,0.0,0.0,0.0,0.0
1402760435253326056,3,-8.65309306016,-7.1377884924,1.29716116093,2.38304939926,2.10862643465,-3.84635974695,-0.244528429963,0.0,-0.184838916008,0.0,0.0500206469337,0.0,-0.437694683774,0.0,0.286914977858,0.0,-0.00829265586297,0.0,-0.0140681784575,0.0,0.0627657450708,0.0,-0.0108042126055,0.0,-0.0,-0.0,0.592139422894,-19.5,139.430090009,-125.469842158,1.04259428183,61.0,-1.03492275079,-100.0,1.0471975512,61.0,-1.0471975512,-100.0,17753804.1,0.0,0.0,0.0,0.0,0.0,0.0
1402760435273719023,3,-8.65309306016,-7.1377884924,1.29716116093,2.38304939926,2.10862643465,-3.84635974695,-0.244528429963,0.0,-0.184838916008,0.0,0.0500206469337,0.0,-0.437694683774,0.0,0.286914977858,0.0,-0.00829265586297,0.0,-0.0140681784575,0.0,0.0627657450708,0.0,-0.0108042126055,0.0,-0.0,-0.0,0.592139422894,-19.5,139.430090009,-125.469842158,1.04259428183,61.0,-1.03492275079,-100.0,1.0471975512,61.0,-1.0471975512,-100.0,17753804.1,0.0,0.0,0.0,0.0,0.0,0.0
1402760435293509607,3,-8.66101167116,-7.1377884924,1.29127665675,2.38304939926,2.1099185587,-3.84635974695,-0.25220098566,0.0,-0.189887518063,0.0,0.0446149678127,0.0,-0.428475161835,0.0,0.293776496484,0.0,-0.00857010408477,0.0,-0.0151014397952,0.0,0.0623820517693,0.0,-0.00832232716953,0.0,-0.0,-0.0,0.592139422894,-19.5,139.430090009,-125.469842158,1.04259428183,61.0,-1.03492275079,-100.0,1.0471975512,61.0,-1.0471975512,-100.0,17753804.1,0.0,0.0,0.0,0.0,0.0,0.0
1402760435313711421,3,-8.66649231367,-7.1377884924,1.28480011094,2.38304939926,2.11423377206,-3.84635974695,-0.264215490152,0.0,-0.203728439235,0.0,0.0482582163259,0.0,-0.422826781038,0.0,0.280945683778,0.0,-0.00718785407319,0.0,-0.00704256210121,0.0,0.0618509175532,0.0,-0.0160638739591,0.0,-0.0,-0.0,0.592139422894,-19.5,139.430090009,-125.469842158,1.04259428183,61.0,-1.03492275079,-100.0,1.0471975512,61.0,-1.0471975512,-100.0,17753804.1,0.0,0.0,0.0,0.0,0.0,0.0
1402760435334179071,3,-8.66649231367,-7.1377884924,1.28480011094,2.38304939926,2.11423377206,-3.84635974695,-0.264215490152,0.0,-0.203728439235,0.0,0.0482582163259,0.0,-0.422826781038,0.0,0.280945683778,0.0,-0.00718785407319,0.0,-0.00704256210121,0.0,0.0618509175532,0.0,-0.0160638739591,0.0,-0.0,-0.0,0.592139422894,-19.5,139.430090009,-125.469842158,1.04259428183,61.0,-1.03492275079,-100.0,1.0471975512,61.0,-1.0471975512,-100.0,17753804.1,0.0,0.0,0.0,0.0,0.0,0.0
1402760435353467306,3,-8.67200167875,-7.1377884924,1.28043093563,2.38304939926,2.11529391318,-3.84635974695,-0.268148077366,0.0,-0.207678039363,0.0,0.0473883414072,0.0,-0.416713877169,0.0,0.296261002804,0.0,-0.00735538153642,0.0,-0.0222445786018,0.0,0.0615854170656,0.0,-0.00880580742052,0.0,-0.0,-0.0,0.592139422894,-19.5,139.430090009,-125.469842158,1.04259428183,61.0,-1.03492275079,-100.0,1.0471975512,61.0,-1.0471975512,-100.0,17753804.1,0.0,0.0,0.0,0.0,0.0,0.0
1402760435373483742,3,-8.67200167875,-7.1377884924,1.28043093563,2.38304939926,2.11529391318,-3.84635974695,-0.268148077366,0.0,-0.207678039363,0.0,0.0473883414072,0.0,-0.416713877169,0.0,0.296261002804,0.0,-0.00735538153642,0.0,-0.0222445786018,0.0,0.0615854170656,0.0,-0.00880580742052,0.0,-0.0,-0.0,0.592139422894,-19.5,139.430090009,-125.469842158,1.04259428183,61.0,-1.03492275079,-100.0,1.0471975512,61.0,-1.0471975512,-100.0,17753804.1,0.0,0.0,0.0,0.0,0.0,0.0
1402760435393559187,3,-8.67357716047,-7.1377884924,1.27517789181,2.38304939926,2.11115581207,-3.84635974695,-0.265641569862,0.0,-0.211229936345,0.0,0.0468122433431,0.0,-0.404321106577,0.0,0.287285727076,0.0,-0.00856040488875,0.0,-0.023065480798,0.0,0.0615755199789,0.0,-0.0146258627803,0.0,-0.0,-0.0,0.592139422894,-19.5,139.430090009,-125.469842158,1.04412874381,61.0,-1.03338852723,-100.0,1.0471975512,61.0,-1.0471975512,-100.0,17753804.1,0.0,0.0,0.0,0.0,0.0,0.0
1402760435413520613,3,-8.67357716047,-7.1377884924,1.27517789181,2.38304939926,2.11115581207,-3.84635974695,-0.265641569862,0.0,-0.211229936345,0.0,0.0468122433431,0.0,-0.404321106577,0.0,0.287285727076,0.0,-0.00856040488875,0.0,-0.023065480798,0.0,0.0615755199789,0.0,-0.0146258627803,0.0,-0.0,-0.0,0.592139422894,-19.5,139.430090009,-125.469842158,1.04259428183,61.0,-1.03338852723,-100.0,1.0471975512,61.0,-1.0471975512,-100.0,17753804.1,0.0,0.0,0.0,0.0,0.0,0.0
1402760435434186481,3,-8.6804310393,-7.1377884924,1.26915546046,2.38304939926,2.11570127722,-3.84635974695,-0.265283630144,0.0,-0.213811067686,0.0,0.0451074444936,0.0,-0.391720484461,0.0,0.285631076781,0.0,-0.010440867545,0.0,-0.0251487297725,0.0,0.0609901170528,0.0,-0.0104303309726,0.0,-0.0,-0.0,0.592139422894,-19.5,139.430090009,-125.469842158,1.04259428183,61.0,-1.03492275079,-100.0,1.0471975512,61.0,-1.0471975512,-100.0,17753804.1,0.0,0.0,0.0,0.0,0.0,0.0
1402760435453511850,3,-8.6804310393,-7.1377884924,1.26915546046,2.38304939926,2.11570127722,-3.84635974695,-0.265283630144,0.0,-0.213811067686,0.0,0.0451074444936,0.0,-0.391720484461,0.0,0.285631076781,0.0,-0.010440867545,0.0,-0.0251487297725,0.0,0.0609901170528,0.0,-0.0104303309726,0.0,-0.0,-0.0,0.592139422894,-19.5,139.430090009,-125.469842158,1.04259428183,61.0,-1.03492275079,-100.0,1.0471975512,61.0,-1.0471975512,-100.0,17753804.1,0.0,0.0,0.0,0.0,0.0,0.0
1402760435474190948,3,-8.69668991866,-7.1377884924,1.26000249975,2.38304939926,2.12644647171,-3.84635974695,-0.274341670183,0.0,-0.216452377845,0.0,0.0468034410949,0.0,-0.376828024289,0.0,0.280471475405,0.0,-0.011443153284,0.0,0.00174415405482,0.0,0.0593603343322,0.0,-0.01993215766,0.0,-0.0,-0.0,0.592139422894,-19.5,139.430090009,-125.469842158,1.04412874381,61.0,-1.03492275079,-100.0,1.0471975512,61.0,-1.0471975512,-100.0,17753804.1,0.0,0.0,0.0,0.0,0.0,0.0
1402760435493665471,3,-8.69668991866,-7.1377884924,1.26000249975,2.38304939926,2.12644647171,-3.84635974695,-0.274341670183,0.0,-0.216452377845,0.0,0.0468034410949,0.0,-0.376828024289,0.0,0.280471475405,0.0,-0.011443153284,0.0,0.00174415405482,0.0,0.0593603343322,0.0,-0.01993215766,0.0,-0.0,-0.0,0.592139422894,-19.5,139.430090009,-125.469842158,1.04259428183,61.0,-1.03492275079,-100.0,1.0471975512,61.0,-1.0471975512,-100.0,17753804.1,0.0,0.0,0.0,0.0,0.0,0.0
1402760435514118084,3,-8.71041731363,-7.1377884924,1.24867073114,2.38304939926,2.10959883359,-3.84635974695,-0.293613607271,0.0,-0.23743249827,0.0,0.0512981972905,0.0,-0.362701641897,0.0,0.27848760017,0.0,-0.00918173601394,0.0,0.00659661855326,0.0,0.0575210715262,0.0,-0.0107595367587,0.0,-0.0,-0.0,0.592139422894,-19.5,139.430090009,-125.469842158,1.04259428183,61.0,-1.03338852723,-100.0,1.0471975512,61.0,-1.0471975512,-100.0,17753804.1,0.0,0.0,0.0,0.0,0.0,0.0
1402760435533587306,3,-8.71041731363,-7.1377884924,1.24867073114,2.38304939926,2.10959883359,-3.84635974695,-0.293613607271,0.0,-0.23743249827,0.0,0.0512981972905,0.0,-0.362701641897,0.0,0.27848760017,0.0,-0.00918173601394,0.0,0.00659661855326,0.0,0.0575210715262,0.0,-0.0107595367587,0.0,-0.0,-0.0,0.592139422894,-19.5,139.430090009,-125.469842158,1.04259428183,61.0,-1.03492275079,-100.0,1.0471975512,61.0,-1.0471975512,-100.0,17753804.1,0.0,0.0,0.0,0.0,0.0,0.0
1402760435553327736,3,-8.7167716369,-7.1377884924,1.24377100378,2.38304939926,2.11051202582,-3.84635974695,-0.297628562036,0.0,-0.23909360674,0.0,0.0573879312962,0.0,-0.357062909941,0.0,0.271409883936,0.0,-0.00938015851993,0.0,-0.0189589007463,0.0,0.0573077133714,0.0,-0.00272566068194,0.0,-0.0,-0.0,0.592139422894,-19.5,139.430090009,-125.469842158,1.04259428183,61.0,-1.03492275079,-100.0,1.0471975512,61.0,-1.0471975512,-100.0,17753804.1,0.0,0.0,0.0,0.0,0.0,0.0
1402760435574595048,3,-8.7167716369,-7.1377884924,1.24377100378,2.38304939926,2.11051202582,-3.84635974695,-0.297628562036,0.0,-0.23909360674,0.0,0.0573879312962,0.0,-0.357062909941,0.0,0.271409883936,0.0,-0.00938015851993,0.0,-0.0189589007463,0.0,0.0573077133714,0.0,-0.00272566068194,0.0,-0.0,-0.0,0.592139422894,-19.5,139.430090009,-125.469842158,1.04259428183,61.0,-1.03338852723,-100.0,1.0471975512,61.0,-1.0471975512,-100.0,17753804.1,0.0,0.0,0.0,0.0,0.0,0.0
1402760435593716922,3,-8.73438623256,-7.1377884924,1.23402862643,2.38304939926,2.10347059981,-3.84635974695,-0.31932754722,0.0,-0.251002923972,0.0,0.0549539444874,0.0,-0.3429271388,0.0,0.255722528753,0.0,-0.00856858516578,0.0,-0.0092347749208,0.0,0.0547108062586,0.0,-0.0159665346476,0.0,-0.0,-0.0,0.592139422894,-19.5,139.430090009,-125.469842158,1.04412874381,61.0,-1.03492275079,-100.0,1.0471975512,61.0,-1.0471975512,-100.0,17753804.1,0.0,0.0,0.0,0.0,0.0,0.0
1402760435613411077,3,-8.73438623256,-7.1377884924,1.23402862643,2.38304939926,2.10347059981,-3.84635974695,-0.31932754722,0.0,-0.251002923972,0.0,0.0549539444874,0.0,-0.3429271388,0.0,0.255722528753,0.0,-0.00856858516578,0.0,-0.0092347749208,0.0,0.0547108062586,0.0,-0.0159665346476,0.0,-0.0,-0.0,0.592139422894,-19.5,139.430090009,-125.469842158,1.04259428183,61.0,-1.03338852723,-100.0,1.0471975512,61.0,-1.0471975512,-100.0,17753804.1,0.0,0.0,0.0,0.0,0.0,0.0
1402760435635147920,3,-8.74467147234,-7.1377884924,1.22604304984,2.38304939926,2.10509285544,-3.84635974695,-0.32485717634,0.0,-0.25718046899,0.0,0.0621132776551,0.0,-0.334753864218,0.0,0.249946400795,0.0,-0.00875172036642,0.0,-0.00923624372941,0.0,0.0545527659589,0.0,-0.00793175852794,0.0,-0.0,-0.0,0.592139422894,-19.5,139.430090009,-125.469842158,1.04259428183,61.0,-1.03492275079,-100.0,1.0471975512,61.0,-1.0471975512,-100.0,17753804.1,0.0,0.0,0.0,0.0,0.0,0.0
1402760435654079606,3,-8.74150226079,-7.1377884924,1.22739893956,2.38304939926,2.09720687001,-3.84635974695,-0.31639276586,0.0,-0.254126633375,0.0,0.0622099925983,0.0,-0.328489153991,0.0,0.258885288284,0.0,-0.0108731077429,0.0,-0.00773468099187,0.0,0.0549881980842,0.0,-0.00490582813407,0.0,-0.0,-0.0,0.592139422894,-19.5,139.430090009,-125.469842158,1.04259428183,61.0,-1.03338852723,-100.0,1.0471975512,61.0,-1.0471975512,-100.0,17753804.1,0.0,0.0,0.0,0.0,0.0,0.0
1402760435675432473,3,-8.74150226079,-7.1377884924,1.22739893956,2.38304939926,2.09720687001,-3.84635974695,-0.31639276586,0.0,-0.254126633375,0.0,0.0622099925983,0.0,-0.328489153991,0.0,0.258885288284,0.0,-0.0108731077429,0.0,-0.00773468099187,0.0,0.0549881980842,0.0,-0.00490582813407,0.0,-0.0,-0.0,0.592139422894,-19.5,139.430090009,-125.469842158,1.04259428183,61.0,-1.03338852723,-100.0,1.0471975512,61.0,-1.0471975512,-100.0,17753804.1,0.0,0.0,0.0,0.0,0.0,0.0
1402760435693301797,3,-8.74795399758,-7.1377884924,1.22215008804,2.38304939926,2.09851630921,-3.84635974695,-0.319332180115,0.0,-0.256654676257,0.0,0.0690592857826,0.0,-0.323327446082,0.0,0.24595027701,0.0,-0.0112203268342,0.0,-0.00914203055208,0.0,0.0547888805752,0.0,0.000832644715847,0.0,-0.0,-0.0,0.592139422894,-19.5,139.430090009,-125.469842158,1.04259428183,61.0,-1.03338852723,-100.0,1.0471975512,61.0,-1.0471975512,-100.0,17753804.1,0.0,0.0,0.0,0.0,0.0,0.0
1402760435713440002,3,-8.74795399758,-7.1377884924,1.22215008804,2.38304939926,2.09851630921,-3.84635974695,-0.319332180115,0.0,-0.256654676257,0.0,0.0690592857826,0.0,-0.323327446082,0.0,0.24595027701,0.0,-0.0112203268342,0.0,-0.00914203055208,0.0,0.0547888805752,0.0,0.000832644715847,0.0,-0.0,-0.0,0.592139422894,-19.5,139.430090009,-125.469842158,1.04259428183,61.0,-1.03492275079,-100.0,1.0471975512,61.0,-1.0471975512,-100.0,17753804.1,0.0,0.0,0.0,0.0,0.0,0.0
1402760435734343258,3,-8.76133067638,-7.1377884924,1.21403914539,2.38304939926,2.08905016755,-3.84635974695,-0.327126155701,0.0,-0.261746222546,0.0,0.0634031703899,0.0,-0.310120639862,0.0,0.240021368678,0.0,-0.0117380543203,0.0,-0.00599740588526,0.0,0.0539206908542,0.0,0.00324239212412,0.0,-0.0,-0.0,0.592139422894,-19.5,139.430090009,-125.469842158,1.04259428183,61.0,-1.03338852723,-100.0,1.0471975512,61.0,-1.0471975512,-100.0,17753804.1,0.0,0.0,0.0,0.0,0.0,0.0
1402760435753496674,3,-8.76133067638,-7.1377884924,1.21403914539,2.38304939926,2.08905016755,-3.84635974695,-0.327126155701,0.0,-0.261746222546,0.0,0.0634031703899,0.0,-0.310120639862,0.0,0.240021368678,0.0,-0.0117380543203,0.0,-0.00599740588526,0.0,0.0539206908542,0.0,0.00324239212412,0.0,-0.0,-0.0,0.592139422894,-19.5,139.430090009,-125.469842158,1.04259428183,61.0,-1.03492275079,-100.0,1.0471975512,61.0,-1.0471975512,-100.0,17753804.1,0.0,0.0,0.0,0.0,0.0,0.0
1402760435773633666,3,-8.78283630026,-7.1377884924,1.19837662266,2.38304939926,2.09045693559,-3.84635974695,-0.342410941276,0.0,-0.280107301399,0.0,0.066320678928,0.0,-0.298190941845,0.0,0.2344193993,0.0,-0.0108738701176,0.0,-0.0227075989719,0.0,0.0534340429986,0.0,0.00869755523691,0.0,-0.0,-0.0,0.592139422894,-19.5,139.430090009,-125.469842158,1.04259428183,61.0,-1.03338852723,-100.0,1.0471975512,61.0,-1.0471975512,-100.0,17753804.1,0.0,0.0,0.0,0.0,0.0,0.0
1402760435794094794,3,-8.78283630026,-7.1377884924,1.19837662266,2.38304939926,2.09045693559,-3.84635974695,-0.342410941276,0.0,-0.280107301399,0.0,0.066320678928,0.0,-0.298190941845,0.0,0.2344193993,0.0,-0.0108738701176,0.0,-0.0227075989719,0.0,0.0534340429986,0.0,0.00869755523691,0.0,-0.0,-0.0,0.592139422894,-19.5,139.430090009,-125.469842158,1.04259428183,61.0,-1.03338852723,-100.0,1.0471975512,61.0,-1.0471975512,-100.0,17753804.1,0.0,0.0,0.0,0.0,0.0,0.0
1402760435813639226,3,-8.79093660924,-7.1377884924,1.19400185241,2.38304939926,2.08838263571,-3.84635974695,-0.347031111806,0.0,-0.285080166302,0.0,0.0707591152245,0.0,-0.293298621951,0.0,0.226324236525,0.0,-0.0110605679743,0.0,0.00523795145493,0.0,0.0533046767277,0.0,-0.000819047264858,0.0,-0.0,-0.0,0.592139422894,-19.5,139.430090009,-125.469842158,1.04412874381,61.0,-1.03338852723,-100.0,1.0471975512,61.0,-1.0471975512,-100.0,17753804.1,0.0,0.0,0.0,0.0,0.0,0.0
1402760435833686627,3,-8.79093660924,-7.1377884924,1.19400185241,2.38304939926,2.08838263571,-3.84635974695,-0.347031111806,0.0,-0.285080166302,0.0,0.0707591152245,0.0,-0.293298621951,0.0,0.226324236525,0.0,-0.0110605679743,0.0,0.00523795145493,0.0,0.0533046767277,0.0,-0.000819047264858,0.0,-0.0,-0.0,0.592139422894,-19.5,139.430090009,-125.469842158,1.04259428183,61.0,-1.03492275079,-100.0,1.0471975512,61.0,-1.0471975512,-100.0,17753804.1,0.0,0.0,0.0,0.0,0.0,0.0
1402760435854077298,3,-8.79449491766,-7.1377884924,1.19027259355,2.38304939926,2.07355466006,-3.84635974695,-0.33321152358,0.0,-0.275804732792,0.0,0.0584134337964,0.0,-0.282437130813,0.0,0.234027202834,0.0,-0.0136640931109,0.0,-0.00898866160652,0.0,0.0546084771476,0.0,0.0127043277576,0.0,-0.0,-0.0,0.592139422894,-19.5,139.430090009,-125.469842158,1.04259428183,61.0,-1.03338852723,-100.0,1.0471975512,61.0,-1.0471975512,-100.0,17753804.1,0.0,0.0,0.0,0.0,0.0,0.0
1402760435873847003,3,-8.79449491766,-7.1377884924,1.19027259355,2.38304939926,2.07355466006,-3.84635974695,-0.33321152358,0.0,-0.275804732792,0.0,0.0584134337964,0.0,-0.282437130813,0.0,0.234027202834,0.0,-0.0136640931109,0.0,-0.00898866160652,0.0,0.0546084771476,0.0,0.0127043277576,0.0,-0.0,-0.0,0.592139422894,-19.5,139.430090009,-125.469842158,1.04259428183,61.0,-1.03492275079,-100.0,1.0471975512,61.0,-1.0471975512,-100.0,17753804.1,0.0,0.0,0.0,0.0,0.0,0.0
1402760435893738767,3,-8.8122073863,-7.1377884924,1.17540160656,2.38304939926,2.07652218253,-3.84635974695,-0.337314583262,0.0,-0.285560794892,0.0,0.0593587061872,0.0,-0.27015238845,0.0,0.23320083119,0.0,-0.0136558615019,0.0,0.00150508153168,0.0,0.0549995272781,0.0,0.00528428432235,0.0,-0.0,-0.0,0.592139422894,-19.5,139.430090009,-125.469842158,1.04259428183,61.0,-1.03338852723,-100.0,1.0471975512,61.0,-1.0471975512,-100.0,17753804.1,0.0,0.0,0.0,0.0,0.0,0.0
1402760435914360766,3,-8.8122073863,-7.1377884924,1.17540160656,2.38304939926,2.07652218253,-3.84635974695,-0.337314583262,0.0,-0.285560794892,0.0,0.0593587061872,0.0,-0.27015238845,0.0,0.23320083119,0.0,-0.0136558615019,0.0,0.00150508153168,0.0,0.0549995272781,0.0,0.00528428432235,0.0,-0.0,-0.0,0.592139422894,-19.5,139.430090009,-125.469842158,1.04259428183,61.0,-1.03492275079,-100.0,1.0471975512,61.0,-1.0471975512,-100.0,17753804.1,0.0,0.0,0.0,0.0,0.0,0.0
1402760435933466354,3,-8.82863101313,-7.1377884924,1.16288950479,2.38304939926,2.08307377161,-3.84635974695,-0.34269877849,0.0,-0.300309752445,0.0,0.0562516046412,0.0,-0.263469535618,0.0,0.235912540935,0.0,-0.0126400833455,0.0,0.0121696887729,0.0,0.0554873916557,0.0,0.00232085873578,0.0,-0.0,-0.0,0.592139422894,-19.5,139.430090009,-125.469842158,1.04259428183,61.0,-1.03338852723,-100.0,1.0471975512,61.0,-1.0471975512,-100.0,17753804.1,0.0,0.0,0.0,0.0,0.0,0.0
1402760435953546013,3,-8.84081682988,-7.1377884924,1.15555811285,2.38304939926,2.07715333672,-3.84635974695,-0.350442306219,0.0,-0.309916568147,0.0,0.0498923974215,0.0,-0.25865684152,0.0,0.236440019661,0.0,-0.0113990553737,0.0,-0.00479005528889,0.0,0.05489337447,0.0,0.00838309756963,0.0,-0.0,-0.0,0.592139422894,-19.5,139.430090009,-125.469842158,1.04259428183,61.0,-1.03492275079,-100.0,1.0471975512,61.0,-1.0471975512,-100.0,17753804.1,0.0,0.0,0.0,0.0,0.0,0.0
1402760435974144119,3,-8.84081682988,-7.1377884924,1.15555811285,2.38304939926,2.07715333672,-3.84635974695,-0.350442306219,0.0,-0.309916568147,0.0,0.0498923974215,0.0,-0.25865684152,0.0,0.236440019661,0.0,-0.0113990553737,0.0,-0.00479005528889,0.0,0.05489337447,0.0,0.00838309756963,0.0,-0.0,-0.0,0.592139422894,-19.5,139.430090009,-125.469842158,1.04259428183,61.0,-1.03338852723,-100.0,1.0471975512,61.0,-1.0471975512,-100.0,17753804.1,0.0,0.0,0.0,0.0,0.0,0.0
1402760435993542892,3,-8.84825695448,-7.1377884924,1.14884563167,2.38304939926,2.07837478857,-3.84635974695,-0.349497729991,0.0,-0.312799463358,0.0,0.0418801360372,0.0,-0.253741959442,0.0,0.235174257811,0.0,-0.0114036709513,0.0,-0.00164977197317,0.0,0.0550586605266,0.0,0.0141399663177,0.0,-0.0,-0.0,0.592139422894,-19.5,139.430090009,-125.469842158,1.04259428183,61.0,-1.03492275079,-100.0,1.0471975512,61.0,-1.0471975512,-100.0,17753804.1,0.0,0.0,0.0,0.0,0.0,0.0
1402760436013468098,3,-8.84825695448,-7.1377884924,1.14884563167,2.38304939926,2.07837478857,-3.84635974695,-0.349497729991,0.0,-0.312799463358,0.0,0.0418801360372,0.0,-0.253741959442,0.0,0.235174257811,0.0,-0.0114036709513,0.0,-0.00164977197317,0.0,0.0550586605266,0.0,0.0141399663177,0.0,-0.0,-0.0,0.592139422894,-19.5,139.430090009,-125.469842158,1.04259428183,61.0,-1.03338852723,-100.0,1.0471975512,61.0,-1.0471975512,-100.0,17753804.1,0.0,0.0,0.0,0.0,0.0,0.0
1402760436033979463,3,-8.86587287995,-7.1377884924,1.13537577075,2.38304939926,2.08174249826,-3.84635974695,-0.351230129177,0.0,-0.320640936017,0.0,0.0386079224297,0.0,-0.24409990032,0.0,0.227736439283,0.0,-0.0113184246708,0.0,0.0156797997661,0.0,0.0559033980622,0.0,-0.00227256485494,0.0,-0.0,-0.0,0.592139422894,-19.5,139.430090009,-125.469842158,1.04259428183,61.0,-1.03492275079,-100.0,1.0471975512,61.0,-1.0471975512,-100.0,17753804.1,0.0,0.0,0.0,0.0,0.0,0.0
1402760436053421445,3,-8.86587287995,-7.1377884924,1.13537577075,2.38304939926,2.08174249826,-3.84635974695,-0.351230129177,0.0,-0.320640936017,0.0,0.0386079224297,0.0,-0.24409990032,0.0,0.227736439283,0.0,-0.0113184246708,0.0,0.0156797997661,0.0,0.0559033980622,0.0,-0.00227256485494,0.0,-0.0,-0.0,0.592139422894,-19.5,139.430090009,-125.469842158,1.04259428183,61.0,-1.03338852723,-100.0,1.0471975512,61.0,-1.0471975512,-100.0,17753804.1,0.0,0.0,0.0,0.0,0.0,0.0
1402760436073600832,3,-8.87644951265,-7.1377884924,1.12419228742,2.38304939926,2.07864293817,-3.84635974695,-0.335543056771,0.0,-0.318835853465,0.0,0.0352468947164,0.0,-0.23446259091,0.0,0.229139921314,0.0,-0.0123960258285,0.0,0.0203186150835,0.0,0.0579903299717,0.0,0.0138546559648,0.0,-0.0,-0.0,0.592139422894,-19.5,139.430090009,-125.469842158,1.04259428183,61.0,-1.03492275079,-100.0,1.0471975512,61.0,-1.0471975512,-100.0,17753804.1,0.0,0.0,0.0,0.0,0.0,0.0
1402760436094086924,3,-8.87644951265,-7.1377884924,1.12419228742,2.38304939926,2.07864293817,-3.84635974695,-0.335543056771,0.0,-0.318835853465,0.0,0.0352468947164,0.0,-0.23446259091,0.0,0.229139921314,0.0,-0.0123960258285,0.0,0.0203186150835,0.0,0.0579903299717,0.0,0.0138546559648,0.0,-0.0,-0.0,0.592139422894,-19.5,139.430090009,-125.469842158,1.04259428183,61.0,-1.03492275079,-100.0,1.0471975512,61.0,-1.0471975512,-100.0,17753804.1,0.0,0.0,0.0,0.0,0.0,0.0
1402760436113663433,3,-8.90243786734,-7.1377884924,1.10277410711,2.38304939926,2.08329827139,-3.84635974695,-0.336550714845,0.0,-0.333871988597,0.0,0.0360268893238,0.0,-0.223235384819,0.0,0.22512601373,0.0,-0.0108163812332,0.0,-0.00487106663413,0.0,0.0586462555543,0.0,0.0151411926596,0.0,-0.0,-0.0,0.592139422894,-19.5,139.430090009,-125.469842158,1.04259428183,61.0,-1.03338852723,-100.0,1.0471975512,61.0,-1.0471975512,-100.0,17753804.1,0.0,0.0,0.0,0.0,0.0,0.0
1402760436133896930,3,-8.90243786734,-7.1377884924,1.10277410711,2.38304939926,2.08329827139,-3.84635974695,-0.336550714845,0.0,-0.333871988597,0.0,0.0360268893238,0.0,-0.223235384819,0.0,0.22512601373,0.0,-0.0108163812332,0.0,-0.00487106663413,0.0,0.0586462555543,0.0,0.0151411926596,0.0,-0.0,-0.0,0.592139422894,-19.5,139.430090009,-125.469842158,1.04259428183,61.0,-1.03338852723,-100.0,1.0471975512,61.0,-1.0471975512,-100.0,17753804.1,0.0,0.0,0.0,0.0,0.0,0.0
1402760436154090829,3,-8.92196847424,-7.1377884924,1.08872981474,2.38304939926,2.06922532242,-3.84635974695,-0.341989064457,0.0,-0.335592950048,0.0,0.0345003831094,0.0,-0.210687808366,0.0,0.212707358136,0.0,-0.0110719735355,0.0,0.00267766209369,0.0,0.058629569364,0.0,0.0124439204731,0.0,-0.0,-0.0,0.592139422894,-19.5,139.430090009,-125.469842158,1.04259428183,61.0,-1.03492275079,-100.0,1.0471975512,61.0,-1.0471975512,-100.0,17753804.1,0.0,0.0,0.0,0.0,0.0,0.0
1402760436173449869,3,-8.92196847424,-7.1377884924,1.08872981474,2.38304939926,2.06922532242,-3.84635974695,-0.341989064457,0.0,-0.335592950048,0.0,0.0345003831094,0.0,-0.210687808366,0.0,0.212707358136,0.0,-0.0110719735355,0.0,0.00267766209369,0.0,0.058629569364,0.0,0.0124439204731,0.0,-0.0,-0.0,0.592139422894,-19.5,139.430090009,-125.469842158,1.04259428183,61.0,-1.03338852723,-100.0,1.0471975512,61.0,-1.0471975512,-100.0,17753804.1,0.0,0.0,0.0,0.0,0.0,0.0
1402760436193664677,3,-8.9291745491,-7.1377884924,1.08160822793,2.38304939926,2.06989131871,-3.84635974695,-0.341020936414,0.0,-0.33903990345,0.0,0.0303796534745,0.0,-0.206266077774,0.0,0.212034736046,0.0,-0.0108398455501,0.0,0.0158057594596,0.0,0.0588897055055,0.0,0.0132586930059,0.0,-0.0,-0.0,0.592139422894,-19.5,139.430090009,-125.469842158,1.04259428183,61.0,-1.03492275079,-100.0,1.0471975512,61.0,-1.0471975512,-100.0,17753804.1,0.0,0.0,0.0,0.0,0.0,0.0
1402760436214131321,3,-8.9291745491,-7.1377884924,1.08160822793,2.38304939926,2.06989131871,-3.84635974695,-0.341020936414,0.0,-0.33903990345,0.0,0.0303796534745,0.0,-0.206266077774,0.0,0.212034736046,0.0,-0.0108398455501,0.0,0.0158057594596,0.0,0.0588897055055,0.0,0.0132586930059,0.0,-0.0,-0.0,0.592139422894,-19.5,139.430090009,-125.469842158,1.04412874381,61.0,-1.03338852723,-100.0,1.0471975512,61.0,-1.0471975512,-100.0,17753804.1,0.0,0.0,0.0,0.0,0.0,0.0
1402760436233826818,3,-8.9510192094,-7.1377884924,1.06327721847,2.38304939926,2.08684514401,-3.84635974695,-0.332772083307,0.0,-0.344798575993,0.0,0.0515138510348,0.0,-0.19766179775,0.0,0.215198222822,0.0,-0.0113989324592,0.0,-0.0071572714236,0.0,0.0601515677333,0.0,0.0141697623038,0.0,-0.0,-0.0,0.592139422894,-19.5,139.430090009,-125.469842158,1.04259428183,61.0,-1.03492275079,-100.0,1.0471975512,61.0,-1.0471975512,-100.0,17753804.1,0.0,0.0,0.0,0.0,0.0,0.0
1402760436253985135,3,-8.9510192094,-7.1377884924,1.06327721847,2.38304939926,2.08684514401,-3.84635974695,-0.332772083307,0.0,-0.344798575993,0.0,0.0515138510348,0.0,-0.19766179775,0.0,0.215198222822,0.0,-0.0113989324592,0.0,-0.0071572714236,0.0,0.0601515677333,0.0,0.0141697623038,0.0,-0.0,-0.0,0.592139422894,-19.5,139.430090009,-125.469842158,1.04259428183,61.0,-1.03338852723,-100.0,1.0471975512,61.0,-1.0471975512,-100.0,17753804.1,0.0,0.0,0.0,0.0,0.0,0.0
1402760436274080760,3,-8.97056806863,-7.1377884924,1.04425195192,2.38304939926,2.08085301964,-3.84635974695,-0.335695127017,0.0,-0.354825134733,0.0,0.051050540874,0.0,-0.187419262701,0.0,0.203079392739,0.0,-0.0104914408729,0.0,-0.0152643758719,0.0,0.0605686223156,0.0,0.00110975486245,0.0,-0.0,-0.0,0.592139422894,-19.5,139.430090009,-125.469842158,1.04259428183,61.0,-1.03338852723,-100.0,1.0471975512,61.0,-1.0471975512,-100.0,17753804.1,0.0,0.0,0.0,0.0,0.0,0.0
1402760436293697542,3,-8.97056806863,-7.1377884924,1.04425195192,2.38304939926,2.08085301964,-3.84635974695,-0.335695127017,0.0,-0.354825134733,0.0,0.051050540874,0.0,-0.187419262701,0.0,0.203079392739,0.0,-0.0104914408729,0.0,-0.0152643758719,0.0,0.0605686223156,0.0,0.00110975486245,0.0,-0.0,-0.0,0.592139422894,-19.5,139.430090009,-125.469842158,1.04259428183,61.0,-1.03338852723,-100.0,1.0471975512,61.0,-1.0471975512,-100.0,17753804.1,0.0,0.0,0.0,0.0,0.0,0.0
