rosbagTimestamp,control_method,x_current,x_desired,y_current,y_desired,z_current,z_desired,x_velocity_current,x_velocity_desired,y_velocity_current,y_velocity_desired,z_velocity_current,z_velocity_desired,yaw_current,yaw_desired,yaw_velocity_current,yaw_velocity_desired,roll_current,roll_desired,roll_velocity_current,roll_velocity_desired,pitch_current,pitch_desired,pitch_velocity_current,pitch_velocity_desired,friction_force_forward,friction_force_lateral,friction_force_rotational,required_force_x,required_force_y,required_moment_z,resultant_force_x,resultant_force_y,resultant_moment_z,current_port_servo_angle,current_port_thruster_force,current_starboard_servo_angle,current_starboard_thruster_force,estimated_port_servo_angle,estimated_port_thruster_force,estimated_starboard_servo_angle,estimated_starboard_thruster_force,cost_value,step,user_defined_1,user_defined_2,user_defined_3,user_defined_4,user_defined_5
1403020853306501306,3,-18.3069058764,-9.56012115774,18.3678762675,12.5835788608,21.2680311258,0.0,-0.0381080299002,0.0,-0.072943602824,0.0,0.146663653465,0.0,-2.72642564566,0.0,0.00836764578114,0.0,0.000218320925379,0.0,0.0188409492465,0.0,0.0560562548545,-0.0,-0.000490386357282,0.0,0.22251307953,0.102818251154,0.00985474419443,6.66778516031,11.6412490179,-1.03086430711,-0.22251307953,-0.102818251154,-0.00985474419443,-0.00537029107169,0.0,0.00230154196664,0.0,-0.0,100.0,-0.0,-100.0,1093220.89319,0.0,0.0,0.0,0.0,0.0,0.0
1403020853326418759,3,-18.3278626648,-9.56012115774,18.3503049853,12.5835788608,21.306237519,0.0,-0.0327914044611,0.0,-0.0679317278084,0.0,0.144934944847,0.0,-2.72609935061,0.0,0.0077562385495,0.0,-0.000557324157655,0.0,0.019447914356,0.0,0.0559071562039,-0.0,-0.00396461131503,0.0,0.195970079232,0.0976670062367,0.00911913740475,6.66778516031,11.6412490179,-1.03086430711,-0.195970079232,-0.0976670062367,-0.00911913740475,-0.00537029107169,0.0,0.00230154196664,0.0,-0.0,100.0,-0.0,-100.0,1092978.6243,0.0,0.0,0.0,0.0,0.0,0.0
1403020853346279202,3,-18.3278626648,-9.56012115774,18.3503049853,12.5835788608,21.306237519,0.0,-0.0327914044611,0.0,-0.0679317278084,0.0,0.144934944847,0.0,-2.72609935061,0.0,0.0077562385495,0.0,-0.000557324157655,0.0,0.019447914356,0.0,0.0559071562039,-0.0,-0.00396461131503,0.0,0.195970079232,0.0976670062367,0.00911913740475,6.66778516031,11.6412490179,-1.03086430711,-0.195970079232,-0.0976670062367,-0.00911913740475,-0.00383606751517,0.0,0.00230154196664,0.0,-0.0,100.0,-0.0,-100.0,1092978.6243,0.0,0.0,0.0,0.0,0.0,0.0
1403020853367055640,3,-18.3624442772,-9.56012115774,18.3184288976,12.5835788608,21.3790014668,0.0,-0.0406373096221,0.0,-0.0688248077317,0.0,0.148815168735,0.0,-2.72584047072,0.0,0.00591638788755,0.0,-0.00154209733519,0.0,0.0345515980714,0.0,0.0568859649239,-0.0,0.00644814143046,0.0,0.224213541562,0.0926288495658,0.00529386373697,6.66778516031,11.6412490179,-1.03086430711,-0.224213541562,-0.0926288495658,-0.00529386373697,-0.00537029107169,0.0,0.00230154196664,0.0,-0.0,100.0,-0.0,-100.0,1093117.66532,0.0,0.0,0.0,0.0,0.0,0.0
1403020853386233850,3,-18.3624442772,-9.56012115774,18.3184288976,12.5835788608,21.3790014668,0.0,-0.0406373096221,0.0,-0.0688248077317,0.0,0.148815168735,0.0,-2.72584047072,0.0,0.00591638788755,0.0,-0.00154209733519,0.0,0.0345515980714,0.0,0.0568859649239,-0.0,0.00644814143046,0.0,0.224213541562,0.0926288495658,0.00529386373697,6.66778516031,11.6412490179,-1.03086430711,-0.224213541562,-0.0926288495658,-0.00529386373697,-0.00383606751517,0.0,0.00230154196664,0.0,-0.0,100.0,-0.0,-100.0,1093117.66532,0.0,0.0,0.0,0.0,0.0,0.0
1403020853406284866,3,-18.3790258954,-9.56012115774,18.3002830761,12.5835788608,21.4190638288,0.0,-0.0290745645456,0.0,-0.065703396198,0.0,0.147302386854,0.0,-2.72580065601,0.0,0.00614155541635,0.0,-0.00356319287189,0.0,0.0362739447634,0.0,0.0561043299361,-0.0,0.0134797535951,0.0,0.178445855228,0.0956532930161,0.00529386662042,6.66778516031,11.6412490179,-1.03086430711,-0.178445855228,-0.0956532930161,-0.00529386662042,-0.00383606751517,0.0,0.00230154196664,0.0,-0.0,100.0,-0.0,-100.0,1092838.77485,0.0,0.0,0.0,0.0,0.0,0.0
1403020853426173229,3,-18.3790258954,-9.56012115774,18.3002830761,12.5835788608,21.4190638288,0.0,-0.0290745645456,0.0,-0.065703396198,0.0,0.147302386854,0.0,-2.72580065601,0.0,0.00614155541635,0.0,-0.00356319287189,0.0,0.0362739447634,0.0,0.0561043299361,-0.0,0.0134797535951,0.0,0.178445855228,0.0956532930161,0.00529386662042,6.66778516031,11.6412490179,-1.03086430711,-0.178445855228,-0.0956532930161,-0.00529386662042,-0.00383606751517,100.0,0.00230154196664,-100.0,-0.0,100.0,-0.0,-100.0,1092838.77485,0.0,0.0,0.0,0.0,0.0,0.0
1403020853446195461,3,-18.3804343524,-9.56012115774,18.2976408909,12.5835788608,21.4249835699,0.0,-0.0292979044405,0.0,-0.0627202241345,0.0,0.147389093745,0.0,-2.7257310339,0.0,0.00764671893039,0.0,-0.00523170124326,0.0,0.0417275996697,0.0,0.056217430448,-0.0,0.018171579566,0.0,0.174425424827,0.0895059008776,0.00676516768878,6.66778516031,11.6412490179,-1.03086430711,-0.174425424827,-0.0895059008776,-0.00676516768878,-0.00383606751517,100.0,0.00230154196664,-100.0,-0.0,100.0,-0.0,-100.0,1092737.61785,0.0,0.0,0.0,0.0,0.0,0.0
1403020853466648330,3,-18.3804343524,-9.56012115774,18.2976408909,12.5835788608,21.4249835699,0.0,-0.0292979044405,0.0,-0.0627202241345,0.0,0.147389093745,0.0,-2.7257310339,0.0,0.00764671893039,0.0,-0.00523170124326,0.0,0.0417275996697,0.0,0.056217430448,-0.0,0.018171579566,0.0,0.174425424827,0.0895059008776,0.00676516768878,6.66778516031,11.6412490179,-1.03086430711,-0.174425424827,-0.0895059008776,-0.00676516768878,-0.00537029107169,100.0,0.00230154196664,-100.0,-0.0,100.0,-0.0,-100.0,1092737.61785,0.0,0.0,0.0,0.0,0.0,0.0
1403020853486785518,3,-18.401787942,-9.56012115774,18.2779656531,12.5835788608,21.4749385306,0.0,-0.0252278716866,0.0,-0.0545694933658,0.0,0.146916423425,0.0,-2.72598788763,0.0,-0.00778939977219,0.0,-0.00683063489597,0.0,0.0351896509961,0.0,0.0558040622405,-0.0,0.0162220003917,0.0,0.147020154971,0.077436917406,-0.0132441321755,6.66778516031,11.6412490179,-1.03086430711,-0.147020154971,-0.077436917406,0.0132441321755,-0.00537029107169,100.0,0.00230154196664,-100.0,-0.0,100.0,-0.0,-100.0,1092429.66698,0.0,0.0,0.0,0.0,0.0,0.0
1403020853506207519,3,-18.401787942,-9.56012115774,18.2779656531,12.5835788608,21.4749385306,0.0,-0.0252278716866,0.0,-0.0545694933658,0.0,0.146916423425,0.0,-2.72598788763,0.0,-0.00778939977219,0.0,-0.00683063489597,0.0,0.0351896509961,0.0,0.0558040622405,-0.0,0.0162220003917,0.0,0.147020154971,0.077436917406,-0.0132441321755,6.66778516031,11.6412490179,-1.03086430711,-0.147020154971,-0.077436917406,0.0132441321755,-0.00537029107169,100.0,0.000767318410122,-100.0,-0.0,100.0,-0.0,-100.0,1092429.66698,0.0,0.0,0.0,0.0,0.0,0.0
1403020853526385414,3,-18.4331224395,-9.56012115774,18.249135412,12.5835788608,21.5330914317,0.0,-0.0352315687163,0.0,-0.0627652805323,0.0,0.147919050092,0.0,-2.72620510985,0.0,-0.00602063127824,0.0,-0.0085488564149,0.0,0.0308160912575,0.0,0.056996509613,-0.0,0.0144044309952,0.0,0.195225653995,0.0838362635558,-0.0105958285581,6.66778516031,11.6412490179,-1.03086430711,-0.195225653995,-0.0838362635558,0.0105958285581,-0.00537029107169,100.0,0.00230154196664,-100.0,-0.0,100.0,-0.0,-100.0,1092831.59075,0.0,0.0,0.0,0.0,0.0,0.0
1403020853546458052,3,-18.4331224395,-9.56012115774,18.249135412,12.5835788608,21.5330914317,0.0,-0.0352315687163,0.0,-0.0627652805323,0.0,0.147919050092,0.0,-2.72620510985,0.0,-0.00602063127824,0.0,-0.0085488564149,0.0,0.0308160912575,0.0,0.056996509613,-0.0,0.0144044309952,0.0,0.195225653995,0.0838362635558,-0.0105958285581,6.66778516031,11.6412490179,-1.03086430711,-0.195225653995,-0.0838362635558,0.0105958285581,-0.00383606751517,100.0,0.00230154196664,-100.0,-0.0,100.0,-0.0,-100.0,1092831.59075,0.0,0.0,0.0,0.0,0.0,0.0
1403020853566215172,3,-18.4588172962,-9.56012115774,18.226121241,12.5835788608,21.6001332259,0.0,-0.0298028911454,0.0,-0.0468139445568,0.0,0.150154922997,0.0,-2.72659997506,0.0,-0.0151604498427,0.0,-0.00845253422906,0.0,0.0201519789177,0.0,0.0554860114661,-0.0,0.00856146924044,0.0,0.150591880211,0.0590687253724,-0.0217774782185,6.66778516031,11.6412490179,-1.03086430711,-0.150591880211,-0.0590687253724,0.0217774782185,-0.00537029107169,100.0,0.00383600394174,-100.0,-0.0,100.0,-0.0,-100.0,1092247.87774,0.0,0.0,0.0,0.0,0.0,0.0
1403020853586126388,3,-18.4588172962,-9.56012115774,18.226121241,12.5835788608,21.6001332259,0.0,-0.0298028911454,0.0,-0.0468139445568,0.0,0.150154922997,0.0,-2.72659997506,0.0,-0.0151604498427,0.0,-0.00845253422906,0.0,0.0201519789177,0.0,0.0554860114661,-0.0,0.00856146924044,0.0,0.150591880211,0.0590687253724,-0.0217774782185,6.66778516031,11.6412490179,-1.03086430711,-0.150591880211,-0.0590687253724,0.0217774782185,-0.00383606751517,100.0,0.00383600394174,-100.0,-0.0,100.0,-0.0,-100.0,1092247.87774,0.0,0.0,0.0,0.0,0.0,0.0
1403020853606334296,3,-18.4838795758,-9.56012115774,18.2037955591,12.5835788608,21.6460385878,0.0,-0.0442585915964,0.0,-0.0471427806389,0.0,0.153250517364,0.0,-2.72872340968,0.0,-0.0637232323397,0.0,-0.00980630051501,0.0,0.0514829905416,0.0,0.0557122720892,-0.0,0.0248493891249,0.0,0.202262328799,0.0477781989106,-0.089014718106,6.66778516031,11.6412490179,-1.03086430711,-0.202262328799,-0.0477781989106,0.089014718106,-0.00383606751517,100.0,0.00383600394174,-100.0,-0.0,100.0,-0.0,-100.0,1092542.5194,0.0,0.0,0.0,0.0,0.0,0.0
1403020853626185203,3,-18.4838795758,-9.56012115774,18.2037955591,12.5835788608,21.6460385878,0.0,-0.0442585915964,0.0,-0.0471427806389,0.0,0.153250517364,0.0,-2.72872340968,0.0,-0.0637232323397,0.0,-0.00980630051501,0.0,0.0514829905416,0.0,0.0557122720892,-0.0,0.0248493891249,0.0,0.202262328799,0.0477781989106,-0.089014718106,6.66778516031,11.6412490179,-1.03086430711,-0.202262328799,-0.0477781989106,0.089014718106,-0.00383606751517,100.0,0.00230154196664,-100.0,-0.0,100.0,-0.0,-100.0,1092542.5194,0.0,0.0,0.0,0.0,0.0,0.0
1403020853646138597,3,-18.4859544641,-9.56012115774,18.2019035683,12.5835788608,21.6524596781,0.0,-0.0631147733179,0.0,-0.0422866931933,0.0,0.155590926838,0.0,-2.73286220967,0.0,-0.13595036929,0.0,-0.0113708024997,0.0,0.00546787038399,0.0,0.0551097752697,-0.0,0.0163505994856,0.0,0.262015527536,0.0238091773441,-0.181852121322,6.66778516031,11.6412490179,-1.03086430711,-0.262015527536,-0.0238091773441,0.181852121322,-0.00383606751517,100.0,0.00230154196664,-100.0,-0.0,100.0,-0.0,-100.0,1092783.2007,0.0,0.0,0.0,0.0,0.0,0.0
1403020853666429862,3,-18.4859544641,-9.56012115774,18.2019035683,12.5835788608,21.6524596781,0.0,-0.0631147733179,0.0,-0.0422866931933,0.0,0.155590926838,0.0,-2.73286220967,0.0,-0.13595036929,0.0,-0.0113708024997,0.0,0.00546787038399,0.0,0.0551097752697,-0.0,0.0163505994856,0.0,0.262015527536,0.0238091773441,-0.181852121322,6.66778516031,11.6412490179,-1.03086430711,-0.262015527536,-0.0238091773441,0.181852121322,-0.00383606751517,100.0,-0.00383606751517,-100.0,-0.0,100.0,-0.0,-100.0,1092783.2007,0.0,0.0,0.0,0.0,0.0,0.0
1403020853686239422,3,-18.5105100177,-9.56012115774,18.1729681687,12.5835788608,21.7101687249,0.0,-0.0725129919271,0.0,-0.0533307442194,0.0,0.152907057296,0.0,-2.73910993177,0.0,-0.177279770602,0.0,-0.0152813260041,0.0,0.0397081068023,0.0,0.0537332123223,-0.0,0.0717804999646,0.0,0.31370917325,0.0365161286301,-0.241438655366,6.66778516031,11.6412490179,-1.03086430711,-0.31370917325,-0.0365161286301,0.241438655366,-0.00383606751517,100.0,-0.00690451462821,-100.0,-0.0,100.0,-0.0,-100.0,1093365.10839,0.0,0.0,0.0,0.0,0.0,0.0
1403020853706131667,3,-18.5105100177,-9.56012115774,18.1729681687,12.5835788608,21.7101687249,0.0,-0.0725129919271,0.0,-0.0533307442194,0.0,0.152907057296,0.0,-2.73910993177,0.0,-0.177279770602,0.0,-0.0152813260041,0.0,0.0397081068023,0.0,0.0537332123223,-0.0,0.0717804999646,0.0,0.31370917325,0.0365161286301,-0.241438655366,6.66778516031,11.6412490179,-1.03086430711,-0.31370917325,-0.0365161286301,0.241438655366,-0.00383606751517,100.0,-0.00843897660331,-100.0,-0.0,100.0,-0.0,-100.0,1093365.10839,0.0,0.0,0.0,0.0,0.0,0.0
1403020853726294575,3,-18.5357618951,-9.56012115774,18.1602747425,12.5835788608,21.7477635407,0.0,-0.0979699528284,0.0,-0.0431138530873,0.0,0.145686738099,0.0,-2.74895536986,0.0,-0.245588840843,0.0,-0.0155828435742,0.0,0.0311264748573,0.0,0.0522398349786,-0.0,0.0894308226958,0.0,0.391295700462,-1.44740264749e-05,-0.332510707873,6.66778516031,11.6412490179,-1.03086430711,-0.391295700462,1.44740264749e-05,0.332510707873,-0.00383606751517,100.0,-0.00690451462821,-100.0,-0.0,100.0,-0.0,-100.0,1093603.87787,0.0,0.0,0.0,0.0,0.0,0.0
1403020853746102045,3,-18.5357618951,-9.56012115774,18.1602747425,12.5835788608,21.7477635407,0.0,-0.0979699528284,0.0,-0.0431138530873,0.0,0.145686738099,0.0,-2.74895536986,0.0,-0.245588840843,0.0,-0.0155828435742,0.0,0.0311264748573,0.0,0.0522398349786,-0.0,0.0894308226958,0.0,0.391295700462,-1.44740264749e-05,-0.332510707873,6.66778516031,11.6412490179,-1.03086430711,-0.391295700462,1.44740264749e-05,0.332510707873,-0.00383606751517,100.0,-0.00843897660331,-100.0,-0.0,100.0,-0.0,-100.0,1093603.87787,0.0,0.0,0.0,0.0,0.0,0.0
1403020853766257313,3,-18.5559348948,-9.56012115774,18.1426779643,12.5835788608,21.7870559325,0.0,-0.113487634144,0.0,-0.040919768238,0.0,0.162215699423,0.0,-2.75977977915,0.0,-0.288344157505,0.0,-0.0183483277173,0.0,-0.000996974162411,0.0,0.049730568993,-0.0,0.078783345361,0.0,0.441780198258,-0.0147889776579,-0.387241998831,6.66778516031,11.6412490179,-1.03086430711,-0.441780198258,0.0147889776579,0.387241998831,-0.00383606751517,100.0,-0.0115079005535,-100.0,-0.0,100.0,-0.0,-100.0,1093865.75907,0.0,0.0,0.0,0.0,0.0,0.0
1403020853786206948,3,-18.5570039209,-9.56012115774,18.142285089,12.5835788608,21.7885874882,0.0,-0.119048387191,0.0,-0.0417556361848,0.0,0.156108037845,0.0,-2.76274068843,0.0,-0.29728723352,0.0,-0.0186620587274,0.0,0.00895650415326,0.0,0.0491870690469,-0.0,0.0620095880111,0.0,0.464342264907,-0.0165202798377,-0.398865061962,6.66778516031,11.6412490179,-1.03086430711,-0.464342264907,0.0165202798377,0.398865061962,-0.00383606751517,100.0,-0.01304212411,-100.0,-0.0,100.0,-0.0,-100.0,1094022.84296,0.0,0.0,0.0,0.0,0.0,0.0
1403020853806182875,3,-18.5707152079,-9.56012115774,18.1198690059,12.5835788608,21.8345174171,0.0,-0.113221803626,0.0,-0.0470104591459,0.0,0.169724440606,0.0,-2.76985799573,0.0,-0.323201090619,0.0,-0.0213892242305,0.0,0.000236031223052,0.0,0.0460913863208,-0.0,0.0645776525468,0.0,0.450486500568,-0.00214750157543,-0.433145152004,6.66778516031,11.6412490179,-1.03086430711,-0.450486500568,0.00214750157543,0.433145152004,-0.00383606751517,100.0,-0.01304212411,-100.0,-0.0,100.0,-0.0,-100.0,1094140.89962,0.0,0.0,0.0,0.0,0.0,0.0
1403020853826123052,3,-18.5707152079,-9.56012115774,18.1198690059,12.5835788608,21.8345174171,0.0,-0.113221803626,0.0,-0.0470104591459,0.0,0.169724440606,0.0,-2.76985799573,0.0,-0.323201090619,0.0,-0.0213892242305,0.0,0.000236031223052,0.0,0.0460913863208,-0.0,0.0645776525468,0.0,0.450486500568,-0.00214750157543,-0.433145152004,6.66778516031,11.6412490179,-1.03086430711,-0.450486500568,0.00214750157543,0.433145152004,-0.00383606751517,100.0,-0.01304212411,-100.0,-0.0,100.0,-0.0,-100.0,1094140.89962,0.0,0.0,0.0,0.0,0.0,0.0
1403020853846129368,3,-18.5756961524,-9.56012115774,18.11806115,12.5835788608,21.8412781817,0.0,-0.131686754402,0.0,-0.0441515545888,0.0,0.16892142508,0.0,-2.78374764477,0.0,-0.354043682294,0.0,-0.0223331486413,0.0,-0.00114703577305,0.0,0.0439378342108,-0.0,0.0539204450471,0.0,0.514225420787,-0.0173459744949,-0.473605179397,6.66778516031,11.6412490179,-1.03086430711,-0.514225420787,0.0173459744949,0.473605179397,-0.00383606751517,100.0,-0.01304212411,-100.0,-0.0,100.0,-0.0,-100.0,1094479.91319,0.0,0.0,0.0,0.0,0.0,0.0
1403020853866169586,3,-18.5756961524,-9.56012115774,18.11806115,12.5835788608,21.8412781817,0.0,-0.131686754402,0.0,-0.0441515545888,0.0,0.16892142508,0.0,-2.78374764477,0.0,-0.354043682294,0.0,-0.0223331486413,0.0,-0.00114703577305,0.0,0.0439378342108,-0.0,0.0539204450471,0.0,0.514225420787,-0.0173459744949,-0.473605179397,6.66778516031,11.6412490179,-1.03086430711,-0.514225420787,0.0173459744949,0.473605179397,-0.00383606751517,100.0,-0.01304212411,-100.0,-0.0,100.0,-0.0,-100.0,1094479.91319,0.0,0.0,0.0,0.0,0.0,0.0
1403020853886173014,3,-18.5814507981,-9.56012115774,18.1161679638,12.5835788608,21.848686901,0.0,-0.149371745347,0.0,-0.036774870671,0.0,0.168852336494,0.0,-2.79937548161,0.0,-0.389736181333,0.0,-0.0226732486739,0.0,-0.0130484091884,0.0,0.0425902316413,-0.0,0.0256112348758,0.0,0.5692920685,-0.0389032712987,-0.519214668662,6.66778516031,11.6412490179,-1.03086430711,-0.5692920685,0.0389032712987,0.519214668662,-0.00383606751517,100.0,-0.01304212411,-100.0,-0.0,100.0,-0.0,-100.0,1094696.22924,0.0,0.0,0.0,0.0,0.0,0.0
1403020853906177545,3,-18.5814507981,-9.56012115774,18.1161679638,12.5835788608,21.848686901,0.0,-0.149371745347,0.0,-0.036774870671,0.0,0.168852336494,0.0,-2.79937548161,0.0,-0.389736181333,0.0,-0.0226732486739,0.0,-0.0130484091884,0.0,0.0425902316413,-0.0,0.0256112348758,0.0,0.5692920685,-0.0389032712987,-0.519214668662,6.66778516031,11.6412490179,-1.03086430711,-0.5692920685,0.0389032712987,0.519214668662,-0.00383606751517,100.0,-0.0115079005535,-100.0,-0.0,100.0,-0.0,-100.0,1094696.22924,0.0,0.0,0.0,0.0,0.0,0.0
1403020853926328430,3,-18.6038534384,-9.56012115774,18.096265733,12.5835788608,21.8823225957,0.0,-0.160890636891,0.0,-0.050339819622,0.0,0.17017170469,0.0,-2.814530332,0.0,-0.412686779576,0.0,-0.0247012868095,0.0,-0.00378309463082,0.0,0.0418902013312,-0.0,0.0420487347748,0.0,0.628074491432,-0.0167784958106,-0.550993905408,6.66778516031,11.6412490179,-1.03086430711,-0.628074491432,0.0167784958106,0.550993905408,-0.00383606751517,100.0,-0.01304212411,-100.0,-0.0,100.0,-0.0,-100.0,1095430.07919,0.0,0.0,0.0,0.0,0.0,0.0
1403020853946239701,3,-18.6038534384,-9.56012115774,18.096265733,12.5835788608,21.8823225957,0.0,-0.160890636891,0.0,-0.050339819622,0.0,0.17017170469,0.0,-2.814530332,0.0,-0.412686779576,0.0,-0.0247012868095,0.0,-0.00378309463082,0.0,0.0418902013312,-0.0,0.0420487347748,0.0,0.628074491432,-0.0167784958106,-0.550993905408,6.66778516031,11.6412490179,-1.03086430711,-0.628074491432,0.0167784958106,0.550993905408,-0.00383606751517,100.0,-0.01304212411,-100.0,-0.0,100.0,-0.0,-100.0,1095430.07919,0.0,0.0,0.0,0.0,0.0,0.0
1403020853966154409,3,-18.6530344399,-9.56012115774,18.0622175568,12.5835788608,21.9798635519,0.0,-0.1767926102,0.0,-0.0282268221899,0.0,0.160064159819,0.0,-2.83268430111,0.0,-0.438838000154,0.0,-0.0223009614472,0.0,-0.0204915925711,0.0,0.040918478929,-0.0,0.0263428342133,0.0,0.662143984574,-0.0611572726522,-0.584244857942,6.66778516031,11.6412490179,-1.03086430711,-0.662143984574,0.0611572726522,0.584244857942,-0.00383606751517,100.0,-0.01304212411,-100.0,-0.0,100.0,-0.0,-100.0,1095217.48186,0.0,0.0,0.0,0.0,0.0,0.0
1403020853986186217,3,-18.6530344399,-9.56012115774,18.0622175568,12.5835788608,21.9798635519,0.0,-0.1767926102,0.0,-0.0282268221899,0.0,0.160064159819,0.0,-2.83268430111,0.0,-0.438838000154,0.0,-0.0223009614472,0.0,-0.0204915925711,0.0,0.040918478929,-0.0,0.0263428342133,0.0,0.662143984574,-0.0611572726522,-0.584244857942,6.66778516031,11.6412490179,-1.03086430711,-0.662143984574,0.0611572726522,0.584244857942,-0.00383606751517,100.0,-0.01304212411,-100.0,-0.0,100.0,-0.0,-100.0,1095217.48186,0.0,0.0,0.0,0.0,0.0,0.0
1403020854006164501,3,-18.6799270363,-9.56012115774,18.0368107676,12.5835788608,22.0288382393,0.0,-0.192133640762,0.0,-0.0381063785945,0.0,0.164552779308,0.0,-2.84904415716,0.0,-0.459415498659,0.0,-0.023278651383,0.0,-0.0308112695749,0.0,0.0412085483919,-0.0,-0.00898206462721,0.0,0.728435235039,-0.0458630944338,-0.609550308011,6.66778516031,11.6412490179,-1.03086430711,-0.728435235039,0.0458630944338,0.609550308011,-0.00383606751517,100.0,-0.0145763476665,-100.0,-0.0,100.0,-0.0,-100.0,1095924.00548,0.0,0.0,0.0,0.0,0.0,0.0
1403020854026177408,3,-18.6818522947,-9.56012115774,18.0363349344,12.5835788608,22.030710498,0.0,-0.195207618535,0.0,-0.035726292687,0.0,0.173743474968,0.0,-2.85377695956,0.0,-0.478165931075,0.0,-0.0228340248787,0.0,-0.0386146185826,0.0,0.0413466484467,-0.0,-0.026005321143,0.0,0.735720267639,-0.0505976638914,-0.633384951152,6.66778516031,11.6412490179,-1.03086430711,-0.735720267639,0.0505976638914,0.633384951152,-0.00383606751517,100.0,-0.0145763476665,-100.0,-0.0,100.0,-0.0,-100.0,1095962.40851,0.0,0.0,0.0,0.0,0.0,0.0
1403020854046228883,3,-18.6818522947,-9.56012115774,18.0363349344,12.5835788608,22.030710498,0.0,-0.195207618535,0.0,-0.035726292687,0.0,0.173743474968,0.0,-2.85377695956,0.0,-0.478165931075,0.0,-0.0228340248787,0.0,-0.0386146185826,0.0,0.0413466484467,-0.0,-0.026005321143,0.0,0.735720267639,-0.0505976638914,-0.633384951152,6.66778516031,11.6412490179,-1.03086430711,-0.735720267639,0.0505976638914,0.633384951152,-0.00383606751517,100.0,-0.01304212411,-100.0,-0.0,100.0,-0.0,-100.0,1095962.40851,0.0,0.0,0.0,0.0,0.0,0.0
1403020854066153629,3,-18.6837116155,-9.56012115774,18.0360025049,12.5835788608,22.0323019075,0.0,-0.19513170214,0.0,-0.0328392956639,0.0,0.156116862781,0.0,-2.85849706792,0.0,-0.475054007042,0.0,-0.0225620199724,0.0,-0.0311327293651,0.0,0.0411643719734,-0.0,0.00979476459525,0.0,0.735636424279,-0.0533390439614,-0.631178033491,6.66778516031,11.6412490179,-1.03086430711,-0.735636424279,0.0533390439614,0.631178033491,-0.00383606751517,100.0,-0.0145763476665,-100.0,-0.0,100.0,-0.0,-100.0,1095926.34673,0.0,0.0,0.0,0.0,0.0,0.0
1403020854086097937,3,-18.6837116155,-9.56012115774,18.0360025049,12.5835788608,22.0323019075,0.0,-0.19513170214,0.0,-0.0328392956639,0.0,0.156116862781,0.0,-2.85849706792,0.0,-0.475054007042,0.0,-0.0225620199724,0.0,-0.0311327293651,0.0,0.0411643719734,-0.0,0.00979476459525,0.0,0.735636424279,-0.0533390439614,-0.631178033491,6.66778516031,11.6412490179,-1.03086430711,-0.735636424279,0.0533390439614,0.631178033491,-0.00383606751517,100.0,-0.0145763476665,-100.0,-0.0,100.0,-0.0,-100.0,1095926.34673,0.0,0.0,0.0,0.0,0.0,0.0
1403020854106240305,3,-18.7326970835,-9.56012115774,18.0038359154,12.5835788608,22.1029363392,0.0,-0.212608014667,0.0,-0.0320963595906,0.0,0.159620091704,0.0,-2.88763589276,0.0,-0.512600841087,0.0,-0.0212026135213,0.0,-0.0127466874388,0.0,0.0417353608714,-0.0,-0.0213082060723,0.0,0.799007454757,-0.0518262953015,-0.680612536941,6.66778516031,11.6412490179,-1.03086430711,-0.799007454757,0.0518262953015,0.680612536941,-0.00383606751517,100.0,-0.0145763476665,-100.0,-0.0,100.0,-0.0,-100.0,1096498.43199,0.0,0.0,0.0,0.0,0.0,0.0
1403020854126413124,3,-18.7326970835,-9.56012115774,18.0038359154,12.5835788608,22.1029363392,0.0,-0.212608014667,0.0,-0.0320963595906,0.0,0.159620091704,0.0,-2.88763589276,0.0,-0.512600841087,0.0,-0.0212026135213,0.0,-0.0127466874388,0.0,0.0417353608714,-0.0,-0.0213082060723,0.0,0.799007454757,-0.0518262953015,-0.680612536941,6.66778516031,11.6412490179,-1.03086430711,-0.799007454757,0.0518262953015,0.680612536941,-0.00383606751517,100.0,-0.0145763476665,-100.0,-0.0,100.0,-0.0,-100.0,1096498.43199,0.0,0.0,0.0,0.0,0.0,0.0
1403020854146599286,3,-18.7417965396,-9.56012115774,18.0026982665,12.5835788608,22.1100024726,0.0,-0.228340458394,0.0,-0.0174276981125,0.0,0.163778403668,0.0,-2.90956829195,0.0,-0.536090922264,0.0,-0.019086257749,0.0,-0.0658209241881,0.0,0.0426844863069,-0.0,-0.0519757999279,0.0,0.843418391108,-0.0776928294518,-0.708125350775,6.66778516031,11.6412490179,-1.03086430711,-0.843418391108,0.0776928294518,0.708125350775,-0.00383606751517,100.0,-0.0145763476665,-100.0,-0.0,100.0,-0.0,-100.0,1096579.04777,0.0,0.0,0.0,0.0,0.0,0.0
1403020854166185931,3,-18.7417965396,-9.56012115774,18.0026982665,12.5835788608,22.1100024726,0.0,-0.228340458394,0.0,-0.0174276981125,0.0,0.163778403668,0.0,-2.90956829195,0.0,-0.536090922264,0.0,-0.019086257749,0.0,-0.0658209241881,0.0,0.0426844863069,-0.0,-0.0519757999279,0.0,0.843418391108,-0.0776928294518,-0.708125350775,6.66778516031,11.6412490179,-1.03086430711,-0.843418391108,0.0776928294518,0.708125350775,-0.00383606751517,100.0,-0.0145763476665,-100.0,-0.0,100.0,-0.0,-100.0,1096579.04777,0.0,0.0,0.0,0.0,0.0,0.0
1403020854186120938,3,-18.7637472626,-9.56012115774,17.9901996396,12.5835788608,22.1409501449,0.0,-0.231714202965,0.0,-0.00705253634712,0.0,0.162036711287,0.0,-2.93048209657,0.0,-0.555708776295,0.0,-0.0178660308782,0.0,-0.0567386251505,0.0,0.0431764432367,-0.0,-0.0673534337611,0.0,0.850070776884,-0.089440218511,-0.734166627421,6.66778516031,11.6412490179,-1.03086430711,-0.850070776884,0.089440218511,0.734166627421,-0.00383606751517,100.0,-0.0145763476665,-100.0,-0.0,100.0,-0.0,-100.0,1096538.88931,0.0,0.0,0.0,0.0,0.0,0.0
1403020854206096345,3,-18.7637472626,-9.56012115774,17.9901996396,12.5835788608,22.1409501449,0.0,-0.231714202965,0.0,-0.00705253634712,0.0,0.162036711287,0.0,-2.93048209657,0.0,-0.555708776295,0.0,-0.0178660308782,0.0,-0.0567386251505,0.0,0.0431764432367,-0.0,-0.0673534337611,0.0,0.850070776884,-0.089440218511,-0.734166627421,6.66778516031,11.6412490179,-1.03086430711,-0.850070776884,0.089440218511,0.734166627421,-0.00383606751517,100.0,-0.0145763476665,-100.0,-0.0,100.0,-0.0,-100.0,1096538.88931,0.0,0.0,0.0,0.0,0.0,0.0
1403020854226263217,3,-18.7985742939,-9.56012115774,17.9672638742,12.5835788608,22.2120023726,0.0,-0.232230234724,0.0,0.00754190410311,0.0,0.160918222248,0.0,-2.95403327907,0.0,-0.569335047397,0.0,-0.0154754103326,0.0,-0.0481904758115,0.0,0.0435062592071,-0.0,-0.0232558043625,0.0,0.845272773315,-0.106692047677,-0.754323197526,6.66778516031,11.6412490179,-1.03086430711,-0.845272773315,0.106692047677,0.754323197526,-0.00383606751517,100.0,-0.0145763476665,-100.0,-0.0,100.0,-0.0,-100.0,1096339.46922,0.0,0.0,0.0,0.0,0.0,0.0
1403020854246419385,3,-18.7985742939,-9.56012115774,17.9672638742,12.5835788608,22.2120023726,0.0,-0.232230234724,0.0,0.00754190410311,0.0,0.160918222248,0.0,-2.95403327907,0.0,-0.569335047397,0.0,-0.0154754103326,0.0,-0.0481904758115,0.0,0.0435062592071,-0.0,-0.0232558043625,0.0,0.845272773315,-0.106692047677,-0.754323197526,6.66778516031,11.6412490179,-1.03086430711,-0.845272773315,0.106692047677,0.754323197526,-0.00383606751517,100.0,-0.0145763476665,-100.0,-0.0,100.0,-0.0,-100.0,1096339.46922,0.0,0.0,0.0,0.0,0.0,0.0
1403020854266281339,3,-18.8295790975,-9.56012115774,17.9518895182,12.5835788608,22.25498716,0.0,-0.244130429829,0.0,0.0105135392613,0.0,0.162480712508,0.0,-2.97850210772,0.0,-0.594200276625,0.0,-0.0139534880609,0.0,-0.0364284687331,0.0,0.0448914460243,-0.0,-0.0320903982855,0.0,0.889766753491,-0.104845670726,-0.787721142089,6.66778516031,11.6412490179,-1.03086430711,-0.889766753491,0.104845670726,0.787721142089,-0.00383606751517,100.0,-0.0145763476665,-100.0,-0.0,100.0,-0.0,-100.0,1096756.22308,0.0,0.0,0.0,0.0,0.0,0.0
1403020854286141279,3,-18.8295790975,-9.56012115774,17.9518895182,12.5835788608,22.25498716,0.0,-0.244130429829,0.0,0.0105135392613,0.0,0.162480712508,0.0,-2.97850210772,0.0,-0.594200276625,0.0,-0.0139534880609,0.0,-0.0364284687331,0.0,0.0448914460243,-0.0,-0.0320903982855,0.0,0.889766753491,-0.104845670726,-0.787721142089,6.66778516031,11.6412490179,-1.03086430711,-0.889766753491,0.104845670726,0.787721142089,-0.00383606751517,100.0,-0.0145763476665,-100.0,-0.0,100.0,-0.0,-100.0,1096756.22308,0.0,0.0,0.0,0.0,0.0,0.0
1403020854306133448,3,-18.8729992945,-9.56012115774,17.9303827007,12.5835788608,22.305461788,0.0,-0.277025087552,0.0,0.00775135962933,0.0,0.176785226237,0.0,-3.00941086651,0.0,-0.608054502701,0.0,-0.0135869515462,0.0,-0.0361478336706,0.0,0.0486334961954,-0.0,-0.0453016892328,0.0,1.0099055918,-0.0935411181066,-0.805523610328,6.66778516031,11.6412490179,-1.03086430711,-1.0099055918,0.0935411181066,0.805523610328,-0.00383606751517,100.0,-0.0145763476665,-100.0,-0.0,100.0,-0.0,-100.0,1097834.4068,0.0,0.0,0.0,0.0,0.0,0.0
1403020854326293923,3,-18.8729992945,-9.56012115774,17.9303827007,12.5835788608,22.305461788,0.0,-0.277025087552,0.0,0.00775135962933,0.0,0.176785226237,0.0,-3.00941086651,0.0,-0.608054502701,0.0,-0.0135869515462,0.0,-0.0361478336706,0.0,0.0486334961954,-0.0,-0.0453016892328,0.0,1.0099055918,-0.0935411181066,-0.805523610328,6.66778516031,11.6412490179,-1.03086430711,-1.0099055918,0.0935411181066,0.805523610328,-0.00383606751517,100.0,-0.0145763476665,-100.0,-0.0,100.0,-0.0,-100.0,1097834.4068,0.0,0.0,0.0,0.0,0.0,0.0
1403020854346289546,3,-18.8757778488,-9.56012115774,17.9305143384,12.5835788608,22.3069659477,0.0,-0.275406816678,0.0,0.00114580040294,0.0,0.170185101586,0.0,-3.01547300926,0.0,-0.608009994053,0.0,-0.0138368144845,0.0,0.0268339893552,0.0,0.0487893003304,-0.0,-0.0122575881114,0.0,1.00911518042,-0.0766233797673,-0.810231684021,6.66778516031,11.6412490179,-1.03086430711,-1.00911518042,0.0766233797673,0.810231684021,-0.00383606751517,100.0,-0.0145763476665,-100.0,-0.0,100.0,-0.0,-100.0,1098032.49972,0.0,0.0,0.0,0.0,0.0,0.0
1403020854366151533,3,-18.8757778488,-9.56012115774,17.9305143384,12.5835788608,22.3069659477,0.0,-0.275406816678,0.0,0.00114580040294,0.0,0.170185101586,0.0,-3.01547300926,0.0,-0.608009994053,0.0,-0.0138368144845,0.0,0.0268339893552,0.0,0.0487893003304,-0.0,-0.0122575881114,0.0,1.00911518042,-0.0766233797673,-0.810231684021,6.66778516031,11.6412490179,-1.03086430711,-1.00911518042,0.0766233797673,0.810231684021,-0.00383606751517,100.0,-0.0145763476665,-100.0,-0.0,100.0,-0.0,-100.0,1098032.49972,0.0,0.0,0.0,0.0,0.0,0.0
1403020854386200108,3,-18.9097967417,-9.56012115774,17.9276793404,12.5835788608,22.3320797445,0.0,-0.298343929273,0.0,0.0261175938269,0.0,0.172389013353,0.0,-3.05570868761,0.0,-0.629175505297,0.0,-0.0123405301448,0.0,-0.0130511683733,0.0,0.0512402932285,-0.0,-0.0249329969806,0.0,1.08587240107,-0.107839705329,-0.835537971406,6.66778516031,11.6412490179,-1.03086430711,-1.08587240107,0.107839705329,0.835537971406,-0.00383606751517,100.0,-0.0145763476665,-100.0,-0.0,100.0,-0.0,-100.0,1098311.09671,0.0,0.0,0.0,0.0,0.0,0.0
1403020854406120788,3,-18.9097967417,-9.56012115774,17.9276793404,12.5835788608,22.3320797445,0.0,-0.298343929273,0.0,0.0261175938269,0.0,0.172389013353,0.0,-3.05570868761,0.0,-0.629175505297,0.0,-0.0123405301448,0.0,-0.0130511683733,0.0,0.0512402932285,-0.0,-0.0249329969806,0.0,1.08587240107,-0.107839705329,-0.835537971406,6.66778516031,11.6412490179,-1.03086430711,-1.08587240107,0.107839705329,0.835537971406,-0.00383606751517,100.0,-0.0145763476665,-100.0,-0.0,100.0,-0.0,-100.0,1098311.09671,0.0,0.0,0.0,0.0,0.0,0.0
1403020854426554828,3,-18.9358719597,-9.56012115774,17.9168417583,12.5835788608,22.359855929,0.0,-0.307250273059,0.0,0.0222115043223,0.0,0.1845654442,0.0,-3.08091429708,0.0,-0.645661204587,0.0,-0.0140804170631,0.0,-0.0024514337408,0.0,0.0521749902466,-0.0,-0.0267863821439,0.0,1.11985795295,-0.0872358557515,-0.858048242488,6.66778516031,11.6412490179,-1.03086430711,-1.11985795295,0.0872358557515,0.858048242488,-0.00383606751517,100.0,-0.0145763476665,-100.0,-0.0,100.0,-0.0,-100.0,1098855.29802,0.0,0.0,0.0,0.0,0.0,0.0
1403020854446703075,3,-18.9358719597,-9.56012115774,17.9168417583,12.5835788608,22.359855929,0.0,-0.307250273059,0.0,0.0222115043223,0.0,0.1845654442,0.0,-3.08091429708,0.0,-0.645661204587,0.0,-0.0140804170631,0.0,-0.0024514337408,0.0,0.0521749902466,-0.0,-0.0267863821439,0.0,1.11985795295,-0.0872358557515,-0.858048242488,6.66778516031,11.6412490179,-1.03086430711,-1.11985795295,0.0872358557515,0.858048242488,-0.000767381983555,100.0,-0.0145763476665,-100.0,-0.0,100.0,-0.0,-100.0,1098855.29802,0.0,0.0,0.0,0.0,0.0,0.0
1403020854466243847,3,-18.9634564898,-9.56012115774,17.9111031559,12.5835788608,22.3896977765,0.0,-0.32224447104,0.0,0.030513406315,0.0,0.175209274858,0.0,-3.10808552406,0.0,-0.651003930748,0.0,-0.0141914287545,0.0,0.0420996283245,0.0,0.0535339093858,-0.0,0.00427748601376,0.0,1.17640502309,-0.0880283799678,-0.868935962367,6.66778516031,11.6412490179,-1.03086430711,-1.17640502309,0.0880283799678,0.868935962367,0.00230154196664,100.0,-0.0161108096416,-100.0,-0.0,100.0,-0.0,-100.0,1099308.7339,0.0,0.0,0.0,0.0,0.0,0.0
1403020854486229849,3,-18.9634564898,-9.56012115774,17.9111031559,12.5835788608,22.3896977765,0.0,-0.32224447104,0.0,0.030513406315,0.0,0.175209274858,0.0,-3.10808552406,0.0,-0.651003930748,0.0,-0.0141914287545,0.0,0.0420996283245,0.0,0.0535339093858,-0.0,0.00427748601376,0.0,1.17640502309,-0.0880283799678,-0.868935962367,6.66778516031,11.6412490179,-1.03086430711,-1.17640502309,0.0880283799678,0.868935962367,0.00383600394174,100.0,-0.0145763476665,-100.0,-0.0,100.0,-0.0,-100.0,1099308.7339,0.0,0.0,0.0,0.0,0.0,0.0
1403020854506342403,3,-18.9648179745,-9.56012115774,17.9142707645,12.5835788608,22.3860830858,0.0,-0.301487290876,0.0,0.030539296742,0.0,0.19508392408,0.0,-3.13233146223,0.0,-0.658741946979,0.0,-0.0169039092497,0.0,0.0441890266656,0.0,0.0515171447859,-0.0,-0.0130511661149,0.0,1.10361148006,-0.0737612547783,-0.878939991846,6.66778516031,11.6412490179,-1.03086430711,-1.10361148006,0.0737612547783,0.878939991846,0.00383600394174,100.0,-0.0145763476665,-100.0,-0.0,100.0,-0.0,-100.0,1098924.36568,0.0,0.0,0.0,0.0,0.0,0.0
1403020854526282811,3,-18.9648179745,-9.56012115774,17.9142707645,12.5835788608,22.3860830858,0.0,-0.301487290876,0.0,0.030539296742,0.0,0.19508392408,0.0,-3.13233146223,0.0,-0.658741946979,0.0,-0.0169039092497,0.0,0.0441890266656,0.0,0.0515171447859,-0.0,-0.0130511661149,0.0,1.10361148006,-0.0737612547783,-0.878939991846,6.66778516031,11.6412490179,-1.03086430711,-1.10361148006,0.0737612547783,0.878939991846,0.00383600394174,100.0,-0.0145763476665,-100.0,-0.0,100.0,-0.0,-100.0,1098924.36568,0.0,0.0,0.0,0.0,0.0,0.0
1403020854546302734,3,-18.9772573681,-9.56012115774,17.9157729435,12.5835788608,22.3938900471,0.0,-0.302840175169,0.0,0.0416453576465,0.0,0.189180544131,0.0,3.1235312127,0.0,-0.662790403133,0.0,-0.0187651666989,0.0,0.0670368460718,0.0,0.051528611128,-0.0,0.0100762896661,0.0,1.11307549236,-0.080002421386,-0.886443474729,6.66778516031,11.6412490179,-1.03086430711,-1.11307549236,0.080002421386,0.886443474729,0.00383600394174,100.0,-0.0145763476665,-100.0,-0.0,100.0,-0.0,-100.0,1098940.14225,0.0,0.0,0.0,0.0,0.0,0.0
1403020854566170152,3,-18.9772573681,-9.56012115774,17.9157729435,12.5835788608,22.3938900471,0.0,-0.302840175169,0.0,0.0416453576465,0.0,0.189180544131,0.0,3.1235312127,0.0,-0.662790403133,0.0,-0.0187651666989,0.0,0.0670368460718,0.0,0.051528611128,-0.0,0.0100762896661,0.0,1.11307549236,-0.080002421386,-0.886443474729,6.66778516031,11.6412490179,-1.03086430711,-1.11307549236,0.080002421386,0.886443474729,0.00383600394174,100.0,-0.01304212411,-100.0,-0.0,100.0,-0.0,-100.0,1098940.14225,0.0,0.0,0.0,0.0,0.0,0.0
1403020854586168544,3,-19.0088352103,-9.56012115774,17.9136729384,12.5835788608,22.4016159126,0.0,-0.341622772603,0.0,0.0411637463968,0.0,0.201209626554,0.0,3.09613966167,0.0,-0.667507357672,0.0,-0.0214464596885,0.0,0.0538068063158,0.0,0.0546125643816,-0.0,0.00419865568213,0.0,1.24848559554,-0.0606061114544,-0.891740005921,6.66778516031,11.6412490179,-1.03086430711,-1.24848559554,0.0606061114544,0.891740005921,0.00383600394174,100.0,-0.0145763476665,-100.0,-0.0,100.0,-0.0,-100.0,1100237.52008,0.0,0.0,0.0,0.0,0.0,0.0
1403020854606241873,3,-19.0088352103,-9.56012115774,17.9136729384,12.5835788608,22.4016159126,0.0,-0.341622772603,0.0,0.0411637463968,0.0,0.201209626554,0.0,3.09613966167,0.0,-0.667507357672,0.0,-0.0214464596885,0.0,0.0538068063158,0.0,0.0546125643816,-0.0,0.00419865568213,0.0,1.24848559554,-0.0606061114544,-0.891740005921,6.66778516031,11.6412490179,-1.03086430711,-1.24848559554,0.0606061114544,0.891740005921,0.00383600394174,100.0,-0.0145763476665,-100.0,-0.0,100.0,-0.0,-100.0,1100237.52008,0.0,0.0,0.0,0.0,0.0,0.0
1403020854628346191,3,-19.0179410546,-9.56012115774,17.9190737875,12.5835788608,22.4087293479,0.0,-0.330789047869,0.0,0.0563572195007,0.0,0.200845885912,0.0,3.06796714342,0.0,-0.68424272717,0.0,-0.0231931144713,0.0,0.0217660868097,0.0,0.0530997750517,-0.0,-0.00882378388373,0.0,1.21774933564,-0.0738517334733,-0.911308034299,6.66778516031,11.6412490179,-1.03086430711,-1.21774933564,0.0738517334733,0.911308034299,0.00383600394174,100.0,-0.0145763476665,-100.0,-0.0,100.0,-0.0,-100.0,1099879.18381,0.0,0.0,0.0,0.0,0.0,0.0
1403020854646177867,3,-19.0179410546,-9.56012115774,17.9190737875,12.5835788608,22.4087293479,0.0,-0.330789047869,0.0,0.0563572195007,0.0,0.200845885912,0.0,3.06796714342,0.0,-0.68424272717,0.0,-0.0231931144713,0.0,0.0217660868097,0.0,0.0530997750517,-0.0,-0.00882378388373,0.0,1.21774933564,-0.0738517334733,-0.911308034299,6.66778516031,11.6412490179,-1.03086430711,-1.21774933564,0.0738517334733,0.911308034299,0.00383600394174,100.0,-0.0161108096416,-100.0,-0.0,100.0,-0.0,-100.0,1099879.18381,0.0,0.0,0.0,0.0,0.0,0.0
1403020854666310419,3,-19.0493475462,-9.56012115774,17.9069379374,12.5835788608,22.4410371526,0.0,-0.354178946403,0.0,0.0546153123599,0.0,0.207020048509,0.0,3.04148378301,0.0,-0.684521300183,0.0,-0.0266852375842,0.0,0.00606370914721,0.0,0.0543657345417,-0.0,-0.0127864338186,0.0,1.29902555251,-0.0499445685993,-0.910277821524,6.66778516031,11.6412490179,-1.03086430711,-1.29902555251,0.0499445685993,0.910277821524,0.00383600394174,100.0,-0.0145763476665,-100.0,-0.0,100.0,-0.0,-100.0,1100798.22227,0.0,0.0,0.0,0.0,0.0,0.0
1403020854686462724,3,-19.0530915709,-9.56012115774,17.907534268,12.5835788608,22.443210826,0.0,-0.349059605908,0.0,0.0593107391744,0.0,0.190914841148,0.0,3.03404215655,0.0,-0.676954936755,0.0,-0.027265815642,0.0,0.0564699043535,0.0,0.0539563797777,-0.0,0.0316513042456,0.0,1.2868503536,-0.0544153731851,-0.905275483791,6.66778516031,11.6412490179,-1.03086430711,-1.2868503536,0.0544153731851,0.905275483791,0.00383600394174,100.0,-0.0145763476665,-100.0,-0.0,100.0,-0.0,-100.0,1100639.78868,0.0,0.0,0.0,0.0,0.0,0.0
1403020854706131245,3,-19.0530915709,-9.56012115774,17.907534268,12.5835788608,22.443210826,0.0,-0.349059605908,0.0,0.0593107391744,0.0,0.190914841148,0.0,3.03404215655,0.0,-0.676954936755,0.0,-0.027265815642,0.0,0.0564699043535,0.0,0.0539563797777,-0.0,0.0316513042456,0.0,1.2868503536,-0.0544153731851,-0.905275483791,6.66778516031,11.6412490179,-1.03086430711,-1.2868503536,0.0544153731851,0.905275483791,0.00383600394174,100.0,-0.0145763476665,-100.0,-0.0,100.0,-0.0,-100.0,1100639.78868,0.0,0.0,0.0,0.0,0.0,0.0
1403020854726392484,3,-19.0566924821,-9.56012115774,17.9081609691,12.5835788608,22.4451154859,0.0,-0.35558253502,0.0,0.057523295553,0.0,0.203647022979,0.0,3.02720647666,0.0,-0.68094968028,0.0,-0.0279108340869,0.0,0.0633284530818,0.0,0.0540154117578,-0.0,-0.0129696694261,0.0,1.30676276642,-0.0455458365539,-0.909836431347,6.66778516031,11.6412490179,-1.03086430711,-1.30676276642,0.0455458365539,0.909836431347,0.00383600394174,100.0,-0.0145763476665,-100.0,-0.0,100.0,-0.0,-100.0,1100910.03313,0.0,0.0,0.0,0.0,0.0,0.0
1403020854746240670,3,-19.0566924821,-9.56012115774,17.9081609691,12.5835788608,22.4451154859,0.0,-0.35558253502,0.0,0.057523295553,0.0,0.203647022979,0.0,3.02720647666,0.0,-0.68094968028,0.0,-0.0279108340869,0.0,0.0633284530818,0.0,0.0540154117578,-0.0,-0.0129696694261,0.0,1.30676276642,-0.0455458365539,-0.909836431347,6.66778516031,11.6412490179,-1.03086430711,-1.30676276642,0.0455458365539,0.909836431347,0.00383600394174,100.0,-0.0145763476665,-100.0,-0.0,100.0,-0.0,-100.0,1100910.03313,0.0,0.0,0.0,0.0,0.0,0.0
1403020854766206778,3,-19.0922767653,-9.56012115774,17.906201279,12.5835788608,22.4734968084,0.0,-0.360595259649,0.0,0.0798836489286,0.0,0.191516685404,0.0,2.98323193411,0.0,-0.685958243765,0.0,-0.0306151603481,0.0,0.0355789773738,0.0,0.0534865576572,-0.0,0.0128316714476,0.0,1.34018760673,-0.0569307146984,-0.915132968952,6.66778516031,11.6412490179,-1.03086430711,-1.34018760673,0.0569307146984,0.915132968952,0.00383600394174,100.0,-0.0145763476665,-100.0,-0.0,100.0,-0.0,-100.0,1101055.48189,0.0,0.0,0.0,0.0,0.0,0.0
1403020854786109718,3,-19.0922767653,-9.56012115774,17.906201279,12.5835788608,22.4734968084,0.0,-0.360595259649,0.0,0.0798836489286,0.0,0.191516685404,0.0,2.98323193411,0.0,-0.685958243765,0.0,-0.0306151603481,0.0,0.0355789773738,0.0,0.0534865576572,-0.0,0.0128316714476,0.0,1.34018760673,-0.0569307146984,-0.915132968952,6.66778516031,11.6412490179,-1.03086430711,-1.34018760673,0.0569307146984,0.915132968952,0.00383600394174,100.0,-0.0161108096416,-100.0,-0.0,100.0,-0.0,-100.0,1101055.48189,0.0,0.0,0.0,0.0,0.0,0.0
1403020854806931511,3,-19.1061858198,-9.56012115774,17.9096028835,12.5835788608,22.4808998064,0.0,-0.3615429088,0.0,0.0925802722733,0.0,0.196968132227,0.0,2.95664692542,0.0,-0.687462200669,0.0,-0.031425856203,0.0,0.0311486556462,0.0,0.0528254837669,-0.0,0.0269768364486,0.0,1.35256039753,-0.0626042353608,-0.917192739163,6.66778516031,11.6412490179,-1.03086430711,-1.35256039753,0.0626042353608,0.917192739163,0.00383600394174,100.0,-0.0145763476665,-100.0,-0.0,100.0,-0.0,-100.0,1101092.94206,0.0,0.0,0.0,0.0,0.0,0.0
1403020854826243057,3,-19.1061858198,-9.56012115774,17.9096028835,12.5835788608,22.4808998064,0.0,-0.3615429088,0.0,0.0925802722733,0.0,0.196968132227,0.0,2.95664692542,0.0,-0.687462200669,0.0,-0.031425856203,0.0,0.0311486556462,0.0,0.0528254837669,-0.0,0.0269768364486,0.0,1.35256039753,-0.0626042353608,-0.917192739163,6.66778516031,11.6412490179,-1.03086430711,-1.35256039753,0.0626042353608,0.917192739163,0.00230154196664,100.0,-0.0145763476665,-100.0,-0.0,100.0,-0.0,-100.0,1101092.94206,0.0,0.0,0.0,0.0,0.0,0.0
1403020854846216906,3,-19.1168690814,-9.56012115774,17.9230558415,12.5835788608,22.4775124319,0.0,-0.354300581855,0.0,0.122291556495,0.0,0.203547865158,0.0,2.92713053965,0.0,-0.70368742293,0.0,-0.0296815659845,0.0,-0.0336124486448,0.0,0.0523036496623,-0.0,0.0231996314911,0.0,1.35109527107,-0.101355205527,-0.933671246165,6.66778516031,11.6412490179,-1.03086430711,-1.35109527107,0.101355205527,0.933671246165,0.00383600394174,100.0,-0.0145763476665,-100.0,-0.0,100.0,-0.0,-100.0,1100665.49626,0.0,0.0,0.0,0.0,0.0,0.0
1403020854866146069,3,-19.1168690814,-9.56012115774,17.9230558415,12.5835788608,22.4775124319,0.0,-0.354300581855,0.0,0.122291556495,0.0,0.203547865158,0.0,2.92713053965,0.0,-0.70368742293,0.0,-0.0296815659845,0.0,-0.0336124486448,0.0,0.0523036496623,-0.0,0.0231996314911,0.0,1.35109527107,-0.101355205527,-0.933671246165,6.66778516031,11.6412490179,-1.03086430711,-1.35109527107,0.101355205527,0.933671246165,0.00230154196664,100.0,-0.0145763476665,-100.0,-0.0,100.0,-0.0,-100.0,1100665.49626,0.0,0.0,0.0,0.0,0.0,0.0
1403020854886160563,3,-19.1310067884,-9.56012115774,17.9281520565,12.5835788608,22.4855742987,0.0,-0.356680424613,0.0,0.131625442364,0.0,0.213558622519,0.0,2.8990547801,0.0,-0.711167624268,0.0,-0.0286508533858,0.0,-0.0340618618262,0.0,0.051730847517,-0.0,0.0279815559256,0.0,1.36925366096,-0.0975242915933,-0.943675899922,6.66778516031,11.6412490179,-1.03086430711,-1.36925366096,0.0975242915933,0.943675899922,0.00230154196664,100.0,-0.0145763476665,-100.0,-0.0,100.0,-0.0,-100.0,1100875.1913,0.0,0.0,0.0,0.0,0.0,0.0
1403020854906129556,3,-19.1310067884,-9.56012115774,17.9281520565,12.5835788608,22.4855742987,0.0,-0.356680424613,0.0,0.131625442364,0.0,0.213558622519,0.0,2.8990547801,0.0,-0.711167624268,0.0,-0.0286508533858,0.0,-0.0340618618262,0.0,0.051730847517,-0.0,0.0279815559256,0.0,1.36925366096,-0.0975242915933,-0.943675899922,6.66778516031,11.6412490179,-1.03086430711,-1.36925366096,0.0975242915933,0.943675899922,0.00383600394174,100.0,-0.0145763476665,-100.0,-0.0,100.0,-0.0,-100.0,1100875.1913,0.0,0.0,0.0,0.0,0.0,0.0
1403020854926296874,3,-19.1469307292,-9.56012115774,17.9396030668,12.5835788608,22.4812629121,0.0,-0.360695812399,0.0,0.142975058819,0.0,0.208267035714,0.0,2.87034203943,0.0,-0.711833109712,0.0,-0.0276577270539,0.0,-0.00586379324905,0.0,0.0521460722683,-0.0,0.0200903632533,0.0,1.3973196249,-0.0947916800542,-0.946471241685,6.66778516031,11.6412490179,-1.03086430711,-1.3973196249,0.0947916800542,0.946471241685,0.00383600394174,100.0,-0.0161108096416,-100.0,-0.0,100.0,-0.0,-100.0,1101138.22406,0.0,0.0,0.0,0.0,0.0,0.0
1403020854946221893,3,-19.1469307292,-9.56012115774,17.9396030668,12.5835788608,22.4812629121,0.0,-0.360695812399,0.0,0.142975058819,0.0,0.208267035714,0.0,2.87034203943,0.0,-0.711833109712,0.0,-0.0276577270539,0.0,-0.00586379324905,0.0,0.0521460722683,-0.0,0.0200903632533,0.0,1.3973196249,-0.0947916800542,-0.946471241685,6.66778516031,11.6412490179,-1.03086430711,-1.3973196249,0.0947916800542,0.946471241685,0.00383600394174,100.0,-0.0145763476665,-100.0,-0.0,100.0,-0.0,-100.0,1101138.22406,0.0,0.0,0.0,0.0,0.0,0.0
1403020854966622596,3,-19.1630936121,-9.56012115774,17.9481282343,12.5835788608,22.4832465645,0.0,-0.36644648933,0.0,0.149919618206,0.0,0.205525056574,0.0,2.8416607804,0.0,-0.709051365186,0.0,-0.0266674452859,0.0,-0.00366604229885,0.0,0.0521615495899,-0.0,0.0124642894532,0.0,1.42721562299,-0.081933560012,-0.942792936951,6.66778516031,11.6412490179,-1.03086430711,-1.42721562299,0.081933560012,0.942792936951,0.00383600394174,100.0,-0.0161108096416,-100.0,-0.0,100.0,-0.0,-100.0,1101521.06723,0.0,0.0,0.0,0.0,0.0,0.0
1403020854986214196,3,-19.1630936121,-9.56012115774,17.9481282343,12.5835788608,22.4832465645,0.0,-0.36644648933,0.0,0.149919618206,0.0,0.205525056574,0.0,2.8416607804,0.0,-0.709051365186,0.0,-0.0266674452859,0.0,-0.00366604229885,0.0,0.0521615495899,-0.0,0.0124642894532,0.0,1.42721562299,-0.081933560012,-0.942792936951,6.66778516031,11.6412490179,-1.03086430711,-1.42721562299,0.081933560012,0.942792936951,0.00383600394174,100.0,-0.0145763476665,-100.0,-0.0,100.0,-0.0,-100.0,1101521.06723,0.0,0.0,0.0,0.0,0.0,0.0
1403020855006243008,3,-19.1700378927,-9.56012115774,17.9743598388,12.5835788608,22.4550707038,0.0,-0.367453263125,0.0,0.170003502168,0.0,0.214545603412,0.0,2.80509719085,0.0,-0.714167389106,0.0,-0.0232527689456,0.0,-0.0290171853872,0.0,0.0522193583132,-0.0,0.00955530066163,0.0,1.45496747953,-0.0892063144547,-0.947648163569,6.66778516031,11.6412490179,-1.03086430711,-1.45496747953,0.0892063144547,0.947648163569,0.00383600394174,100.0,-0.0145763476665,-100.0,-0.0,100.0,-0.0,-100.0,1101671.65633,0.0,0.0,0.0,0.0,0.0,0.0
1403020855026237837,3,-19.1700378927,-9.56012115774,17.9743598388,12.5835788608,22.4550707038,0.0,-0.367453263125,0.0,0.170003502168,0.0,0.214545603412,0.0,2.80509719085,0.0,-0.714167389106,0.0,-0.0232527689456,0.0,-0.0290171853872,0.0,0.0522193583132,-0.0,0.00955530066163,0.0,1.45496747953,-0.0892063144547,-0.947648163569,6.66778516031,11.6412490179,-1.03086430711,-1.45496747953,0.0892063144547,0.947648163569,0.00383600394174,100.0,-0.0145763476665,-100.0,-0.0,100.0,-0.0,-100.0,1101671.65633,0.0,0.0,0.0,0.0,0.0,0.0
1403020855046101459,3,-19.1969784544,-9.56012115774,17.9551821405,12.5835788608,22.5033348718,0.0,-0.397352447395,0.0,0.170193498081,0.0,0.225729779876,0.0,2.80088369486,0.0,-0.71783856429,0.0,-0.0238660777417,0.0,-0.0667491235822,0.0,0.0547153304305,-0.0,0.0309457218371,0.0,1.54729483458,-0.0671336029636,-0.949413024788,6.66778516031,11.6412490179,-1.03086430711,-1.54729483458,0.0671336029636,0.949413024788,0.00383600394174,100.0,-0.0145763476665,-100.0,-0.0,100.0,-0.0,-100.0,1102684.59264,0.0,0.0,0.0,0.0,0.0,0.0
1403020855066166534,3,-19.1969784544,-9.56012115774,17.9551821405,12.5835788608,22.5033348718,0.0,-0.397352447395,0.0,0.170193498081,0.0,0.225729779876,0.0,2.80088369486,0.0,-0.71783856429,0.0,-0.0238660777417,0.0,-0.0667491235822,0.0,0.0547153304305,-0.0,0.0309457218371,0.0,1.54729483458,-0.0671336029636,-0.949413024788,6.66778516031,11.6412490179,-1.03086430711,-1.54729483458,0.0671336029636,0.949413024788,0.00383600394174,100.0,-0.0161108096416,-100.0,-0.0,100.0,-0.0,-100.0,1102684.59264,0.0,0.0,0.0,0.0,0.0,0.0
1403020855086205927,3,-19.2176776586,-9.56012115774,17.9723465982,12.5835788608,22.5066919589,0.0,-0.398151031988,0.0,0.180531914831,0.0,0.217376073708,0.0,2.7568205461,0.0,-0.716245426621,0.0,-0.020201888568,0.0,-0.0297408897896,0.0,0.0546902312934,-0.0,0.0141398314139,0.0,1.56711236927,-0.045500402536,-0.950148627045,6.66778516031,11.6412490179,-1.03086430711,-1.56711236927,0.045500402536,0.950148627045,0.00383600394174,100.0,-0.0145763476665,-100.0,-0.0,100.0,-0.0,-100.0,1103099.66776,0.0,0.0,0.0,0.0,0.0,0.0
1403020855106163968,3,-19.2176776586,-9.56012115774,17.9723465982,12.5835788608,22.5066919589,0.0,-0.398151031988,0.0,0.180531914831,0.0,0.217376073708,0.0,2.7568205461,0.0,-0.716245426621,0.0,-0.020201888568,0.0,-0.0297408897896,0.0,0.0546902312934,-0.0,0.0141398314139,0.0,1.56711236927,-0.045500402536,-0.950148627045,6.66778516031,11.6412490179,-1.03086430711,-1.56711236927,0.045500402536,0.950148627045,0.00383600394174,100.0,-0.0161108096416,-100.0,-0.0,100.0,-0.0,-100.0,1103099.66776,0.0,0.0,0.0,0.0,0.0,0.0
1403020855126445680,3,-19.210496815,-9.56012115774,18.0119967799,12.5835788608,22.4453545758,0.0,-0.394076352922,0.0,0.201148262189,0.0,0.231647848268,0.0,2.72644083146,0.0,-0.706937460973,0.0,-0.0170727791996,0.0,-0.0258114340493,0.0,0.0545019008382,-0.0,-0.000691796827026,0.0,1.5812128324,-0.058950659781,-0.938231461897,6.66778516031,11.6412490179,-1.03086430711,-1.5812128324,0.058950659781,0.938231461897,0.00383600394174,100.0,-0.0145763476665,-100.0,-0.0,100.0,-0.0,-100.0,1103036.47064,0.0,0.0,0.0,0.0,0.0,0.0
1403020855146101872,3,-19.210496815,-9.56012115774,18.0119967799,12.5835788608,22.4453545758,0.0,-0.394076352922,0.0,0.201148262189,0.0,0.231647848268,0.0,2.72644083146,0.0,-0.706937460973,0.0,-0.0170727791996,0.0,-0.0258114340493,0.0,0.0545019008382,-0.0,-0.000691796827026,0.0,1.5812128324,-0.058950659781,-0.938231461897,6.66778516031,11.6412490179,-1.03086430711,-1.5812128324,0.058950659781,0.938231461897,0.00383600394174,100.0,-0.0145763476665,-100.0,-0.0,100.0,-0.0,-100.0,1103036.47064,0.0,0.0,0.0,0.0,0.0,0.0
1403020855166119626,3,-19.2179027926,-9.56012115774,18.0389204311,12.5835788608,22.4100848624,0.0,-0.399080086244,0.0,0.214719798476,0.0,0.227487667655,0.0,2.6988150358,0.0,-0.714192986412,0.0,-0.0149573672722,0.0,-0.0441673502281,0.0,0.0556277040591,-0.0,0.0318569318237,0.0,1.61740260885,-0.0535962377463,-0.946028899364,6.66778516031,11.6412490179,-1.03086430711,-1.61740260885,0.0535962377463,0.946028899364,0.00383600394174,100.0,-0.0145763476665,-100.0,-0.0,100.0,-0.0,-100.0,1103413.07004,0.0,0.0,0.0,0.0,0.0,0.0
1403020855186156145,3,-19.2179027926,-9.56012115774,18.0389204311,12.5835788608,22.4100848624,0.0,-0.399080086244,0.0,0.214719798476,0.0,0.227487667655,0.0,2.6988150358,0.0,-0.714192986412,0.0,-0.0149573672722,0.0,-0.0441673502281,0.0,0.0556277040591,-0.0,0.0318569318237,0.0,1.61740260885,-0.0535962377463,-0.946028899364,6.66778516031,11.6412490179,-1.03086430711,-1.61740260885,0.0535962377463,0.946028899364,0.00383600394174,100.0,-0.0145763476665,-100.0,-0.0,100.0,-0.0,-100.0,1103413.07004,0.0,0.0,0.0,0.0,0.0,0.0
1403020855206187048,3,-19.222586715,-9.56012115774,18.0642759018,12.5835788608,22.3864621091,0.0,-0.403259590673,0.0,0.230363005344,0.0,0.235776989501,0.0,2.66981228497,0.0,-0.716322314505,0.0,-0.0132461003292,0.0,-0.0405295931821,0.0,0.0561128797497,-0.0,0.0186427403403,0.0,1.65313681695,-0.0507770866091,-0.949265695179,6.66778516031,11.6412490179,-1.03086430711,-1.65313681695,0.0507770866091,0.949265695179,0.00383600394174,100.0,-0.0161108096416,-100.0,-0.0,100.0,-0.0,-100.0,1103748.84848,0.0,0.0,0.0,0.0,0.0,0.0
1403020855226392223,3,-19.222586715,-9.56012115774,18.0642759018,12.5835788608,22.3864621091,0.0,-0.403259590673,0.0,0.230363005344,0.0,0.235776989501,0.0,2.66981228497,0.0,-0.716322314505,0.0,-0.0132461003292,0.0,-0.0405295931821,0.0,0.0561128797497,-0.0,0.0186427403403,0.0,1.65313681695,-0.0507770866091,-0.949265695179,6.66778516031,11.6412490179,-1.03086430711,-1.65313681695,0.0507770866091,0.949265695179,0.00383600394174,100.0,-0.0145763476665,-100.0,-0.0,100.0,-0.0,-100.0,1103748.84848,0.0,0.0,0.0,0.0,0.0,0.0
1403020855246190874,3,-19.2389006346,-9.56012115774,18.0737754094,12.5835788608,22.3961973361,0.0,-0.403599921331,0.0,0.235729915676,0.0,0.243606406874,0.0,2.64090756977,0.0,-0.702519022373,0.0,-0.0124754884994,0.0,0.00731379050454,0.0,0.0560747442546,-0.0,-0.022077351897,0.0,1.66272333795,-0.032832355671,-0.935288578895,6.66778516031,11.6412490179,-1.03086430711,-1.66272333795,0.032832355671,0.935288578895,0.00383600394174,100.0,-0.0161108096416,-100.0,-0.0,100.0,-0.0,-100.0,1104009.23321,0.0,0.0,0.0,0.0,0.0,0.0
1403020855266254483,3,-19.2389006346,-9.56012115774,18.0737754094,12.5835788608,22.3961973361,0.0,-0.403599921331,0.0,0.235729915676,0.0,0.243606406874,0.0,2.64090756977,0.0,-0.702519022373,0.0,-0.0124754884994,0.0,0.00731379050454,0.0,0.0560747442546,-0.0,-0.022077351897,0.0,1.66272333795,-0.032832355671,-0.935288578895,6.66778516031,11.6412490179,-1.03086430711,-1.66272333795,0.032832355671,0.935288578895,0.00383600394174,100.0,-0.0145763476665,-100.0,-0.0,100.0,-0.0,-100.0,1104009.23321,0.0,0.0,0.0,0.0,0.0,0.0
1403020855286189548,3,-19.2525035892,-9.56012115774,18.0802536942,12.5835788608,22.4028276567,0.0,-0.39893353796,0.0,0.233349550335,0.0,0.23929611007,0.0,2.61202816082,0.0,-0.705750467477,0.0,-0.0135784374529,0.0,0.0204951909663,0.0,0.0548334080411,-0.0,-0.01546308176,0.0,1.64784390215,-0.00690187546411,-0.940438004869,6.66778516031,11.6412490179,-1.03086430711,-1.64784390215,0.00690187546411,0.940438004869,0.00383600394174,100.0,-0.0145763476665,-100.0,-0.0,100.0,-0.0,-100.0,1104196.87647,0.0,0.0,0.0,0.0,0.0,0.0
1403020855306210985,3,-19.2599927642,-9.56012115774,18.0794358182,12.5835788608,22.4037424432,0.0,-0.408278725309,0.0,0.227036378638,0.0,0.24418071321,0.0,2.60566561831,0.0,-0.712161626111,0.0,-0.0152550799638,0.0,-0.00599473468945,0.0,0.0549451961038,-0.0,0.0110425617313,0.0,1.66281093097,0.0183318081354,-0.946469887455,6.66778516031,11.6412490179,-1.03086430711,-1.66281093097,-0.0183318081354,0.946469887455,0.00383600394174,100.0,-0.0145763476665,-100.0,-0.0,100.0,-0.0,-100.0,1104627.2534,0.0,0.0,0.0,0.0,0.0,0.0
1403020855326326516,3,-19.2640689915,-9.56012115774,18.081628923,12.5835788608,22.406271828,0.0,-0.404718136518,0.0,0.22814341635,0.0,0.238180122381,0.0,2.59850497279,0.0,-0.716597055629,0.0,-0.0152873999272,0.0,0.00947181896813,0.0,0.0548150963514,-0.0,0.00952907397421,0.0,1.65543922346,0.0196148303116,-0.953532003866,6.66778516031,11.6412490179,-1.03086430711,-1.65543922346,-0.0196148303116,0.953532003866,0.00383600394174,100.0,-0.0161108096416,-100.0,-0.0,100.0,-0.0,-100.0,1104594.81927,0.0,0.0,0.0,0.0,0.0,0.0
1403020855346609962,3,-19.2640689915,-9.56012115774,18.081628923,12.5835788608,22.406271828,0.0,-0.404718136518,0.0,0.22814341635,0.0,0.238180122381,0.0,2.59850497279,0.0,-0.716597055629,0.0,-0.0152873999272,0.0,0.00947181896813,0.0,0.0548150963514,-0.0,0.00952907397421,0.0,1.65543922346,0.0196148303116,-0.953532003866,6.66778516031,11.6412490179,-1.03086430711,-1.65543922346,-0.0196148303116,0.953532003866,0.00383600394174,100.0,-0.0161108096416,-100.0,-0.0,100.0,-0.0,-100.0,1104594.81927,0.0,0.0,0.0,0.0,0.0,0.0
1403020855366190434,3,-19.2774912331,-9.56012115774,18.1160932258,12.5835788608,22.3833034685,0.0,-0.40065950846,0.0,0.266495304036,0.0,0.249251484307,0.0,2.55566992287,0.0,-0.72184917793,0.0,-0.0141673758792,0.0,-0.0190046565193,0.0,0.0559253874329,-0.0,0.0256497695138,0.0,1.70807621991,-0.00879801612772,-0.957945676981,6.66778516031,11.6412490179,-1.03086430711,-1.70807621991,0.00879801612772,0.957945676981,0.00383600394174,100.0,-0.0145763476665,-100.0,-0.0,100.0,-0.0,-100.0,1104712.16766,0.0,0.0,0.0,0.0,0.0,0.0
1403020855386133459,3,-19.2774912331,-9.56012115774,18.1160932258,12.5835788608,22.3833034685,0.0,-0.40065950846,0.0,0.266495304036,0.0,0.249251484307,0.0,2.55566992287,0.0,-0.72184917793,0.0,-0.0141673758792,0.0,-0.0190046565193,0.0,0.0559253874329,-0.0,0.0256497695138,0.0,1.70807621991,-0.00879801612772,-0.957945676981,6.66778516031,11.6412490179,-1.03086430711,-1.70807621991,0.00879801612772,0.957945676981,0.00383600394174,100.0,-0.0145763476665,-100.0,-0.0,100.0,-0.0,-100.0,1104712.16766,0.0,0.0,0.0,0.0,0.0,0.0
1403020855406256982,3,-19.2770604261,-9.56012115774,18.1565216107,12.5835788608,22.3203149537,0.0,-0.403152868578,0.0,0.279902427237,0.0,0.245461920534,0.0,2.52662773871,0.0,-0.71825601571,0.0,-0.0158972602655,0.0,0.0346915343599,0.0,0.0565752735267,-0.0,-0.0264410813936,0.0,1.73973922028,-0.000738037313854,-0.95838679021,6.66778516031,11.6412490179,-1.03086430711,-1.73973922028,0.000738037313854,0.95838679021,0.00383600394174,100.0,-0.0145763476665,-100.0,-0.0,100.0,-0.0,-100.0,1105072.54101,0.0,0.0,0.0,0.0,0.0,0.0
1403020855426081472,3,-19.2770604261,-9.56012115774,18.1565216107,12.5835788608,22.3203149537,0.0,-0.403152868578,0.0,0.279902427237,0.0,0.245461920534,0.0,2.52662773871,0.0,-0.71825601571,0.0,-0.0158972602655,0.0,0.0346915343599,0.0,0.0565752735267,-0.0,-0.0264410813936,0.0,1.73973922028,-0.000738037313854,-0.95838679021,6.66778516031,11.6412490179,-1.03086430711,-1.73973922028,0.000738037313854,0.95838679021,0.00383600394174,100.0,-0.0145763476665,-100.0,-0.0,100.0,-0.0,-100.0,1105072.54101,0.0,0.0,0.0,0.0,0.0,0.0
1403020855446106676,3,-19.2932281507,-9.56012115774,18.1683363749,12.5835788608,22.3301328716,0.0,-0.389072765959,0.0,0.292405286186,0.0,0.234688011813,0.0,2.49702719866,0.0,-0.723596173824,0.0,-0.0171772995179,0.0,0.0458924552852,0.0,0.0562668086102,-0.0,-0.0158585734411,0.0,1.72861455746,-0.00891483225195,-0.966037414086,6.66778516031,11.6412490179,-1.03086430711,-1.72861455746,0.00891483225195,0.966037414086,0.00383600394174,100.0,-0.0145763476665,-100.0,-0.0,100.0,-0.0,-100.0,1104899.17166,0.0,0.0,0.0,0.0,0.0,0.0
1403020855466177821,3,-19.2932281507,-9.56012115774,18.1683363749,12.5835788608,22.3301328716,0.0,-0.389072765959,0.0,0.292405286186,0.0,0.234688011813,0.0,2.49702719866,0.0,-0.723596173824,0.0,-0.0171772995179,0.0,0.0458924552852,0.0,0.0562668086102,-0.0,-0.0158585734411,0.0,1.72861455746,-0.00891483225195,-0.966037414086,6.66778516031,11.6412490179,-1.03086430711,-1.72861455746,0.00891483225195,0.966037414086,0.00383600394174,100.0,-0.0145763476665,-100.0,-0.0,100.0,-0.0,-100.0,1104899.17166,0.0,0.0,0.0,0.0,0.0,0.0
1403020855486168049,3,-19.315952837,-9.56012115774,18.1769819794,12.5835788608,22.3487684363,0.0,-0.400600863815,0.0,0.302011060501,0.0,0.259318076462,0.0,2.46836610298,0.0,-0.72044776999,0.0,-0.0190528244309,0.0,0.0495732452285,0.0,0.0567553770512,-0.0,-0.0133051852418,0.0,1.77214895308,0.0163719173122,-0.962064571619,6.66778516031,11.6412490179,-1.03086430711,-1.77214895308,-0.0163719173122,0.962064571619,0.00383600394174,100.0,-0.0161108096416,-100.0,-0.0,100.0,-0.0,-100.0,1105552.18961,0.0,0.0,0.0,0.0,0.0,0.0
1403020855506139302,3,-19.315952837,-9.56012115774,18.1769819794,12.5835788608,22.3487684363,0.0,-0.400600863815,0.0,0.302011060501,0.0,0.259318076462,0.0,2.46836610298,0.0,-0.72044776999,0.0,-0.0190528244309,0.0,0.0495732452285,0.0,0.0567553770512,-0.0,-0.0133051852418,0.0,1.77214895308,0.0163719173122,-0.962064571619,6.66778516031,11.6412490179,-1.03086430711,-1.77214895308,-0.0163719173122,0.962064571619,0.00383600394174,100.0,-0.0145763476665,-100.0,-0.0,100.0,-0.0,-100.0,1105552.18961,0.0,0.0,0.0,0.0,0.0,0.0
1403020855526446275,3,-19.3215597611,-9.56012115774,18.1896111735,12.5835788608,22.3543041672,0.0,-0.386953562851,0.0,0.315927483647,0.0,0.268185449715,0.0,2.445241121,0.0,-0.722936589148,0.0,-0.0190163717844,0.0,0.0315022915467,0.0,0.0561595435166,-0.0,-0.0269463363597,0.0,1.76455623341,0.000399006042059,-0.964418778287,6.66778516031,11.6412490179,-1.03086430711,-1.76455623341,-0.000399006042059,0.964418778287,0.00383600394174,100.0,-0.0145763476665,-100.0,-0.0,100.0,-0.0,-100.0,1105306.75234,0.0,0.0,0.0,0.0,0.0,0.0
