rosbagTimestamp,control_method,x_current,x_desired,y_current,y_desired,z_current,z_desired,x_velocity_current,x_velocity_desired,y_velocity_current,y_velocity_desired,z_velocity_current,z_velocity_desired,yaw_current,yaw_desired,yaw_velocity_current,yaw_velocity_desired,roll_current,roll_desired,roll_velocity_current,roll_velocity_desired,pitch_current,pitch_desired,pitch_velocity_current,pitch_velocity_desired,required_force_x,required_force_y,required_moment_z,resultant_force_x,resultant_force_y,resultant_moment_z,current_port_servo_angle,current_port_thruster_force,current_starboard_servo_angle,current_starboard_thruster_force,estimated_port_servo_angle,estimated_port_thruster_force,estimated_starboard_servo_angle,estimated_starboard_thruster_force,cost_value,step,user_defined_1,user_defined_2,user_defined_3,user_defined_4,user_defined_5
1402754097771079104,3,-13.251615376,-0.00591572024346,-11.5023850004,-0.122189614607,45.9488695583,0.10862951003,0.0230636808766,0.0,-0.00648777489232,0.0,0.147723469028,0.0,1.78952854623,0.0,0.00222076066829,0.0,-0.00149156885614,0.0,-0.00761281547746,0.0,0.0746988286305,0.0,-0.0130521419809,0.0,0.0,0.0,0.0,-100.0,0.0,-30.48,0.00230154196664,0.0,-0.00383606751517,0.0,-0.0,0.0,-0.0,-100.0,1014515.2,0.0,0.0,0.0,0.0,0.0,0.0
1402754097790779909,3,-13.2525497878,-0.00591572024346,-11.5475409723,-0.122189614607,46.0369161044,0.10862951003,0.0339489908793,0.0,-0.0120513787011,0.0,0.144936773891,0.0,1.78930764775,0.0,0.00041271127993,0.0,-0.000456644559214,0.0,-0.00783837713561,0.0,0.0740176505368,0.0,-0.00643077086331,0.0,0.0,0.0,0.0,-100.0,0.0,-30.48,0.00230154196664,0.0,-0.00383606751517,0.0,-0.0,0.0,-0.0,-100.0,1014515.2,0.0,0.0,0.0,0.0,0.0,0.0
1402754097810963867,3,-13.2525497878,-0.00591572024346,-11.5475409723,-0.122189614607,46.0369161044,0.10862951003,0.0339489908793,0.0,-0.0120513787011,0.0,0.144936773891,0.0,1.78930764775,0.0,0.00041271127993,0.0,-0.000456644559214,0.0,-0.00783837713561,0.0,0.0740176505368,0.0,-0.00643077086331,0.0,0.0,0.0,0.0,-100.0,0.0,-30.48,0.00230154196664,0.0,-0.00383606751517,0.0,-0.0,0.0,-0.0,-100.0,1014515.2,0.0,0.0,0.0,0.0,0.0,0.0
1402754097831796368,3,-13.2613049466,-0.00591572024346,-11.5981554668,-0.122189614607,46.1371525731,0.10862951003,0.0204867997737,0.0,-0.02469296646,0.0,0.145594441311,0.0,1.78914491308,0.0,0.000276838063277,0.0,-0.00221968483261,0.0,-0.00529781278758,0.0,0.0734219980005,0.0,-0.00258679669339,0.0,0.0,0.0,0.0,-100.0,0.0,-30.48,0.00230154196664,0.0,-0.00383606751517,0.0,-0.0,0.0,-0.0,-100.0,1014515.2,0.0,0.0,0.0,0.0,0.0,0.0
1402754097850910851,3,-13.2613049466,-0.00591572024346,-11.5981554668,-0.122189614607,46.1371525731,0.10862951003,0.0204867997737,0.0,-0.02469296646,0.0,0.145594441311,0.0,1.78914491308,0.0,0.000276838063277,0.0,-0.00221968483261,0.0,-0.00529781278758,0.0,0.0734219980005,0.0,-0.00258679669339,0.0,0.0,0.0,0.0,-100.0,0.0,-30.48,0.00230154196664,0.0,-0.00383606751517,0.0,-0.0,0.0,-0.0,-100.0,1014515.2,0.0,0.0,0.0,0.0,0.0,0.0
1402754097871056042,3,-13.2597812554,-0.00591572024346,-11.6425278006,-0.122189614607,46.2468399442,0.10862951003,0.0308834774339,0.0,-0.0223353615976,0.0,0.149201881398,0.0,1.78905221632,0.0,0.00608374610056,0.0,-0.000815054725054,0.0,0.00189979256001,0.0,0.0735990047088,0.0,0.00625553716378,0.0,0.0,0.0,0.0,-100.0,0.0,-30.48,0.00230154196664,0.0,-0.00383606751517,0.0,-0.0,0.0,-0.0,-100.0,1014515.2,0.0,0.0,0.0,0.0,0.0,0.0
1402754097891526263,3,-13.2597812554,-0.00591572024346,-11.6425278006,-0.122189614607,46.2468399442,0.10862951003,0.0308834774339,0.0,-0.0223353615976,0.0,0.149201881398,0.0,1.78905221632,0.0,0.00608374610056,0.0,-0.000815054725054,0.0,0.00189979256001,0.0,0.0735990047088,0.0,0.00625553716378,0.0,0.0,0.0,0.0,-100.0,0.0,-30.48,0.00230154196664,0.0,-0.00383606751517,0.0,-0.0,0.0,-0.0,-100.0,1014515.2,0.0,0.0,0.0,0.0,0.0,0.0
1402754097911019737,3,-13.258918387,-0.00591572024346,-11.64319833,-0.122189614607,46.2514337936,0.10862951003,0.0297287151831,0.0,-0.0223739394356,0.0,0.151203485807,0.0,1.78904729605,0.0,-0.00255574618741,0.0,-0.000527179013885,0.0,0.00179169176628,0.0,0.0735473063703,0.0,0.00932263414316,0.0,0.0,0.0,0.0,-100.0,0.0,-30.48,0.00230154196664,0.0,-0.00383606751517,0.0,-0.0,0.0,-0.0,-100.0,1014515.2,0.0,0.0,0.0,0.0,0.0,0.0
1402754097930832121,3,-13.2667086616,-0.00591572024346,-11.6886410243,-0.122189614607,46.3442617709,0.10862951003,0.0209467235208,0.0,-0.0273694133034,0.0,0.150835446301,0.0,1.78879238903,0.0,-0.00267129105208,0.0,-0.00147131138841,0.0,0.00100734343149,0.0,0.0732508176188,0.0,0.0108407883775,0.0,0.0,0.0,0.0,-100.0,0.0,-30.48,0.00230154196664,0.0,-0.00383606751517,0.0,-0.0,0.0,-0.0,-100.0,1014515.2,0.0,0.0,0.0,0.0,0.0,0.0
1402754097950995284,3,-13.2667086616,-0.00591572024346,-11.6886410243,-0.122189614607,46.3442617709,0.10862951003,0.0209467235208,0.0,-0.0273694133034,0.0,0.150835446301,0.0,1.78879238903,0.0,-0.00267129105208,0.0,-0.00147131138841,0.0,0.00100734343149,0.0,0.0732508176188,0.0,0.0108407883775,0.0,0.0,0.0,0.0,-100.0,0.0,-30.48,0.00230154196664,0.0,-0.00383606751517,0.0,-0.0,0.0,-0.0,-100.0,1014515.2,0.0,0.0,0.0,0.0,0.0,0.0
1402754097971110033,3,-13.2662578881,-0.00591572024346,-11.6890971437,-0.122189614607,46.3471002291,0.10862951003,0.0213287304898,0.0,-0.0274969002334,0.0,0.152005246225,0.0,1.78887888129,0.0,0.00678525097189,0.0,-0.00139818048287,0.0,0.00456998543729,0.0,0.0731573183043,0.0,0.00644224259573,0.0,0.0,0.0,0.0,-100.0,0.0,-30.48,0.00230154196664,0.0,-0.00383606751517,0.0,-0.0,0.0,-0.0,-100.0,1014515.2,0.0,0.0,0.0,0.0,0.0,0.0
1402754097990821136,3,-13.2662578881,-0.00591572024346,-11.6890971437,-0.122189614607,46.3471002291,0.10862951003,0.0213287304898,0.0,-0.0274969002334,0.0,0.152005246225,0.0,1.78887888129,0.0,0.00678525097189,0.0,-0.00139818048287,0.0,0.00456998543729,0.0,0.0731573183043,0.0,0.00644224259573,0.0,0.0,0.0,0.0,-100.0,0.0,-30.48,0.00230154196664,0.0,-0.00383606751517,0.0,-0.0,0.0,-0.0,-100.0,1014515.2,0.0,0.0,0.0,0.0,0.0,0.0
1402754098010839908,3,-13.2669355189,-0.00591572024346,-11.7329534503,-0.122189614607,46.4582482601,0.10862951003,0.023743623139,0.0,-0.0240389656729,0.0,0.157315968098,0.0,1.78874101339,0.0,0.00356285993265,0.0,-0.000701760547398,0.0,0.00521553901144,0.0,0.0733563191849,0.0,0.00203318510136,0.0,0.0,0.0,0.0,-100.0,0.0,-30.48,0.00230154196664,0.0,-0.00383606751517,0.0,-0.0,0.0,-0.0,-100.0,1014515.2,0.0,0.0,0.0,0.0,0.0,0.0
1402754098031287995,3,-13.2669355189,-0.00591572024346,-11.7329534503,-0.122189614607,46.4582482601,0.10862951003,0.023743623139,0.0,-0.0240389656729,0.0,0.157315968098,0.0,1.78874101339,0.0,0.00356285993265,0.0,-0.000701760547398,0.0,0.00521553901144,0.0,0.0733563191849,0.0,0.00203318510136,0.0,0.0,0.0,0.0,-100.0,0.0,-30.48,0.00230154196664,0.0,-0.00383606751517,0.0,-0.0,0.0,-0.0,-100.0,1014515.2,0.0,0.0,0.0,0.0,0.0,0.0
1402754098050708575,3,-13.2687868372,-0.00591572024346,-11.7743409985,-0.122189614607,46.5492891954,0.10862951003,0.0297014421184,0.0,-0.0230209792425,0.0,0.156347329692,0.0,1.7884909865,0.0,-0.00130435296299,0.0,0.000161734621664,0.0,0.00600271030826,0.0,0.0729314887985,0.0,0.00206728030059,0.0,0.0,0.0,0.0,-100.0,0.0,-30.48,0.00230154196664,0.0,-0.00383606751517,0.0,-0.0,0.0,-0.0,-100.0,1014515.2,0.0,0.0,0.0,0.0,0.0,0.0
1402754098071406677,3,-13.2687868372,-0.00591572024346,-11.7743409985,-0.122189614607,46.5492891954,0.10862951003,0.0297014421184,0.0,-0.0230209792425,0.0,0.156347329692,0.0,1.7884909865,0.0,-0.00130435296299,0.0,0.000161734621664,0.0,0.00600271030826,0.0,0.0729314887985,0.0,0.00206728030059,0.0,0.0,0.0,0.0,-100.0,0.0,-30.48,0.00230154196664,0.0,-0.00383606751517,0.0,-0.0,0.0,-0.0,-100.0,1014515.2,0.0,0.0,0.0,0.0,0.0,0.0
1402754098091407334,3,-13.2696127007,-0.00591572024346,-11.8150806102,-0.122189614607,46.6416611037,0.10862951003,0.0382226330276,0.0,-0.0203958240937,0.0,0.155150119893,0.0,1.78828484268,0.0,0.000963810535257,0.0,0.00115180792429,0.0,0.00726237886732,0.0,0.0726281472505,0.0,0.00149339135056,0.0,0.0,0.0,0.0,-100.0,0.0,-30.48,0.00230154196664,0.0,-0.00383606751517,0.0,-0.0,0.0,-0.0,-100.0,1014515.2,0.0,0.0,0.0,0.0,0.0,0.0
1402754098110856813,3,-13.2696127007,-0.00591572024346,-11.8150806102,-0.122189614607,46.6416611037,0.10862951003,0.0382226330276,0.0,-0.0203958240937,0.0,0.155150119893,0.0,1.78828484268,0.0,0.000963810535257,0.0,0.00115180792429,0.0,0.00726237886732,0.0,0.0726281472505,0.0,0.00149339135056,0.0,0.0,0.0,0.0,-100.0,0.0,-30.48,0.00230154196664,0.0,-0.00383606751517,0.0,-0.0,0.0,-0.0,-100.0,1014515.2,0.0,0.0,0.0,0.0,0.0,0.0
1402754098130837585,3,-13.2681671656,-0.00591572024346,-11.8159722209,-0.122189614607,46.6479829654,0.10862951003,0.0379615431297,0.0,-0.0203273366583,0.0,0.156331008898,0.0,1.78816822998,0.0,-0.00363684488676,0.0,0.000816749091484,0.0,0.00915738526044,0.0,0.0723028628797,0.0,-0.00659574771799,0.0,0.0,0.0,0.0,-100.0,0.0,-30.48,0.00230154196664,0.0,-0.00383606751517,0.0,-0.0,0.0,-0.0,-100.0,1014515.2,0.0,0.0,0.0,0.0,0.0,0.0
1402754098150664933,3,-13.2681671656,-0.00591572024346,-11.8159722209,-0.122189614607,46.6479829654,0.10862951003,0.0379615431297,0.0,-0.0203273366583,0.0,0.156331008898,0.0,1.78816822998,0.0,-0.00363684488676,0.0,0.000816749091484,0.0,0.00915738526044,0.0,0.0723028628797,0.0,-0.00659574771799,0.0,0.0,0.0,0.0,-100.0,0.0,-30.48,0.00230154196664,0.0,-0.00383606751517,-100.0,-0.0,0.0,-0.0,-100.0,1014515.2,0.0,0.0,0.0,0.0,0.0,0.0
1402754098170863043,3,-13.2800908527,-0.00591572024346,-11.8632871315,-0.122189614607,46.7500639119,0.10862951003,0.0147061764077,0.0,-0.0268054564117,0.0,0.157654406298,0.0,1.78769115817,0.0,-0.00250089922354,0.0,-0.00233030924446,0.0,0.0109276977063,0.0,0.0720041117623,0.0,-0.0110011272763,0.0,0.0,0.0,0.0,-100.0,0.0,-30.48,0.00230154196664,0.0,-0.00383606751517,-100.0,-0.0,0.0,-0.0,-100.0,1014515.2,0.0,0.0,0.0,0.0,0.0,0.0
1402754098190729840,3,-13.2800908527,-0.00591572024346,-11.8632871315,-0.122189614607,46.7500639119,0.10862951003,0.0147061764077,0.0,-0.0268054564117,0.0,0.157654406298,0.0,1.78769115817,0.0,-0.00250089922354,0.0,-0.00233030924446,0.0,0.0109276977063,0.0,0.0720041117623,0.0,-0.0110011272763,0.0,0.0,0.0,0.0,-100.0,0.0,-30.48,0.00230154196664,0.0,-0.00383606751517,-100.0,-0.0,0.0,-0.0,-100.0,1014515.2,0.0,0.0,0.0,0.0,0.0,0.0
1402754098210799661,3,-13.2779219626,-0.00591572024346,-11.9013526807,-0.122189614607,46.8446675692,0.10862951003,0.0285980242988,0.0,-0.0179879569249,0.0,0.157018419433,0.0,1.78729888481,0.0,-0.00743847330949,0.0,-0.00077125931921,0.0,0.0100149240329,0.0,0.0721130095171,0.0,-0.0120235613864,0.0,0.0,0.0,0.0,-100.0,0.0,-30.48,0.00230154196664,0.0,-0.00383606751517,-100.0,-0.0,0.0,-0.0,-100.0,1014515.2,0.0,0.0,0.0,0.0,0.0,0.0
1402754098230889567,3,-13.2779219626,-0.00591572024346,-11.9013526807,-0.122189614607,46.8446675692,0.10862951003,0.0285980242988,0.0,-0.0179879569249,0.0,0.157018419433,0.0,1.78729888481,0.0,-0.00743847330949,0.0,-0.00077125931921,0.0,0.0100149240329,0.0,0.0721130095171,0.0,-0.0120235613864,0.0,0.0,0.0,0.0,-100.0,0.0,-30.48,0.00230154196664,0.0,-0.00537029107169,-100.0,-0.0,0.0,-0.0,-100.0,1014515.2,0.0,0.0,0.0,0.0,0.0,0.0
1402754098250785795,3,-13.2823179076,-0.00591572024346,-11.9448090776,-0.122189614607,46.9354849053,0.10862951003,0.0254155911881,0.0,-0.0233201195133,0.0,0.156147437507,0.0,1.78672419237,0.0,-0.00497348268141,0.0,-0.00181090543043,0.0,0.00838108694693,0.0,0.0713245617404,0.0,-0.0112923714185,0.0,0.0,0.0,0.0,-100.0,0.0,-30.48,0.00230154196664,0.0,-0.00383606751517,-100.0,-0.0,0.0,-0.0,-100.0,1014515.2,0.0,0.0,0.0,0.0,0.0,0.0
1402754098270860558,3,-13.2823179076,-0.00591572024346,-11.9448090776,-0.122189614607,46.9354849053,0.10862951003,0.0254155911881,0.0,-0.0233201195133,0.0,0.156147437507,0.0,1.78672419237,0.0,-0.00497348268141,0.0,-0.00181090543043,0.0,0.00838108694693,0.0,0.0713245617404,0.0,-0.0112923714185,0.0,0.0,0.0,0.0,-100.0,0.0,-30.48,0.00230154196664,0.0,-0.00383606751517,-100.0,-0.0,0.0,-0.0,-100.0,1014515.2,0.0,0.0,0.0,0.0,0.0,0.0
1402754098290764104,3,-13.2807774179,-0.00591572024346,-11.9772372669,-0.122189614607,47.0298920816,0.10862951003,0.0333020037404,0.0,-0.00459017235771,0.0,0.1562271879,0.0,1.78623567755,0.0,-0.0084804248059,0.0,-0.000871856629155,0.0,0.00639501402136,0.0,0.0728157859877,0.0,-0.0105264598231,0.0,0.0,0.0,0.0,-100.0,0.0,-30.48,0.00230154196664,0.0,-0.00383606751517,-100.0,-0.0,0.0,-0.0,-100.0,1014515.2,0.0,0.0,0.0,0.0,0.0,0.0
1402754098310784692,3,-13.2807774179,-0.00591572024346,-11.9772372669,-0.122189614607,47.0298920816,0.10862951003,0.0333020037404,0.0,-0.00459017235771,0.0,0.1562271879,0.0,1.78623567755,0.0,-0.0084804248059,0.0,-0.000871856629155,0.0,0.00639501402136,0.0,0.0728157859877,0.0,-0.0105264598231,0.0,0.0,0.0,0.0,-100.0,0.0,-30.48,0.00230154196664,0.0,-0.00383606751517,-100.0,-0.0,0.0,-0.0,-100.0,1014515.2,0.0,0.0,0.0,0.0,0.0,0.0
1402754098331320887,3,-13.2794866472,-0.00591572024346,-11.9774886401,-0.122189614607,47.0362746031,0.10862951003,0.0361249378053,0.0,-0.00808288496736,0.0,0.155368998935,0.0,1.7859279477,0.0,-0.00818791504205,0.0,-0.00110845822321,0.0,-0.000844932011079,0.0,0.0726953571127,0.0,0.0070699070472,0.0,0.0,0.0,0.0,-100.0,0.0,-30.48,0.00230154196664,0.0,-0.00383606751517,-100.0,-0.0,0.0,-0.0,-100.0,1014515.2,0.0,0.0,0.0,0.0,0.0,0.0
1402754098350792071,3,-13.2794866472,-0.00591572024346,-11.9774886401,-0.122189614607,47.0362746031,0.10862951003,0.0361249378053,0.0,-0.00808288496736,0.0,0.155368998935,0.0,1.7859279477,0.0,-0.00818791504205,0.0,-0.00110845822321,0.0,-0.000844932011079,0.0,0.0726953571127,0.0,0.0070699070472,0.0,0.0,0.0,0.0,-100.0,0.0,-30.48,0.00230154196664,0.0,-0.00537029107169,-100.0,-0.0,0.0,-0.0,-100.0,1014515.2,0.0,0.0,0.0,0.0,0.0,0.0
1402754098370800865,3,-13.2814406564,-0.00591572024346,-12.023767786,-0.122189614607,47.1302193171,0.10862951003,0.0454193173733,0.0,-0.0383623637719,0.0,0.147393291061,0.0,1.78520317594,0.0,-0.0187582356932,0.0,-0.0013898547856,0.0,-0.00788782498496,0.0,0.0719633091179,0.0,-0.0237973117393,0.0,0.0,0.0,0.0,-100.0,0.0,-30.48,0.00230154196664,0.0,-0.00537029107169,-100.0,-0.0,0.0,-0.0,-100.0,1014515.2,0.0,0.0,0.0,0.0,0.0,0.0
1402754098390775902,3,-13.2814406564,-0.00591572024346,-12.023767786,-0.122189614607,47.1302193171,0.10862951003,0.0454193173733,0.0,-0.0383623637719,0.0,0.147393291061,0.0,1.78520317594,0.0,-0.0187582356932,0.0,-0.0013898547856,0.0,-0.00788782498496,0.0,0.0719633091179,0.0,-0.0237973117393,0.0,0.0,0.0,0.0,-100.0,0.0,-30.48,0.00230154196664,0.0,-0.00383606751517,-100.0,-0.0,0.0,-0.0,-100.0,1014515.2,0.0,0.0,0.0,0.0,0.0,0.0
1402754098410735298,3,-13.2818658976,-0.00591572024346,-12.0714291335,-0.122189614607,47.2379792339,0.10862951003,0.0577603808401,0.0,-0.0649168466524,0.0,0.151479809923,0.0,1.7837759678,0.0,-0.0385405610781,0.0,-0.0016930334124,0.0,-0.0303541151945,0.0,0.0726752628173,0.0,-0.0327313787386,0.0,0.0,0.0,0.0,-100.0,0.0,-30.48,0.00230154196664,0.0,-0.00537029107169,-100.0,-0.0,0.0,-0.0,-100.0,1014515.2,0.0,0.0,0.0,0.0,0.0,0.0
1402754098430918636,3,-13.2818658976,-0.00591572024346,-12.0714291335,-0.122189614607,47.2379792339,0.10862951003,0.0577603808401,0.0,-0.0649168466524,0.0,0.151479809923,0.0,1.7837759678,0.0,-0.0385405610781,0.0,-0.0016930334124,0.0,-0.0303541151945,0.0,0.0726752628173,0.0,-0.0327313787386,0.0,0.0,0.0,0.0,-100.0,0.0,-30.48,0.00230154196664,0.0,-0.00537029107169,-100.0,-0.0,0.0,-0.0,-100.0,1014515.2,0.0,0.0,0.0,0.0,0.0,0.0
1402754098450725736,3,-13.2859925076,-0.00591572024346,-12.1182934261,-0.122189614607,47.3371364729,0.10862951003,0.0627516149006,0.0,-0.0929861111326,0.0,0.148618757551,0.0,1.78097382056,0.0,-0.0581316808012,0.0,-0.00315898432166,0.0,-0.0423749872483,0.0,0.0744853558816,0.0,-0.0391392002682,0.0,0.0,0.0,0.0,-100.0,0.0,-30.48,0.000767318410122,0.0,-0.00537029107169,-100.0,-0.0,0.0,-0.0,-100.0,1014515.2,0.0,0.0,0.0,0.0,0.0,0.0
1402754098470871112,3,-13.2859925076,-0.00591572024346,-12.1182934261,-0.122189614607,47.3371364729,0.10862951003,0.0627516149006,0.0,-0.0929861111326,0.0,0.148618757551,0.0,1.78097382056,0.0,-0.0581316808012,0.0,-0.00315898432166,0.0,-0.0423749872483,0.0,0.0744853558816,0.0,-0.0391392002682,0.0,0.0,0.0,0.0,-100.0,0.0,-30.48,0.00230154196664,0.0,-0.00537029107169,-100.0,-0.0,0.0,-0.0,-100.0,1014515.2,0.0,0.0,0.0,0.0,0.0,0.0
1402754098491277911,3,-13.2871948716,-0.00591572024346,-12.1681989499,-0.122189614607,47.4372443524,0.10862951003,0.0755783915596,0.0,-0.123748176497,0.0,0.142859681126,0.0,1.77857613953,0.0,-0.0659395113457,0.0,-0.00368735564807,0.0,-0.0400420058495,0.0,0.0759026277955,0.0,-0.0315223781395,0.0,0.0,0.0,0.0,-100.0,0.0,-30.48,0.00230154196664,0.0,-0.00537029107169,-100.0,-0.0,0.0,-0.0,-100.0,1014515.2,0.0,0.0,0.0,0.0,0.0,0.0
1402754098510955953,3,-13.2871948716,-0.00591572024346,-12.1681989499,-0.122189614607,47.4372443524,0.10862951003,0.0755783915596,0.0,-0.123748176497,0.0,0.142859681126,0.0,1.77857613953,0.0,-0.0659395113457,0.0,-0.00368735564807,0.0,-0.0400420058495,0.0,0.0759026277955,0.0,-0.0315223781395,0.0,0.0,0.0,0.0,-100.0,0.0,-30.48,0.00230154196664,0.0,-0.00537029107169,-100.0,-0.0,0.0,-0.0,-100.0,1014515.2,0.0,0.0,0.0,0.0,0.0,0.0
1402754098530708987,3,-13.2839024592,-0.00591572024346,-12.1737254359,-0.122189614607,47.4429641559,0.10862951003,0.0845766623952,0.0,-0.145529652929,0.0,0.140637738856,0.0,1.77537484574,0.0,-0.0833358366519,0.0,-0.00378659709086,0.0,-0.0519472299582,0.0,0.0779589298896,0.0,-0.029602960577,0.0,0.0,0.0,0.0,-100.0,0.0,-30.48,0.00230154196664,0.0,-0.00537029107169,-100.0,-0.0,0.0,-0.0,-100.0,1014515.2,0.0,0.0,0.0,0.0,0.0,0.0
1402754098550826857,3,-13.2839024592,-0.00591572024346,-12.1737254359,-0.122189614607,47.4429641559,0.10862951003,0.0845766623952,0.0,-0.145529652929,0.0,0.140637738856,0.0,1.77537484574,0.0,-0.0833358366519,0.0,-0.00378659709086,0.0,-0.0519472299582,0.0,0.0779589298896,0.0,-0.029602960577,0.0,0.0,0.0,0.0,-100.0,0.0,-30.48,0.00230154196664,0.0,-0.00537029107169,-100.0,-0.0,0.0,-0.0,-100.0,1014515.2,0.0,0.0,0.0,0.0,0.0,0.0
1402754098572010773,3,-13.2802407004,-0.00591572024346,-12.1802443668,-0.122189614607,47.4488844655,0.10862951003,0.0961729403252,0.0,-0.170492387842,0.0,0.142730327086,0.0,1.77181505287,0.0,-0.0868040052487,0.0,-0.00394908477915,0.0,-0.034938843438,0.0,0.0799140855578,0.0,-0.008743068479,0.0,0.0,0.0,0.0,-100.0,0.0,-30.48,0.00230154196664,0.0,-0.00690451462821,-100.0,-0.0,0.0,-0.0,-100.0,1014515.2,0.0,0.0,0.0,0.0,0.0,0.0
1402754098590736341,3,-13.2802407004,-0.00591572024346,-12.1802443668,-0.122189614607,47.4488844655,0.10862951003,0.0961729403252,0.0,-0.170492387842,0.0,0.142730327086,0.0,1.77181505287,0.0,-0.0868040052487,0.0,-0.00394908477915,0.0,-0.034938843438,0.0,0.0799140855578,0.0,-0.008743068479,0.0,0.0,0.0,0.0,-100.0,0.0,-30.48,0.00230154196664,0.0,-0.00537029107169,-100.0,-0.0,0.0,-0.0,-100.0,1014515.2,0.0,0.0,0.0,0.0,0.0,0.0
1402754098611760298,3,-13.2869802534,-0.00591572024346,-12.2670240115,-0.122189614607,47.6480777508,0.10862951003,0.093775324764,0.0,-0.180485544785,0.0,0.151338722848,0.0,1.76394198436,0.0,-0.111790027234,0.0,-0.00505081427175,0.0,-0.0291204446679,0.0,0.0842942967014,0.0,-0.0206984155928,0.0,0.0,0.0,0.0,-100.0,0.0,-30.48,0.00230154196664,0.0,-0.00537029107169,-100.0,-0.0,0.0,-0.0,-100.0,1014515.2,0.0,0.0,0.0,0.0,0.0,0.0
1402754098630917422,3,-13.2869802534,-0.00591572024346,-12.2670240115,-0.122189614607,47.6480777508,0.10862951003,0.093775324764,0.0,-0.180485544785,0.0,0.151338722848,0.0,1.76394198436,0.0,-0.111790027234,0.0,-0.00505081427175,0.0,-0.0291204446679,0.0,0.0842942967014,0.0,-0.0206984155928,0.0,0.0,0.0,0.0,-100.0,0.0,-30.48,0.00230154196664,0.0,-0.00537029107169,-100.0,-0.0,0.0,-0.0,-100.0,1014515.2,0.0,0.0,0.0,0.0,0.0,0.0
1402754098651182054,3,-13.2847696053,-0.00591572024346,-12.3184921705,-0.122189614607,47.7363913192,0.10862951003,0.11821807636,0.0,-0.209074545687,0.0,0.145012279082,0.0,1.75988600024,0.0,-0.117670550115,0.0,-0.00360761927903,0.0,-0.0226130467535,0.0,0.0848526399643,0.0,0.0164484141627,0.0,0.0,0.0,0.0,-100.0,0.0,-30.48,0.00230154196664,0.0,-0.00537029107169,-100.0,-0.0,0.0,-0.0,-100.0,1014515.2,0.0,0.0,0.0,0.0,0.0,0.0
1402754098670922749,3,-13.2847696053,-0.00591572024346,-12.3184921705,-0.122189614607,47.7363913192,0.10862951003,0.11821807636,0.0,-0.209074545687,0.0,0.145012279082,0.0,1.75988600024,0.0,-0.117670550115,0.0,-0.00360761927903,0.0,-0.0226130467535,0.0,0.0848526399643,0.0,0.0164484141627,0.0,0.0,0.0,0.0,-100.0,0.0,-30.48,0.00230154196664,0.0,-0.00537029107169,-100.0,-0.0,0.0,-0.0,-100.0,1014515.2,0.0,0.0,0.0,0.0,0.0,0.0
1402754098690678917,3,-13.2822939685,-0.00591572024346,-12.3227811903,-0.122189614607,47.739233172,0.10862951003,0.12160626338,0.0,-0.221953088594,0.0,0.149296046914,0.0,1.75747821125,0.0,-0.123562816018,0.0,-0.00345752958479,0.0,0.00274724595039,0.0,0.084944917376,0.0,-0.00145914157388,0.0,0.0,0.0,0.0,-100.0,0.0,-30.48,0.00230154196664,0.0,-0.00537029107169,-100.0,-0.0,0.0,-0.0,-100.0,1014515.2,0.0,0.0,0.0,0.0,0.0,0.0
1402754098711940873,3,-13.2822939685,-0.00591572024346,-12.3227811903,-0.122189614607,47.739233172,0.10862951003,0.12160626338,0.0,-0.221953088594,0.0,0.149296046914,0.0,1.75747821125,0.0,-0.123562816018,0.0,-0.00345752958479,0.0,0.00274724595039,0.0,0.084944917376,0.0,-0.00145914157388,0.0,0.0,0.0,0.0,-100.0,0.0,-30.48,0.00230154196664,0.0,-0.00690451462821,-100.0,-0.0,0.0,-0.0,-100.0,1014515.2,0.0,0.0,0.0,0.0,0.0,0.0
1402754098731426220,3,-13.2821537726,-0.00591572024346,-12.3744515315,-0.122189614607,47.8569412521,0.10862951003,0.122120886485,0.0,-0.239038978319,0.0,0.161262369942,0.0,1.74960537073,0.0,-0.139413756448,0.0,-0.00444303362798,0.0,0.000166977714453,0.0,0.0855654031519,0.0,0.00448039488555,0.0,0.0,0.0,0.0,-100.0,0.0,-30.48,0.00230154196664,0.0,-0.00690451462821,-100.0,-0.0,0.0,-0.0,-100.0,1014515.2,0.0,0.0,0.0,0.0,0.0,0.0
1402754098750636614,3,-13.2821537726,-0.00591572024346,-12.3744515315,-0.122189614607,47.8569412521,0.10862951003,0.122120886485,0.0,-0.239038978319,0.0,0.161262369942,0.0,1.74960537073,0.0,-0.139413756448,0.0,-0.00444303362798,0.0,0.000166977714453,0.0,0.0855654031519,0.0,0.00448039488555,0.0,0.0,0.0,0.0,-100.0,0.0,-30.48,0.00230154196664,0.0,-0.00690451462821,-100.0,-0.0,0.0,-0.0,-100.0,1014515.2,0.0,0.0,0.0,0.0,0.0,0.0
1402754098771392360,3,-13.2756982264,-0.00591572024346,-12.4281469973,-0.122189614607,47.9452202924,0.10862951003,0.150780987641,0.0,-0.271363293133,0.0,0.161104878921,0.0,1.7478775421,0.0,-0.142634866664,0.0,-0.00215363240666,0.0,0.0291174817751,0.0,0.0831519529404,0.0,0.00150923578166,0.0,0.0,0.0,0.0,-100.0,0.0,-30.48,0.00230154196664,0.0,-0.00690451462821,-100.0,-0.0,0.0,-0.0,-100.0,1014515.2,0.0,0.0,0.0,0.0,0.0,0.0
1402754098791431311,3,-13.2756982264,-0.00591572024346,-12.4281469973,-0.122189614607,47.9452202924,0.10862951003,0.150780987641,0.0,-0.271363293133,0.0,0.161104878921,0.0,1.7478775421,0.0,-0.142634866664,0.0,-0.00215363240666,0.0,0.0291174817751,0.0,0.0831519529404,0.0,0.00150923578166,0.0,0.0,0.0,0.0,-100.0,0.0,-30.48,0.00230154196664,0.0,-0.00690451462821,-100.0,-0.0,0.0,-0.0,-100.0,1014515.2,0.0,0.0,0.0,0.0,0.0,0.0
1402754098810770304,3,-13.2737647913,-0.00591572024346,-12.471427435,-0.122189614607,48.0424861751,0.10862951003,0.156877088371,0.0,-0.275873367115,0.0,0.166445967516,0.0,1.74068629882,0.0,-0.155391347103,0.0,-0.001838649069,0.0,0.0255978481518,0.0,0.0837488564264,0.0,0.00997954307251,0.0,0.0,0.0,0.0,-100.0,0.0,-30.48,0.00230154196664,0.0,-0.00690451462821,-100.0,-0.0,0.0,-0.0,-100.0,1014515.2,0.0,0.0,0.0,0.0,0.0,0.0
1402754098830668953,3,-13.2737647913,-0.00591572024346,-12.471427435,-0.122189614607,48.0424861751,0.10862951003,0.156877088371,0.0,-0.275873367115,0.0,0.166445967516,0.0,1.74068629882,0.0,-0.155391347103,0.0,-0.001838649069,0.0,0.0255978481518,0.0,0.0837488564264,0.0,0.00997954307251,0.0,0.0,0.0,0.0,-100.0,0.0,-30.48,0.00230154196664,0.0,-0.00690451462821,-100.0,-0.0,0.0,-0.0,-100.0,1014515.2,0.0,0.0,0.0,0.0,0.0,0.0
1402754098850668059,3,-13.2707235184,-0.00591572024346,-12.5189946272,-0.122189614607,48.1290898455,0.10862951003,0.166679068944,0.0,-0.294781739951,0.0,0.161849102817,0.0,1.73452877783,0.0,-0.16173572801,0.0,-0.000979865421394,0.0,0.0466702584864,0.0,0.0822023150647,0.0,0.0180608148537,0.0,0.0,0.0,0.0,-100.0,0.0,-30.48,0.00230154196664,0.0,-0.00690451462821,-100.0,-0.0,0.0,-0.0,-100.0,1014515.2,0.0,0.0,0.0,0.0,0.0,0.0
1402754098871221630,3,-13.2707235184,-0.00591572024346,-12.5189946272,-0.122189614607,48.1290898455,0.10862951003,0.166679068944,0.0,-0.294781739951,0.0,0.161849102817,0.0,1.73452877783,0.0,-0.16173572801,0.0,-0.000979865421394,0.0,0.0466702584864,0.0,0.0822023150647,0.0,0.0180608148537,0.0,0.0,0.0,0.0,-100.0,0.0,-30.48,0.00230154196664,0.0,-0.00537029107169,-100.0,-0.0,0.0,-0.0,-100.0,1014515.2,0.0,0.0,0.0,0.0,0.0,0.0
1402754098890794104,3,-13.2684157703,-0.00591572024346,-12.5795763185,-0.122189614607,48.2180955291,0.10862951003,0.173337150553,0.0,-0.340772822826,0.0,0.161550728619,0.0,1.72791317654,0.0,-0.165673589386,0.0,-0.000940067540747,0.0,0.045381406443,0.0,0.0778187082908,0.0,0.018155973086,0.0,0.0,0.0,0.0,-100.0,0.0,-30.48,0.00230154196664,0.0,-0.00537029107169,-100.0,-0.0,0.0,-0.0,-100.0,1014515.2,0.0,0.0,0.0,0.0,0.0,0.0
1402754098910812126,3,-13.2684157703,-0.00591572024346,-12.5795763185,-0.122189614607,48.2180955291,0.10862951003,0.173337150553,0.0,-0.340772822826,0.0,0.161550728619,0.0,1.72791317654,0.0,-0.165673589386,0.0,-0.000940067540747,0.0,0.045381406443,0.0,0.0778187082908,0.0,0.018155973086,0.0,0.0,0.0,0.0,-100.0,0.0,-30.48,0.00230154196664,0.0,-0.00537029107169,-100.0,-0.0,0.0,-0.0,-100.0,1014515.2,0.0,0.0,0.0,0.0,0.0,0.0
1402754098930807231,3,-13.2680022504,-0.00591572024346,-12.6291748082,-0.122189614607,48.2892254819,0.10862951003,0.172578615656,0.0,-0.366461278259,0.0,0.157208812875,0.0,1.71984744112,0.0,-0.174411844785,0.0,-0.00122820031769,0.0,0.0357777985229,0.0,0.0756174604548,0.0,0.0065021183737,0.0,0.0,0.0,0.0,-100.0,0.0,-30.48,0.00230154196664,0.0,-0.00537029107169,-100.0,-0.0,0.0,-0.0,-100.0,1014515.2,0.0,0.0,0.0,0.0,0.0,0.0
1402754098951031425,3,-13.2680022504,-0.00591572024346,-12.6291748082,-0.122189614607,48.2892254819,0.10862951003,0.172578615656,0.0,-0.366461278259,0.0,0.157208812875,0.0,1.71984744112,0.0,-0.174411844785,0.0,-0.00122820031769,0.0,0.0357777985229,0.0,0.0756174604548,0.0,0.0065021183737,0.0,0.0,0.0,0.0,-100.0,0.0,-30.48,0.00230154196664,0.0,-0.00537029107169,-100.0,-0.0,0.0,-0.0,-100.0,1014515.2,0.0,0.0,0.0,0.0,0.0,0.0
1402754098970833395,3,-13.2609582653,-0.00591572024346,-12.6441265381,-0.122189614607,48.2953743155,0.10862951003,0.178968937528,0.0,-0.386247009268,0.0,0.155645721862,0.0,1.71259880755,0.0,-0.178627255465,0.0,-0.000999262105391,0.0,0.0370663426188,0.0,0.0743237019976,0.0,0.00666634649078,0.0,0.0,0.0,0.0,-100.0,0.0,-30.48,0.00230154196664,0.0,-0.00690451462821,-100.0,-0.0,0.0,-0.0,-100.0,1014515.2,0.0,0.0,0.0,0.0,0.0,0.0
1402754098991165526,3,-13.2609582653,-0.00591572024346,-12.6441265381,-0.122189614607,48.2953743155,0.10862951003,0.178968937528,0.0,-0.386247009268,0.0,0.155645721862,0.0,1.71259880755,0.0,-0.178627255465,0.0,-0.000999262105391,0.0,0.0370663426188,0.0,0.0743237019976,0.0,0.00666634649078,0.0,0.0,0.0,0.0,-100.0,0.0,-30.48,0.00230154196664,0.0,-0.00537029107169,-100.0,-0.0,0.0,-0.0,-100.0,1014515.2,0.0,0.0,0.0,0.0,0.0,0.0
1402754099010745741,3,-13.2508431701,-0.00591572024346,-12.6868283545,-0.122189614607,48.3832549399,0.10862951003,0.200284354242,0.0,-0.388564505357,0.0,0.15438155623,0.0,1.70762002565,0.0,-0.19461661107,0.0,0.00116907992923,0.0,0.0232291450376,0.0,0.0745017911378,0.0,0.00870238072221,0.0,0.0,0.0,0.0,-100.0,0.0,-30.48,0.00230154196664,0.0,-0.00690451462821,-100.0,-0.0,0.0,-0.0,-100.0,1014515.2,0.0,0.0,0.0,0.0,0.0,0.0
1402754099030651924,3,-13.2508431701,-0.00591572024346,-12.6868283545,-0.122189614607,48.3832549399,0.10862951003,0.200284354242,0.0,-0.388564505357,0.0,0.15438155623,0.0,1.70762002565,0.0,-0.19461661107,0.0,0.00116907992923,0.0,0.0232291450376,0.0,0.0745017911378,0.0,0.00870238072221,0.0,0.0,0.0,0.0,-100.0,0.0,-30.48,0.00230154196664,0.0,-0.00537029107169,-100.0,-0.0,0.0,-0.0,-100.0,1014515.2,0.0,0.0,0.0,0.0,0.0,0.0
1402754099050850880,3,-13.2419247596,-0.00591572024346,-12.7281427389,-0.122189614607,48.4577673974,0.10862951003,0.219049976753,0.0,-0.395577609657,0.0,0.149362264304,0.0,1.70214491799,0.0,-0.191860288068,0.0,0.00309061531124,0.0,0.0242493204485,0.0,0.0747629004177,0.0,0.0051746016995,0.0,0.0,0.0,0.0,-100.0,0.0,-30.48,0.00230154196664,0.0,-0.00537029107169,-100.0,-0.0,0.0,-0.0,-100.0,1014515.2,0.0,0.0,0.0,0.0,0.0,0.0
1402754099070613650,3,-13.2419247596,-0.00591572024346,-12.7281427389,-0.122189614607,48.4577673974,0.10862951003,0.219049976753,0.0,-0.395577609657,0.0,0.149362264304,0.0,1.70214491799,0.0,-0.191860288068,0.0,0.00309061531124,0.0,0.0242493204485,0.0,0.0747629004177,0.0,0.0051746016995,0.0,0.0,0.0,0.0,-100.0,0.0,-30.48,0.00230154196664,0.0,-0.00537029107169,-100.0,-0.0,0.0,-0.0,-100.0,1014515.2,0.0,0.0,0.0,0.0,0.0,0.0
1402754099090563925,3,-13.2412214131,-0.00591572024346,-12.7786278906,-0.122189614607,48.5320379526,0.10862951003,0.208296482025,0.0,-0.424448155693,0.0,0.149437798705,0.0,1.69144008963,0.0,-0.201281373754,0.0,0.0010555397567,0.0,-0.00310483434127,0.0,0.0736857535759,0.0,-0.00905319207626,0.0,0.0,0.0,0.0,-100.0,0.0,-30.48,0.00230154196664,0.0,-0.00537029107169,-100.0,-0.0,0.0,-0.0,-100.0,1014515.2,0.0,0.0,0.0,0.0,0.0,0.0
1402754099110725394,3,-13.2412214131,-0.00591572024346,-12.7786278906,-0.122189614607,48.5320379526,0.10862951003,0.208296482025,0.0,-0.424448155693,0.0,0.149437798705,0.0,1.69144008963,0.0,-0.201281373754,0.0,0.0010555397567,0.0,-0.00310483434127,0.0,0.0736857535759,0.0,-0.00905319207626,0.0,0.0,0.0,0.0,-100.0,0.0,-30.48,0.00230154196664,0.0,-0.00537029107169,-100.0,-0.0,0.0,-0.0,-100.0,1014515.2,0.0,0.0,0.0,0.0,0.0,0.0
1402754099130755717,3,-13.2381514468,-0.00591572024346,-12.8241845921,-0.122189614607,48.5950078818,0.10862951003,0.206409454324,0.0,-0.448032860406,0.0,0.146604379181,0.0,1.68226736098,0.0,-0.209739773512,0.0,0.000396751867338,0.0,0.00846986684623,0.0,0.0734649014427,0.0,-0.00874696438179,0.0,0.0,0.0,0.0,-100.0,0.0,-30.48,0.00230154196664,0.0,-0.00537029107169,-100.0,-0.0,0.0,-0.0,-100.0,1014515.2,0.0,0.0,0.0,0.0,0.0,0.0
1402754099150665182,3,-13.2381514468,-0.00591572024346,-12.8241845921,-0.122189614607,48.5950078818,0.10862951003,0.206409454324,0.0,-0.448032860406,0.0,0.146604379181,0.0,1.68226736098,0.0,-0.209739773512,0.0,0.000396751867338,0.0,0.00846986684623,0.0,0.0734649014427,0.0,-0.00874696438179,0.0,0.0,0.0,0.0,-100.0,0.0,-30.48,0.00230154196664,0.0,-0.00537029107169,-100.0,-0.0,0.0,-0.0,-100.0,1014515.2,0.0,0.0,0.0,0.0,0.0,0.0
1402754099170791834,3,-13.2294982371,-0.00591572024346,-12.8427484773,-0.122189614607,48.6009904155,0.10862951003,0.212139787834,0.0,-0.464591107053,0.0,0.147907814479,0.0,1.67350678976,0.0,-0.214459634772,0.0,0.000117780966503,0.0,-0.016962168919,0.0,0.0741169491424,0.0,-0.0164894149549,0.0,0.0,0.0,0.0,-100.0,0.0,-30.48,0.00230154196664,0.0,-0.00537029107169,-100.0,-0.0,0.0,-0.0,-100.0,1014515.2,0.0,0.0,0.0,0.0,0.0,0.0
1402754099191391828,3,-13.2294982371,-0.00591572024346,-12.8427484773,-0.122189614607,48.6009904155,0.10862951003,0.212139787834,0.0,-0.464591107053,0.0,0.147907814479,0.0,1.67350678976,0.0,-0.214459634772,0.0,0.000117780966503,0.0,-0.016962168919,0.0,0.0741169491424,0.0,-0.0164894149549,0.0,0.0,0.0,0.0,-100.0,0.0,-30.48,0.00230154196664,0.0,-0.00690451462821,-100.0,-0.0,0.0,-0.0,-100.0,1014515.2,0.0,0.0,0.0,0.0,0.0,0.0
1402754099210887894,3,-13.224007511,-0.00591572024346,-12.8818351285,-0.122189614607,48.656799857,0.10862951003,0.216860284795,0.0,-0.473203850743,0.0,0.139525331758,0.0,1.66480068066,0.0,-0.225703306322,0.0,0.000291325664363,0.0,-0.0151233259564,0.0,0.0757002709393,0.0,-0.00366903593148,0.0,0.0,0.0,0.0,-100.0,0.0,-30.48,0.00230154196664,0.0,-0.00690451462821,-100.0,-0.0,0.0,-0.0,-100.0,1014515.2,0.0,0.0,0.0,0.0,0.0,0.0
1402754099230796957,3,-13.224007511,-0.00591572024346,-12.8818351285,-0.122189614607,48.656799857,0.10862951003,0.216860284795,0.0,-0.473203850743,0.0,0.139525331758,0.0,1.66480068066,0.0,-0.225703306322,0.0,0.000291325664363,0.0,-0.0151233259564,0.0,0.0757002709393,0.0,-0.00366903593148,0.0,0.0,0.0,0.0,-100.0,0.0,-30.48,0.00230154196664,0.0,-0.00690451462821,-100.0,-0.0,0.0,-0.0,-100.0,1014515.2,0.0,0.0,0.0,0.0,0.0,0.0
1402754099250755487,3,-13.2200461789,-0.00591572024346,-12.9209736096,-0.122189614607,48.7153227554,0.10862951003,0.211615661404,0.0,-0.481822361865,0.0,0.140094284468,0.0,1.6539118208,0.0,-0.227363935676,0.0,-0.000897165954421,0.0,-0.0151971490667,0.0,0.077638345083,0.0,0.000147991397536,0.0,0.0,0.0,0.0,-100.0,0.0,-30.48,0.00230154196664,0.0,-0.00690451462821,-100.0,-0.0,0.0,-0.0,-100.0,1014515.2,0.0,0.0,0.0,0.0,0.0,0.0
1402754099270751847,3,-13.2200461789,-0.00591572024346,-12.9209736096,-0.122189614607,48.7153227554,0.10862951003,0.211615661404,0.0,-0.481822361865,0.0,0.140094284468,0.0,1.6539118208,0.0,-0.227363935676,0.0,-0.000897165954421,0.0,-0.0151971490667,0.0,0.077638345083,0.0,0.000147991397536,0.0,0.0,0.0,0.0,-100.0,0.0,-30.48,0.00230154196664,0.0,-0.00690451462821,-100.0,-0.0,0.0,-0.0,-100.0,1014515.2,0.0,0.0,0.0,0.0,0.0,0.0
1402754099291247330,3,-13.2048006593,-0.00591572024346,-12.9736442353,-0.122189614607,48.7920607766,0.10862951003,0.234400897291,0.0,-0.515035194222,0.0,0.143662929818,0.0,1.64728122584,0.0,-0.24071449164,0.0,0.00130915668349,0.0,-0.0218900218528,0.0,0.0764499741893,0.0,-0.0131276620555,0.0,0.0,0.0,0.0,-100.0,0.0,-30.48,0.00230154196664,0.0,-0.00690451462821,-100.0,-0.0,0.0,-0.0,-100.0,1014515.2,0.0,0.0,0.0,0.0,0.0,0.0
1402754099311380279,3,-13.2048006593,-0.00591572024346,-12.9736442353,-0.122189614607,48.7920607766,0.10862951003,0.234400897291,0.0,-0.515035194222,0.0,0.143662929818,0.0,1.64728122584,0.0,-0.24071449164,0.0,0.00130915668349,0.0,-0.0218900218528,0.0,0.0764499741893,0.0,-0.0131276620555,0.0,0.0,0.0,0.0,-100.0,0.0,-30.48,0.00230154196664,0.0,-0.00690451462821,-100.0,-0.0,0.0,-0.0,-100.0,1014515.2,0.0,0.0,0.0,0.0,0.0,0.0
1402754099331133290,3,-13.1986597571,-0.00591572024346,-13.0192949113,-0.122189614607,48.858547317,0.10862951003,0.227281384968,0.0,-0.536468227145,0.0,0.148552618216,0.0,1.63603712051,0.0,-0.241816231652,0.0,-0.000125511758117,0.0,-0.0158909733633,0.0,0.0770356042501,0.0,-0.010153390316,0.0,0.0,0.0,0.0,-100.0,0.0,-30.48,0.00230154196664,0.0,-0.00690451462821,-100.0,-0.0,0.0,-0.0,-100.0,1014515.2,0.0,0.0,0.0,0.0,0.0,0.0
1402754099350591766,3,-13.1986597571,-0.00591572024346,-13.0192949113,-0.122189614607,48.858547317,0.10862951003,0.227281384968,0.0,-0.536468227145,0.0,0.148552618216,0.0,1.63603712051,0.0,-0.241816231652,0.0,-0.000125511758117,0.0,-0.0158909733633,0.0,0.0770356042501,0.0,-0.010153390316,0.0,0.0,0.0,0.0,-100.0,0.0,-30.48,0.00230154196664,0.0,-0.00690451462821,-100.0,-0.0,0.0,-0.0,-100.0,1014515.2,0.0,0.0,0.0,0.0,0.0,0.0
1402754099371035229,3,-13.1893034035,-0.00591572024346,-13.0417124763,-0.122189614607,48.8648949068,0.10862951003,0.22857151858,0.0,-0.555610278423,0.0,0.162815036423,0.0,1.6259277916,0.0,-0.249459786683,0.0,-0.000491602299075,0.0,-0.0179881521764,0.0,0.0775778476786,0.0,-0.0202598298843,0.0,0.0,0.0,0.0,-100.0,0.0,-30.48,0.00230154196664,0.0,-0.00690451462821,-100.0,-0.0,0.0,-0.0,-100.0,1014515.2,0.0,0.0,0.0,0.0,0.0,0.0
1402754099391131500,3,-13.1893034035,-0.00591572024346,-13.0417124763,-0.122189614607,48.8648949068,0.10862951003,0.22857151858,0.0,-0.555610278423,0.0,0.162815036423,0.0,1.6259277916,0.0,-0.249459786683,0.0,-0.000491602299075,0.0,-0.0179881521764,0.0,0.0775778476786,0.0,-0.0202598298843,0.0,0.0,0.0,0.0,-100.0,0.0,-30.48,0.00230154196664,0.0,-0.00690451462821,-100.0,-0.0,0.0,-0.0,-100.0,1014515.2,0.0,0.0,0.0,0.0,0.0,0.0
1402754099410623495,3,-13.1870371482,-0.00591572024346,-13.0839250313,-0.122189614607,48.8880236773,0.10862951003,0.222710595143,0.0,-0.580945661141,0.0,0.154186193923,0.0,1.61479437006,0.0,-0.264920643037,0.0,-0.00133306142667,0.0,-0.0178507295082,0.0,0.0773024757879,0.0,-0.00797683173114,0.0,0.0,0.0,0.0,-100.0,0.0,-30.48,0.00230154196664,0.0,-0.00690451462821,-100.0,-0.0,0.0,-0.0,-100.0,1014515.2,0.0,0.0,0.0,0.0,0.0,0.0
1402754099430744013,3,-13.1870371482,-0.00591572024346,-13.0839250313,-0.122189614607,48.8880236773,0.10862951003,0.222710595143,0.0,-0.580945661141,0.0,0.154186193923,0.0,1.61479437006,0.0,-0.264920643037,0.0,-0.00133306142667,0.0,-0.0178507295082,0.0,0.0773024757879,0.0,-0.00797683173114,0.0,0.0,0.0,0.0,-100.0,0.0,-30.48,0.00230154196664,0.0,-0.00690451462821,-100.0,-0.0,0.0,-0.0,-100.0,1014515.2,0.0,0.0,0.0,0.0,0.0,0.0
1402754099450844612,3,-13.1780058187,-0.00591572024346,-13.1276510407,-0.122189614607,48.9402221059,0.10862951003,0.22801693824,0.0,-0.600122990087,0.0,0.155181876001,0.0,1.6043409508,0.0,-0.254931438161,0.0,-0.00103214097392,0.0,-0.00658784557273,0.0,0.0776835163371,0.0,-0.00606714447496,0.0,0.0,0.0,0.0,-100.0,0.0,-30.48,0.00230154196664,0.0,-0.00690451462821,-100.0,-0.0,0.0,-0.0,-100.0,1014515.2,0.0,0.0,0.0,0.0,0.0,0.0
1402754099470736223,3,-13.1780058187,-0.00591572024346,-13.1276510407,-0.122189614607,48.9402221059,0.10862951003,0.22801693824,0.0,-0.600122990087,0.0,0.155181876001,0.0,1.6043409508,0.0,-0.254931438161,0.0,-0.00103214097392,0.0,-0.00658784557273,0.0,0.0776835163371,0.0,-0.00606714447496,0.0,0.0,0.0,0.0,-100.0,0.0,-30.48,0.00230154196664,0.0,-0.00690451462821,-100.0,-0.0,0.0,-0.0,-100.0,1014515.2,0.0,0.0,0.0,0.0,0.0,0.0
1402754099490702595,3,-13.1695225735,-0.00591572024346,-13.1588002606,-0.122189614607,48.9778295957,0.10862951003,0.229698068903,0.0,-0.595101789854,0.0,0.154319612714,0.0,1.59364238693,0.0,-0.272009188939,0.0,-0.000674851192269,0.0,-0.00578132081846,0.0,0.0800261611373,0.0,-0.00894204593788,0.0,0.0,0.0,0.0,-100.0,0.0,-30.48,0.00230154196664,0.0,-0.00690451462821,-100.0,-0.0,0.0,-0.0,-100.0,1014515.2,0.0,0.0,0.0,0.0,0.0,0.0
1402754099510898298,3,-13.1695225735,-0.00591572024346,-13.1588002606,-0.122189614607,48.9778295957,0.10862951003,0.229698068903,0.0,-0.595101789854,0.0,0.154319612714,0.0,1.59364238693,0.0,-0.272009188939,0.0,-0.000674851192269,0.0,-0.00578132081846,0.0,0.0800261611373,0.0,-0.00894204593788,0.0,0.0,0.0,0.0,-100.0,0.0,-30.48,0.00230154196664,0.0,-0.00690451462821,-100.0,-0.0,0.0,-0.0,-100.0,1014515.2,0.0,0.0,0.0,0.0,0.0,0.0
1402754099530890981,3,-13.1578059183,-0.00591572024346,-13.1896680652,-0.122189614607,48.9858430379,0.10862951003,0.230826811356,0.0,-0.614753549977,0.0,0.159916487669,0.0,1.57970083438,0.0,-0.282894890088,0.0,-0.000368946353137,0.0,-0.00243089263701,0.0,0.0798953584669,0.0,0.0137144097636,0.0,0.0,0.0,0.0,-100.0,0.0,-30.48,0.00230154196664,0.0,-0.00690451462821,-100.0,-0.0,0.0,-0.0,-100.0,1014515.2,0.0,0.0,0.0,0.0,0.0,0.0
1402754099550879154,3,-13.1578059183,-0.00591572024346,-13.1896680652,-0.122189614607,48.9858430379,0.10862951003,0.230826811356,0.0,-0.614753549977,0.0,0.159916487669,0.0,1.57970083438,0.0,-0.282894890088,0.0,-0.000368946353137,0.0,-0.00243089263701,0.0,0.0798953584669,0.0,0.0137144097636,0.0,0.0,0.0,0.0,-100.0,0.0,-30.48,0.00230154196664,0.0,-0.00690451462821,-100.0,-0.0,0.0,-0.0,-100.0,1014515.2,0.0,0.0,0.0,0.0,0.0,0.0
1402754099570750224,3,-13.1541050123,-0.00591572024346,-13.2094037452,-0.122189614607,48.9576024873,0.10862951003,0.226136011684,0.0,-0.647855650787,0.0,0.153083964754,0.0,1.5712855274,0.0,-0.277688795004,0.0,-0.000647464027736,0.0,0.0158760929182,0.0,0.0776388112454,0.0,0.00924476700695,0.0,0.0,0.0,0.0,-100.0,0.0,-30.48,0.00230154196664,0.0,-0.00537029107169,-100.0,-0.0,0.0,-0.0,-100.0,1014515.2,0.0,0.0,0.0,0.0,0.0,0.0
1402754099590823658,3,-13.1414051988,-0.00591572024346,-13.2314515212,-0.122189614607,48.9423896345,0.10862951003,0.236778895118,0.0,-0.668923595972,0.0,0.14341889554,0.0,1.56077688834,0.0,-0.28850323524,0.0,0.000875495954314,0.0,0.00843352525587,0.0,0.076545718885,0.0,0.016048829812,0.0,0.0,0.0,0.0,-100.0,0.0,-30.48,0.00230154196664,0.0,-0.00690451462821,-100.0,-0.0,0.0,-0.0,-100.0,1014515.2,0.0,0.0,0.0,0.0,0.0,0.0
1402754099610778312,3,-13.1414051988,-0.00591572024346,-13.2314515212,-0.122189614607,48.9423896345,0.10862951003,0.236778895118,0.0,-0.668923595972,0.0,0.14341889554,0.0,1.56077688834,0.0,-0.28850323524,0.0,0.000875495954314,0.0,0.00843352525587,0.0,0.076545718885,0.0,0.016048829812,0.0,0.0,0.0,0.0,-100.0,0.0,-30.48,0.00230154196664,0.0,-0.00537029107169,-100.0,-0.0,0.0,-0.0,-100.0,1014515.2,0.0,0.0,0.0,0.0,0.0,0.0
1402754099632143314,3,-13.1390136203,-0.00591572024346,-13.2380414603,-0.122189614607,48.9436516772,0.10862951003,0.237028120151,0.0,-0.671815621657,0.0,0.151000751225,0.0,1.55798497536,0.0,-0.280173080687,0.0,0.000990632202764,0.0,0.0035355084366,0.0,0.0765119779601,0.0,0.0115301944292,0.0,0.0,0.0,0.0,-100.0,0.0,-30.48,0.00230154196664,0.0,-0.00690451462821,-100.0,-0.0,0.0,-0.0,-100.0,1014515.2,0.0,0.0,0.0,0.0,0.0,0.0
1402754099650886838,3,-13.1390136203,-0.00591572024346,-13.2380414603,-0.122189614607,48.9436516772,0.10862951003,0.237028120151,0.0,-0.671815621657,0.0,0.151000751225,0.0,1.55798497536,0.0,-0.280173080687,0.0,0.000990632202764,0.0,0.0035355084366,0.0,0.0765119779601,0.0,0.0115301944292,0.0,0.0,0.0,0.0,-100.0,0.0,-30.48,0.00230154196664,0.0,-0.00690451462821,-100.0,-0.0,0.0,-0.0,-100.0,1014515.2,0.0,0.0,0.0,0.0,0.0,0.0
1402754099670758501,3,-13.1233237739,-0.00591572024346,-13.2553016339,-0.122189614607,48.9670332271,0.10862951003,0.246540088335,0.0,-0.680902768095,0.0,0.154308354211,0.0,1.5497032399,0.0,-0.299129817234,0.0,0.00228458006541,0.0,0.0151284287156,0.0,0.0766885447576,0.0,0.0152920789176,0.0,0.0,0.0,0.0,-100.0,0.0,-30.48,0.00230154196664,0.0,-0.00537029107169,-100.0,-0.0,0.0,-0.0,-100.0,1014515.2,0.0,0.0,0.0,0.0,0.0,0.0
1402754099690893553,3,-13.1233237739,-0.00591572024346,-13.2553016339,-0.122189614607,48.9670332271,0.10862951003,0.246540088335,0.0,-0.680902768095,0.0,0.154308354211,0.0,1.5497032399,0.0,-0.299129817234,0.0,0.00228458006541,0.0,0.0151284287156,0.0,0.0766885447576,0.0,0.0152920789176,0.0,0.0,0.0,0.0,-100.0,0.0,-30.48,0.00230154196664,0.0,-0.00537029107169,-100.0,-0.0,0.0,-0.0,-100.0,1014515.2,0.0,0.0,0.0,0.0,0.0,0.0
1402754099710817087,3,-13.1193585684,-0.00591572024346,-13.2674498822,-0.122189614607,48.9194316902,0.10862951003,0.238308940901,0.0,-0.682924116869,0.0,0.154504747067,0.0,1.53715336445,0.0,-0.303343760162,0.0,0.00181311448071,0.0,-0.000343390745824,0.0,0.0774523550582,0.0,0.0186199147033,0.0,0.0,0.0,0.0,-100.0,0.0,-30.48,0.00230154196664,0.0,-0.00537029107169,-100.0,-0.0,0.0,-0.0,-100.0,1014515.2,0.0,0.0,0.0,0.0,0.0,0.0
1402754099730747573,3,-13.1193585684,-0.00591572024346,-13.2674498822,-0.122189614607,48.9194316902,0.10862951003,0.238308940901,0.0,-0.682924116869,0.0,0.154504747067,0.0,1.53715336445,0.0,-0.303343760162,0.0,0.00181311448071,0.0,-0.000343390745824,0.0,0.0774523550582,0.0,0.0186199147033,0.0,0.0,0.0,0.0,-100.0,0.0,-30.48,0.00230154196664,0.0,-0.00537029107169,-100.0,-0.0,0.0,-0.0,-100.0,1014515.2,0.0,0.0,0.0,0.0,0.0,0.0
1402754099751615311,3,-13.112312513,-0.00591572024346,-13.2966663422,-0.122189614607,48.9042635011,0.10862951003,0.231065526332,0.0,-0.714349277339,0.0,0.148961874926,0.0,1.52537908094,0.0,-0.305331834376,0.0,0.00152369617467,0.0,0.00249919452667,0.0,0.075322190831,0.0,0.0136746334478,0.0,0.0,0.0,0.0,-100.0,0.0,-30.48,0.00230154196664,0.0,-0.00537029107169,-100.0,-0.0,0.0,-0.0,-100.0,1014515.2,0.0,0.0,0.0,0.0,0.0,0.0
1402754099770684485,3,-13.112312513,-0.00591572024346,-13.2966663422,-0.122189614607,48.9042635011,0.10862951003,0.231065526332,0.0,-0.714349277339,0.0,0.148961874926,0.0,1.52537908094,0.0,-0.305331834376,0.0,0.00152369617467,0.0,0.00249919452667,0.0,0.075322190831,0.0,0.0136746334478,0.0,0.0,0.0,0.0,-100.0,0.0,-30.48,0.00230154196664,0.0,-0.00537029107169,-100.0,-0.0,0.0,-0.0,-100.0,1014515.2,0.0,0.0,0.0,0.0,0.0,0.0
1402754099790910160,3,-13.1008611774,-0.00591572024346,-13.3165579004,-0.122189614607,48.9081572751,0.10862951003,0.225763248853,0.0,-0.716712898658,0.0,0.150211629996,0.0,1.51249996305,0.0,-0.302323769103,0.0,0.00137304804899,0.0,0.00513928746346,0.0,0.076479317158,0.0,-0.00182584013149,0.0,0.0,0.0,0.0,-100.0,0.0,-30.48,0.00230154196664,0.0,-0.00537029107169,-100.0,-0.0,0.0,-0.0,-100.0,1014515.2,0.0,0.0,0.0,0.0,0.0,0.0
1402754099810824267,3,-13.1008611774,-0.00591572024346,-13.3165579004,-0.122189614607,48.9081572751,0.10862951003,0.225763248853,0.0,-0.716712898658,0.0,0.150211629996,0.0,1.51249996305,0.0,-0.302323769103,0.0,0.00137304804899,0.0,0.00513928746346,0.0,0.076479317158,0.0,-0.00182584013149,0.0,0.0,0.0,0.0,-100.0,0.0,-30.48,0.00230154196664,0.0,-0.00690451462821,-100.0,-0.0,0.0,-0.0,-100.0,1014515.2,0.0,0.0,0.0,0.0,0.0,0.0
1402754099831470584,3,-13.0917225451,-0.00591572024346,-13.3462491017,-0.122189614607,48.9142359442,0.10862951003,0.220389284591,0.0,-0.728607623513,0.0,0.15139731183,0.0,1.49982961116,0.0,-0.312717421837,0.0,0.00158939758471,0.0,-0.00114512063091,0.0,0.0765009064835,0.0,-0.00158467513673,0.0,0.0,0.0,0.0,-100.0,0.0,-30.48,0.00230154196664,0.0,-0.00537029107169,-100.0,-0.0,0.0,-0.0,-100.0,1014515.2,0.0,0.0,0.0,0.0,0.0,0.0
1402754099850734451,3,-13.0917225451,-0.00591572024346,-13.3462491017,-0.122189614607,48.9142359442,0.10862951003,0.220389284591,0.0,-0.728607623513,0.0,0.15139731183,0.0,1.49982961116,0.0,-0.312717421837,0.0,0.00158939758471,0.0,-0.00114512063091,0.0,0.0765009064835,0.0,-0.00158467513673,0.0,0.0,0.0,0.0,-100.0,0.0,-30.48,0.00230154196664,0.0,-0.00690451462821,-100.0,-0.0,0.0,-0.0,-100.0,1014515.2,0.0,0.0,0.0,0.0,0.0,0.0
1402754099870737104,3,-13.0807559617,-0.00591572024346,-13.3760657033,-0.122189614607,48.9134632721,0.10862951003,0.218626089555,0.0,-0.751138602715,0.0,0.153695167903,0.0,1.48755895473,0.0,-0.31428010167,0.0,0.00199735290176,0.0,-0.00695579592263,0.0,0.0755523136561,0.0,0.000981328901259,0.0,0.0,0.0,0.0,-100.0,0.0,-30.48,0.00230154196664,0.0,-0.00690451462821,-100.0,-0.0,0.0,-0.0,-100.0,1014515.2,0.0,0.0,0.0,0.0,0.0,0.0
1402754099890877651,3,-13.0807559617,-0.00591572024346,-13.3760657033,-0.122189614607,48.9134632721,0.10862951003,0.218626089555,0.0,-0.751138602715,0.0,0.153695167903,0.0,1.48755895473,0.0,-0.31428010167,0.0,0.00199735290176,0.0,-0.00695579592263,0.0,0.0755523136561,0.0,0.000981328901259,0.0,0.0,0.0,0.0,-100.0,0.0,-30.48,0.00230154196664,0.0,-0.00690451462821,-100.0,-0.0,0.0,-0.0,-100.0,1014515.2,0.0,0.0,0.0,0.0,0.0,0.0
1402754099910800197,3,-13.0653451858,-0.00591572024346,-13.4060780605,-0.122189614607,48.9080589789,0.10862951003,0.227417670147,0.0,-0.772640387737,0.0,0.155515740244,0.0,1.47483770161,0.0,-0.320579268734,0.0,0.00425989215094,0.0,-0.00392825085181,0.0,0.0747430200868,0.0,0.0158056459647,0.0,0.0,0.0,0.0,-100.0,0.0,-30.48,0.00230154196664,0.0,-0.00537029107169,-100.0,-0.0,0.0,-0.0,-100.0,1014515.2,0.0,0.0,0.0,0.0,0.0,0.0
1402754099930783124,3,-13.0653451858,-0.00591572024346,-13.4060780605,-0.122189614607,48.9080589789,0.10862951003,0.227417670147,0.0,-0.772640387737,0.0,0.155515740244,0.0,1.47483770161,0.0,-0.320579268734,0.0,0.00425989215094,0.0,-0.00392825085181,0.0,0.0747430200868,0.0,0.0158056459647,0.0,0.0,0.0,0.0,-100.0,0.0,-30.48,0.00230154196664,0.0,-0.00690451462821,-100.0,-0.0,0.0,-0.0,-100.0,1014515.2,0.0,0.0,0.0,0.0,0.0,0.0
1402754099951622163,3,-13.0558480276,-0.00591572024346,-13.428784138,-0.122189614607,48.8935673859,0.10862951003,0.218540441225,0.0,-0.77897468462,0.0,0.150022408335,0.0,1.46131919808,0.0,-0.325489397084,0.0,0.00435585989387,0.0,-0.005838215185,0.0,0.0756095800308,0.0,-0.00595672375632,0.0,0.0,0.0,0.0,-100.0,0.0,-30.48,0.00230154196664,0.0,-0.00537029107169,-100.0,-0.0,0.0,-0.0,-100.0,1014515.2,0.0,0.0,0.0,0.0,0.0,0.0
1402754099970698663,3,-13.0558480276,-0.00591572024346,-13.428784138,-0.122189614607,48.8935673859,0.10862951003,0.218540441225,0.0,-0.77897468462,0.0,0.150022408335,0.0,1.46131919808,0.0,-0.325489397084,0.0,0.00435585989387,0.0,-0.005838215185,0.0,0.0756095800308,0.0,-0.00595672375632,0.0,0.0,0.0,0.0,-100.0,0.0,-30.48,0.00230154196664,0.0,-0.00537029107169,-100.0,-0.0,0.0,-0.0,-100.0,1014515.2,0.0,0.0,0.0,0.0,0.0,0.0
1402754099991128968,3,-13.0492784358,-0.00591572024346,-13.4573200509,-0.122189614607,48.8858087414,0.10862951003,0.204112463716,0.0,-0.79242331994,0.0,0.148598877489,0.0,1.44827468862,0.0,-0.324399374995,0.0,0.00376262840807,0.0,-0.00273169834271,0.0,0.0754768217209,0.0,0.00568367472027,0.0,0.0,0.0,0.0,-100.0,0.0,-30.48,0.00230154196664,0.0,-0.00537029107169,-100.0,-0.0,0.0,-0.0,-100.0,1014515.2,0.0,0.0,0.0,0.0,0.0,0.0
1402754100010761807,3,-13.0492784358,-0.00591572024346,-13.4573200509,-0.122189614607,48.8858087414,0.10862951003,0.204112463716,0.0,-0.79242331994,0.0,0.148598877489,0.0,1.44827468862,0.0,-0.324399374995,0.0,0.00376262840807,0.0,-0.00273169834271,0.0,0.0754768217209,0.0,0.00568367472027,0.0,0.0,0.0,0.0,-100.0,0.0,-30.48,0.00230154196664,0.0,-0.00537029107169,-100.0,-0.0,0.0,-0.0,-100.0,1014515.2,0.0,0.0,0.0,0.0,0.0,0.0
1402754100030626460,3,-13.0375667133,-0.00591572024346,-13.4976956422,-0.122189614607,48.8802538209,0.10862951003,0.199281686246,0.0,-0.814951289781,0.0,0.151897630745,0.0,1.4318940925,0.0,-0.328988413643,0.0,0.00491576755549,0.0,-0.0120076277985,0.0,0.0748165678364,0.0,0.0236814329603,0.0,0.0,0.0,0.0,-100.0,0.0,-30.48,0.00230154196664,0.0,-0.00690451462821,-100.0,-0.0,0.0,-0.0,-100.0,1014515.2,0.0,0.0,0.0,0.0,0.0,0.0
1402754100050901418,3,-13.0375667133,-0.00591572024346,-13.4976956422,-0.122189614607,48.8802538209,0.10862951003,0.199281686246,0.0,-0.814951289781,0.0,0.151897630745,0.0,1.4318940925,0.0,-0.328988413643,0.0,0.00491576755549,0.0,-0.0120076277985,0.0,0.0748165678364,0.0,0.0236814329603,0.0,0.0,0.0,0.0,-100.0,0.0,-30.48,0.00230154196664,0.0,-0.00537029107169,-100.0,-0.0,0.0,-0.0,-100.0,1014515.2,0.0,0.0,0.0,0.0,0.0,0.0
1402754100071349628,3,-13.0188866161,-0.00591572024346,-13.5336245408,-0.122189614607,48.8902234716,0.10862951003,0.202880770408,0.0,-0.823201141608,0.0,0.154988390842,0.0,1.41431756373,0.0,-0.332306075582,0.0,0.00697285146414,0.0,-0.00762784180204,0.0,0.0761075200239,0.0,0.00744181478496,0.0,0.0,0.0,0.0,-100.0,0.0,-30.48,0.00230154196664,0.0,-0.00690451462821,-100.0,-0.0,0.0,-0.0,-100.0,1014515.2,0.0,0.0,0.0,0.0,0.0,0.0
1402754100090576405,3,-13.0188866161,-0.00591572024346,-13.5336245408,-0.122189614607,48.8902234716,0.10862951003,0.202880770408,0.0,-0.823201141608,0.0,0.154988390842,0.0,1.41431756373,0.0,-0.332306075582,0.0,0.00697285146414,0.0,-0.00762784180204,0.0,0.0761075200239,0.0,0.00744181478496,0.0,0.0,0.0,0.0,-100.0,0.0,-30.48,0.00230154196664,0.0,-0.00537029107169,-100.0,-0.0,0.0,-0.0,-100.0,1014515.2,0.0,0.0,0.0,0.0,0.0,0.0
1402754100110858277,3,-13.0146859871,-0.00591572024346,-13.550956805,-0.122189614607,48.8935273082,0.10862951003,0.200547695353,0.0,-0.828000566362,0.0,0.154921174772,0.0,1.40727236074,0.0,-0.336202970485,0.0,0.00725659530733,0.0,-0.0103399493456,0.0,0.0763171882662,0.0,0.015886839898,0.0,0.0,0.0,0.0,-100.0,0.0,-30.48,0.00230154196664,0.0,-0.00690451462821,-100.0,-0.0,0.0,-0.0,-100.0,1014515.2,0.0,0.0,0.0,0.0,0.0,0.0
1402754100130860091,3,-13.0146859871,-0.00591572024346,-13.550956805,-0.122189614607,48.8935273082,0.10862951003,0.200547695353,0.0,-0.828000566362,0.0,0.154921174772,0.0,1.40727236074,0.0,-0.336202970485,0.0,0.00725659530733,0.0,-0.0103399493456,0.0,0.0763171882662,0.0,0.015886839898,0.0,0.0,0.0,0.0,-100.0,0.0,-30.48,0.00230154196664,0.0,-0.00690451462821,-100.0,-0.0,0.0,-0.0,-100.0,1014515.2,0.0,0.0,0.0,0.0,0.0,0.0
1402754100150677716,3,-13.0101751064,-0.00591572024346,-13.5803453885,-0.122189614607,48.872625677,0.10862951003,0.188614598179,0.0,-0.844899669047,0.0,0.148332932473,0.0,1.39436049368,0.0,-0.341153635377,0.0,0.00702642557148,0.0,-0.0116391389709,0.0,0.0759391464682,0.0,0.0161456350538,0.0,0.0,0.0,0.0,-100.0,0.0,-30.48,0.00230154196664,0.0,-0.00537029107169,-100.0,-0.0,0.0,-0.0,-100.0,1014515.2,0.0,0.0,0.0,0.0,0.0,0.0
1402754100170690259,3,-13.0101751064,-0.00591572024346,-13.5803453885,-0.122189614607,48.872625677,0.10862951003,0.188614598179,0.0,-0.844899669047,0.0,0.148332932473,0.0,1.39436049368,0.0,-0.341153635377,0.0,0.00702642557148,0.0,-0.0116391389709,0.0,0.0759391464682,0.0,0.0161456350538,0.0,0.0,0.0,0.0,-100.0,0.0,-30.48,0.00230154196664,0.0,-0.00537029107169,-100.0,-0.0,0.0,-0.0,-100.0,1014515.2,0.0,0.0,0.0,0.0,0.0,0.0
1402754100190726150,3,-12.9986807318,-0.00591572024346,-13.6040264197,-0.122189614607,48.8625015541,0.10862951003,0.185740395101,0.0,-0.84288954139,0.0,0.146874103724,0.0,1.3796514833,0.0,-0.343285708066,0.0,0.00764935903845,0.0,-0.00941093724995,0.0,0.0777051976436,0.0,0.00341450583635,0.0,0.0,0.0,0.0,-100.0,0.0,-30.48,0.00230154196664,0.0,-0.00537029107169,-100.0,-0.0,0.0,-0.0,-100.0,1014515.2,0.0,0.0,0.0,0.0,0.0,0.0
1402754100210879097,3,-12.9986807318,-0.00591572024346,-13.6040264197,-0.122189614607,48.8625015541,0.10862951003,0.185740395101,0.0,-0.84288954139,0.0,0.146874103724,0.0,1.3796514833,0.0,-0.343285708066,0.0,0.00764935903845,0.0,-0.00941093724995,0.0,0.0777051976436,0.0,0.00341450583635,0.0,0.0,0.0,0.0,-100.0,0.0,-30.48,0.00230154196664,0.0,-0.00690451462821,-100.0,-0.0,0.0,-0.0,-100.0,1014515.2,0.0,0.0,0.0,0.0,0.0,0.0
1402754100230748785,3,-12.9876370994,-0.00591572024346,-13.6318038626,-0.122189614607,48.8548218836,0.10862951003,0.182114958752,0.0,-0.848825134404,0.0,0.145743764015,0.0,1.3649718133,0.0,-0.351944743814,0.0,0.0081002106856,0.0,-0.00493473396691,0.0,0.0786127857516,0.0,0.00206640554321,0.0,0.0,0.0,0.0,-100.0,0.0,-30.48,0.00230154196664,0.0,-0.00537029107169,-100.0,-0.0,0.0,-0.0,-100.0,1014515.2,0.0,0.0,0.0,0.0,0.0,0.0
1402754100250772972,3,-12.9876370994,-0.00591572024346,-13.6318038626,-0.122189614607,48.8548218836,0.10862951003,0.182114958752,0.0,-0.848825134404,0.0,0.145743764015,0.0,1.3649718133,0.0,-0.351944743814,0.0,0.0081002106856,0.0,-0.00493473396691,0.0,0.0786127857516,0.0,0.00206640554321,0.0,0.0,0.0,0.0,-100.0,0.0,-30.48,0.00230154196664,0.0,-0.00690451462821,-100.0,-0.0,0.0,-0.0,-100.0,1014515.2,0.0,0.0,0.0,0.0,0.0,0.0
1402754100270666789,3,-12.9803217798,-0.00591572024346,-13.6668293775,-0.122189614607,48.8608204342,0.10862951003,0.173530430833,0.0,-0.858800457936,0.0,0.144728371684,0.0,1.3507370991,0.0,-0.349391568399,0.0,0.00820880939213,0.0,-0.00514591021173,0.0,0.0789852863844,0.0,-0.00239163954185,0.0,0.0,0.0,0.0,-100.0,0.0,-30.48,0.00230154196664,0.0,-0.00537029107169,-100.0,-0.0,0.0,-0.0,-100.0,1014515.2,0.0,0.0,0.0,0.0,0.0,0.0
1402754100290840313,3,-12.9803217798,-0.00591572024346,-13.6668293775,-0.122189614607,48.8608204342,0.10862951003,0.173530430833,0.0,-0.858800457936,0.0,0.144728371684,0.0,1.3507370991,0.0,-0.349391568399,0.0,0.00820880939213,0.0,-0.00514591021173,0.0,0.0789852863844,0.0,-0.00239163954185,0.0,0.0,0.0,0.0,-100.0,0.0,-30.48,0.00230154196664,0.0,-0.00537029107169,-100.0,-0.0,0.0,-0.0,-100.0,1014515.2,0.0,0.0,0.0,0.0,0.0,0.0
1402754100311464743,3,-12.9735514828,-0.00591572024346,-13.7054402682,-0.122189614607,48.8599301299,0.10862951003,0.159288493738,0.0,-0.88229485117,0.0,0.147064290687,0.0,1.33733907887,0.0,-0.354395644617,0.0,0.00800856009589,0.0,-0.00603143586697,0.0,0.0775596972717,0.0,-0.0103194988734,0.0,0.0,0.0,0.0,-100.0,0.0,-30.48,0.00230154196664,0.0,-0.00537029107169,-100.0,-0.0,0.0,-0.0,-100.0,1014515.2,0.0,0.0,0.0,0.0,0.0,0.0
1402754100330770759,3,-12.9735514828,-0.00591572024346,-13.7054402682,-0.122189614607,48.8599301299,0.10862951003,0.159288493738,0.0,-0.88229485117,0.0,0.147064290687,0.0,1.33733907887,0.0,-0.354395644617,0.0,0.00800856009589,0.0,-0.00603143586697,0.0,0.0775596972717,0.0,-0.0103194988734,0.0,0.0,0.0,0.0,-100.0,0.0,-30.48,0.00230154196664,0.0,-0.00537029107169,-100.0,-0.0,0.0,-0.0,-100.0,1014515.2,0.0,0.0,0.0,0.0,0.0,0.0
1402754100350937651,3,-12.9667027366,-0.00591572024346,-13.7351133218,-0.122189614607,48.8531400339,0.10862951003,0.147758487921,0.0,-0.886546881185,0.0,0.155136167515,0.0,1.32287216652,0.0,-0.350126051923,0.0,0.00741798608289,0.0,-0.00651399584533,0.0,0.0780376191611,0.0,-0.00803474887588,0.0,0.0,0.0,0.0,-100.0,0.0,-30.48,0.00230154196664,0.0,-0.00537029107169,-100.0,-0.0,0.0,-0.0,-100.0,1014515.2,0.0,0.0,0.0,0.0,0.0,0.0
1402754100370694327,3,-12.9667027366,-0.00591572024346,-13.7351133218,-0.122189614607,48.8531400339,0.10862951003,0.147758487921,0.0,-0.886546881185,0.0,0.155136167515,0.0,1.32287216652,0.0,-0.350126051923,0.0,0.00741798608289,0.0,-0.00651399584533,0.0,0.0780376191611,0.0,-0.00803474887588,0.0,0.0,0.0,0.0,-100.0,0.0,-30.48,0.00230154196664,0.0,-0.00537029107169,-100.0,-0.0,0.0,-0.0,-100.0,1014515.2,0.0,0.0,0.0,0.0,0.0,0.0
1402754100390814555,3,-12.9621836506,-0.00591572024346,-13.7643353975,-0.122189614607,48.8441122836,0.10862951003,0.131703677821,0.0,-0.891392143767,0.0,0.15578749383,0.0,1.3089522105,0.0,-0.352528479901,0.0,0.00671886594449,0.0,-0.00242923435185,0.0,0.078223775899,0.0,-0.0144919045591,0.0,0.0,0.0,0.0,-100.0,0.0,-30.48,0.00230154196664,0.0,-0.00537029107169,-100.0,-0.0,0.0,-0.0,-100.0,1014515.2,0.0,0.0,0.0,0.0,0.0,0.0
1402754100410769039,3,-12.9621836506,-0.00591572024346,-13.7643353975,-0.122189614607,48.8441122836,0.10862951003,0.131703677821,0.0,-0.891392143767,0.0,0.15578749383,0.0,1.3089522105,0.0,-0.352528479901,0.0,0.00671886594449,0.0,-0.00242923435185,0.0,0.078223775899,0.0,-0.0144919045591,0.0,0.0,0.0,0.0,-100.0,0.0,-30.48,0.00230154196664,0.0,-0.00537029107169,-100.0,-0.0,0.0,-0.0,-100.0,1014515.2,0.0,0.0,0.0,0.0,0.0,0.0
1402754100430778434,3,-12.9641251254,-0.00591572024346,-13.8020881816,-0.122189614607,48.8135674556,0.10862951003,0.105554043095,0.0,-0.903225536152,0.0,0.149545137039,0.0,1.29198928708,0.0,-0.35375910098,0.0,0.00525587702189,0.0,0.00378188112937,0.0,0.0775549465202,0.0,0.000211720337592,0.0,0.0,0.0,0.0,-100.0,0.0,-30.48,0.00230154196664,0.0,-0.00537029107169,-100.0,-0.0,0.0,-0.0,-100.0,1014515.2,0.0,0.0,0.0,0.0,0.0,0.0
1402754100450944480,3,-12.9641251254,-0.00591572024346,-13.8020881816,-0.122189614607,48.8135674556,0.10862951003,0.105554043095,0.0,-0.903225536152,0.0,0.149545137039,0.0,1.29198928708,0.0,-0.35375910098,0.0,0.00525587702189,0.0,0.00378188112937,0.0,0.0775549465202,0.0,0.000211720337592,0.0,0.0,0.0,0.0,-100.0,0.0,-30.48,0.00230154196664,0.0,-0.00537029107169,-100.0,-0.0,0.0,-0.0,-100.0,1014515.2,0.0,0.0,0.0,0.0,0.0,0.0
1402754100471069262,3,-12.9549425187,-0.00591572024346,-13.8237069285,-0.122189614607,48.8146645628,0.10862951003,0.106868994367,0.0,-0.905834988287,0.0,0.151280196729,0.0,1.28022071823,0.0,-0.358884761958,0.0,0.00618903810316,0.0,0.000276978997678,0.0,0.078070857886,0.0,0.00164822127837,0.0,0.0,0.0,0.0,-100.0,0.0,-30.48,0.00230154196664,0.0,-0.00537029107169,-100.0,-0.0,0.0,-0.0,-100.0,1014515.2,0.0,0.0,0.0,0.0,0.0,0.0
1402754100490826404,3,-12.9528224771,-0.00591572024346,-13.8428257421,-0.122189614607,48.8179039284,0.10862951003,0.0990729767208,0.0,-0.910224375258,0.0,0.152183172827,0.0,1.27271338094,0.0,-0.357734801854,0.0,0.00606485593135,0.0,0.0089270935615,0.0,0.0778863815941,0.0,-0.0113910091419,0.0,0.0,0.0,0.0,-100.0,0.0,-30.48,0.00230154196664,0.0,-0.00537029107169,-100.0,-0.0,0.0,-0.0,-100.0,1014515.2,0.0,0.0,0.0,0.0,0.0,0.0
1402754100510800100,3,-12.9528224771,-0.00591572024346,-13.8428257421,-0.122189614607,48.8179039284,0.10862951003,0.0990729767208,0.0,-0.910224375258,0.0,0.152183172827,0.0,1.27271338094,0.0,-0.357734801854,0.0,0.00606485593135,0.0,0.0089270935615,0.0,0.0778863815941,0.0,-0.0113910091419,0.0,0.0,0.0,0.0,-100.0,0.0,-30.48,0.00230154196664,0.0,-0.00537029107169,-100.0,-0.0,0.0,-0.0,-100.0,1014515.2,0.0,0.0,0.0,0.0,0.0,0.0
