rosbagTimestamp,control_method,x_current,x_desired,y_current,y_desired,x_velocity_current,x_velocity_desired,y_velocity_current,y_velocity_desired,yaw_current,yaw_desired,required_force_x,required_force_y,required_moment_z,resultant_force_x,resultant_force_y,resultant_moment_z,current_port_servo_angle,current_port_thruster_force,current_starboard_servo_angle,current_starboard_thruster_force,estimated_port_servo_angle,estimated_port_thruster_force,estimated_starboard_servo_angle,estimated_starboard_thruster_force,cost_value,step,user_defined_1,user_defined_2,user_defined_3,user_defined_4,user_defined_5
1402603214530038225,0,-6.30901178241,9.88567784727,-47.5250812142,10.0438151857,-0.0786275953261,0.0,-0.0327240822321,0.0,-2.704794427,0.0,1011.10499914,2203.10023144,-1.34130416972,-0.0,-0.0,0.0,0.00383600394174,-0.0,-0.000767381983555,-0.0,0.0,-0.0,0.0,-0.0,2477942880.39,0.0,0.0,0.0,0.0,0.0,0.0
1402603214549624324,0,-6.30901178241,9.88567784727,-47.5250812142,10.0438151857,-0.0786275953261,0.0,-0.0327240822321,0.0,-2.704794427,0.0,1011.10499914,2203.10023144,-1.34130416972,-0.0,-0.0,0.0,0.00383600394174,-0.0,0.000767318410122,-0.0,0.0,-0.0,0.0,-0.0,2477942880.39,0.0,0.0,0.0,0.0,0.0,0.0
1402603214570093867,0,-6.31201024293,9.88567784727,-47.5265314163,10.0438151857,-0.0782204349326,0.0,-0.0316559121776,0.0,-2.70490283101,0.0,1011.10499914,2203.10023144,-1.34130416972,-0.0,-0.0,0.0,0.00383600394174,-0.0,-0.000767381983555,-0.0,0.0,-0.0,0.0,-0.0,2477942880.39,0.0,0.0,0.0,0.0,0.0,0.0
1402603214589530914,0,-6.31201024293,9.88567784727,-47.5265314163,10.0438151857,-0.0782204349326,0.0,-0.0316559121776,0.0,-2.70490283101,0.0,1011.10499914,2203.10023144,-1.34130416972,-0.0,-0.0,0.0,0.00383600394174,-0.0,0.000767318410122,-0.0,0.0,-0.0,0.0,-0.0,2477942880.39,0.0,0.0,0.0,0.0,0.0,0.0
1402603214609511979,0,-6.31490332248,9.88567784727,-47.5280088529,10.0438151857,-0.0770658558688,0.0,-0.0317886380063,0.0,-2.70509921531,0.0,1011.10499914,2203.10023144,-1.34130416972,-0.0,-0.0,0.0,0.00383600394174,-0.0,0.000767318410122,-0.0,0.0,-0.0,0.0,-0.0,2477942880.39,0.0,0.0,0.0,0.0,0.0,0.0
1402603214630319632,0,-6.31490332248,9.88567784727,-47.5280088529,10.0438151857,-0.0770658558688,0.0,-0.0317886380063,0.0,-2.70509921531,0.0,1011.10499914,2203.10023144,-1.34130416972,-0.0,-0.0,0.0,0.00383600394174,-0.0,0.000767318410122,-0.0,0.0,-0.0,0.0,-0.0,2477942880.39,0.0,0.0,0.0,0.0,0.0,0.0
1402603214649656384,0,-6.32587080278,9.88567784727,-47.5338741146,10.0438151857,-0.0947895071541,0.0,-0.0484000270011,0.0,-2.70542959658,0.0,1011.10499914,2203.10023144,-1.34130416972,-0.0,-0.0,0.0,0.00383600394174,-0.0,0.000767318410122,-0.0,0.0,-0.0,0.0,-0.0,2477942880.39,0.0,0.0,0.0,0.0,0.0,0.0
1402603214669430366,0,-6.32587080278,9.88567784727,-47.5338741146,10.0438151857,-0.0947895071541,0.0,-0.0484000270011,0.0,-2.70542959658,0.0,1011.10499914,2203.10023144,-1.34130416972,-0.0,-0.0,0.0,0.00383600394174,-0.0,0.000767318410122,-0.0,0.0,-0.0,0.0,-0.0,2477942880.39,0.0,0.0,0.0,0.0,0.0,0.0
1402603214690185445,0,-6.32584475098,9.88567784727,-47.5310244996,10.0438151857,-0.0879222561421,0.0,-0.04136077811,0.0,-2.70562034839,0.0,1011.10499914,2203.10023144,-1.34130416972,-0.0,-0.0,0.0,0.00383600394174,-0.0,0.000767318410122,-0.0,0.0,-0.0,0.0,-0.0,2477942880.39,0.0,0.0,0.0,0.0,0.0,0.0
1402603214709581737,0,-6.32584475098,9.88567784727,-47.5310244996,10.0438151857,-0.0879222561421,0.0,-0.04136077811,0.0,-2.70562034839,0.0,1011.10499914,2203.10023144,-1.34130416972,-0.0,-0.0,0.0,0.00383600394174,-0.0,-0.000767381983555,-0.0,0.0,-0.0,0.0,-0.0,2477942880.39,0.0,0.0,0.0,0.0,0.0,0.0
1402603214730326441,0,-6.32969312755,9.88567784727,-47.5272916514,10.0438151857,-0.0924326556145,0.0,-0.0313014459008,0.0,-2.70553006496,0.0,1011.10499914,2203.10023144,-1.34130416972,-0.0,-0.0,0.0,0.00383600394174,-0.0,-0.000767381983555,-0.0,0.0,-0.0,0.0,-0.0,2477942880.39,0.0,0.0,0.0,0.0,0.0,0.0
1402603214749765463,0,-6.32969312755,9.88567784727,-47.5272916514,10.0438151857,-0.0924326556145,0.0,-0.0313014459008,0.0,-2.70553006496,0.0,1011.10499914,2203.10023144,-1.34130416972,-0.0,-0.0,0.0,0.00383600394174,-0.0,-0.000767381983555,-0.0,0.0,-0.0,0.0,-0.0,2477942880.39,0.0,0.0,0.0,0.0,0.0,0.0
1402603214769493425,0,-6.33218656871,9.88567784727,-47.5235354176,10.0438151857,-0.0846134350736,0.0,-0.0245360579623,0.0,-2.70574738662,0.0,1011.10499914,2203.10023144,-1.34130416972,-0.0,-0.0,0.0,0.00383600394174,-0.0,-0.000767381983555,-0.0,0.0,-0.0,0.0,-0.0,2477942880.39,0.0,0.0,0.0,0.0,0.0,0.0
1402603214790376757,0,-6.33218656871,9.88567784727,-47.5235354176,10.0438151857,-0.0846134350736,0.0,-0.0245360579623,0.0,-2.70574738662,0.0,1011.10499914,2203.10023144,-1.34130416972,-0.0,-0.0,0.0,0.00383600394174,-0.0,-0.000767381983555,-0.0,0.0,-0.0,0.0,-0.0,2477942880.39,0.0,0.0,0.0,0.0,0.0,0.0
1402603214809646911,0,-6.33618492246,9.88567784727,-47.5278401845,10.0438151857,-0.0758444964679,0.0,-0.0357914198357,0.0,-2.70611715926,0.0,1011.10499914,2203.10023144,-1.34130416972,-0.0,-0.0,0.0,0.00383600394174,-0.0,-0.000767381983555,-0.0,0.0,-0.0,0.0,-0.0,2477942880.39,0.0,0.0,0.0,0.0,0.0,0.0
1402603214829661366,0,-6.33618492246,9.88567784727,-47.5278401845,10.0438151857,-0.0758444964679,0.0,-0.0357914198357,0.0,-2.70611715926,0.0,1011.10499914,2203.10023144,-1.34130416972,-0.0,-0.0,0.0,0.00383600394174,-0.0,-0.000767381983555,-0.0,0.0,-0.0,0.0,-0.0,2477942880.39,0.0,0.0,0.0,0.0,0.0,0.0
1402603214850152061,0,-6.3390373498,9.88567784727,-47.5291983176,10.0438151857,-0.0750253579661,0.0,-0.0358393784417,0.0,-2.70627698462,0.0,1011.10499914,2203.10023144,-1.34130416972,-0.0,-0.0,0.0,0.00383600394174,-0.0,-0.000767381983555,-0.0,0.0,-0.0,0.0,-0.0,2477942880.39,0.0,0.0,0.0,0.0,0.0,0.0
1402603214869532040,0,-6.3390373498,9.88567784727,-47.5291983176,10.0438151857,-0.0750253579661,0.0,-0.0358393784417,0.0,-2.70627698462,0.0,1011.10499914,2203.10023144,-1.34130416972,-0.0,-0.0,0.0,0.00383600394174,-0.0,-0.000767381983555,-0.0,0.0,-0.0,0.0,-0.0,2477942880.39,0.0,0.0,0.0,0.0,0.0,0.0
1402603214889562845,0,-6.34298715314,9.88567784727,-47.5321311235,10.0438151857,-0.0737443235864,0.0,-0.0460958862853,0.0,-2.70649997538,0.0,1011.10499914,2203.10023144,-1.34130416972,-0.0,-0.0,0.0,0.00383600394174,-0.0,-0.000767381983555,-0.0,0.0,-0.0,0.0,-0.0,2477942880.39,0.0,0.0,0.0,0.0,0.0,0.0
1402603214909578977,0,-6.34298715314,9.88567784727,-47.5321311235,10.0438151857,-0.0737443235864,0.0,-0.0460958862853,0.0,-2.70649997538,0.0,1011.10499914,2203.10023144,-1.34130416972,-0.0,-0.0,0.0,0.00383600394174,-0.0,-0.000767381983555,-0.0,0.0,-0.0,0.0,-0.0,2477942880.39,0.0,0.0,0.0,0.0,0.0,0.0
1402603214929589480,0,-6.34744019902,9.88567784727,-47.5362525871,10.0438151857,-0.0767269129005,0.0,-0.0567826036492,0.0,-2.70664785377,0.0,1011.10499914,2203.10023144,-1.34130416972,-0.0,-0.0,0.0,0.00383600394174,-0.0,-0.000767381983555,-0.0,0.0,-0.0,0.0,-0.0,2477942880.39,0.0,0.0,0.0,0.0,0.0,0.0
1402603214949657229,0,-6.34744019902,9.88567784727,-47.5362525871,10.0438151857,-0.0767269129005,0.0,-0.0567826036492,0.0,-2.70664785377,0.0,1011.10499914,2203.10023144,-1.34130416972,-0.0,-0.0,0.0,0.00383600394174,-0.0,-0.000767381983555,-0.0,0.0,-0.0,0.0,-0.0,2477942880.39,0.0,0.0,0.0,0.0,0.0,0.0
1402603214969609099,0,-6.35104649997,9.88567784727,-47.5361233796,10.0438151857,-0.0794110615494,0.0,-0.0547727401863,0.0,-2.70669772648,0.0,1011.10499914,2203.10023144,-1.34130416972,-0.0,-0.0,0.0,0.00383600394174,-0.0,-0.000767381983555,-0.0,0.0,-0.0,0.0,-0.0,2477942880.39,0.0,0.0,0.0,0.0,0.0,0.0
1402603214989631316,0,-6.35104649997,9.88567784727,-47.5361233796,10.0438151857,-0.0794110615494,0.0,-0.0547727401863,0.0,-2.70669772648,0.0,1011.10499914,2203.10023144,-1.34130416972,-0.0,-0.0,0.0,0.00383600394174,-0.0,-0.000767381983555,-0.0,0.0,-0.0,0.0,-0.0,2477942880.39,0.0,0.0,0.0,0.0,0.0,0.0
1402603215010061401,0,-6.35431405779,9.88567784727,-47.5344035974,10.0438151857,-0.0789278562773,0.0,-0.0465052260102,0.0,-2.70663674261,0.0,1011.10499914,2203.10023144,-1.34130416972,-0.0,-0.0,0.0,0.00383600394174,-0.0,-0.000767381983555,-0.0,0.0,-0.0,0.0,-0.0,2477942880.39,0.0,0.0,0.0,0.0,0.0,0.0
1402603215029724540,0,-6.35431405779,9.88567784727,-47.5344035974,10.0438151857,-0.0789278562773,0.0,-0.0465052260102,0.0,-2.70663674261,0.0,1011.10499914,2203.10023144,-1.34130416972,-0.0,-0.0,0.0,0.00383600394174,-0.0,-0.000767381983555,-0.0,0.0,-0.0,0.0,-0.0,2477942880.39,0.0,0.0,0.0,0.0,0.0,0.0
1402603215050184896,0,-6.36301328088,9.88567784727,-47.5364140518,10.0438151857,-0.0900962604831,0.0,-0.0477802890183,0.0,-2.70681227138,0.0,1011.10499914,2203.10023144,-1.34130416972,-0.0,-0.0,0.0,0.00383600394174,-0.0,-0.000767381983555,-0.0,0.0,-0.0,0.0,-0.0,2477942880.39,0.0,0.0,0.0,0.0,0.0,0.0
1402603215069785800,0,-6.36301328088,9.88567784727,-47.5364140518,10.0438151857,-0.0900962604831,0.0,-0.0477802890183,0.0,-2.70681227138,0.0,1011.10499914,2203.10023144,-1.34130416972,-0.0,-0.0,0.0,0.00383600394174,-0.0,-0.000767381983555,-0.0,0.0,-0.0,0.0,-0.0,2477942880.39,0.0,0.0,0.0,0.0,0.0,0.0
1402603215090173230,0,-6.36140190709,9.88567784727,-47.536356148,10.0438151857,-0.0783070306591,0.0,-0.0449929315748,0.0,-2.70697637455,0.0,1011.10499914,2203.10023144,-1.34130416972,-0.0,-0.0,0.0,0.00383600394174,-0.0,-0.000767381983555,-0.0,0.0,-0.0,0.0,-0.0,2477942880.39,0.0,0.0,0.0,0.0,0.0,0.0
1402603215109590540,0,-6.36140190709,9.88567784727,-47.536356148,10.0438151857,-0.0783070306591,0.0,-0.0449929315748,0.0,-2.70697637455,0.0,1011.10499914,2203.10023144,-1.34130416972,-0.0,-0.0,0.0,0.00383600394174,-0.0,-0.000767381983555,-0.0,0.0,-0.0,0.0,-0.0,2477942880.39,0.0,0.0,0.0,0.0,0.0,0.0
1402603215130153077,0,-6.3665268598,9.88567784727,-47.5386056161,10.0438151857,-0.0811004094114,0.0,-0.0473420748559,0.0,-2.70719679034,0.0,1011.10499914,2203.10023144,-1.34130416972,-0.0,-0.0,0.0,0.00383600394174,-0.0,-0.000767381983555,-0.0,0.0,-0.0,0.0,-0.0,2477942880.39,0.0,0.0,0.0,0.0,0.0,0.0
1402603215149624826,0,-6.3665268598,9.88567784727,-47.5386056161,10.0438151857,-0.0811004094114,0.0,-0.0473420748559,0.0,-2.70719679034,0.0,1011.10499914,2203.10023144,-1.34130416972,-0.0,-0.0,0.0,0.00383600394174,-0.0,-0.000767381983555,-0.0,0.0,-0.0,0.0,-0.0,2477942880.39,0.0,0.0,0.0,0.0,0.0,0.0
1402603215170092954,0,-6.36901233267,9.88567784727,-47.5400447853,10.0438151857,-0.0808123362709,0.0,-0.0461278379191,0.0,-2.70729905184,0.0,1011.10499914,2203.10023144,-1.34130416972,-0.0,-0.0,0.0,0.00383600394174,-0.0,-0.000767381983555,-0.0,0.0,-0.0,0.0,-0.0,2477942880.39,0.0,0.0,0.0,0.0,0.0,0.0
1402603215189651464,0,-6.36832197671,9.88567784727,-47.5407181661,10.0438151857,-0.0772590602084,0.0,-0.0485629193989,0.0,-2.70744220618,0.0,1011.10499914,2203.10023144,-1.34130416972,-0.0,-0.0,0.0,0.00383600394174,-0.0,-0.000767381983555,-0.0,0.0,-0.0,0.0,-0.0,2477942880.39,0.0,0.0,0.0,0.0,0.0,0.0
1402603215210225223,0,-6.36832197671,9.88567784727,-47.5407181661,10.0438151857,-0.0772590602084,0.0,-0.0485629193989,0.0,-2.70744220618,0.0,1011.10499914,2203.10023144,-1.34130416972,-0.0,-0.0,0.0,0.00383600394174,-0.0,-0.00230160554007,-0.0,0.0,-0.0,0.0,-0.0,2477942880.39,0.0,0.0,0.0,0.0,0.0,0.0
1402603215229640808,0,-6.36971924173,9.88567784727,-47.541739562,10.0438151857,-0.0765950231529,0.0,-0.0481337165648,0.0,-2.7075020172,0.0,1011.10499914,2203.10023144,-1.34130416972,-0.0,-0.0,0.0,0.00383600394174,-0.0,-0.000767381983555,-0.0,0.0,-0.0,0.0,-0.0,2477942880.39,0.0,0.0,0.0,0.0,0.0,0.0
1402603215249985710,0,-6.36971924173,9.88567784727,-47.541739562,10.0438151857,-0.0765950231529,0.0,-0.0481337165648,0.0,-2.7075020172,0.0,1011.10499914,2203.10023144,-1.34130416972,-0.0,-0.0,0.0,0.00383600394174,-0.0,-0.000767381983555,-0.0,0.0,-0.0,0.0,-0.0,2477942880.39,0.0,0.0,0.0,0.0,0.0,0.0
1402603215269843937,0,-6.37178100678,9.88567784727,-47.5442504483,10.0438151857,-0.0781077743433,0.0,-0.0504976303436,0.0,-2.707556527,0.0,1011.10499914,2203.10023144,-1.34130416972,-0.0,-0.0,0.0,0.00383600394174,-0.0,-0.000767381983555,-0.0,0.0,-0.0,0.0,-0.0,2477942880.39,0.0,0.0,0.0,0.0,0.0,0.0
1402603215290376263,0,-6.37178100678,9.88567784727,-47.5442504483,10.0438151857,-0.0781077743433,0.0,-0.0504976303436,0.0,-2.707556527,0.0,1011.10499914,2203.10023144,-1.34130416972,-0.0,-0.0,0.0,0.00383600394174,-0.0,-0.000767381983555,-0.0,0.0,-0.0,0.0,-0.0,2477942880.39,0.0,0.0,0.0,0.0,0.0,0.0
1402603215310251736,0,-6.37487567012,9.88567784727,-47.5462700779,10.0438151857,-0.0784946901822,0.0,-0.0496017097409,0.0,-2.70751844879,0.0,1011.10499914,2203.10023144,-1.34130416972,-0.0,-0.0,0.0,0.00383600394174,-0.0,-0.000767381983555,-0.0,0.0,-0.0,0.0,-0.0,2477942880.39,0.0,0.0,0.0,0.0,0.0,0.0
1402603215329768832,0,-6.37487567012,9.88567784727,-47.5462700779,10.0438151857,-0.0784946901822,0.0,-0.0496017097409,0.0,-2.70751844879,0.0,1011.10499914,2203.10023144,-1.34130416972,-0.0,-0.0,0.0,0.00383600394174,-0.0,-0.000767381983555,-0.0,0.0,-0.0,0.0,-0.0,2477942880.39,0.0,0.0,0.0,0.0,0.0,0.0
1402603215351049967,0,-6.38105514717,9.88567784727,-47.5467279409,10.0438151857,-0.0831805845754,0.0,-0.0449187169858,0.0,-2.70762111771,0.0,1011.10499914,2203.10023144,-1.34130416972,-0.0,-0.0,0.0,0.00383600394174,-0.0,-0.000767381983555,-0.0,0.0,-0.0,0.0,-0.0,2477942880.39,0.0,0.0,0.0,0.0,0.0,0.0
1402603215369760841,0,-6.38105514717,9.88567784727,-47.5467279409,10.0438151857,-0.0831805845754,0.0,-0.0449187169858,0.0,-2.70762111771,0.0,1011.10499914,2203.10023144,-1.34130416972,-0.0,-0.0,0.0,0.00383600394174,-0.0,-0.000767381983555,-0.0,0.0,-0.0,0.0,-0.0,2477942880.39,0.0,0.0,0.0,0.0,0.0,0.0
1402603215390265650,0,-6.3820241081,9.88567784727,-47.5468970998,10.0438151857,-0.0841087560876,0.0,-0.0399663293935,0.0,-2.70766210291,0.0,1011.10499914,2203.10023144,-1.34130416972,-0.0,-0.0,0.0,0.00383600394174,-0.0,0.000767318410122,-0.0,0.0,-0.0,0.0,-0.0,2477942880.39,0.0,0.0,0.0,0.0,0.0,0.0
1402603215409590524,0,-6.3820241081,9.88567784727,-47.5468970998,10.0438151857,-0.0841087560876,0.0,-0.0399663293935,0.0,-2.70766210291,0.0,1011.10499914,2203.10023144,-1.34130416972,-0.0,-0.0,0.0,0.00383600394174,-0.0,0.000767318410122,-0.0,0.0,-0.0,0.0,-0.0,2477942880.39,0.0,0.0,0.0,0.0,0.0,0.0
1402603215430356259,0,-6.38494435359,9.88567784727,-47.5514793928,10.0438151857,-0.0822605998505,0.0,-0.0498339161867,0.0,-2.70781490905,0.0,1011.10499914,2203.10023144,-1.34130416972,-0.0,-0.0,0.0,0.00383600394174,-0.0,0.000767318410122,-0.0,0.0,-0.0,0.0,-0.0,2477942880.39,0.0,0.0,0.0,0.0,0.0,0.0
1402603215449538010,0,-6.38494435359,9.88567784727,-47.5514793928,10.0438151857,-0.0822605998505,0.0,-0.0498339161867,0.0,-2.70781490905,0.0,1011.10499914,2203.10023144,-1.34130416972,-0.0,-0.0,0.0,0.00383600394174,-0.0,0.000767318410122,-0.0,0.0,-0.0,0.0,-0.0,2477942880.39,0.0,0.0,0.0,0.0,0.0,0.0
1402603215470127644,0,-6.38900839287,9.88567784727,-47.5545850135,10.0438151857,-0.0831295832102,0.0,-0.0503130745015,0.0,-2.70788629136,0.0,1011.10499914,2203.10023144,-1.34130416972,-0.0,-0.0,0.0,0.00383600394174,-0.0,0.000767318410122,-0.0,0.0,-0.0,0.0,-0.0,2477942880.39,0.0,0.0,0.0,0.0,0.0,0.0
1402603215489398118,0,-6.38900839287,9.88567784727,-47.5545850135,10.0438151857,-0.0831295832102,0.0,-0.0503130745015,0.0,-2.70788629136,0.0,1011.10499914,2203.10023144,-1.34130416972,-0.0,-0.0,0.0,0.00383600394174,-0.0,0.000767318410122,-0.0,0.0,-0.0,0.0,-0.0,2477942880.39,0.0,0.0,0.0,0.0,0.0,0.0
1402603215510206866,0,-6.39215931788,9.88567784727,-47.5567078752,10.0438151857,-0.0834432548408,0.0,-0.0509584234742,0.0,-2.70793366983,0.0,1011.10499914,2203.10023144,-1.34130416972,-0.0,-0.0,0.0,0.00383600394174,-0.0,0.000767318410122,-0.0,0.0,-0.0,0.0,-0.0,2477942880.39,0.0,0.0,0.0,0.0,0.0,0.0
1402603215529459522,0,-6.39215931788,9.88567784727,-47.5567078752,10.0438151857,-0.0834432548408,0.0,-0.0509584234742,0.0,-2.70793366983,0.0,1011.10499914,2203.10023144,-1.34130416972,-0.0,-0.0,0.0,0.00383600394174,-0.0,0.000767318410122,-0.0,0.0,-0.0,0.0,-0.0,2477942880.39,0.0,0.0,0.0,0.0,0.0,0.0
1402603215550127042,0,-6.39572636956,9.88567784727,-47.5589280193,10.0438151857,-0.0831179567703,0.0,-0.0520808564622,0.0,-2.70798915518,0.0,1011.10499914,2203.10023144,-1.34130416972,-0.0,-0.0,0.0,0.00383600394174,-0.0,0.000767318410122,-0.0,0.0,-0.0,0.0,-0.0,2477942880.39,0.0,0.0,0.0,0.0,0.0,0.0
1402603215569586874,0,-6.39572636956,9.88567784727,-47.5589280193,10.0438151857,-0.0831179567703,0.0,-0.0520808564622,0.0,-2.70798915518,0.0,1011.10499914,2203.10023144,-1.34130416972,-0.0,-0.0,0.0,0.00383600394174,-0.0,0.000767318410122,-0.0,0.0,-0.0,0.0,-0.0,2477942880.39,0.0,0.0,0.0,0.0,0.0,0.0
1402603215590286871,0,-6.39911348437,9.88567784727,-47.5610067493,10.0438151857,-0.082987695122,0.0,-0.0529220495581,0.0,-2.70825087427,0.0,1011.10499914,2203.10023144,-1.34130416972,-0.0,-0.0,0.0,0.00383600394174,-0.0,0.000767318410122,-0.0,0.0,-0.0,0.0,-0.0,2477942880.39,0.0,0.0,0.0,0.0,0.0,0.0
1402603215609616457,0,-6.39911348437,9.88567784727,-47.5610067493,10.0438151857,-0.082987695122,0.0,-0.0529220495581,0.0,-2.70825087427,0.0,1011.10499914,2203.10023144,-1.34130416972,-0.0,-0.0,0.0,0.00383600394174,-0.0,0.000767318410122,-0.0,0.0,-0.0,0.0,-0.0,2477942880.39,0.0,0.0,0.0,0.0,0.0,0.0
1402603215629630525,0,-6.40433373962,9.88567784727,-47.5564496137,10.0438151857,-0.0977872011207,0.0,-0.0348127769706,0.0,-2.70821352892,0.0,1011.10499914,2203.10023144,-1.34130416972,-0.0,-0.0,0.0,0.00383600394174,-0.0,0.000767318410122,-0.0,0.0,-0.0,0.0,-0.0,2477942880.39,0.0,0.0,0.0,0.0,0.0,0.0
1402603215651050521,0,-6.40433373962,9.88567784727,-47.5564496137,10.0438151857,-0.0977872011207,0.0,-0.0348127769706,0.0,-2.70821352892,0.0,1011.10499914,2203.10023144,-1.34130416972,-0.0,-0.0,0.0,0.00383600394174,-0.0,0.000767318410122,-0.0,0.0,-0.0,0.0,-0.0,2477942880.39,0.0,0.0,0.0,0.0,0.0,0.0
1402603215669702801,0,-6.39918782434,9.88567784727,-47.5592666231,10.0438151857,-0.0787807340238,0.0,-0.039876754768,0.0,-2.70852002497,0.0,1011.10499914,2203.10023144,-1.34130416972,-0.0,-0.0,0.0,0.00383600394174,-0.0,0.000767318410122,-0.0,0.0,-0.0,0.0,-0.0,2477942880.39,0.0,0.0,0.0,0.0,0.0,0.0
1402603215689555337,0,-6.39918782434,9.88567784727,-47.5592666231,10.0438151857,-0.0787807340238,0.0,-0.039876754768,0.0,-2.70852002497,0.0,1011.10499914,2203.10023144,-1.34130416972,-0.0,-0.0,0.0,0.00383600394174,-0.0,-0.000767381983555,-0.0,0.0,-0.0,0.0,-0.0,2477942880.39,0.0,0.0,0.0,0.0,0.0,0.0
1402603215710008298,0,-6.40224392317,9.88567784727,-47.5619116871,10.0438151857,-0.0840759170604,0.0,-0.0398278715074,0.0,-2.70872204862,0.0,1011.10499914,2203.10023144,-1.34130416972,-0.0,-0.0,0.0,0.00383600394174,-0.0,-0.000767381983555,-0.0,0.0,-0.0,0.0,-0.0,2477942880.39,0.0,0.0,0.0,0.0,0.0,0.0
1402603215729621930,0,-6.40224392317,9.88567784727,-47.5619116871,10.0438151857,-0.0840759170604,0.0,-0.0398278715074,0.0,-2.70872204862,0.0,1011.10499914,2203.10023144,-1.34130416972,-0.0,-0.0,0.0,0.00383600394174,-0.0,0.000767318410122,-0.0,0.0,-0.0,0.0,-0.0,2477942880.39,0.0,0.0,0.0,0.0,0.0,0.0
1402603215749701186,0,-6.40420233896,9.88567784727,-47.5615804092,10.0438151857,-0.0789764760574,0.0,-0.0365174809437,0.0,-2.70883308861,0.0,1011.10499914,2203.10023144,-1.34130416972,-0.0,-0.0,0.0,0.00383600394174,-0.0,-0.000767381983555,-0.0,0.0,-0.0,0.0,-0.0,2477942880.39,0.0,0.0,0.0,0.0,0.0,0.0
1402603215770711673,0,-6.40420233896,9.88567784727,-47.5615804092,10.0438151857,-0.0789764760574,0.0,-0.0365174809437,0.0,-2.70883308861,0.0,1011.10499914,2203.10023144,-1.34130416972,-0.0,-0.0,0.0,0.00383600394174,-0.0,-0.000767381983555,-0.0,0.0,-0.0,0.0,-0.0,2477942880.39,0.0,0.0,0.0,0.0,0.0,0.0
1402603215789556744,0,-6.4087861218,9.88567784727,-47.5662846626,10.0438151857,-0.0896105230451,0.0,-0.0429371011056,0.0,-2.70906314846,0.0,1011.10499914,2203.10023144,-1.34130416972,-0.0,-0.0,0.0,0.00383600394174,-0.0,-0.000767381983555,-0.0,0.0,-0.0,0.0,-0.0,2477942880.39,0.0,0.0,0.0,0.0,0.0,0.0
1402603215809262763,0,-6.4087861218,9.88567784727,-47.5662846626,10.0438151857,-0.0896105230451,0.0,-0.0429371011056,0.0,-2.70906314846,0.0,1011.10499914,2203.10023144,-1.34130416972,-0.0,-0.0,0.0,0.00383600394174,-0.0,-0.000767381983555,-0.0,0.0,-0.0,0.0,-0.0,2477942880.39,0.0,0.0,0.0,0.0,0.0,0.0
1402603215830394452,0,-6.40763284052,9.88567784727,-47.5646461157,10.0438151857,-0.0796311840303,0.0,-0.0368160379779,0.0,-2.70922447077,0.0,1011.10499914,2203.10023144,-1.34130416972,-0.0,-0.0,0.0,0.00383600394174,-0.0,-0.000767381983555,-0.0,0.0,-0.0,0.0,-0.0,2477942880.39,0.0,0.0,0.0,0.0,0.0,0.0
1402603215849635881,0,-6.40763284052,9.88567784727,-47.5646461157,10.0438151857,-0.0796311840303,0.0,-0.0368160379779,0.0,-2.70922447077,0.0,1011.10499914,2203.10023144,-1.34130416972,-0.0,-0.0,0.0,0.00383600394174,-0.0,-0.000767381983555,-0.0,0.0,-0.0,0.0,-0.0,2477942880.39,0.0,0.0,0.0,0.0,0.0,0.0
1402603215869516347,0,-6.41337089278,9.88567784727,-47.5674459359,10.0438151857,-0.0870990884489,0.0,-0.0398403760176,0.0,-2.70927969013,0.0,1011.10499914,2203.10023144,-1.34130416972,-0.0,-0.0,0.0,0.00383600394174,-0.0,-0.000767381983555,-0.0,0.0,-0.0,0.0,-0.0,2477942880.39,0.0,0.0,0.0,0.0,0.0,0.0
1402603215889741552,0,-6.41337089278,9.88567784727,-47.5674459359,10.0438151857,-0.0870990884489,0.0,-0.0398403760176,0.0,-2.70927969013,0.0,1011.10499914,2203.10023144,-1.34130416972,-0.0,-0.0,0.0,0.00383600394174,-0.0,-0.000767381983555,-0.0,0.0,-0.0,0.0,-0.0,2477942880.39,0.0,0.0,0.0,0.0,0.0,0.0
1402603215909649991,0,-6.41531181166,9.88567784727,-47.5695423004,10.0438151857,-0.0832489679877,0.0,-0.0408455620805,0.0,-2.70945151186,0.0,1011.10499914,2203.10023144,-1.34130416972,-0.0,-0.0,0.0,0.00383600394174,-0.0,-0.000767381983555,-0.0,0.0,-0.0,0.0,-0.0,2477942880.39,0.0,0.0,0.0,0.0,0.0,0.0
1402603215929530062,0,-6.41531181166,9.88567784727,-47.5695423004,10.0438151857,-0.0832489679877,0.0,-0.0408455620805,0.0,-2.70945151186,0.0,1011.10499914,2203.10023144,-1.34130416972,-0.0,-0.0,0.0,0.00383600394174,-0.0,-0.000767381983555,-0.0,0.0,-0.0,0.0,-0.0,2477942880.39,0.0,0.0,0.0,0.0,0.0,0.0
1402603215949659998,0,-6.41839493254,9.88567784727,-47.5713028354,10.0438151857,-0.0836473373676,0.0,-0.0405674553203,0.0,-2.70941972968,0.0,1011.10499914,2203.10023144,-1.34130416972,-0.0,-0.0,0.0,0.00383600394174,-0.0,-0.000767381983555,-0.0,0.0,-0.0,0.0,-0.0,2477942880.39,0.0,0.0,0.0,0.0,0.0,0.0
1402603215969556597,0,-6.41839493254,9.88567784727,-47.5713028354,10.0438151857,-0.0836473373676,0.0,-0.0405674553203,0.0,-2.70941972968,0.0,1011.10499914,2203.10023144,-1.34130416972,-0.0,-0.0,0.0,0.00383600394174,-0.0,-0.000767381983555,-0.0,0.0,-0.0,0.0,-0.0,2477942880.39,0.0,0.0,0.0,0.0,0.0,0.0
1402603215989572761,0,-6.41669068933,9.88567784727,-47.5734031855,10.0438151857,-0.0692398042208,0.0,-0.0397039739468,0.0,-2.70950011547,0.0,1011.10499914,2203.10023144,-1.34130416972,-0.0,-0.0,0.0,0.00383600394174,-0.0,-0.000767381983555,-0.0,0.0,-0.0,0.0,-0.0,2477942880.39,0.0,0.0,0.0,0.0,0.0,0.0
1402603216009624009,0,-6.41669068933,9.88567784727,-47.5734031855,10.0438151857,-0.0692398042208,0.0,-0.0397039739468,0.0,-2.70950011547,0.0,1011.10499914,2203.10023144,-1.34130416972,-0.0,-0.0,0.0,0.00383600394174,-0.0,-0.000767381983555,-0.0,0.0,-0.0,0.0,-0.0,2477942880.39,0.0,0.0,0.0,0.0,0.0,0.0
1402603216030159861,0,-6.41859008704,9.88567784727,-47.5788334148,10.0438151857,-0.066353553979,0.0,-0.0488635733839,0.0,-2.70955291144,0.0,1011.10499914,2203.10023144,-1.34130416972,-0.0,-0.0,0.0,0.00383600394174,-0.0,-0.000767381983555,-0.0,0.0,-0.0,0.0,-0.0,2477942880.39,0.0,0.0,0.0,0.0,0.0,0.0
1402603216049627831,0,-6.41859008704,9.88567784727,-47.5788334148,10.0438151857,-0.066353553979,0.0,-0.0488635733839,0.0,-2.70955291144,0.0,1011.10499914,2203.10023144,-1.34130416972,-0.0,-0.0,0.0,0.00383600394174,-0.0,-0.000767381983555,-0.0,0.0,-0.0,0.0,-0.0,2477942880.39,0.0,0.0,0.0,0.0,0.0,0.0
1402603216070168723,0,-6.42813615046,9.88567784727,-47.5843062975,10.0438151857,-0.0813662239672,0.0,-0.0545572293976,0.0,-2.7096948007,0.0,1011.10499914,2203.10023144,-1.34130416972,-0.0,-0.0,0.0,0.00383600394174,-0.0,-0.000767381983555,-0.0,0.0,-0.0,0.0,-0.0,2477942880.39,0.0,0.0,0.0,0.0,0.0,0.0
1402603216089770580,0,-6.42813615046,9.88567784727,-47.5843062975,10.0438151857,-0.0813662239672,0.0,-0.0545572293976,0.0,-2.7096948007,0.0,1011.10499914,2203.10023144,-1.34130416972,-0.0,-0.0,0.0,0.00383600394174,-0.0,-0.000767381983555,-0.0,0.0,-0.0,0.0,-0.0,2477942880.39,0.0,0.0,0.0,0.0,0.0,0.0
1402603216110369897,0,-6.43195506737,9.88567784727,-47.5828008293,10.0438151857,-0.0846417109307,0.0,-0.0405241292222,0.0,-2.70964182834,0.0,1011.10499914,2203.10023144,-1.34130416972,-0.0,-0.0,0.0,0.00383600394174,-0.0,-0.000767381983555,-0.0,0.0,-0.0,0.0,-0.0,2477942880.39,0.0,0.0,0.0,0.0,0.0,0.0
1402603216129812755,0,-6.43195506737,9.88567784727,-47.5828008293,10.0438151857,-0.0846417109307,0.0,-0.0405241292222,0.0,-2.70964182834,0.0,1011.10499914,2203.10023144,-1.34130416972,-0.0,-0.0,0.0,0.00383600394174,-0.0,-0.000767381983555,-0.0,0.0,-0.0,0.0,-0.0,2477942880.39,0.0,0.0,0.0,0.0,0.0,0.0
1402603216150296684,0,-6.43387917617,9.88567784727,-47.5854919377,10.0438151857,-0.0855579127445,0.0,-0.0410612252645,0.0,-2.70963787714,0.0,1011.10499914,2203.10023144,-1.34130416972,-0.0,-0.0,0.0,0.00383600394174,-0.0,-0.000767381983555,-0.0,0.0,-0.0,0.0,-0.0,2477942880.39,0.0,0.0,0.0,0.0,0.0,0.0
1402603216169724996,0,-6.43387917617,9.88567784727,-47.5854919377,10.0438151857,-0.0855579127445,0.0,-0.0410612252645,0.0,-2.70963787714,0.0,1011.10499914,2203.10023144,-1.34130416972,-0.0,-0.0,0.0,0.00383600394174,-0.0,-0.000767381983555,-0.0,0.0,-0.0,0.0,-0.0,2477942880.39,0.0,0.0,0.0,0.0,0.0,0.0
1402603216190206842,0,-6.43745261333,9.88567784727,-47.5872046012,10.0438151857,-0.0859509503706,0.0,-0.0391577777045,0.0,-2.70956355394,0.0,1011.10499914,2203.10023144,-1.34130416972,-0.0,-0.0,0.0,0.00383600394174,-0.0,-0.000767381983555,-0.0,0.0,-0.0,0.0,-0.0,2477942880.39,0.0,0.0,0.0,0.0,0.0,0.0
1402603216209613551,0,-6.43745261333,9.88567784727,-47.5872046012,10.0438151857,-0.0859509503706,0.0,-0.0391577777045,0.0,-2.70956355394,0.0,1011.10499914,2203.10023144,-1.34130416972,-0.0,-0.0,0.0,0.00383600394174,-0.0,-0.000767381983555,-0.0,0.0,-0.0,0.0,-0.0,2477942880.39,0.0,0.0,0.0,0.0,0.0,0.0
1402603216230278626,0,-6.4396068053,9.88567784727,-47.59341658,10.0438151857,-0.0815589742086,0.0,-0.0461799714448,0.0,-2.70963760369,0.0,1011.10499914,2203.10023144,-1.34130416972,-0.0,-0.0,0.0,0.00383600394174,-0.0,-0.000767381983555,-0.0,0.0,-0.0,0.0,-0.0,2477942880.39,0.0,0.0,0.0,0.0,0.0,0.0
1402603216249597662,0,-6.4396068053,9.88567784727,-47.59341658,10.0438151857,-0.0815589742086,0.0,-0.0461799714448,0.0,-2.70963760369,0.0,1011.10499914,2203.10023144,-1.34130416972,-0.0,-0.0,0.0,0.00383600394174,-0.0,-0.000767381983555,-0.0,0.0,-0.0,0.0,-0.0,2477942880.39,0.0,0.0,0.0,0.0,0.0,0.0
1402603216269663467,0,-6.43909779272,9.88567784727,-47.5939836234,10.0438151857,-0.0731467614672,0.0,-0.0375071147705,0.0,-2.70990179156,0.0,1011.10499914,2203.10023144,-1.34130416972,-0.0,-0.0,0.0,0.00383600394174,-0.0,-0.000767381983555,-0.0,0.0,-0.0,0.0,-0.0,2477942880.39,0.0,0.0,0.0,0.0,0.0,0.0
1402603216290344420,0,-6.43909779272,9.88567784727,-47.5939836234,10.0438151857,-0.0731467614672,0.0,-0.0375071147705,0.0,-2.70990179156,0.0,1011.10499914,2203.10023144,-1.34130416972,-0.0,-0.0,0.0,0.00383600394174,-0.0,0.000767318410122,-0.0,0.0,-0.0,0.0,-0.0,2477942880.39,0.0,0.0,0.0,0.0,0.0,0.0
1402603216309644374,0,-6.44178080959,9.88567784727,-47.59552462,10.0438151857,-0.0730718850593,0.0,-0.0375307784693,0.0,-2.70994248439,0.0,1011.10499914,2203.10023144,-1.34130416972,-0.0,-0.0,0.0,0.00383600394174,-0.0,0.000767318410122,-0.0,0.0,-0.0,0.0,-0.0,2477942880.39,0.0,0.0,0.0,0.0,0.0,0.0
1402603216329797346,0,-6.44178080959,9.88567784727,-47.59552462,10.0438151857,-0.0730718850593,0.0,-0.0375307784693,0.0,-2.70994248439,0.0,1011.10499914,2203.10023144,-1.34130416972,-0.0,-0.0,0.0,0.00383600394174,-0.0,0.000767318410122,-0.0,0.0,-0.0,0.0,-0.0,2477942880.39,0.0,0.0,0.0,0.0,0.0,0.0
1402603216349596755,0,-6.44102734529,9.88567784727,-47.5984043349,10.0438151857,-0.0662401460078,0.0,-0.0402878323824,0.0,-2.71006023011,0.0,1011.10499914,2203.10023144,-1.34130416972,-0.0,-0.0,0.0,0.00383600394174,-0.0,0.000767318410122,-0.0,0.0,-0.0,0.0,-0.0,2477942880.39,0.0,0.0,0.0,0.0,0.0,0.0
1402603216369565359,0,-6.44102734529,9.88567784727,-47.5984043349,10.0438151857,-0.0662401460078,0.0,-0.0402878323824,0.0,-2.71006023011,0.0,1011.10499914,2203.10023144,-1.34130416972,-0.0,-0.0,0.0,0.00383600394174,-0.0,-0.000767381983555,-0.0,0.0,-0.0,0.0,-0.0,2477942880.39,0.0,0.0,0.0,0.0,0.0,0.0
1402603216390223762,0,-6.44367033269,9.88567784727,-47.6001634361,10.0438151857,-0.0653955700753,0.0,-0.0423683585508,0.0,-2.71021608124,0.0,1011.10499914,2203.10023144,-1.34130416972,-0.0,-0.0,0.0,0.00383600394174,-0.0,0.000767318410122,-0.0,0.0,-0.0,0.0,-0.0,2477942880.39,0.0,0.0,0.0,0.0,0.0,0.0
1402603216409948885,0,-6.44367033269,9.88567784727,-47.6001634361,10.0438151857,-0.0653955700753,0.0,-0.0423683585508,0.0,-2.71021608124,0.0,1011.10499914,2203.10023144,-1.34130416972,-0.0,-0.0,0.0,0.00383600394174,-0.0,0.000767318410122,-0.0,0.0,-0.0,0.0,-0.0,2477942880.39,0.0,0.0,0.0,0.0,0.0,0.0
1402603216429692531,0,-6.44725003021,9.88567784727,-47.6015136769,10.0438151857,-0.0652784830516,0.0,-0.0419388014473,0.0,-2.71043220567,0.0,1011.10499914,2203.10023144,-1.34130416972,-0.0,-0.0,0.0,0.00383600394174,-0.0,0.000767318410122,-0.0,0.0,-0.0,0.0,-0.0,2477942880.39,0.0,0.0,0.0,0.0,0.0,0.0
1402603216450170480,0,-6.44725003021,9.88567784727,-47.6015136769,10.0438151857,-0.0652784830516,0.0,-0.0419388014473,0.0,-2.71043220567,0.0,1011.10499914,2203.10023144,-1.34130416972,-0.0,-0.0,0.0,0.00383600394174,-0.0,0.000767318410122,-0.0,0.0,-0.0,0.0,-0.0,2477942880.39,0.0,0.0,0.0,0.0,0.0,0.0
1402603216469725667,0,-6.45295946176,9.88567784727,-47.5994771012,10.0438151857,-0.0728443438627,0.0,-0.0334749380718,0.0,-2.7106043156,0.0,1011.10499914,2203.10023144,-1.34130416972,-0.0,-0.0,0.0,0.00383600394174,-0.0,0.000767318410122,-0.0,0.0,-0.0,0.0,-0.0,2477942880.39,0.0,0.0,0.0,0.0,0.0,0.0
1402603216490221320,0,-6.45295946176,9.88567784727,-47.5994771012,10.0438151857,-0.0728443438627,0.0,-0.0334749380718,0.0,-2.7106043156,0.0,1011.10499914,2203.10023144,-1.34130416972,-0.0,-0.0,0.0,0.00383600394174,-0.0,0.000767318410122,-0.0,0.0,-0.0,0.0,-0.0,2477942880.39,0.0,0.0,0.0,0.0,0.0,0.0
1402603216509627126,0,-6.45660462261,9.88567784727,-47.601371163,10.0438151857,-0.0759375868802,0.0,-0.0386891855037,0.0,-2.71070442096,0.0,1011.10499914,2203.10023144,-1.34130416972,-0.0,-0.0,0.0,0.00383600394174,-0.0,0.000767318410122,-0.0,0.0,-0.0,0.0,-0.0,2477942880.39,0.0,0.0,0.0,0.0,0.0,0.0
1402603216530219734,0,-6.45660462261,9.88567784727,-47.601371163,10.0438151857,-0.0759375868802,0.0,-0.0386891855037,0.0,-2.71070442096,0.0,1011.10499914,2203.10023144,-1.34130416972,-0.0,-0.0,0.0,0.00383600394174,-0.0,0.000767318410122,-0.0,0.0,-0.0,0.0,-0.0,2477942880.39,0.0,0.0,0.0,0.0,0.0,0.0
1402603216549607966,0,-6.4594463347,9.88567784727,-47.6029450641,10.0438151857,-0.0756308605014,0.0,-0.039178469795,0.0,-2.7109450558,0.0,1011.10499914,2203.10023144,-1.34130416972,-0.0,-0.0,0.0,0.00383600394174,-0.0,0.000767318410122,-0.0,0.0,-0.0,0.0,-0.0,2477942880.39,0.0,0.0,0.0,0.0,0.0,0.0
1402603216570308121,0,-6.4594463347,9.88567784727,-47.6029450641,10.0438151857,-0.0756308605014,0.0,-0.039178469795,0.0,-2.7109450558,0.0,1011.10499914,2203.10023144,-1.34130416972,-0.0,-0.0,0.0,0.00383600394174,-0.0,0.000767318410122,-0.0,0.0,-0.0,0.0,-0.0,2477942880.39,0.0,0.0,0.0,0.0,0.0,0.0
1402603216589636808,0,-6.46254348601,9.88567784727,-47.6047000889,10.0438151857,-0.0752360158806,0.0,-0.0405133192678,0.0,-2.71120080358,0.0,1011.10499914,2203.10023144,-1.34130416972,-0.0,-0.0,0.0,0.00383600394174,-0.0,0.000767318410122,-0.0,0.0,-0.0,0.0,-0.0,2477942880.39,0.0,0.0,0.0,0.0,0.0,0.0
1402603216610242942,0,-6.46254348601,9.88567784727,-47.6047000889,10.0438151857,-0.0752360158806,0.0,-0.0405133192678,0.0,-2.71120080358,0.0,1011.10499914,2203.10023144,-1.34130416972,-0.0,-0.0,0.0,0.00383600394174,-0.0,-0.000767381983555,-0.0,0.0,-0.0,0.0,-0.0,2477942880.39,0.0,0.0,0.0,0.0,0.0,0.0
1402603216629700744,0,-6.46156734895,9.88567784727,-47.605426714,10.0438151857,-0.0661774668328,0.0,-0.0391085640541,0.0,-2.71136407786,0.0,1011.10499914,2203.10023144,-1.34130416972,-0.0,-0.0,0.0,0.00383600394174,-0.0,0.000767318410122,-0.0,0.0,-0.0,0.0,-0.0,2477942880.39,0.0,0.0,0.0,0.0,0.0,0.0
1402603216650106589,0,-6.46156734895,9.88567784727,-47.605426714,10.0438151857,-0.0661774668328,0.0,-0.0391085640541,0.0,-2.71136407786,0.0,1011.10499914,2203.10023144,-1.34130416972,-0.0,-0.0,0.0,0.00383600394174,-0.0,-0.000767381983555,-0.0,0.0,-0.0,0.0,-0.0,2477942880.39,0.0,0.0,0.0,0.0,0.0,0.0
1402603216669606848,0,-6.46895820358,9.88567784727,-47.6101910078,10.0438151857,-0.0780322580264,0.0,-0.0513539011676,0.0,-2.7116152994,0.0,1011.10499914,2203.10023144,-1.34130416972,-0.0,-0.0,0.0,0.00383600394174,-0.0,-0.000767381983555,-0.0,0.0,-0.0,0.0,-0.0,2477942880.39,0.0,0.0,0.0,0.0,0.0,0.0
1402603216690149376,0,-6.46895820358,9.88567784727,-47.6101910078,10.0438151857,-0.0780322580264,0.0,-0.0513539011676,0.0,-2.7116152994,0.0,1011.10499914,2203.10023144,-1.34130416972,-0.0,-0.0,0.0,0.00383600394174,-0.0,-0.000767381983555,-0.0,0.0,-0.0,0.0,-0.0,2477942880.39,0.0,0.0,0.0,0.0,0.0,0.0
1402603216709654180,0,-6.46889044196,9.88567784727,-47.6101264411,10.0438151857,-0.0671116529847,0.0,-0.0468742697726,0.0,-2.71182988778,0.0,1011.10499914,2203.10023144,-1.34130416972,-0.0,-0.0,0.0,0.00383600394174,-0.0,-0.000767381983555,-0.0,0.0,-0.0,0.0,-0.0,2477942880.39,0.0,0.0,0.0,0.0,0.0,0.0
1402603216730233058,0,-6.46889044196,9.88567784727,-47.6101264411,10.0438151857,-0.0671116529847,0.0,-0.0468742697726,0.0,-2.71182988778,0.0,1011.10499914,2203.10023144,-1.34130416972,-0.0,-0.0,0.0,0.00383600394174,-0.0,-0.000767381983555,-0.0,0.0,-0.0,0.0,-0.0,2477942880.39,0.0,0.0,0.0,0.0,0.0,0.0
1402603216749693077,0,-6.47793760374,9.88567784727,-47.6118118632,10.0438151857,-0.0759663613308,0.0,-0.0459549018281,0.0,-2.71196307243,0.0,1011.10499914,2203.10023144,-1.34130416972,-0.0,-0.0,0.0,0.00383600394174,-0.0,-0.000767381983555,-0.0,0.0,-0.0,0.0,-0.0,2477942880.39,0.0,0.0,0.0,0.0,0.0,0.0
1402603216770211237,0,-6.47793760374,9.88567784727,-47.6118118632,10.0438151857,-0.0759663613308,0.0,-0.0459549018281,0.0,-2.71196307243,0.0,1011.10499914,2203.10023144,-1.34130416972,-0.0,-0.0,0.0,0.00383600394174,-0.0,-0.000767381983555,-0.0,0.0,-0.0,0.0,-0.0,2477942880.39,0.0,0.0,0.0,0.0,0.0,0.0
1402603216789681328,0,-6.47420093132,9.88567784727,-47.615222794,10.0438151857,-0.0559169577233,0.0,-0.051801181658,0.0,-2.71235562903,0.0,1011.10499914,2203.10023144,-1.34130416972,-0.0,-0.0,0.0,0.00383600394174,-0.0,-0.000767381983555,-0.0,0.0,-0.0,0.0,-0.0,2477942880.39,0.0,0.0,0.0,0.0,0.0,0.0
1402603216810158093,0,-6.47420093132,9.88567784727,-47.615222794,10.0438151857,-0.0559169577233,0.0,-0.051801181658,0.0,-2.71235562903,0.0,1011.10499914,2203.10023144,-1.34130416972,-0.0,-0.0,0.0,0.00383600394174,-0.0,-0.000767381983555,-0.0,0.0,-0.0,0.0,-0.0,2477942880.39,0.0,0.0,0.0,0.0,0.0,0.0
1402603216829470848,0,-6.48445728321,9.88567784727,-47.6197692133,10.0438151857,-0.0701160408066,0.0,-0.0580927451907,0.0,-2.71249974105,0.0,1011.10499914,2203.10023144,-1.34130416972,-0.0,-0.0,0.0,0.00383600394174,-0.0,-0.000767381983555,-0.0,0.0,-0.0,0.0,-0.0,2477942880.39,0.0,0.0,0.0,0.0,0.0,0.0
1402603216850644751,0,-6.48445728321,9.88567784727,-47.6197692133,10.0438151857,-0.0701160408066,0.0,-0.0580927451907,0.0,-2.71249974105,0.0,1011.10499914,2203.10023144,-1.34130416972,-0.0,-0.0,0.0,0.00383600394174,-0.0,-0.000767381983555,-0.0,0.0,-0.0,0.0,-0.0,2477942880.39,0.0,0.0,0.0,0.0,0.0,0.0
1402603216869658256,0,-6.48755734279,9.88567784727,-47.6214846683,10.0438151857,-0.0654445492431,0.0,-0.059007613568,0.0,-2.71275842662,0.0,1011.10499914,2203.10023144,-1.34130416972,-0.0,-0.0,0.0,0.00383600394174,-0.0,-0.00230160554007,-0.0,0.0,-0.0,0.0,-0.0,2477942880.39,0.0,0.0,0.0,0.0,0.0,0.0
1402603216890247731,0,-6.48755734279,9.88567784727,-47.6214846683,10.0438151857,-0.0654445492431,0.0,-0.059007613568,0.0,-2.71275842662,0.0,1011.10499914,2203.10023144,-1.34130416972,-0.0,-0.0,0.0,0.00383600394174,-0.0,-0.000767381983555,-0.0,0.0,-0.0,0.0,-0.0,2477942880.39,0.0,0.0,0.0,0.0,0.0,0.0
1402603216909691262,0,-6.49223732432,9.88567784727,-47.6183837199,10.0438151857,-0.0725387892829,0.0,-0.0455089097127,0.0,-2.71264104125,0.0,1011.10499914,2203.10023144,-1.34130416972,-0.0,-0.0,0.0,0.00383600394174,-0.0,-0.00230160554007,-0.0,0.0,-0.0,0.0,-0.0,2477942880.39,0.0,0.0,0.0,0.0,0.0,0.0
1402603216930150785,0,-6.49223732432,9.88567784727,-47.6183837199,10.0438151857,-0.0725387892829,0.0,-0.0455089097127,0.0,-2.71264104125,0.0,1011.10499914,2203.10023144,-1.34130416972,-0.0,-0.0,0.0,0.00383600394174,-0.0,-0.000767381983555,-0.0,0.0,-0.0,0.0,-0.0,2477942880.39,0.0,0.0,0.0,0.0,0.0,0.0
1402603216949643880,0,-6.49137254116,9.88567784727,-47.6193852867,10.0438151857,-0.0624576290351,0.0,-0.0443895147046,0.0,-2.71276620048,0.0,1011.10499914,2203.10023144,-1.34130416972,-0.0,-0.0,0.0,0.00383600394174,-0.0,-0.000767381983555,-0.0,0.0,-0.0,0.0,-0.0,2477942880.39,0.0,0.0,0.0,0.0,0.0,0.0
1402603216985364082,3,-6.49137254116,9.88567784727,-47.6193852867,10.0438151857,-0.0624576290351,0.0,-0.0443895147046,0.0,-2.71276620048,0.0,1011.10499914,2203.10023144,-1.34130416972,200.0,-0.0,0.0,0.00383600394174,-0.0,-0.000767381983555,-0.0,-0.0,100.0,-0.0,100.0,2459820780.41,0.0,0.0,0.0,0.0,0.0,0.0
1402603216990208600,3,-6.49761538114,9.88567784727,-47.6239819737,10.0438151857,-0.0707843963195,0.0,-0.0511501082051,0.0,-2.7130643267,0.0,1011.10499914,2203.10023144,-1.34130416972,200.0,-0.0,0.0,0.00383600394174,-0.0,-0.000767381983555,-0.0,-0.0,100.0,-0.0,100.0,2459820780.41,0.0,0.0,0.0,0.0,0.0,0.0
1402603217009875822,3,-6.49761538114,9.88567784727,-47.6239819737,10.0438151857,-0.0707843963195,0.0,-0.0511501082051,0.0,-2.7130643267,0.0,1011.10499914,2203.10023144,-1.34130416972,200.0,-0.0,0.0,0.00383600394174,100.0,-0.000767381983555,100.0,-0.0,100.0,-0.0,100.0,2459820780.41,0.0,0.0,0.0,0.0,0.0,0.0
1402603217030174093,3,-6.50283232986,9.88567784727,-47.6256751881,10.0438151857,-0.0753960115609,0.0,-0.0456671582471,0.0,-2.71304814463,0.0,1011.10499914,2203.10023144,-1.34130416972,200.0,-0.0,0.0,0.00383600394174,100.0,-0.00230160554007,100.0,-0.0,100.0,-0.0,100.0,2459820780.41,0.0,0.0,0.0,0.0,0.0,0.0
1402603217049623882,3,-6.50283232986,9.88567784727,-47.6256751881,10.0438151857,-0.0753960115609,0.0,-0.0456671582471,0.0,-2.71304814463,0.0,1011.10499914,2203.10023144,-1.34130416972,200.0,-0.0,0.0,0.00383600394174,100.0,-0.000767381983555,100.0,-0.0,100.0,-0.0,100.0,2459820780.41,0.0,0.0,0.0,0.0,0.0,0.0
1402603217070115532,3,-6.50450244626,9.88567784727,-47.6266324989,10.0438151857,-0.0756923612128,0.0,-0.0447218810566,0.0,-2.71298919364,0.0,1011.10499914,2203.10023144,-1.34130416972,200.0,-0.0,0.0,0.00383600394174,100.0,0.00230154196664,100.0,-0.0,100.0,-0.0,100.0,2459820780.41,0.0,0.0,0.0,0.0,0.0,0.0
1402603217089719880,3,-6.50450244626,9.88567784727,-47.6266324989,10.0438151857,-0.0756923612128,0.0,-0.0447218810566,0.0,-2.71298919364,0.0,1011.10499914,2203.10023144,-1.34130416972,200.0,-0.0,0.0,0.00383600394174,100.0,0.00230154196664,100.0,-0.0,100.0,-0.0,100.0,2459820780.41,0.0,0.0,0.0,0.0,0.0,0.0
1402603217110184855,3,-6.50707801413,9.88567784727,-47.628441902,10.0438151857,-0.0762723689274,0.0,-0.0429897063712,0.0,-2.71290818283,0.0,1011.10499914,2203.10023144,-1.34130416972,200.0,-0.0,0.0,0.00383600394174,100.0,0.00230154196664,100.0,-0.0,100.0,-0.0,100.0,2459820780.41,0.0,0.0,0.0,0.0,0.0,0.0
1402603217129643776,3,-6.50707801413,9.88567784727,-47.628441902,10.0438151857,-0.0762723689274,0.0,-0.0429897063712,0.0,-2.71290818283,0.0,1011.10499914,2203.10023144,-1.34130416972,200.0,-0.0,0.0,0.00383600394174,100.0,0.00230154196664,100.0,-0.0,100.0,-0.0,100.0,2459820780.41,0.0,0.0,0.0,0.0,0.0,0.0
1402603217150269828,3,-6.51011347661,9.88567784727,-47.6307350572,10.0438151857,-0.0693721282128,0.0,-0.0438964030355,0.0,-2.71279129557,0.0,1011.10499914,2203.10023144,-1.34130416972,200.0,-0.0,0.0,0.00383600394174,100.0,0.00230154196664,100.0,-0.0,100.0,-0.0,100.0,2459820780.41,0.0,0.0,0.0,0.0,0.0,0.0
1402603217169585158,3,-6.51011347661,9.88567784727,-47.6307350572,10.0438151857,-0.0693721282128,0.0,-0.0438964030355,0.0,-2.71279129557,0.0,1011.10499914,2203.10023144,-1.34130416972,200.0,-0.0,0.0,0.00383600394174,100.0,0.00230154196664,100.0,-0.0,100.0,-0.0,100.0,2459820780.41,0.0,0.0,0.0,0.0,0.0,0.0
1402603217190313809,3,-6.51228347067,9.88567784727,-47.6315646305,10.0438151857,-0.0887884034616,0.0,-0.052046542504,0.0,-2.7127981266,0.0,1011.10499914,2203.10023144,-1.34130416972,200.0,-0.0,0.0,0.00383600394174,100.0,0.00230154196664,100.0,-0.0,100.0,-0.0,100.0,2459820780.41,0.0,0.0,0.0,0.0,0.0,0.0
1402603217209561436,3,-6.51228347067,9.88567784727,-47.6315646305,10.0438151857,-0.0887884034616,0.0,-0.052046542504,0.0,-2.7127981266,0.0,1011.10499914,2203.10023144,-1.34130416972,200.0,-0.0,0.0,0.00383600394174,100.0,0.00383600394174,100.0,-0.0,100.0,-0.0,100.0,2459820780.41,0.0,0.0,0.0,0.0,0.0,0.0
1402603217230127398,3,-6.51699920095,9.88567784727,-47.6343223671,10.0438151857,-0.141931755603,0.0,-0.072081967315,0.0,-2.71286999207,0.0,1011.10499914,2203.10023144,-1.34130416972,200.0,-0.0,0.0,0.00383600394174,100.0,0.00383600394174,100.0,-0.0,100.0,-0.0,100.0,2459820780.41,0.0,0.0,0.0,0.0,0.0,0.0
1402603217249736558,3,-6.51699920095,9.88567784727,-47.6343223671,10.0438151857,-0.141931755603,0.0,-0.072081967315,0.0,-2.71286999207,0.0,1011.10499914,2203.10023144,-1.34130416972,200.0,-0.0,0.0,0.00383600394174,100.0,0.00383600394174,100.0,-0.0,100.0,-0.0,100.0,2459820780.41,0.0,0.0,0.0,0.0,0.0,0.0
1402603217270234031,3,-6.52524603745,9.88567784727,-47.6388989003,10.0438151857,-0.210015626219,0.0,-0.109542294923,0.0,-2.71288568412,0.0,1011.10499914,2203.10023144,-1.34130416972,200.0,-0.0,0.0,0.00383600394174,100.0,0.00383600394174,100.0,-0.0,100.0,-0.0,100.0,2459820780.41,0.0,0.0,0.0,0.0,0.0,0.0
1402603217289728223,3,-6.52524603745,9.88567784727,-47.6388989003,10.0438151857,-0.210015626219,0.0,-0.109542294923,0.0,-2.71288568412,0.0,1011.10499914,2203.10023144,-1.34130416972,200.0,-0.0,0.0,0.00383600394174,100.0,0.00383600394174,100.0,-0.0,100.0,-0.0,100.0,2459820780.41,0.0,0.0,0.0,0.0,0.0,0.0
1402603217310216857,3,-6.53559507431,9.88567784727,-47.6353264646,10.0438151857,-0.270286181994,0.0,-0.118288148513,0.0,-2.71772324296,0.0,1011.10499914,2203.10023144,-1.34130416972,200.0,-0.0,0.0,0.00383600394174,100.0,0.00383600394174,100.0,-0.0,100.0,-0.0,100.0,2459820780.41,0.0,0.0,0.0,0.0,0.0,0.0
1402603217329585526,3,-6.53559507431,9.88567784727,-47.6353264646,10.0438151857,-0.270286181994,0.0,-0.118288148513,0.0,-2.71772324296,0.0,1011.10499914,2203.10023144,-1.34130416972,200.0,-0.0,0.0,0.00383600394174,100.0,0.00383600394174,100.0,-0.0,100.0,-0.0,100.0,2459820780.41,0.0,0.0,0.0,0.0,0.0,0.0
1402603217350005338,3,-6.54714599913,9.88567784727,-47.647688755,10.0438151857,-0.325283588491,0.0,-0.1569131856,0.0,-2.71344843695,0.0,1011.10499914,2203.10023144,-1.34130416972,200.0,-0.0,0.0,0.00383600394174,100.0,0.00383600394174,100.0,-0.0,100.0,-0.0,100.0,2459820780.41,0.0,0.0,0.0,0.0,0.0,0.0
1402603217369420140,3,-6.54714599913,9.88567784727,-47.647688755,10.0438151857,-0.325283588491,0.0,-0.1569131856,0.0,-2.71344843695,0.0,1011.10499914,2203.10023144,-1.34130416972,200.0,-0.0,0.0,0.00383600394174,100.0,0.00383600394174,100.0,-0.0,100.0,-0.0,100.0,2459820780.41,0.0,0.0,0.0,0.0,0.0,0.0
1402603217390053839,3,-6.56119196393,9.88567784727,-47.6584734306,10.0438151857,-0.377557062144,0.0,-0.188186255913,0.0,-2.71129250831,0.0,1011.10499914,2203.10023144,-1.34130416972,200.0,-0.0,0.0,0.00383600394174,100.0,0.00383600394174,100.0,-0.0,100.0,-0.0,100.0,2459820780.41,0.0,0.0,0.0,0.0,0.0,0.0
1402603217409568483,3,-6.56119196393,9.88567784727,-47.6584734306,10.0438151857,-0.377557062144,0.0,-0.188186255913,0.0,-2.71129250831,0.0,1011.10499914,2203.10023144,-1.34130416972,200.0,-0.0,0.0,0.00383600394174,100.0,0.00383600394174,100.0,-0.0,100.0,-0.0,100.0,2459820780.41,0.0,0.0,0.0,0.0,0.0,0.0
1402603217429535581,3,-6.5877710233,9.88567784727,-47.6622269747,10.0438151857,-0.46835423026,0.0,-0.214827844434,0.0,-2.72024754636,0.0,1011.10499914,2203.10023144,-1.34130416972,200.0,-0.0,0.0,0.00383600394174,100.0,0.00383600394174,100.0,-0.0,100.0,-0.0,100.0,2459820780.41,0.0,0.0,0.0,0.0,0.0,0.0
1402603217449486813,3,-6.5877710233,9.88567784727,-47.6622269747,10.0438151857,-0.46835423026,0.0,-0.214827844434,0.0,-2.72024754636,0.0,1011.10499914,2203.10023144,-1.34130416972,200.0,-0.0,0.0,0.00383600394174,100.0,0.00383600394174,100.0,-0.0,100.0,-0.0,100.0,2459820780.41,0.0,0.0,0.0,0.0,0.0,0.0
1402603217469987635,3,-6.60281523556,9.88567784727,-47.6692409956,10.0438151857,-0.509491393594,0.0,-0.236178748684,0.0,-2.72152177945,0.0,1011.10499914,2203.10023144,-1.34130416972,200.0,-0.0,0.0,0.00383600394174,100.0,0.00383600394174,100.0,-0.0,100.0,-0.0,100.0,2459820780.41,0.0,0.0,0.0,0.0,0.0,0.0
1402603217489536772,3,-6.60231769604,9.88567784727,-47.6791520265,10.0438151857,-0.511520145361,0.0,-0.25372479896,0.0,-2.71493478888,0.0,1011.10499914,2203.10023144,-1.34130416972,200.0,-0.0,0.0,0.00383600394174,100.0,0.00383600394174,100.0,-0.0,100.0,-0.0,100.0,2459820780.41,0.0,0.0,0.0,0.0,0.0,0.0
1402603217509406470,3,-6.60231769604,9.88567784727,-47.6791520265,10.0438151857,-0.511520145361,0.0,-0.25372479896,0.0,-2.71493478888,0.0,1011.10499914,2203.10023144,-1.34130416972,200.0,-0.0,0.0,0.00383600394174,100.0,0.00383600394174,100.0,-0.0,100.0,-0.0,100.0,2459820780.41,0.0,0.0,0.0,0.0,0.0,0.0
1402603217529416822,3,-6.6134402122,9.88567784727,-47.6847275837,10.0438151857,-0.538797624985,0.0,-0.267280236865,0.0,-2.71591859775,0.0,1011.10499914,2203.10023144,-1.34130416972,200.0,-0.0,0.0,0.00383600394174,100.0,0.00383600394174,100.0,-0.0,100.0,-0.0,100.0,2459820780.41,0.0,0.0,0.0,0.0,0.0,0.0
1402603217549470345,3,-6.6134402122,9.88567784727,-47.6847275837,10.0438151857,-0.538797624985,0.0,-0.267280236865,0.0,-2.71591859775,0.0,1011.10499914,2203.10023144,-1.34130416972,200.0,-0.0,0.0,0.00383600394174,100.0,0.00383600394174,100.0,-0.0,100.0,-0.0,100.0,2459820780.41,0.0,0.0,0.0,0.0,0.0,0.0
1402603217569616885,3,-6.63694822498,9.88567784727,-47.6964428812,10.0438151857,-0.594738593419,0.0,-0.292836370553,0.0,-2.7179730399,0.0,1011.10499914,2203.10023144,-1.34130416972,200.0,-0.0,0.0,0.00383600394174,100.0,0.00383600394174,100.0,-0.0,100.0,-0.0,100.0,2459820780.41,0.0,0.0,0.0,0.0,0.0,0.0
1402603217590039723,3,-6.63694822498,9.88567784727,-47.6964428812,10.0438151857,-0.594738593419,0.0,-0.292836370553,0.0,-2.7179730399,0.0,1011.10499914,2203.10023144,-1.34130416972,200.0,-0.0,0.0,0.00383600394174,100.0,0.00230154196664,100.0,-0.0,100.0,-0.0,100.0,2459820780.41,0.0,0.0,0.0,0.0,0.0,0.0
1402603217609551612,3,-6.66100312726,9.88567784727,-47.7155906716,10.0438151857,-0.640820641226,0.0,-0.326597837337,0.0,-2.71439599893,0.0,1011.10499914,2203.10023144,-1.34130416972,200.0,-0.0,0.0,0.00383600394174,100.0,0.00383600394174,100.0,-0.0,100.0,-0.0,100.0,2459820780.41,0.0,0.0,0.0,0.0,0.0,0.0
1402603217629632687,3,-6.66100312726,9.88567784727,-47.7155906716,10.0438151857,-0.640820641226,0.0,-0.326597837337,0.0,-2.71439599893,0.0,1011.10499914,2203.10023144,-1.34130416972,200.0,-0.0,0.0,0.00383600394174,100.0,0.00383600394174,100.0,-0.0,100.0,-0.0,100.0,2459820780.41,0.0,0.0,0.0,0.0,0.0,0.0
1402603217650278296,3,-6.69861527513,9.88567784727,-47.7321138138,10.0438151857,-0.709629787467,0.0,-0.35372473349,0.0,-2.71941266723,0.0,1011.10499914,2203.10023144,-1.34130416972,200.0,-0.0,0.0,0.00383600394174,100.0,0.00383600394174,100.0,-0.0,100.0,-0.0,100.0,2459820780.41,0.0,0.0,0.0,0.0,0.0,0.0
1402603217669546510,3,-6.69861527513,9.88567784727,-47.7321138138,10.0438151857,-0.709629787467,0.0,-0.35372473349,0.0,-2.71941266723,0.0,1011.10499914,2203.10023144,-1.34130416972,200.0,-0.0,0.0,0.00383600394174,100.0,0.00230154196664,100.0,-0.0,100.0,-0.0,100.0,2459820780.41,0.0,0.0,0.0,0.0,0.0,0.0
1402603217689483850,3,-6.73036771146,9.88567784727,-47.747240571,10.0438151857,-0.756115500039,0.0,-0.3669847873,0.0,-2.72343044145,0.0,1011.10499914,2203.10023144,-1.34130416972,200.0,-0.0,0.0,0.00383600394174,100.0,0.00383600394174,100.0,-0.0,100.0,-0.0,100.0,2459820780.41,0.0,0.0,0.0,0.0,0.0,0.0
1402603217710125365,3,-6.73036771146,9.88567784727,-47.747240571,10.0438151857,-0.756115500039,0.0,-0.3669847873,0.0,-2.72343044145,0.0,1011.10499914,2203.10023144,-1.34130416972,200.0,-0.0,0.0,0.00383600394174,100.0,0.00383600394174,100.0,-0.0,100.0,-0.0,100.0,2459820780.41,0.0,0.0,0.0,0.0,0.0,0.0
1402603217729570154,3,-6.74687863402,9.88567784727,-47.7562814275,10.0438151857,-0.78132165492,0.0,-0.378046921012,0.0,-2.72437531368,0.0,1011.10499914,2203.10023144,-1.34130416972,200.0,-0.0,0.0,0.00383600394174,100.0,0.00383600394174,100.0,-0.0,100.0,-0.0,100.0,2459820780.41,0.0,0.0,0.0,0.0,0.0,0.0
1402603217749569876,3,-6.74687863402,9.88567784727,-47.7562814275,10.0438151857,-0.78132165492,0.0,-0.378046921012,0.0,-2.72437531368,0.0,1011.10499914,2203.10023144,-1.34130416972,200.0,-0.0,0.0,0.00383600394174,100.0,0.00383600394174,100.0,-0.0,100.0,-0.0,100.0,2459820780.41,0.0,0.0,0.0,0.0,0.0,0.0
1402603217769709681,3,-6.7811262799,9.88567784727,-47.7718335609,10.0438151857,-0.828054351654,0.0,-0.39454668535,0.0,-2.72729487794,0.0,1011.10499914,2203.10023144,-1.34130416972,200.0,-0.0,0.0,0.00383600394174,100.0,0.00383600394174,100.0,-0.0,100.0,-0.0,100.0,2459820780.41,0.0,0.0,0.0,0.0,0.0,0.0
1402603217789488043,3,-6.7811262799,9.88567784727,-47.7718335609,10.0438151857,-0.828054351654,0.0,-0.39454668535,0.0,-2.72729487794,0.0,1011.10499914,2203.10023144,-1.34130416972,200.0,-0.0,0.0,0.00383600394174,100.0,0.00383600394174,100.0,-0.0,100.0,-0.0,100.0,2459820780.41,0.0,0.0,0.0,0.0,0.0,0.0
1402603217809611331,3,-6.81272711828,9.88567784727,-47.7889487738,10.0438151857,-0.863275284892,0.0,-0.407889997823,0.0,-2.72883604658,0.0,1011.10499914,2203.10023144,-1.34130416972,200.0,-0.0,0.0,0.00383600394174,100.0,0.00383600394174,100.0,-0.0,100.0,-0.0,100.0,2459820780.41,0.0,0.0,0.0,0.0,0.0,0.0
1402603217830089087,3,-6.81272711828,9.88567784727,-47.7889487738,10.0438151857,-0.863275284892,0.0,-0.407889997823,0.0,-2.72883604658,0.0,1011.10499914,2203.10023144,-1.34130416972,200.0,-0.0,0.0,0.00383600394174,100.0,0.00230154196664,100.0,-0.0,100.0,-0.0,100.0,2459820780.41,0.0,0.0,0.0,0.0,0.0,0.0
1402603217849525585,3,-6.85162641967,9.88567784727,-47.8131816073,10.0438151857,-0.905506853551,0.0,-0.438063490057,0.0,-2.7276227542,0.0,1011.10499914,2203.10023144,-1.34130416972,200.0,-0.0,0.0,0.00383600394174,100.0,0.00230154196664,100.0,-0.0,100.0,-0.0,100.0,2459820780.41,0.0,0.0,0.0,0.0,0.0,0.0
1402603217869807080,3,-6.85162641967,9.88567784727,-47.8131816073,10.0438151857,-0.905506853551,0.0,-0.438063490057,0.0,-2.7276227542,0.0,1011.10499914,2203.10023144,-1.34130416972,200.0,-0.0,0.0,0.00383600394174,100.0,0.00230154196664,100.0,-0.0,100.0,-0.0,100.0,2459820780.41,0.0,0.0,0.0,0.0,0.0,0.0
1402603217889638282,3,-6.90584099064,9.88567784727,-47.8357205457,10.0438151857,-0.968754093656,0.0,-0.45135000306,0.0,-2.73241634795,0.0,1011.10499914,2203.10023144,-1.34130416972,200.0,-0.0,0.0,0.00383600394174,100.0,0.00383600394174,100.0,-0.0,100.0,-0.0,100.0,2459820780.41,0.0,0.0,0.0,0.0,0.0,0.0
1402603217909589737,3,-6.90584099064,9.88567784727,-47.8357205457,10.0438151857,-0.968754093656,0.0,-0.45135000306,0.0,-2.73241634795,0.0,1011.10499914,2203.10023144,-1.34130416972,200.0,-0.0,0.0,0.00383600394174,100.0,0.00230154196664,100.0,-0.0,100.0,-0.0,100.0,2459820780.41,0.0,0.0,0.0,0.0,0.0,0.0
1402603217930241435,3,-6.93640394405,9.88567784727,-47.8498997816,10.0438151857,-0.996096459238,0.0,-0.461455921087,0.0,-2.73406225677,0.0,1011.10499914,2203.10023144,-1.34130416972,200.0,-0.0,0.0,0.00383600394174,100.0,0.00230154196664,100.0,-0.0,100.0,-0.0,100.0,2459820780.41,0.0,0.0,0.0,0.0,0.0,0.0
1402603217949782737,3,-6.95589627816,9.88567784727,-47.8650470277,10.0438151857,-1.00629132398,0.0,-0.477067461217,0.0,-2.73164765575,0.0,1011.10499914,2203.10023144,-1.34130416972,200.0,-0.0,0.0,0.00383600394174,100.0,0.00383600394174,100.0,-0.0,100.0,-0.0,100.0,2459820780.41,0.0,0.0,0.0,0.0,0.0,0.0
1402603217970384936,3,-6.95589627816,9.88567784727,-47.8650470277,10.0438151857,-1.00629132398,0.0,-0.477067461217,0.0,-2.73164765575,0.0,1011.10499914,2203.10023144,-1.34130416972,200.0,-0.0,0.0,0.00383600394174,100.0,0.00383600394174,100.0,-0.0,100.0,-0.0,100.0,2459820780.41,0.0,0.0,0.0,0.0,0.0,0.0
1402603217989670458,3,-6.97708520264,9.88567784727,-47.8752387989,10.0438151857,-1.02465998082,0.0,-0.481812761403,0.0,-2.73259938317,0.0,1011.10499914,2203.10023144,-1.34130416972,200.0,-0.0,0.0,0.00383600394174,100.0,0.00230154196664,100.0,-0.0,100.0,-0.0,100.0,2459820780.41,0.0,0.0,0.0,0.0,0.0,0.0
1402603218010263541,3,-6.97708520264,9.88567784727,-47.8752387989,10.0438151857,-1.02465998082,0.0,-0.481812761403,0.0,-2.73259938317,0.0,1011.10499914,2203.10023144,-1.34130416972,200.0,-0.0,0.0,0.00383600394174,100.0,0.00230154196664,100.0,-0.0,100.0,-0.0,100.0,2459820780.41,0.0,0.0,0.0,0.0,0.0,0.0
1402603218029800458,3,-7.0188197627,9.88567784727,-47.8959967865,10.0438151857,-1.05412703024,0.0,-0.494361821292,0.0,-2.73379784524,0.0,1011.10499914,2203.10023144,-1.34130416972,200.0,-0.0,0.0,0.00383600394174,100.0,0.00383600394174,100.0,-0.0,100.0,-0.0,100.0,2459820780.41,0.0,0.0,0.0,0.0,0.0,0.0
1402603218050292182,3,-7.0188197627,9.88567784727,-47.8959967865,10.0438151857,-1.05412703024,0.0,-0.494361821292,0.0,-2.73379784524,0.0,1011.10499914,2203.10023144,-1.34130416972,200.0,-0.0,0.0,0.00383600394174,100.0,0.00383600394174,100.0,-0.0,100.0,-0.0,100.0,2459820780.41,0.0,0.0,0.0,0.0,0.0,0.0
1402603218069733864,3,-7.06391799572,9.88567784727,-47.9178914083,10.0438151857,-1.09133883531,0.0,-0.506921795813,0.0,-2.73565351185,0.0,1011.10499914,2203.10023144,-1.34130416972,200.0,-0.0,0.0,0.00383600394174,100.0,0.00230154196664,100.0,-0.0,100.0,-0.0,100.0,2459820780.41,0.0,0.0,0.0,0.0,0.0,0.0
1402603218090237864,3,-7.06391799572,9.88567784727,-47.9178914083,10.0438151857,-1.09133883531,0.0,-0.506921795813,0.0,-2.73565351185,0.0,1011.10499914,2203.10023144,-1.34130416972,200.0,-0.0,0.0,0.00383600394174,100.0,0.00383600394174,100.0,-0.0,100.0,-0.0,100.0,2459820780.41,0.0,0.0,0.0,0.0,0.0,0.0
1402603218109729274,3,-7.11129285214,9.88567784727,-47.9399331656,10.0438151857,-1.13154159981,0.0,-0.524298686975,0.0,-2.73728106926,0.0,1011.10499914,2203.10023144,-1.34130416972,200.0,-0.0,0.0,0.00383600394174,100.0,0.00230154196664,100.0,-0.0,100.0,-0.0,100.0,2459820780.41,0.0,0.0,0.0,0.0,0.0,0.0
1402603218130146909,3,-7.11129285214,9.88567784727,-47.9399331656,10.0438151857,-1.13154159981,0.0,-0.524298686975,0.0,-2.73728106926,0.0,1011.10499914,2203.10023144,-1.34130416972,200.0,-0.0,0.0,0.00383600394174,100.0,0.00230154196664,100.0,-0.0,100.0,-0.0,100.0,2459820780.41,0.0,0.0,0.0,0.0,0.0,0.0
1402603218149524581,3,-7.15828961701,9.88567784727,-47.9616587809,10.0438151857,-1.16107029579,0.0,-0.536109518766,0.0,-2.73911485056,0.0,1011.10499914,2203.10023144,-1.34130416972,200.0,-0.0,0.0,0.00383600394174,100.0,0.00230154196664,100.0,-0.0,100.0,-0.0,100.0,2459820780.41,0.0,0.0,0.0,0.0,0.0,0.0
1402603218170347302,3,-7.15828961701,9.88567784727,-47.9616587809,10.0438151857,-1.16107029579,0.0,-0.536109518766,0.0,-2.73911485056,0.0,1011.10499914,2203.10023144,-1.34130416972,200.0,-0.0,0.0,0.00383600394174,100.0,0.00230154196664,100.0,-0.0,100.0,-0.0,100.0,2459820780.41,0.0,0.0,0.0,0.0,0.0,0.0
1402603218189637915,3,-7.2172968041,9.88567784727,-47.9880652897,10.0438151857,-1.1899488003,0.0,-0.546768089944,0.0,-2.74113585869,0.0,1011.10499914,2203.10023144,-1.34130416972,200.0,-0.0,0.0,0.00383600394174,100.0,0.00230154196664,100.0,-0.0,100.0,-0.0,100.0,2459820780.41,0.0,0.0,0.0,0.0,0.0,0.0
1402603218210248451,3,-7.2172968041,9.88567784727,-47.9880652897,10.0438151857,-1.1899488003,0.0,-0.546768089944,0.0,-2.74113585869,0.0,1011.10499914,2203.10023144,-1.34130416972,200.0,-0.0,0.0,0.00383600394174,100.0,0.00230154196664,100.0,-0.0,100.0,-0.0,100.0,2459820780.41,0.0,0.0,0.0,0.0,0.0,0.0
1402603218229647354,3,-7.28074597271,9.88567784727,-48.0199019402,10.0438151857,-1.23401412511,0.0,-0.567335549082,0.0,-2.74267358454,0.0,1011.10499914,2203.10023144,-1.34130416972,200.0,-0.0,0.0,0.00383600394174,100.0,0.00383600394174,100.0,-0.0,100.0,-0.0,100.0,2459820780.41,0.0,0.0,0.0,0.0,0.0,0.0
1402603218250113131,3,-7.28074597271,9.88567784727,-48.0199019402,10.0438151857,-1.23401412511,0.0,-0.567335549082,0.0,-2.74267358454,0.0,1011.10499914,2203.10023144,-1.34130416972,200.0,-0.0,0.0,0.00383600394174,100.0,0.00383600394174,100.0,-0.0,100.0,-0.0,100.0,2459820780.41,0.0,0.0,0.0,0.0,0.0,0.0
1402603218269583503,3,-7.30520877487,9.88567784727,-48.0312086737,10.0438151857,-1.24736041199,0.0,-0.572109417582,0.0,-2.74335277462,0.0,1011.10499914,2203.10023144,-1.34130416972,200.0,-0.0,0.0,0.00383600394174,100.0,0.00383600394174,100.0,-0.0,100.0,-0.0,100.0,2459820780.41,0.0,0.0,0.0,0.0,0.0,0.0
1402603218290169221,3,-7.30520877487,9.88567784727,-48.0312086737,10.0438151857,-1.24736041199,0.0,-0.572109417582,0.0,-2.74335277462,0.0,1011.10499914,2203.10023144,-1.34130416972,200.0,-0.0,0.0,0.00383600394174,100.0,0.00230154196664,100.0,-0.0,100.0,-0.0,100.0,2459820780.41,0.0,0.0,0.0,0.0,0.0,0.0
1402603218309575673,3,-7.35876639451,9.88567784727,-48.0473579835,10.0438151857,-1.28461307251,0.0,-0.562863638949,0.0,-2.74672393362,0.0,1011.10499914,2203.10023144,-1.34130416972,200.0,-0.0,0.0,0.00383600394174,100.0,0.00383600394174,100.0,-0.0,100.0,-0.0,100.0,2459820780.41,0.0,0.0,0.0,0.0,0.0,0.0
1402603218330215239,3,-7.35876639451,9.88567784727,-48.0473579835,10.0438151857,-1.28461307251,0.0,-0.562863638949,0.0,-2.74672393362,0.0,1011.10499914,2203.10023144,-1.34130416972,200.0,-0.0,0.0,0.00383600394174,100.0,0.00230154196664,100.0,-0.0,100.0,-0.0,100.0,2459820780.41,0.0,0.0,0.0,0.0,0.0,0.0
1402603218349607665,3,-7.40505823628,9.88567784727,-48.0691935257,10.0438151857,-1.29843242867,0.0,-0.571750042626,0.0,-2.74840427662,0.0,1011.10499914,2203.10023144,-1.34130416972,200.0,-0.0,0.0,0.00383600394174,100.0,0.00383600394174,100.0,-0.0,100.0,-0.0,100.0,2459820780.41,0.0,0.0,0.0,0.0,0.0,0.0
1402603218370163938,3,-7.40505823628,9.88567784727,-48.0691935257,10.0438151857,-1.29843242867,0.0,-0.571750042626,0.0,-2.74840427662,0.0,1011.10499914,2203.10023144,-1.34130416972,200.0,-0.0,0.0,0.00383600394174,100.0,0.00230154196664,100.0,-0.0,100.0,-0.0,100.0,2459820780.41,0.0,0.0,0.0,0.0,0.0,0.0
1402603218389485710,3,-7.45898339263,9.88567784727,-48.0928728173,10.0438151857,-1.3219940816,0.0,-0.580053852108,0.0,-2.74995161825,0.0,1011.10499914,2203.10023144,-1.34130416972,200.0,-0.0,0.0,0.00383600394174,100.0,0.00383600394174,100.0,-0.0,100.0,-0.0,100.0,2459820780.41,0.0,0.0,0.0,0.0,0.0,0.0
1402603218410131120,3,-7.45898339263,9.88567784727,-48.0928728173,10.0438151857,-1.3219940816,0.0,-0.580053852108,0.0,-2.74995161825,0.0,1011.10499914,2203.10023144,-1.34130416972,200.0,-0.0,0.0,0.00383600394174,100.0,0.00230154196664,100.0,-0.0,100.0,-0.0,100.0,2459820780.41,0.0,0.0,0.0,0.0,0.0,0.0
1402603218429550961,3,-7.51525158238,9.88567784727,-48.1199028411,10.0438151857,-1.34568310665,0.0,-0.596178663677,0.0,-2.75149551352,0.0,1011.10499914,2203.10023144,-1.34130416972,200.0,-0.0,0.0,0.00383600394174,100.0,0.00230154196664,100.0,-0.0,100.0,-0.0,100.0,2459820780.41,0.0,0.0,0.0,0.0,0.0,0.0
1402603218450159595,3,-7.51525158238,9.88567784727,-48.1199028411,10.0438151857,-1.34568310665,0.0,-0.596178663677,0.0,-2.75149551352,0.0,1011.10499914,2203.10023144,-1.34130416972,200.0,-0.0,0.0,0.00383600394174,100.0,0.00383600394174,100.0,-0.0,100.0,-0.0,100.0,2459820780.41,0.0,0.0,0.0,0.0,0.0,0.0
