rosbagTimestamp,transforms,-,header,seq,stamp,secs,nsecs,frame_id,child_frame_id,transform,translation,x,y,z,rotation,x,y,z,w
1402415969853064853,,errorv,,0,,1402415969,952876690,/base_link,/gps,,,-0.84,0.0,-0.14,,0.0,0.0,0.0,1.0
1402415969853097926,,errorv,,0,,1402415969,952891022,base_link,imu,,,0.13,0.0,-0.1,,1.0,0.0,0.0,0.0
1402415969857864392,,errorv,,0,,1402415969,857520399,base_link,/z_drive,,,0.0,0.0,0.0,,0.0,0.0,0.0,1.0
1402415969857897250,,errorv,,0,,1402415969,857545052,/z_drive,port,,,-0.3,0.3048,0.0,,0.0,0.0,0.0,1.0
1402415969857920154,,errorv,,0,,1402415969,857552812,/z_drive,starboard,,,-0.3,-0.3048,0.0,,0.0,0.0,0.0,1.0
1402415969867348198,,errorv,,0,,1402415969,792176961,/enu,/base_link,,,5.09129272058,17.5836322859,-25.3973222314,,-0.0203528327845,-0.00843717656177,0.999477128246,-0.0236652986907
1402415969867372981,,errorv,,0,,1402415969,802175998,/enu,/base_link,,,5.09198933169,17.5852000241,-25.398292249,,-0.020198825237,-0.00840168727721,0.999504869768,-0.0226149158709
1402415969867518474,,errorv,,0,,1402415969,812145948,/enu,/base_link,,,5.0928093336,17.5866350479,-25.3988747741,,-0.0200715585329,-0.00829126693441,0.999531970536,-0.0215459348053
1402415969867533881,,errorv,,0,,1402415969,822164058,/enu,/base_link,,,5.09360983271,17.587945243,-25.3994507296,,-0.0199401096183,-0.00818823975515,0.999558010938,-0.0204726043086
1402415969877733997,,errorv,,0,,1402415969,877511243,base_link,/z_drive,,,0.0,0.0,0.0,,0.0,0.0,0.0,1.0
1402415969877762233,,errorv,,0,,1402415969,877541556,/z_drive,port,,,-0.3,0.3048,0.0,,0.0,0.0,0.0,1.0
1402415969877785584,,errorv,,0,,1402415969,877550638,/z_drive,starboard,,,-0.3,-0.3048,0.0,,0.0,0.0,0.0,1.0
1402415969897703223,,errorv,,0,,1402415969,897492046,base_link,/z_drive,,,0.0,0.0,0.0,,0.0,0.0,0.0,1.0
1402415969897732197,,errorv,,0,,1402415969,897517851,/z_drive,port,,,-0.3,0.3048,0.0,,0.0,0.0,0.0,1.0
1402415969897754809,,errorv,,0,,1402415969,897526008,/z_drive,starboard,,,-0.3,-0.3048,0.0,,0.0,0.0,0.0,1.0
1402415969907121093,,errorv,,0,,1402415969,832149982,/enu,/base_link,,,5.08901154064,17.5920324494,-25.3989621254,,-0.0203873493598,-0.00774946835111,0.999578674716,-0.0191513649634
1402415969907147230,,errorv,,0,,1402415969,842152118,/enu,/base_link,,,5.089808364,17.5936235952,-25.3997747328,,-0.0202517129991,-0.0076672240695,0.999601937242,-0.0180844922
1402415969907168129,,errorv,,0,,1402415969,852149009,/enu,/base_link,,,5.09042382514,17.5950224092,-25.4004491201,,-0.0200945645699,-0.00758632198684,0.999624467799,-0.0170170376483
1402415969907438120,,errorv,,0,,1402415969,862149000,/enu,/base_link,,,5.09125256428,17.5966561911,-25.4012898057,,-0.0200202093189,-0.00740050076142,0.99964522883,-0.0159323659526
1402415969917833440,,errorv,,0,,1402415969,917520710,base_link,/z_drive,,,0.0,0.0,0.0,,0.0,0.0,0.0,1.0
1402415969917863427,,errorv,,0,,1402415969,917547521,/z_drive,port,,,-0.3,0.3048,0.0,,0.0,0.0,0.0,1.0
1402415969917883676,,errorv,,0,,1402415969,917555044,/z_drive,starboard,,,-0.3,-0.3048,0.0,,0.0,0.0,0.0,1.0
1402415969937743857,,errorv,,0,,1402415969,937504369,base_link,/z_drive,,,0.0,0.0,0.0,,0.0,0.0,0.0,1.0
1402415969937768583,,errorv,,0,,1402415969,937600331,/z_drive,port,,,-0.3,0.3048,0.0,,0.0,0.0,0.0,1.0
1402415969937786499,,errorv,,0,,1402415969,937610775,/z_drive,starboard,,,-0.3,-0.3048,0.0,,0.0,0.0,0.0,1.0
1402415969947103909,,errorv,,0,,1402415969,872137069,/enu,/base_link,,,5.09179103272,17.598013793,-25.4019357911,,-0.0199161110557,-0.00732077402794,0.999664505442,-0.0148536644338
1402415969947415510,,errorv,,0,,1402415969,882127046,/enu,/base_link,,,5.09243215949,17.5995110757,-25.4026959975,,-0.0197890354391,-0.00722681442161,0.999683067834,-0.0137815498576
1402415969947511291,,errorv,,0,,1402415969,892139911,/enu,/base_link,,,5.09419984505,17.5960415164,-25.387865086,,-0.0198770324816,-0.00747969214332,0.999693668219,-0.0127093472926
1402415969947585031,,errorv,,0,,1402415969,902138948,/enu,/base_link,,,5.09474006072,17.5973994462,-25.3885286792,,-0.0197808697618,-0.00742622152933,0.999709174773,-0.0116247279569
1402415969953185156,,errorv,,0,,1402415970,52990743,base_link,imu,,,0.13,0.0,-0.1,,1.0,0.0,0.0,0.0
1402415969953213852,,errorv,,0,,1402415970,52990757,/base_link,/gps,,,-0.84,0.0,-0.14,,0.0,0.0,0.0,1.0
1402415969957792577,,errorv,,0,,1402415969,957621810,base_link,/z_drive,,,0.0,0.0,0.0,,0.0,0.0,0.0,1.0
1402415969957823658,,errorv,,0,,1402415969,957640156,/z_drive,port,,,-0.3,0.3048,0.0,,0.0,0.0,0.0,1.0
1402415969957847321,,errorv,,0,,1402415969,957646052,/z_drive,starboard,,,-0.3,-0.3048,0.0,,0.0,0.0,0.0,1.0
1402415969977729679,,errorv,,0,,1402415969,977489865,base_link,/z_drive,,,0.0,0.0,0.0,,0.0,0.0,0.0,1.0
1402415969977816238,,errorv,,0,,1402415969,977519731,/z_drive,port,,,-0.3,0.3048,0.0,,0.0,0.0,0.0,1.0
1402415969977834424,,errorv,,0,,1402415969,977668354,/z_drive,starboard,,,-0.3,-0.3048,0.0,,0.0,0.0,0.0,1.0
1402415969987155993,,errorv,,0,,1402415969,912113904,/enu,/base_link,,,5.09545506215,17.5986668316,-25.3891312141,,-0.0196731352099,-0.00734198328484,0.999723975194,-0.0105373836473
1402415969987183417,,errorv,,0,,1402415969,922108888,/enu,/base_link,,,5.09600917117,17.6000183236,-25.3897139895,,-0.0195589946608,-0.00720843893165,0.999738115384,-0.00944376963678
1402415969987205766,,errorv,,0,,1402415969,932096958,/enu,/base_link,,,5.09348150191,17.5978874075,-25.3813435963,,-0.0199909923476,-0.00736806381933,0.999738832212,-0.00826675438893
1402415969987292659,,errorv,,0,,1402415969,942101001,/enu,/base_link,,,5.09373612506,17.5990347734,-25.3817742059,,-0.0199142367154,-0.00714177808197,0.999750405114,-0.00717953029622
1402415969997789146,,errorv,,0,,1402415969,997544144,base_link,/z_drive,,,0.0,0.0,0.0,,0.0,0.0,0.0,1.0
1402415969997818683,,errorv,,0,,1402415969,997563001,/z_drive,port,,,-0.3,0.3048,0.0,,0.0,0.0,0.0,1.0
1402415969997843549,,errorv,,0,,1402415969,997572782,/z_drive,starboard,,,-0.3,-0.3048,0.0,,0.0,0.0,0.0,1.0
1402415970017790716,,errorv,,0,,1402415970,17494479,base_link,/z_drive,,,0.0,0.0,0.0,,0.0,0.0,0.0,1.0
1402415970017874174,,errorv,,0,,1402415970,17523625,/z_drive,port,,,-0.3,0.3048,0.0,,0.0,0.0,0.0,1.0
1402415970017896335,,errorv,,0,,1402415970,17533580,/z_drive,starboard,,,-0.3,-0.3048,0.0,,0.0,0.0,0.0,1.0
1402415970027177816,,errorv,,0,,1402415969,952097892,/enu,/base_link,,,5.09433293343,17.6002630772,-25.3824340838,,-0.0197771400439,-0.00700283938738,0.999761434484,-0.00607446215445
1402415970027272437,,errorv,,0,,1402415969,962116003,/enu,/base_link,,,5.09475524349,17.601499959,-25.3831334547,,-0.0196832696337,-0.00689149855011,0.999770183025,-0.00496560952148
1402415970027338096,,errorv,,0,,1402415969,971086025,/enu,/base_link,,,5.09520359906,17.6025399626,-25.3836713122,,-0.0196567373135,-0.00676872683931,0.99977594743,-0.00398145146368
1402415970027607469,,errorv,,0,,1402415969,981071949,/enu,/base_link,,,5.09571184579,17.6037453864,-25.3843779133,,-0.0195668627175,-0.00670944805437,0.999781860695,-0.00289001982255
1402415970037685043,,errorv,,0,,1402415970,37504849,base_link,/z_drive,,,0.0,0.0,0.0,,0.0,0.0,0.0,1.0
1402415970037829539,,errorv,,0,,1402415970,37520592,/z_drive,port,,,-0.3,0.3048,0.0,,0.0,0.0,0.0,1.0
1402415970037849871,,errorv,,0,,1402415970,37526777,/z_drive,starboard,,,-0.3,-0.3048,0.0,,0.0,0.0,0.0,1.0
1402415970053285694,,errorv,,0,,1402415970,153094896,base_link,imu,,,0.13,0.0,-0.1,,1.0,0.0,0.0,0.0
1402415970053314377,,errorv,,0,,1402415970,153094717,/base_link,/gps,,,-0.84,0.0,-0.14,,0.0,0.0,0.0,1.0
1402415970057683346,,errorv,,0,,1402415970,57520988,base_link,/z_drive,,,0.0,0.0,0.0,,0.0,0.0,0.0,1.0
1402415970057711955,,errorv,,0,,1402415970,57533933,/z_drive,port,,,-0.3,0.3048,0.0,,0.0,0.0,0.0,1.0
1402415970057731737,,errorv,,0,,1402415970,57538069,/z_drive,starboard,,,-0.3,-0.3048,0.0,,0.0,0.0,0.0,1.0
1402415970067106927,,errorv,,0,,1402415969,991070985,/enu,/base_link,,,5.09641850274,17.5841434908,-25.4012531813,,-0.0193845725985,-0.00893144274354,0.999769808903,-0.00219017835703
1402415970067126876,,errorv,,0,,1402415970,1080036,/enu,/base_link,,,5.09671023608,17.5848954578,-25.4020126427,,-0.0193658813407,-0.00871983539383,0.999773832035,-0.00110085857003
1402415970067319240,,errorv,,0,,1402415970,11069059,/enu,/base_link,,,5.0972757134,17.5856672223,-25.4028506049,,-0.01930752916,-0.00856071930353,0.999776941444,-2.75711695259e-05
1402415970067408226,,errorv,,0,,1402415970,21076917,/enu,/base_link,,,5.09781847736,17.5861645361,-25.4032314477,,-0.0192447364884,-0.00835297918487,0.999779371551,0.00103734194612
1402415970077812443,,errorv,,0,,1402415970,77524869,base_link,/z_drive,,,0.0,0.0,0.0,,0.0,0.0,0.0,1.0
1402415970077846223,,errorv,,0,,1402415970,77551724,/z_drive,port,,,-0.3,0.3048,0.0,,0.0,0.0,0.0,1.0
1402415970077980152,,errorv,,0,,1402415970,77561252,/z_drive,starboard,,,-0.3,-0.3048,0.0,,0.0,0.0,0.0,1.0
1402415970097742264,,errorv,,0,,1402415970,97493935,base_link,/z_drive,,,0.0,0.0,0.0,,0.0,0.0,0.0,1.0
1402415970097835061,,errorv,,0,,1402415970,97515554,/z_drive,port,,,-0.3,0.3048,0.0,,0.0,0.0,0.0,1.0
1402415970097913748,,errorv,,0,,1402415970,97584269,/z_drive,starboard,,,-0.3,-0.3048,0.0,,0.0,0.0,0.0,1.0
1402415970107200404,,errorv,,0,,1402415970,31069040,/enu,/base_link,,,5.0982012198,17.5868624056,-25.4040139092,,-0.0191853146281,-0.00822030576201,0.999779915927,0.00211423385367
1402415970107222135,,errorv,,0,,1402415970,41049003,/enu,/base_link,,,5.05641337326,17.5615373024,-25.4917623044,,-0.0225004673151,-0.0118022543113,0.999671946327,0.00323040090516
1402415970107353674,,errorv,,0,,1402415970,51068067,/enu,/base_link,,,5.05608005358,17.5612735035,-25.4924450576,,-0.0224723556367,-0.0116773174758,0.99966985983,0.00433645423415
1402415970107472215,,errorv,,0,,1402415970,60065984,/enu,/base_link,,,5.05600030366,17.5611651406,-25.4932363142,,-0.0224493250257,-0.0115233765714,0.999667366111,0.00532885834143
1402415970117621161,,errorv,,0,,1402415970,117482749,base_link,/z_drive,,,0.0,0.0,0.0,,0.0,0.0,0.0,1.0
1402415970117842132,,errorv,,0,,1402415970,117500997,/z_drive,port,,,-0.3,0.3048,0.0,,0.0,0.0,0.0,1.0
1402415970117866529,,errorv,,0,,1402415970,117543911,/z_drive,starboard,,,-0.3,-0.3048,0.0,,0.0,0.0,0.0,1.0
1402415970137819236,,errorv,,0,,1402415970,137479664,base_link,/z_drive,,,0.0,0.0,0.0,,0.0,0.0,0.0,1.0
1402415970137853693,,errorv,,0,,1402415970,137599583,/z_drive,port,,,-0.3,0.3048,0.0,,0.0,0.0,0.0,1.0
1402415970137878225,,errorv,,0,,1402415970,137612221,/z_drive,starboard,,,-0.3,-0.3048,0.0,,0.0,0.0,0.0,1.0
1402415970147304607,,errorv,,0,,1402415970,70040941,/enu,/base_link,,,5.05559522728,17.5613289895,-25.4945723639,,-0.0224740404383,-0.0112648057908,0.999663265589,0.00643250245759
1402415970150892815,,errorv,,0,,1402415970,80065011,/enu,/base_link,,,5.0554073372,17.5611383681,-25.4955286767,,-0.022445991468,-0.0110939751899,0.999658234177,0.007517713951
1402415970150918826,,errorv,,0,,1402415970,90043067,/enu,/base_link,,,5.07236043974,17.5877837719,-25.4870647386,,-0.0207739981062,-0.00776796961474,0.99971500541,0.00883219163284
1402415970150939010,,errorv,,0,,1402415970,100029945,/enu,/base_link,,,5.07231643748,17.588186204,-25.4880268347,,-0.0208153013089,-0.00764610542854,0.999704674825,0.00994099779783
1402415970153432040,,errorv,,0,,1402415970,253205922,base_link,imu,,,0.13,0.0,-0.1,,1.0,0.0,0.0,0.0
1402415970153459331,,errorv,,0,,1402415970,253197895,/base_link,/gps,,,-0.84,0.0,-0.14,,0.0,0.0,0.0,1.0
1402415970157697209,,errorv,,0,,1402415970,157547099,base_link,/z_drive,,,0.0,0.0,0.0,,0.0,0.0,0.0,1.0
1402415970157833790,,errorv,,0,,1402415970,157567085,/z_drive,port,,,-0.3,0.3048,0.0,,0.0,0.0,0.0,1.0
1402415970157862044,,errorv,,0,,1402415970,157606839,/z_drive,starboard,,,-0.3,-0.3048,0.0,,0.0,0.0,0.0,1.0
1402415970177748752,,errorv,,0,,1402415970,177480739,base_link,/z_drive,,,0.0,0.0,0.0,,0.0,0.0,0.0,1.0
1402415970177779648,,errorv,,0,,1402415970,177504969,/z_drive,port,,,-0.3,0.3048,0.0,,0.0,0.0,0.0,1.0
1402415970177802788,,errorv,,0,,1402415970,177514898,/z_drive,starboard,,,-0.3,-0.3048,0.0,,0.0,0.0,0.0,1.0
1402415970187430060,,errorv,,0,,1402415970,110014915,/enu,/base_link,,,5.07228566362,17.5885062444,-25.4889088597,,-0.020804768899,-0.00768951259339,0.999692992624,0.0110432552195
1402415970187446729,,errorv,,0,,1402415970,119029045,/enu,/base_link,,,5.07217587404,17.5889983407,-25.4900690938,,-0.0207886095952,-0.00763174272546,0.999682254448,0.012040778903
1402415970187471401,,errorv,,0,,1402415970,129012107,/enu,/base_link,,,5.07212078406,17.5891765321,-25.4905805554,,-0.0208666370421,-0.00744027642047,0.999667789495,0.0131733212273
1402415970187481449,,errorv,,0,,1402415970,138991117,/enu,/base_link,,,5.08576740389,17.60294733,-25.4530488938,,-0.0201365685341,-0.00556843935304,0.999677822857,0.0144139369826
1402415970197687890,,errorv,,0,,1402415970,197511348,base_link,/z_drive,,,0.0,0.0,0.0,,0.0,0.0,0.0,1.0
1402415970197718282,,errorv,,0,,1402415970,197533970,/z_drive,port,,,-0.3,0.3048,0.0,,0.0,0.0,0.0,1.0
1402415970197745175,,errorv,,0,,1402415970,197544123,/z_drive,starboard,,,-0.3,-0.3048,0.0,,0.0,0.0,0.0,1.0
1402415970217625273,,errorv,,0,,1402415970,217465654,base_link,/z_drive,,,0.0,0.0,0.0,,0.0,0.0,0.0,1.0
1402415970217855836,,errorv,,0,,1402415970,217483165,/z_drive,port,,,-0.3,0.3048,0.0,,0.0,0.0,0.0,1.0
1402415970217897167,,errorv,,0,,1402415970,217550797,/z_drive,starboard,,,-0.3,-0.3048,0.0,,0.0,0.0,0.0,1.0
1402415970227253041,,errorv,,0,,1402415970,149012088,/enu,/base_link,,,5.08589313672,17.6034941218,-25.4536986406,,-0.0201804469669,-0.00543305537505,0.999660500871,0.0155600279012
1402415970227336299,,errorv,,0,,1402415970,159008979,/enu,/base_link,,,5.0858808807,17.6041933156,-25.4547327433,,-0.0202272828537,-0.00542312339603,0.999641367327,0.0166908205457
1402415970227415509,,errorv,,0,,1402415970,169011116,/enu,/base_link,,,5.08594404572,17.6046971164,-25.4554188001,,-0.0202884766468,-0.00542635984931,0.999619881042,0.0178612922446
1402415970227490945,,errorv,,0,,1402415970,178994894,/enu,/base_link,,,5.08604242409,17.6053113622,-25.4564362619,,-0.0203775957737,-0.00545251950361,0.999596637635,0.0190154056021
1402415970237628242,,errorv,,0,,1402415970,237470800,base_link,/z_drive,,,0.0,0.0,0.0,,0.0,0.0,0.0,1.0
1402415970237787796,,errorv,,0,,1402415970,237490475,/z_drive,port,,,-0.3,0.3048,0.0,,0.0,0.0,0.0,1.0
1402415970237812914,,errorv,,0,,1402415970,237580393,/z_drive,starboard,,,-0.3,-0.3048,0.0,,0.0,0.0,0.0,1.0
1402415970253537718,,errorv,,0,,1402415970,353308006,/base_link,/gps,,,-0.84,0.0,-0.14,,0.0,0.0,0.0,1.0
1402415970253567301,,errorv,,0,,1402415970,353316447,base_link,imu,,,0.13,0.0,-0.1,,1.0,0.0,0.0,0.0
1402415970257676184,,errorv,,0,,1402415970,257473727,base_link,/z_drive,,,0.0,0.0,0.0,,0.0,0.0,0.0,1.0
1402415970257717784,,errorv,,0,,1402415970,257491950,/z_drive,port,,,-0.3,0.3048,0.0,,0.0,0.0,0.0,1.0
1402415970257836109,,errorv,,0,,1402415970,257501846,/z_drive,starboard,,,-0.3,-0.3048,0.0,,0.0,0.0,0.0,1.0
1402415970267295809,,errorv,,0,,1402415970,188987016,/enu,/base_link,,,5.09274172363,17.6088653406,-25.4477963954,,-0.0200584942946,-0.00504997079655,0.999582688862,0.0201643925775
1402415970267320693,,errorv,,0,,1402415970,198991060,/enu,/base_link,,,5.09293122906,17.6094143357,-25.4483648623,,-0.0201808769184,-0.00496971316451,0.999556434548,0.0213299861896
1402415970267343219,,errorv,,0,,1402415970,208981990,/enu,/base_link,,,5.09294668836,17.6102125014,-25.4494876426,,-0.0202704136261,-0.00491237333829,0.99952927279,0.0224991500905
1402415970267358201,,errorv,,0,,1402415970,218955039,/enu,/base_link,,,5.09317474634,17.61078536,-25.450425717,,-0.0203434323441,-0.00493765175984,0.99950072084,0.0236658698712
1402415970277795972,,errorv,,0,,1402415970,277527445,base_link,/z_drive,,,0.0,0.0,0.0,,0.0,0.0,0.0,1.0
1402415970277827699,,errorv,,0,,1402415970,277542476,/z_drive,port,,,-0.3,0.3048,0.0,,0.0,0.0,0.0,1.0
1402415970277860791,,errorv,,0,,1402415970,277546634,/z_drive,starboard,,,-0.3,-0.3048,0.0,,0.0,0.0,0.0,1.0
1402415970297782950,,errorv,,0,,1402415970,297625937,base_link,/z_drive,,,0.0,0.0,0.0,,0.0,0.0,0.0,1.0
1402415970297816398,,errorv,,0,,1402415970,297643883,/z_drive,port,,,-0.3,0.3048,0.0,,0.0,0.0,0.0,1.0
1402415970297841345,,errorv,,0,,1402415970,297652489,/z_drive,starboard,,,-0.3,-0.3048,0.0,,0.0,0.0,0.0,1.0
1402415970307087703,,errorv,,0,,1402415970,228971004,/enu,/base_link,,,5.09338870733,17.611458467,-25.4514243223,,-0.0204698936668,-0.00487638331388,0.999469420758,0.0248612410883
1402415970307104657,,errorv,,0,,1402415970,238955020,/enu,/base_link,,,5.09339386747,17.6119668229,-25.4521069037,,-0.0206028783495,-0.00488842351812,0.999437184639,0.026018045273
1402415970307129110,,errorv,,0,,1402415970,249988079,/enu,/base_link,,,5.09347048002,17.6126430764,-25.4531725232,,-0.0207139846946,-0.00499617233229,0.999400636977,0.027282520225
1402415970307145862,,errorv,,0,,1402415970,259963035,/enu,/base_link,,,5.09349908417,17.6131703297,-25.4539937835,,-0.0207955304487,-0.00505367080654,0.999366389218,0.0284398738802
1402415970317793244,,errorv,,0,,1402415970,317547624,base_link,/z_drive,,,0.0,0.0,0.0,,0.0,0.0,0.0,1.0
1402415970317824001,,errorv,,0,,1402415970,317563813,/z_drive,port,,,-0.3,0.3048,0.0,,0.0,0.0,0.0,1.0
1402415970317913853,,errorv,,0,,1402415970,317571551,/z_drive,starboard,,,-0.3,-0.3048,0.0,,0.0,0.0,0.0,1.0
1402415970337785411,,errorv,,0,,1402415970,337476612,base_link,/z_drive,,,0.0,0.0,0.0,,0.0,0.0,0.0,1.0
1402415970337821164,,errorv,,0,,1402415970,337494170,/z_drive,port,,,-0.3,0.3048,0.0,,0.0,0.0,0.0,1.0
1402415970337930574,,errorv,,0,,1402415970,337501875,/z_drive,starboard,,,-0.3,-0.3048,0.0,,0.0,0.0,0.0,1.0
1402415970347068158,,errorv,,0,,1402415970,269973993,/enu,/base_link,,,5.095557513,17.6172391998,-25.4513204376,,-0.0208505737017,-0.00460616160368,0.999331115171,0.0296876927709
1402415970347352199,,errorv,,0,,1402415970,279961109,/enu,/base_link,,,5.09580738442,17.6179152747,-25.4522944084,,-0.0209995966954,-0.00453909535658,0.999292562615,0.0308672618693
1402415970347382768,,errorv,,0,,1402415970,289971113,/enu,/base_link,,,5.09570871572,17.6183620854,-25.4528985117,,-0.0211075154215,-0.00464656396655,0.999253827827,0.0320104640593
1402415970347460823,,errorv,,0,,1402415970,299957036,/enu,/base_link,,,5.09586089878,17.6191679825,-25.4541558743,,-0.0212310882612,-0.00473318759645,0.999213848044,0.0331439844205
1402415970353606515,,errorv,,0,,1402415970,453413368,/base_link,/gps,,,-0.84,0.0,-0.14,,0.0,0.0,0.0,1.0
1402415970353637715,,errorv,,0,,1402415970,453427387,base_link,imu,,,0.13,0.0,-0.1,,1.0,0.0,0.0,0.0
1402415970357709793,,errorv,,0,,1402415970,357524403,base_link,/z_drive,,,0.0,0.0,0.0,,0.0,0.0,0.0,1.0
1402415970357816739,,errorv,,0,,1402415970,357563448,/z_drive,port,,,-0.3,0.3048,0.0,,0.0,0.0,0.0,1.0
1402415970357843984,,errorv,,0,,1402415970,357602198,/z_drive,starboard,,,-0.3,-0.3048,0.0,,0.0,0.0,0.0,1.0
1402415970377637566,,errorv,,0,,1402415970,377449446,base_link,/z_drive,,,0.0,0.0,0.0,,0.0,0.0,0.0,1.0
1402415970377669126,,errorv,,0,,1402415970,377466569,/z_drive,port,,,-0.3,0.3048,0.0,,0.0,0.0,0.0,1.0
1402415970377740538,,errorv,,0,,1402415970,377476224,/z_drive,starboard,,,-0.3,-0.3048,0.0,,0.0,0.0,0.0,1.0
1402415970388153488,,errorv,,0,,1402415970,309926033,/enu,/base_link,,,5.09579263864,17.6197034751,-25.4550870487,,-0.0213730824107,-0.00474351466231,0.999170932525,0.0343240151286
1402415970388181781,,errorv,,0,,1402415970,319917917,/enu,/base_link,,,5.09547858531,17.6329893305,-25.436510835,,-0.0219099455684,-0.00334201588498,0.999113246949,0.0357981142724
1402415970388206529,,errorv,,0,,1402415970,329926013,/enu,/base_link,,,5.09539838823,17.6338305093,-25.4373890465,,-0.0220303768196,-0.00341391294521,0.999067370297,0.0369783356092
1402415970388226571,,errorv,,0,,1402415970,339919090,/enu,/base_link,,,5.09542438646,17.6345666764,-25.4382460853,,-0.0221459716925,-0.00344788911174,0.999021099621,0.0381380454381
1402415970397811416,,errorv,,0,,1402415970,397529629,base_link,/z_drive,,,0.0,0.0,0.0,,0.0,0.0,0.0,1.0
1402415970397835066,,errorv,,0,,1402415970,397564198,/z_drive,port,,,-0.3,0.3048,0.0,,0.0,0.0,0.0,1.0
1402415970397864655,,errorv,,0,,1402415970,397641365,/z_drive,starboard,,,-0.3,-0.3048,0.0,,0.0,0.0,0.0,1.0
1402415970417708523,,errorv,,0,,1402415970,417501796,base_link,/z_drive,,,0.0,0.0,0.0,,0.0,0.0,0.0,1.0
1402415970417739601,,errorv,,0,,1402415970,417520716,/z_drive,port,,,-0.3,0.3048,0.0,,0.0,0.0,0.0,1.0
1402415970417759202,,errorv,,0,,1402415970,417530378,/z_drive,starboard,,,-0.3,-0.3048,0.0,,0.0,0.0,0.0,1.0
1402415970427253841,,errorv,,0,,1402415970,349927902,/enu,/base_link,,,5.09549502482,17.6350819054,-25.4386675076,,-0.0222723325281,-0.00355855253079,0.998972592451,0.039306989705
1402415970427371727,,errorv,,0,,1402415970,359919071,/enu,/base_link,,,5.10011877893,17.6372693313,-25.4366704474,,-0.0220702341893,-0.00338785269261,0.998929655797,0.0405088877532
1402415970427400072,,errorv,,0,,1402415970,370925903,/enu,/base_link,,,5.10024040533,17.6379596814,-25.4373860336,,-0.0221806574965,-0.00345623678402,0.998873723113,0.0418014130694
1402415970427424888,,errorv,,0,,1402415970,380916118,/enu,/base_link,,,5.10015965368,17.6386004114,-25.4379711763,,-0.0223160700703,-0.00342610982496,0.998820267302,0.0429921901581
1402415970437810931,,errorv,,0,,1402415970,437618019,base_link,/z_drive,,,0.0,0.0,0.0,,0.0,0.0,0.0,1.0
1402415970437839853,,errorv,,0,,1402415970,437635815,/z_drive,port,,,-0.3,0.3048,0.0,,0.0,0.0,0.0,1.0
1402415970437859807,,errorv,,0,,1402415970,437640114,/z_drive,starboard,,,-0.3,-0.3048,0.0,,0.0,0.0,0.0,1.0
1402415970453745516,,errorv,,0,,1402415970,553536893,base_link,imu,,,0.13,0.0,-0.1,,1.0,0.0,0.0,0.0
1402415970453776102,,errorv,,0,,1402415970,553517040,/base_link,/gps,,,-0.84,0.0,-0.14,,0.0,0.0,0.0,1.0
1402415970457718000,,errorv,,0,,1402415970,457489844,base_link,/z_drive,,,0.0,0.0,0.0,,0.0,0.0,0.0,1.0
1402415970457747168,,errorv,,0,,1402415970,457507749,/z_drive,port,,,-0.3,0.3048,0.0,,0.0,0.0,0.0,1.0
1402415970457767504,,errorv,,0,,1402415970,457517052,/z_drive,starboard,,,-0.3,-0.3048,0.0,,0.0,0.0,0.0,1.0
1402415970467190326,,errorv,,0,,1402415970,390899896,/enu,/base_link,,,5.10795546388,17.6507814647,-25.4291196613,,-0.0218938849938,-0.00202123018963,0.998775668368,0.0443140689219
1402415970467219102,,errorv,,0,,1402415970,400891065,/enu,/base_link,,,5.10806997857,17.6519324627,-25.4301145698,,-0.0219664254803,-0.00212882235542,0.998721110173,0.0454872329623
1402415970467242656,,errorv,,0,,1402415970,410897016,/enu,/base_link,,,5.10803900737,17.6529028681,-25.4307957787,,-0.0221009954201,-0.00212903564503,0.998662958166,0.0466830718346
1402415970467300079,,errorv,,0,,1402415970,420888900,/enu,/base_link,,,5.10820445978,17.6539248747,-25.4316597335,,-0.0222014206374,-0.00214801338336,0.998604183184,0.0478765943549
1402415970477749649,,errorv,,0,,1402415970,477535570,base_link,/z_drive,,,0.0,0.0,0.0,,0.0,0.0,0.0,1.0
1402415970477778541,,errorv,,0,,1402415970,477552944,/z_drive,port,,,-0.3,0.3048,0.0,,0.0,0.0,0.0,1.0
1402415970477801571,,errorv,,0,,1402415970,477563734,/z_drive,starboard,,,-0.3,-0.3048,0.0,,0.0,0.0,0.0,1.0
1402415970497774343,,errorv,,0,,1402415970,497564559,base_link,/z_drive,,,0.0,0.0,0.0,,0.0,0.0,0.0,1.0
1402415970497807116,,errorv,,0,,1402415970,497580992,/z_drive,port,,,-0.3,0.3048,0.0,,0.0,0.0,0.0,1.0
1402415970497831107,,errorv,,0,,1402415970,497589365,/z_drive,starboard,,,-0.3,-0.3048,0.0,,0.0,0.0,0.0,1.0
1402415970507147010,,errorv,,0,,1402415970,430875062,/enu,/base_link,,,5.10810792446,17.6549824134,-25.4326688149,,-0.022321455804,-0.00222027366452,0.998544350352,0.0490510282922
1402415970507209641,,errorv,,0,,1402415970,440888881,/enu,/base_link,,,5.11483390321,17.6592084058,-25.4516964382,,-0.0215567911132,-0.00181011434993,0.998498237615,0.0503318758202
1402415970507232248,,errorv,,0,,1402415970,450875043,/enu,/base_link,,,5.11509084115,17.6603420056,-25.4526751925,,-0.0216577190945,-0.0018124108276,0.998432835813,0.051570638364
1402415970507382227,,errorv,,0,,1402415970,460871934,/enu,/base_link,,,5.11540979746,17.6613672522,-25.4534210461,,-0.0218085774273,-0.0018248599118,0.99836736975,0.0527603151501
1402415970517766118,,errorv,,0,,1402415970,517610653,base_link,/z_drive,,,0.0,0.0,0.0,,0.0,0.0,0.0,1.0
1402415970517791016,,errorv,,0,,1402415970,517627955,/z_drive,port,,,-0.3,0.3048,0.0,,0.0,0.0,0.0,1.0
1402415970517855254,,errorv,,0,,1402415970,517635772,/z_drive,starboard,,,-0.3,-0.3048,0.0,,0.0,0.0,0.0,1.0
1402415970537625240,,errorv,,0,,1402415970,537476367,base_link,/z_drive,,,0.0,0.0,0.0,,0.0,0.0,0.0,1.0
1402415970537721521,,errorv,,0,,1402415970,537495248,/z_drive,port,,,-0.3,0.3048,0.0,,0.0,0.0,0.0,1.0
1402415970537827819,,errorv,,0,,1402415970,537501594,/z_drive,starboard,,,-0.3,-0.3048,0.0,,0.0,0.0,0.0,1.0
1402415970547237338,,errorv,,0,,1402415970,470854997,/enu,/base_link,,,5.11552657605,17.6623610118,-25.4541604063,,-0.0219035291514,-0.00194444969467,0.998300673171,0.0539649930313
1402415970547266696,,errorv,,0,,1402415970,480858087,/enu,/base_link,,,5.11567772607,17.6633824963,-25.4548954032,,-0.0219896589626,-0.0019899048149,0.998233023495,0.0551663482633
1402415970547292079,,errorv,,0,,1402415970,490848064,/enu,/base_link,,,5.11589658301,17.6646473936,-25.4561506246,,-0.0221169779549,-0.00191625904185,0.998160942421,0.0564083350521
1402415970547312085,,errorv,,0,,1402415970,500857114,/enu,/base_link,,,5.11596729127,17.6654463102,-25.4564498777,,-0.0222310641613,-0.00193617317763,0.998088863926,0.0576250876448
1402415970553814547,,errorv,,0,,1402415970,653647446,base_link,imu,,,0.13,0.0,-0.1,,1.0,0.0,0.0,0.0
1402415970553841074,,errorv,,0,,1402415970,653621887,/base_link,/gps,,,-0.84,0.0,-0.14,,0.0,0.0,0.0,1.0
1402415970557807829,,errorv,,0,,1402415970,557621938,base_link,/z_drive,,,0.0,0.0,0.0,,0.0,0.0,0.0,1.0
1402415970557837593,,errorv,,0,,1402415970,557639499,/z_drive,port,,,-0.3,0.3048,0.0,,0.0,0.0,0.0,1.0
1402415970557914161,,errorv,,0,,1402415970,557647701,/z_drive,starboard,,,-0.3,-0.3048,0.0,,0.0,0.0,0.0,1.0
1402415970577657745,,errorv,,0,,1402415970,577499453,base_link,/z_drive,,,0.0,0.0,0.0,,0.0,0.0,0.0,1.0
1402415970577748030,,errorv,,0,,1402415970,577514271,/z_drive,port,,,-0.3,0.3048,0.0,,0.0,0.0,0.0,1.0
1402415970577774531,,errorv,,0,,1402415970,577520406,/z_drive,starboard,,,-0.3,-0.3048,0.0,,0.0,0.0,0.0,1.0
1402415970587066447,,errorv,,0,,1402415970,510837078,/enu,/base_link,,,5.11628262582,17.666563885,-25.457388569,,-0.0223416167246,-0.00194799883004,0.99801704619,0.0588135441636
1402415970587181943,,errorv,,0,,1402415970,520863056,/enu,/base_link,,,5.11656251859,17.6678158391,-25.4584270942,,-0.0224284741919,-0.00189732446321,0.997944502933,0.0600011064223
1402415970588213220,,errorv,,0,,1402415970,530855894,/enu,/base_link,,,5.11667790647,17.6686802189,-25.4589604179,,-0.0225229496859,-0.00180708118482,0.997867600867,0.0612348130976
1402415970588241215,,errorv,,0,,1402415970,540843963,/enu,/base_link,,,5.12184262826,17.6680806106,-25.4681958947,,-0.022054113997,-0.0018697427128,0.997803502348,0.0624362941001
1402415970597795138,,errorv,,0,,1402415970,597624963,base_link,/z_drive,,,0.0,0.0,0.0,,0.0,0.0,0.0,1.0
1402415970597900721,,errorv,,0,,1402415970,597703294,/z_drive,port,,,-0.3,0.3048,0.0,,0.0,0.0,0.0,1.0
1402415970597925100,,errorv,,0,,1402415970,597732302,/z_drive,starboard,,,-0.3,-0.3048,0.0,,0.0,0.0,0.0,1.0
1402415970617681105,,errorv,,0,,1402415970,617504156,base_link,/z_drive,,,0.0,0.0,0.0,,0.0,0.0,0.0,1.0
1402415970617772096,,errorv,,0,,1402415970,617521011,/z_drive,port,,,-0.3,0.3048,0.0,,0.0,0.0,0.0,1.0
1402415970617800603,,errorv,,0,,1402415970,617530908,/z_drive,starboard,,,-0.3,-0.3048,0.0,,0.0,0.0,0.0,1.0
1402415970627072635,,errorv,,0,,1402415970,550822019,/enu,/base_link,,,5.12208300129,17.6690434614,-25.4689462224,,-0.0220770196651,-0.00184005410893,0.997725928004,0.0636568299007
1402415970627264094,,errorv,,0,,1402415970,560834884,/enu,/base_link,,,5.12238051605,17.6702545237,-25.470085354,,-0.0221447028638,-0.0017306323821,0.997644841921,0.0648951957779
1402415970627293289,,errorv,,0,,1402415970,571805000,/enu,/base_link,,,5.12261928338,17.6712043518,-25.470715984,,-0.0222124163947,-0.00167085289269,0.997553623968,0.0662614829011
1402415970627319045,,errorv,,0,,1402415970,581872940,/enu,/base_link,,,5.12300397768,17.6723472747,-25.4716795587,,-0.022277726517,-0.00161369417094,0.99746950333,0.0674958429742
1402415970637876536,,errorv,,0,,1402415970,637546554,base_link,/z_drive,,,0.0,0.0,0.0,,0.0,0.0,0.0,1.0
1402415970637977478,,errorv,,0,,1402415970,637683113,/z_drive,port,,,-0.3,0.3048,0.0,,0.0,0.0,0.0,1.0
1402415970638014496,,errorv,,0,,1402415970,637696203,/z_drive,starboard,,,-0.3,-0.3048,0.0,,0.0,0.0,0.0,1.0
1402415970653989471,,errorv,,0,,1402415970,753745808,base_link,imu,,,0.13,0.0,-0.1,,1.0,0.0,0.0,0.0
1402415970654019757,,errorv,,0,,1402415970,753733174,/base_link,/gps,,,-0.84,0.0,-0.14,,0.0,0.0,0.0,1.0
1402415970657648382,,errorv,,0,,1402415970,657477864,base_link,/z_drive,,,0.0,0.0,0.0,,0.0,0.0,0.0,1.0
1402415970657677257,,errorv,,0,,1402415970,657495331,/z_drive,port,,,-0.3,0.3048,0.0,,0.0,0.0,0.0,1.0
1402415970657747884,,errorv,,0,,1402415970,657504480,/z_drive,starboard,,,-0.3,-0.3048,0.0,,0.0,0.0,0.0,1.0
1402415970667155484,,errorv,,0,,1402415970,591852903,/enu,/base_link,,,5.11991433252,17.682490603,-25.4511174594,,-0.0231365854614,-0.000272883876866,0.997366277916,0.068739592842
1402415970667184157,,errorv,,0,,1402415970,601839065,/enu,/base_link,,,5.12022784674,17.683800171,-25.4520200595,,-0.0231733893507,-0.000158405528776,0.997278780008,0.0699857405436
1402415970667209058,,errorv,,0,,1402415970,611819982,/enu,/base_link,,,5.12022246284,17.6849592526,-25.4525325282,,-0.0232098890032,-0.000149446804797,0.99719344133,0.0711794864151
1402415970667240441,,errorv,,0,,1402415970,621792078,/enu,/base_link,,,5.12053746292,17.6862421805,-25.4532817971,,-0.0232094064306,-0.000111589509149,0.997104351163,0.0724170138365
1402415970677729970,,errorv,,0,,1402415970,677593410,base_link,/z_drive,,,0.0,0.0,0.0,,0.0,0.0,0.0,1.0
1402415970677964544,,errorv,,0,,1402415970,677624947,/z_drive,port,,,-0.3,0.3048,0.0,,0.0,0.0,0.0,1.0
1402415970677993887,,errorv,,0,,1402415970,677660130,/z_drive,starboard,,,-0.3,-0.3048,0.0,,0.0,0.0,0.0,1.0
1402415970697844180,,errorv,,0,,1402415970,697486339,base_link,/z_drive,,,0.0,0.0,0.0,,0.0,0.0,0.0,1.0
1402415970697878877,,errorv,,0,,1402415970,697503858,/z_drive,port,,,-0.3,0.3048,0.0,,0.0,0.0,0.0,1.0
1402415970697905313,,errorv,,0,,1402415970,697510088,/z_drive,starboard,,,-0.3,-0.3048,0.0,,0.0,0.0,0.0,1.0
1402415970707170254,,errorv,,0,,1402415970,631789922,/enu,/base_link,,,5.13256742878,17.6870307399,-25.4389713155,,-0.0223423242948,0.000305172440622,0.997020355706,0.0738318205266
1402415970707197573,,errorv,,0,,1402415970,641789913,/enu,/base_link,,,5.13284117973,17.6883971767,-25.4397562243,,-0.0223576980034,0.000471674719262,0.9969255282,0.075095952523
1402415970707274761,,errorv,,0,,1402415970,651793956,/enu,/base_link,,,5.13315862583,17.6895371196,-25.4401947018,,-0.0223418089317,0.000561008210197,0.996833227479,0.0763154338027
1402415970707297495,,errorv,,0,,1402415970,661762952,/enu,/base_link,,,5.13340152694,17.6908129187,-25.4409021298,,-0.0223231243867,0.000679544647184,0.996739519445,0.0775341648099
1402415970717754696,,errorv,,0,,1402415970,717504952,base_link,/z_drive,,,0.0,0.0,0.0,,0.0,0.0,0.0,1.0
1402415970717772949,,errorv,,0,,1402415970,717623325,/z_drive,port,,,-0.3,0.3048,0.0,,0.0,0.0,0.0,1.0
1402415970717895325,,errorv,,0,,1402415970,717636066,/z_drive,starboard,,,-0.3,-0.3048,0.0,,0.0,0.0,0.0,1.0
1402415970737806471,,errorv,,0,,1402415970,737497072,base_link,/z_drive,,,0.0,0.0,0.0,,0.0,0.0,0.0,1.0
1402415970737837433,,errorv,,0,,1402415970,737528474,/z_drive,port,,,-0.3,0.3048,0.0,,0.0,0.0,0.0,1.0
1402415970737859527,,errorv,,0,,1402415970,737541550,/z_drive,starboard,,,-0.3,-0.3048,0.0,,0.0,0.0,0.0,1.0
1402415970747186519,,errorv,,0,,1402415970,671765089,/enu,/base_link,,,5.13363969449,17.6923120301,-25.4417896127,,-0.0222828200274,0.000875494232443,0.996642535434,0.0787804925418
1402415970747221705,,errorv,,0,,1402415970,680768966,/enu,/base_link,,,5.13398352429,17.6934435871,-25.4423921153,,-0.0222678565377,0.000976586012374,0.996553021357,0.0799078498577
1402415970747245508,,errorv,,0,,1402415970,690767049,/enu,/base_link,,,5.13406198761,17.6955404473,-25.4486348615,,-0.0223216371376,0.0012001891237,0.99645113167,0.0811507625011
1402415970747276919,,errorv,,0,,1402415970,700768947,/enu,/base_link,,,5.13456678569,17.6967824392,-25.4491405596,,-0.0222693566411,0.00132392321493,0.996353250408,0.0823560767895
1402415970754038024,,errorv,,0,,1402415970,853837417,/base_link,/gps,,,-0.84,0.0,-0.14,,0.0,0.0,0.0,1.0
1402415970754130873,,errorv,,0,,1402415970,853858652,base_link,imu,,,0.13,0.0,-0.1,,1.0,0.0,0.0,0.0
1402415970757689907,,errorv,,0,,1402415970,757507001,base_link,/z_drive,,,0.0,0.0,0.0,,0.0,0.0,0.0,1.0
1402415970757725472,,errorv,,0,,1402415970,757524238,/z_drive,port,,,-0.3,0.3048,0.0,,0.0,0.0,0.0,1.0
1402415970757749088,,errorv,,0,,1402415970,757528715,/z_drive,starboard,,,-0.3,-0.3048,0.0,,0.0,0.0,0.0,1.0
1402415970777701079,,errorv,,0,,1402415970,777476205,base_link,/z_drive,,,0.0,0.0,0.0,,0.0,0.0,0.0,1.0
1402415970777731681,,errorv,,0,,1402415970,777490843,/z_drive,port,,,-0.3,0.3048,0.0,,0.0,0.0,0.0,1.0
1402415970777756437,,errorv,,0,,1402415970,777496763,/z_drive,starboard,,,-0.3,-0.3048,0.0,,0.0,0.0,0.0,1.0
1402415970787245252,,errorv,,0,,1402415970,710764884,/enu,/base_link,,,5.13473719922,17.6981795383,-25.4500680918,,-0.0221980171918,0.00139648014696,0.996253800792,0.083568309087
1402415970787315218,,errorv,,0,,1402415970,720731973,/enu,/base_link,,,5.13494392209,17.6995680424,-25.4508192939,,-0.022171051972,0.00146861153651,0.996151813158,0.0847812053278
1402415970787338707,,errorv,,0,,1402415970,730727910,/enu,/base_link,,,5.13514451631,17.7010371274,-25.4517817208,,-0.0220742653554,0.00152051006771,0.996051472597,0.0859760361734
1402415970787407082,,errorv,,0,,1402415970,740735054,/enu,/base_link,,,5.1453977954,17.7102893631,-25.4360901923,,-0.0212360524166,0.00301961461605,0.995929165978,0.0875500334672
1402415970797760091,,errorv,,0,,1402415970,797504383,base_link,/z_drive,,,0.0,0.0,0.0,,0.0,0.0,0.0,1.0
1402415970797792158,,errorv,,0,,1402415970,797522625,/z_drive,port,,,-0.3,0.3048,0.0,,0.0,0.0,0.0,1.0
1402415970797839144,,errorv,,0,,1402415970,797528887,/z_drive,starboard,,,-0.3,-0.3048,0.0,,0.0,0.0,0.0,1.0
1402415970817701856,,errorv,,0,,1402415970,817474006,base_link,/z_drive,,,0.0,0.0,0.0,,0.0,0.0,0.0,1.0
1402415970817739116,,errorv,,0,,1402415970,817491230,/z_drive,port,,,-0.3,0.3048,0.0,,0.0,0.0,0.0,1.0
1402415970817762891,,errorv,,0,,1402415970,817497550,/z_drive,starboard,,,-0.3,-0.3048,0.0,,0.0,0.0,0.0,1.0
1402415970827213497,,errorv,,0,,1402415970,750729084,/enu,/base_link,,,5.14579775304,17.711582906,-25.4362824518,,-0.021179753465,0.00307885894427,0.995821338056,0.088779509701
1402415970827236317,,errorv,,0,,1402415970,760731935,/enu,/base_link,,,5.14611769246,17.713324703,-25.4371788146,,-0.0211079495839,0.00305561297685,0.99571619569,0.0899687464283
1402415970827259622,,errorv,,0,,1402415970,770730018,/enu,/base_link,,,5.14671232228,17.7149461973,-25.4378691161,,-0.0210166743903,0.00307595607626,0.995609642916,0.0911607197491
1402415970827274042,,errorv,,0,,1402415970,780731916,/enu,/base_link,,,5.14689294449,17.7162340206,-25.4380776189,,-0.0208950398309,0.00312488358306,0.995498457425,0.0923929308811
1402415970837754592,,errorv,,0,,1402415970,837504531,base_link,/z_drive,,,0.0,0.0,0.0,,0.0,0.0,0.0,1.0
1402415970837787819,,errorv,,0,,1402415970,837527132,/z_drive,port,,,-0.3,0.3048,0.0,,0.0,0.0,0.0,1.0
1402415970837810604,,errorv,,0,,1402415970,837533425,/z_drive,starboard,,,-0.3,-0.3048,0.0,,0.0,0.0,0.0,1.0
1402415970854172932,,errorv,,0,,1402415970,953957809,base_link,imu,,,0.13,0.0,-0.1,,1.0,0.0,0.0,0.0
1402415970854200558,,errorv,,0,,1402415970,953941177,/base_link,/gps,,,-0.84,0.0,-0.14,,0.0,0.0,0.0,1.0
1402415970857681887,,errorv,,0,,1402415970,857461859,base_link,/z_drive,,,0.0,0.0,0.0,,0.0,0.0,0.0,1.0
1402415970857738758,,errorv,,0,,1402415970,857491811,/z_drive,port,,,-0.3,0.3048,0.0,,0.0,0.0,0.0,1.0
1402415970857764450,,errorv,,0,,1402415970,857498823,/z_drive,starboard,,,-0.3,-0.3048,0.0,,0.0,0.0,0.0,1.0
1402415970867222188,,errorv,,0,,1402415970,790729999,/enu,/base_link,,,5.15146537876,17.715473103,-25.4280102415,,-0.0206322030145,0.00307425666735,0.995387034802,0.0936456731178
1402415970867248463,,errorv,,0,,1402415970,800730943,/enu,/base_link,,,5.1518675596,17.7169650067,-25.4284525315,,-0.0205376079318,0.00314059708008,0.995273267383,0.094865518194
1402415970867270964,,errorv,,0,,1402415970,810724020,/enu,/base_link,,,5.15234828415,17.7184128582,-25.4288798735,,-0.0203885108424,0.00318583933805,0.995160456319,0.0960719794379
1402415970867294217,,errorv,,0,,1402415970,820698022,/enu,/base_link,,,5.15280003049,17.7199044308,-25.4293930941,,-0.0202756566412,0.00319040648004,0.995046639032,0.0972671846313
1402415970877738468,,errorv,,0,,1402415970,877502624,base_link,/z_drive,,,0.0,0.0,0.0,,0.0,0.0,0.0,1.0
1402415970877769362,,errorv,,0,,1402415970,877520560,/z_drive,port,,,-0.3,0.3048,0.0,,0.0,0.0,0.0,1.0
1402415970877799189,,errorv,,0,,1402415970,877526754,/z_drive,starboard,,,-0.3,-0.3048,0.0,,0.0,0.0,0.0,1.0
1402415970897763695,,errorv,,0,,1402415970,897498602,base_link,/z_drive,,,0.0,0.0,0.0,,0.0,0.0,0.0,1.0
1402415970897799631,,errorv,,0,,1402415970,897520683,/z_drive,port,,,-0.3,0.3048,0.0,,0.0,0.0,0.0,1.0
1402415970897822928,,errorv,,0,,1402415970,897526953,/z_drive,starboard,,,-0.3,-0.3048,0.0,,0.0,0.0,0.0,1.0
1402415970907148888,,errorv,,0,,1402415970,830741882,/enu,/base_link,,,5.15319229748,17.7215184217,-25.4301412003,,-0.0201494780916,0.00311760404102,0.994932027671,0.0984608520741
1402415970907176120,,errorv,,0,,1402415970,840694904,/enu,/base_link,,,5.15861389996,17.7269575413,-25.4076031283,,-0.0199346739825,0.00396004464696,0.994806817668,0.0997312505716
1402415970907342257,,errorv,,0,,1402415970,850713968,/enu,/base_link,,,5.15921902832,17.7287350567,-25.408398192,,-0.0198144262478,0.00400356628951,0.994685591632,0.100955107695
1402415970907372320,,errorv,,0,,1402415970,860702991,/enu,/base_link,,,5.15970099194,17.7303608868,-25.4087417327,,-0.0196815464318,0.00401034542518,0.994564833649,0.102163327704
1402415970917906140,,errorv,,0,,1402415970,917716887,base_link,/z_drive,,,0.0,0.0,0.0,,0.0,0.0,0.0,1.0
1402415970917942581,,errorv,,0,,1402415970,917743436,/z_drive,port,,,-0.3,0.3048,0.0,,0.0,0.0,0.0,1.0
1402415970917975812,,errorv,,0,,1402415970,917753698,/z_drive,starboard,,,-0.3,-0.3048,0.0,,0.0,0.0,0.0,1.0
1402415970937774211,,errorv,,0,,1402415970,937476167,base_link,/z_drive,,,0.0,0.0,0.0,,0.0,0.0,0.0,1.0
1402415970937799820,,errorv,,0,,1402415970,937497482,/z_drive,port,,,-0.3,0.3048,0.0,,0.0,0.0,0.0,1.0
1402415970937870505,,errorv,,0,,1402415970,937506554,/z_drive,starboard,,,-0.3,-0.3048,0.0,,0.0,0.0,0.0,1.0
1402415970947130817,,errorv,,0,,1402415970,870702028,/enu,/base_link,,,5.16023132208,17.7320981691,-25.4094216192,,-0.0195904860211,0.00394852059376,0.994443796932,0.103354519911
1402415970947158960,,errorv,,0,,1402415970,880722045,/enu,/base_link,,,5.16073882706,17.7336398884,-25.4097328297,,-0.0194741266429,0.00395129024989,0.994321117805,0.104549798587
1402415970947188438,,errorv,,0,,1402415970,889672994,/enu,/base_link,,,5.15916974691,17.73508826,-25.4050987604,,-0.0197712803986,0.00400062098231,0.994222307681,0.105428148101
1402415970947276967,,errorv,,0,,1402415970,899725914,/enu,/base_link,,,5.15963302481,17.7366159653,-25.405395795,,-0.0196685692712,0.0039131283031,0.994095445931,0.106639951187
1402415970954274288,,errorv,,0,,1402415971,54057222,base_link,imu,,,0.13,0.0,-0.1,,1.0,0.0,0.0,0.0
1402415970954302299,,errorv,,0,,1402415971,54042699,/base_link,/gps,,,-0.84,0.0,-0.14,,0.0,0.0,0.0,1.0
1402415970957794101,,errorv,,0,,1402415970,957496661,base_link,/z_drive,,,0.0,0.0,0.0,,0.0,0.0,0.0,1.0
1402415970957884212,,errorv,,0,,1402415970,957516738,/z_drive,port,,,-0.3,0.3048,0.0,,0.0,0.0,0.0,1.0
1402415970957906226,,errorv,,0,,1402415970,957526598,/z_drive,starboard,,,-0.3,-0.3048,0.0,,0.0,0.0,0.0,1.0
1402415970977785767,,errorv,,0,,1402415970,977464799,base_link,/z_drive,,,0.0,0.0,0.0,,0.0,0.0,0.0,1.0
1402415970977814038,,errorv,,0,,1402415970,977482672,/z_drive,port,,,-0.3,0.3048,0.0,,0.0,0.0,0.0,1.0
1402415970977889288,,errorv,,0,,1402415970,977492099,/z_drive,starboard,,,-0.3,-0.3048,0.0,,0.0,0.0,0.0,1.0
1402415970987072837,,errorv,,0,,1402415970,909672021,/enu,/base_link,,,5.15990985013,17.7382469645,-25.4057769843,,-0.0195856249477,0.00380617593879,0.993969821738,0.107823512249
1402415970987255030,,errorv,,0,,1402415970,919657945,/enu,/base_link,,,5.16043654293,17.7399706745,-25.4063898262,,-0.0194513284692,0.00373409309552,0.993844669412,0.108997593786
1402415970987282379,,errorv,,0,,1402415970,929676055,/enu,/base_link,,,5.16094124334,17.7416340268,-25.4068106772,,-0.0193398172848,0.003703730218,0.993713600309,0.110206780239
1402415970987305307,,errorv,,0,,1402415970,939682960,/enu,/base_link,,,5.17010400021,17.7414866765,-25.3930603028,,-0.0186026317963,0.00373031516057,0.993566767726,0.11164723422
1402415970997773963,,errorv,,0,,1402415970,997529064,base_link,/z_drive,,,0.0,0.0,0.0,,0.0,0.0,0.0,1.0
1402415970997798876,,errorv,,0,,1402415970,997549811,/z_drive,port,,,-0.3,0.3048,0.0,,0.0,0.0,0.0,1.0
1402415970997818672,,errorv,,0,,1402415970,997558262,/z_drive,starboard,,,-0.3,-0.3048,0.0,,0.0,0.0,0.0,1.0
1402415971017740244,,errorv,,0,,1402415971,17459909,base_link,/z_drive,,,0.0,0.0,0.0,,0.0,0.0,0.0,1.0
1402415971017765101,,errorv,,0,,1402415971,17477748,/z_drive,port,,,-0.3,0.3048,0.0,,0.0,0.0,0.0,1.0
1402415971017793904,,errorv,,0,,1402415971,17486494,/z_drive,starboard,,,-0.3,-0.3048,0.0,,0.0,0.0,0.0,1.0
1402415971027254185,,errorv,,0,,1402415970,949650049,/enu,/base_link,,,5.17065979148,17.7433003184,-25.3938678038,,-0.0184866919099,0.00372095715896,0.993433948487,0.112842308966
1402415971027279278,,errorv,,0,,1402415970,959659099,/enu,/base_link,,,5.17118229498,17.7449048425,-25.3940947513,,-0.0183708699204,0.00371558463254,0.993299579208,0.114037938922
1402415971027302202,,errorv,,0,,1402415970,969646930,/enu,/base_link,,,5.17164389972,17.7465314661,-25.3945302783,,-0.0182601718677,0.00361420044978,0.993164398007,0.115230127177
1402415971027379132,,errorv,,0,,1402415970,979649066,/enu,/base_link,,,5.17218440713,17.7480554335,-25.3947337475,,-0.0181558692047,0.00348912923125,0.993029003504,0.116411290649
1402415971037753816,,errorv,,0,,1402415971,37485067,base_link,/z_drive,,,0.0,0.0,0.0,,0.0,0.0,0.0,1.0
1402415971037818173,,errorv,,0,,1402415971,37504732,/z_drive,port,,,-0.3,0.3048,0.0,,0.0,0.0,0.0,1.0
1402415971037853913,,errorv,,0,,1402415971,37513501,/z_drive,starboard,,,-0.3,-0.3048,0.0,,0.0,0.0,0.0,1.0
1402415971054346335,,errorv,,0,,1402415971,154160390,/base_link,/gps,,,-0.84,0.0,-0.14,,0.0,0.0,0.0,1.0
1402415971054391003,,errorv,,0,,1402415971,154159782,base_link,imu,,,0.13,0.0,-0.1,,1.0,0.0,0.0,0.0
1402415971057879027,,errorv,,0,,1402415971,57461460,base_link,/z_drive,,,0.0,0.0,0.0,,0.0,0.0,0.0,1.0
1402415971057903527,,errorv,,0,,1402415971,57480186,/z_drive,port,,,-0.3,0.3048,0.0,,0.0,0.0,0.0,1.0
1402415971057936259,,errorv,,0,,1402415971,57489593,/z_drive,starboard,,,-0.3,-0.3048,0.0,,0.0,0.0,0.0,1.0
1402415971067256775,,errorv,,0,,1402415970,989645957,/enu,/base_link,,,5.17398206152,17.7506842375,-25.3976590659,,-0.0180464721128,0.00356675490182,0.99288725466,0.117628664185
1402415971067343605,,errorv,,0,,1402415970,999640941,/enu,/base_link,,,5.17453843928,17.7523261032,-25.3980541556,,-0.0179329734362,0.0035172350008,0.992747897998,0.118817711402
1402415971067367189,,errorv,,0,,1402415971,9644985,/enu,/base_link,,,5.17507649945,17.7540385655,-25.3985053509,,-0.0178647178692,0.0034046814248,0.992606602228,0.120005804912
1402415971067387618,,errorv,,0,,1402415971,19646883,/enu,/base_link,,,5.17580109149,17.7557686955,-25.3990857102,,-0.0177960296094,0.00336906817654,0.99246453532,0.121186207306
1402415971077847311,,errorv,,0,,1402415971,77512841,base_link,/z_drive,,,0.0,0.0,0.0,,0.0,0.0,0.0,1.0
1402415971077876659,,errorv,,0,,1402415971,77536383,/z_drive,port,,,-0.3,0.3048,0.0,,0.0,0.0,0.0,1.0
1402415971077924531,,errorv,,0,,1402415971,77543343,/z_drive,starboard,,,-0.3,-0.3048,0.0,,0.0,0.0,0.0,1.0
1402415971097765634,,errorv,,0,,1402415971,97516118,base_link,/z_drive,,,0.0,0.0,0.0,,0.0,0.0,0.0,1.0
1402415971097829853,,errorv,,0,,1402415971,97540139,/z_drive,port,,,-0.3,0.3048,0.0,,0.0,0.0,0.0,1.0
1402415971097872353,,errorv,,0,,1402415971,97547615,/z_drive,starboard,,,-0.3,-0.3048,0.0,,0.0,0.0,0.0,1.0
1402415971107190423,,errorv,,0,,1402415971,29643058,/enu,/base_link,,,5.17621556351,17.7573127692,-25.3993331951,,-0.0176965204304,0.00322594015756,0.992324084675,0.122349243759
1402415971107280712,,errorv,,0,,1402415971,39644956,/enu,/base_link,,,5.17304063883,17.754274093,-25.3512234354,,-0.0191168779883,0.00289965392277,0.992253492939,0.122715698804
1402415971107308528,,errorv,,0,,1402415971,49643993,/enu,/base_link,,,5.17332288629,17.7558594619,-25.3514449291,,-0.0190225162418,0.0027951946056,0.992106490162,0.123915466919
1402415971107329323,,errorv,,0,,1402415971,59644937,/enu,/base_link,,,5.17358848038,17.7576232945,-25.3519190364,,-0.0189732621873,0.00274379250384,0.99195694975,0.125115533677
1402415971117725728,,errorv,,0,,1402415971,117513978,base_link,/z_drive,,,0.0,0.0,0.0,,0.0,0.0,0.0,1.0
1402415971117754733,,errorv,,0,,1402415971,117541732,/z_drive,port,,,-0.3,0.3048,0.0,,0.0,0.0,0.0,1.0
1402415971117829812,,errorv,,0,,1402415971,117552476,/z_drive,starboard,,,-0.3,-0.3048,0.0,,0.0,0.0,0.0,1.0
1402415971137736623,,errorv,,0,,1402415971,137518988,base_link,/z_drive,,,0.0,0.0,0.0,,0.0,0.0,0.0,1.0
1402415971137768710,,errorv,,0,,1402415971,137540200,/z_drive,port,,,-0.3,0.3048,0.0,,0.0,0.0,0.0,1.0
1402415971137795569,,errorv,,0,,1402415971,137549626,/z_drive,starboard,,,-0.3,-0.3048,0.0,,0.0,0.0,0.0,1.0
1402415971147190177,,errorv,,0,,1402415971,69648027,/enu,/base_link,,,5.17402059034,17.75937389,-25.3524024158,,-0.0189179193656,0.00274048764843,0.991804775513,0.126324539673
1402415971147225626,,errorv,,0,,1402415971,79644918,/enu,/base_link,,,5.1742994283,17.7610984039,-25.352753081,,-0.0188484221505,0.00271280770594,0.991653185832,0.127519946232
1402415971147249768,,errorv,,0,,1402415971,89646100,/enu,/base_link,,,5.15420570768,17.757756937,-25.2935634543,,-0.0224681293659,0.00231491723915,0.991651360974,0.126954332732
1402415971147272482,,errorv,,0,,1402415971,99642992,/enu,/base_link,,,5.15400164284,17.7592881922,-25.2935107536,,-0.0224250991751,0.00228068333117,0.991498657486,0.12814962198
1402415971154499157,,errorv,,0,,1402415971,254268942,base_link,imu,,,0.13,0.0,-0.1,,1.0,0.0,0.0,0.0
1402415971154529310,,errorv,,0,,1402415971,254279910,/base_link,/gps,,,-0.84,0.0,-0.14,,0.0,0.0,0.0,1.0
1402415971157762666,,errorv,,0,,1402415971,157549115,base_link,/z_drive,,,0.0,0.0,0.0,,0.0,0.0,0.0,1.0
1402415971157792111,,errorv,,0,,1402415971,157575639,/z_drive,port,,,-0.3,0.3048,0.0,,0.0,0.0,0.0,1.0
1402415971157811170,,errorv,,0,,1402415971,157585873,/z_drive,starboard,,,-0.3,-0.3048,0.0,,0.0,0.0,0.0,1.0
1402415971177765021,,errorv,,0,,1402415971,177488971,base_link,/z_drive,,,0.0,0.0,0.0,,0.0,0.0,0.0,1.0
1402415971177796145,,errorv,,0,,1402415971,177520326,/z_drive,port,,,-0.3,0.3048,0.0,,0.0,0.0,0.0,1.0
1402415971177818194,,errorv,,0,,1402415971,177532145,/z_drive,starboard,,,-0.3,-0.3048,0.0,,0.0,0.0,0.0,1.0
1402415971187342017,,errorv,,0,,1402415971,109646081,/enu,/base_link,,,5.15361970186,17.7612246659,-25.2940869442,,-0.0223912106581,0.00220533347877,0.991344798188,0.129341645632
1402415971187364233,,errorv,,0,,1402415971,119645118,/enu,/base_link,,,5.15320639765,17.7628324819,-25.2941091047,,-0.0223638802183,0.00212218184798,0.991187265402,0.130549446994
1402415971187378537,,errorv,,0,,1402415971,129642963,/enu,/base_link,,,5.15281573797,17.7643484498,-25.2940880832,,-0.0223282761994,0.00208456207633,0.99102752584,0.131763218354
1402415971187391716,,errorv,,0,,1402415971,139641046,/enu,/base_link,,,5.08752527048,17.7405563964,-25.2610085623,,-0.0305932452811,-0.00223025310565,0.991130968918,0.129299968159
1402415971197695843,,errorv,,0,,1402415971,197456169,base_link,/z_drive,,,0.0,0.0,0.0,,0.0,0.0,0.0,1.0
1402415971197728579,,errorv,,0,,1402415971,197498693,/z_drive,port,,,-0.3,0.3048,0.0,,0.0,0.0,0.0,1.0
1402415971197754308,,errorv,,0,,1402415971,197504314,/z_drive,starboard,,,-0.3,-0.3048,0.0,,0.0,0.0,0.0,1.0
1402415971217684512,,errorv,,0,,1402415971,217473763,base_link,/z_drive,,,0.0,0.0,0.0,,0.0,0.0,0.0,1.0
1402415971217709991,,errorv,,0,,1402415971,217490361,/z_drive,port,,,-0.3,0.3048,0.0,,0.0,0.0,0.0,1.0
1402415971217733386,,errorv,,0,,1402415971,217498098,/z_drive,starboard,,,-0.3,-0.3048,0.0,,0.0,0.0,0.0,1.0
1402415971227200612,,errorv,,0,,1402415971,149542093,/enu,/base_link,,,5.08552121818,17.7416210387,-25.2609664456,,-0.0305880972359,-0.00224395704354,0.990977457142,0.130472266791
1402415971227225506,,errorv,,0,,1402415971,158649921,/enu,/base_link,,,5.08379716658,17.7426056863,-25.2608874618,,-0.0305318496731,-0.00226763806251,0.990833808498,0.131571379528
1402415971227336768,,errorv,,0,,1402415971,169539928,/enu,/base_link,,,5.08140522948,17.744041529,-25.2613764464,,-0.0305335315347,-0.00221622309448,0.990658344966,0.132886550701
1402415971227360713,,errorv,,0,,1402415971,179544925,/enu,/base_link,,,5.07944905499,17.7452318231,-25.2616082952,,-0.0305135208167,-0.00224629406733,0.990495392676,0.134099799767
1402415971237748555,,errorv,,0,,1402415971,237577485,base_link,/z_drive,,,0.0,0.0,0.0,,0.0,0.0,0.0,1.0
1402415971237774862,,errorv,,0,,1402415971,237598961,/z_drive,port,,,-0.3,0.3048,0.0,,0.0,0.0,0.0,1.0
1402415971237795821,,errorv,,0,,1402415971,237608945,/z_drive,starboard,,,-0.3,-0.3048,0.0,,0.0,0.0,0.0,1.0
1402415971254595916,,errorv,,0,,1402415971,354380746,base_link,imu,,,0.13,0.0,-0.1,,1.0,0.0,0.0,0.0
1402415971254625344,,errorv,,0,,1402415971,354392247,/base_link,/gps,,,-0.84,0.0,-0.14,,0.0,0.0,0.0,1.0
1402415971257640390,,errorv,,0,,1402415971,257466301,base_link,/z_drive,,,0.0,0.0,0.0,,0.0,0.0,0.0,1.0
1402415971257670361,,errorv,,0,,1402415971,257482103,/z_drive,port,,,-0.3,0.3048,0.0,,0.0,0.0,0.0,1.0
1402415971257695301,,errorv,,0,,1402415971,257488592,/z_drive,starboard,,,-0.3,-0.3048,0.0,,0.0,0.0,0.0,1.0
1402415971267288272,,errorv,,0,,1402415971,189645051,/enu,/base_link,,,5.02833923182,17.727631664,-25.4429760795,,-0.0327692199541,-0.00777538383818,0.990384121653,0.134182760469
1402415971267356020,,errorv,,0,,1402415971,198641061,/enu,/base_link,,,5.02595897358,17.728023622,-25.4437426064,,-0.0327571175121,-0.00774799335762,0.990235172884,0.135282083941
1402415971267414157,,errorv,,0,,1402415971,209542036,/enu,/base_link,,,5.02282429871,17.7282895813,-25.444257276,,-0.0327582599991,-0.00771770025791,0.990053213521,0.136608813408
1402415971267500712,,errorv,,0,,1402415971,219521999,/enu,/base_link,,,5.02003218198,17.7285390727,-25.4448198629,,-0.032782251026,-0.00771669416466,0.989889817427,0.137782168672
1402415971277741839,,errorv,,0,,1402415971,277495201,base_link,/z_drive,,,0.0,0.0,0.0,,0.0,0.0,0.0,1.0
1402415971277768387,,errorv,,0,,1402415971,277516953,/z_drive,port,,,-0.3,0.3048,0.0,,0.0,0.0,0.0,1.0
1402415971277785720,,errorv,,0,,1402415971,277522219,/z_drive,starboard,,,-0.3,-0.3048,0.0,,0.0,0.0,0.0,1.0
1402415971297654594,,errorv,,0,,1402415971,297493532,base_link,/z_drive,,,0.0,0.0,0.0,,0.0,0.0,0.0,1.0
1402415971297686263,,errorv,,0,,1402415971,297510778,/z_drive,port,,,-0.3,0.3048,0.0,,0.0,0.0,0.0,1.0
1402415971297754193,,errorv,,0,,1402415971,297520322,/z_drive,starboard,,,-0.3,-0.3048,0.0,,0.0,0.0,0.0,1.0
1402415971307147297,,errorv,,0,,1402415971,229520082,/enu,/base_link,,,5.01718525876,17.7290816599,-25.4459142394,,-0.0327801069669,-0.0077040819234,0.989719331835,0.139002719041
1402415971307210481,,errorv,,0,,1402415971,239517927,/enu,/base_link,,,5.01413548929,17.7291313485,-25.4460365977,,-0.0328118817174,-0.0076608980388,0.989544291944,0.140238316238
1402415971307235005,,errorv,,0,,1402415971,249526977,/enu,/base_link,,,5.01122752092,17.7295681817,-25.4468852344,,-0.032858945458,-0.00761280017296,0.989371371684,0.141444773215
1402415971307283076,,errorv,,0,,1402415971,259519100,/enu,/base_link,,,5.00825864527,17.7297539119,-25.4473522106,,-0.0328932141113,-0.00758023867739,0.989199080357,0.142638549727
1402415971317966508,,errorv,,0,,1402415971,317496369,base_link,/z_drive,,,0.0,0.0,0.0,,0.0,0.0,0.0,1.0
1402415971317991626,,errorv,,0,,1402415971,317517797,/z_drive,port,,,-0.3,0.3048,0.0,,0.0,0.0,0.0,1.0
1402415971318033108,,errorv,,0,,1402415971,317527496,/z_drive,starboard,,,-0.3,-0.3048,0.0,,0.0,0.0,0.0,1.0
1402415971337801900,,errorv,,0,,1402415971,337506290,base_link,/z_drive,,,0.0,0.0,0.0,,0.0,0.0,0.0,1.0
1402415971337827368,,errorv,,0,,1402415971,337519970,/z_drive,port,,,-0.3,0.3048,0.0,,0.0,0.0,0.0,1.0
1402415971337894750,,errorv,,0,,1402415971,337524128,/z_drive,starboard,,,-0.3,-0.3048,0.0,,0.0,0.0,0.0,1.0
1402415971347135101,,errorv,,0,,1402415971,269496917,/enu,/base_link,,,5.00525903657,17.7301897477,-25.448286685,,-0.0329231614428,-0.00748541335387,0.989023576599,0.143848527833
1402415971347197583,,errorv,,0,,1402415971,279519081,/enu,/base_link,,,5.0216241635,17.731732306,-25.4848681892,,-0.0300623541903,-0.00704739274288,0.988783183058,0.146131468264
1402415971347219029,,errorv,,0,,1402415971,289499998,/enu,/base_link,,,5.01929771285,17.7321449636,-25.4859101564,,-0.0300838091451,-0.0070185536282,0.988609526351,0.147298705832
1402415971347276790,,errorv,,0,,1402415971,299483060,/enu,/base_link,,,5.01653589025,17.7324994589,-25.4868169783,,-0.030110301946,-0.00698425194106,0.98843845024,0.148438606932
1402415971354697559,,errorv,,0,,1402415971,454481331,base_link,imu,,,0.13,0.0,-0.1,,1.0,0.0,0.0,0.0
1402415971354794005,,errorv,,0,,1402415971,454503491,/base_link,/gps,,,-0.84,0.0,-0.14,,0.0,0.0,0.0,1.0
1402415971357819053,,errorv,,0,,1402415971,357510757,base_link,/z_drive,,,0.0,0.0,0.0,,0.0,0.0,0.0,1.0
1402415971357854853,,errorv,,0,,1402415971,357528554,/z_drive,port,,,-0.3,0.3048,0.0,,0.0,0.0,0.0,1.0
1402415971357913153,,errorv,,0,,1402415971,357533127,/z_drive,starboard,,,-0.3,-0.3048,0.0,,0.0,0.0,0.0,1.0
1402415971377769861,,errorv,,0,,1402415971,377519322,base_link,/z_drive,,,0.0,0.0,0.0,,0.0,0.0,0.0,1.0
1402415971377800616,,errorv,,0,,1402415971,377631211,/z_drive,port,,,-0.3,0.3048,0.0,,0.0,0.0,0.0,1.0
1402415971377907036,,errorv,,0,,1402415971,377648260,/z_drive,starboard,,,-0.3,-0.3048,0.0,,0.0,0.0,0.0,1.0
1402415971387216723,,errorv,,0,,1402415971,309499979,/enu,/base_link,,,5.01394848581,17.7326041507,-25.4873898975,,-0.0301475314168,-0.0069294716608,0.988269369109,0.149555216735
1402415971387245051,,errorv,,0,,1402415971,319497108,/enu,/base_link,,,5.04195514162,17.7497652312,-25.6770889436,,-0.0230267313455,-0.00603166025752,0.987747049333,0.154237334171
1402415971387271483,,errorv,,0,,1402415971,329473018,/enu,/base_link,,,5.04056100385,17.7501982574,-25.6787488322,,-0.0230314888715,-0.00596415002599,0.987574375535,0.155341019122
1402415971390853812,,errorv,,0,,1402415971,339483022,/enu,/base_link,,,5.03915104756,17.7503330519,-25.6800283249,,-0.0230369649325,-0.00584589359221,0.987404528199,0.156420655499
1402415971397670171,,errorv,,0,,1402415971,397509184,base_link,/z_drive,,,0.0,0.0,0.0,,0.0,0.0,0.0,1.0
1402415971397701463,,errorv,,0,,1402415971,397531437,/z_drive,port,,,-0.3,0.3048,0.0,,0.0,0.0,0.0,1.0
1402415971397724648,,errorv,,0,,1402415971,397541435,/z_drive,starboard,,,-0.3,-0.3048,0.0,,0.0,0.0,0.0,1.0
1402415971417732690,,errorv,,0,,1402415971,417482758,base_link,/z_drive,,,0.0,0.0,0.0,,0.0,0.0,0.0,1.0
1402415971417761924,,errorv,,0,,1402415971,417502209,/z_drive,port,,,-0.3,0.3048,0.0,,0.0,0.0,0.0,1.0
1402415971417879943,,errorv,,0,,1402415971,417511515,/z_drive,starboard,,,-0.3,-0.3048,0.0,,0.0,0.0,0.0,1.0
1402415971428020794,,errorv,,0,,1402415971,349482059,/enu,/base_link,,,5.037811231,17.7506364932,-25.6815094494,,-0.0230789843864,-0.00571194959762,0.987231965515,0.157504858267
1402415971428054577,,errorv,,0,,1402415971,359488010,/enu,/base_link,,,5.09999199597,17.7962379125,-25.7731317877,,-0.0143104120449,0.000838676174015,0.986305631067,0.16430371528
1402415971428079205,,errorv,,0,,1402415971,369471073,/enu,/base_link,,,5.10023800651,17.797200172,-25.7746548688,,-0.0143745119825,0.00085672623633,0.98613257016,0.165333582479
1402415971428098469,,errorv,,0,,1402415971,379487991,/enu,/base_link,,,5.10078655782,17.7982931102,-25.7763028995,,-0.0144343442886,0.000894721669955,0.985956835693,0.166372976558
1402415971437758611,,errorv,,0,,1402415971,437498116,base_link,/z_drive,,,0.0,0.0,0.0,,0.0,0.0,0.0,1.0
1402415971437788736,,errorv,,0,,1402415971,437519917,/z_drive,port,,,-0.3,0.3048,0.0,,0.0,0.0,0.0,1.0
1402415971437811502,,errorv,,0,,1402415971,437529533,/z_drive,starboard,,,-0.3,-0.3048,0.0,,0.0,0.0,0.0,1.0
1402415971454827100,,errorv,,0,,1402415971,554591145,base_link,imu,,,0.13,0.0,-0.1,,1.0,0.0,0.0,0.0
1402415971454903046,,errorv,,0,,1402415971,554611635,/base_link,/gps,,,-0.84,0.0,-0.14,,0.0,0.0,0.0,1.0
1402415971457617314,,errorv,,0,,1402415971,457455314,base_link,/z_drive,,,0.0,0.0,0.0,,0.0,0.0,0.0,1.0
1402415971457644958,,errorv,,0,,1402415971,457473471,/z_drive,port,,,-0.3,0.3048,0.0,,0.0,0.0,0.0,1.0
1402415971457671164,,errorv,,0,,1402415971,457482923,/z_drive,starboard,,,-0.3,-0.3048,0.0,,0.0,0.0,0.0,1.0
1402415971467252216,,errorv,,0,,1402415971,390460014,/enu,/base_link,,,5.10115650818,17.7996883592,-25.7785747883,,-0.0145089526932,0.000948188898054,0.985760503485,0.167525583116
1402415971467276687,,errorv,,0,,1402415971,400475978,/enu,/base_link,,,5.13428041366,17.8223130613,-25.8053077158,,-0.0103735160849,0.00451776472641,0.985141278918,0.171372811546
1402415971467421570,,errorv,,0,,1402415971,409444093,/enu,/base_link,,,5.13538830749,17.8239256725,-25.8072360966,,-0.01045599951,0.00462413686132,0.984983895461,0.172267278134
1402415971467488247,,errorv,,0,,1402415971,420449018,/enu,/base_link,,,5.13681654572,17.8256673928,-25.809193026,,-0.0105329480493,0.00476736344329,0.984784126895,0.173397095325
1402415971477851273,,errorv,,0,,1402415971,477480805,base_link,/z_drive,,,0.0,0.0,0.0,,0.0,0.0,0.0,1.0
1402415971477880487,,errorv,,0,,1402415971,477498202,/z_drive,port,,,-0.3,0.3048,0.0,,0.0,0.0,0.0,1.0
1402415971477909855,,errorv,,0,,1402415971,477506157,/z_drive,starboard,,,-0.3,-0.3048,0.0,,0.0,0.0,0.0,1.0
1402415971497710710,,errorv,,0,,1402415971,497435997,base_link,/z_drive,,,0.0,0.0,0.0,,0.0,0.0,0.0,1.0
1402415971497742957,,errorv,,0,,1402415971,497474978,/z_drive,port,,,-0.3,0.3048,0.0,,0.0,0.0,0.0,1.0
1402415971497765676,,errorv,,0,,1402415971,497484480,/z_drive,starboard,,,-0.3,-0.3048,0.0,,0.0,0.0,0.0,1.0
1402415971507162645,,errorv,,0,,1402415971,430443048,/enu,/base_link,,,5.13802287665,17.8275266659,-25.811415844,,-0.0106164075989,0.00486059287873,0.984610163178,0.17437457697
1402415971507241509,,errorv,,0,,1402415971,440447092,/enu,/base_link,,,5.1544757847,17.8384015005,-25.8270621876,,-0.00868030579761,0.00653196015212,0.984197050933,0.176743177299
1402415971507265605,,errorv,,0,,1402415971,450444936,/enu,/base_link,,,5.15620631218,17.8400399698,-25.8287456407,,-0.00875498363893,0.00665017320767,0.984019208755,0.177722599181
