rosbagTimestamp,control_method,x_current,x_desired,y_current,y_desired,z_current,z_desired,x_velocity_current,x_velocity_desired,y_velocity_current,y_velocity_desired,z_velocity_current,z_velocity_desired,yaw_current,yaw_desired,yaw_velocity_current,yaw_velocity_desired,roll_current,roll_desired,roll_velocity_current,roll_velocity_desired,pitch_current,pitch_desired,pitch_velocity_current,pitch_velocity_desired,required_force_x,required_force_y,required_moment_z,resultant_force_x,resultant_force_y,resultant_moment_z,current_port_servo_angle,current_port_thruster_force,current_starboard_servo_angle,current_starboard_thruster_force,estimated_port_servo_angle,estimated_port_thruster_force,estimated_starboard_servo_angle,estimated_starboard_thruster_force,cost_value,step,user_defined_1,user_defined_2,user_defined_3,user_defined_4,user_defined_5
1402760630114365242,3,-9.38051946,-7.1377884924,0.666493605306,2.38304939926,1.96704503217,-3.84635974695,-0.044868275454,0.0,-0.0272779820884,0.0,0.0577377295921,0.0,-0.552629308012,0.0,-0.021309449497,0.0,0.000679097540917,0.0,-0.0219397173444,0.0,0.0671025785715,0.0,-0.0122705489979,0.0,-0.0,-0.0,0.592139422894,-19.0,140.296115413,-126.249157948,1.04259428183,0.0,-1.04719749291,0.0,1.0471975512,62.0,-1.0471975512,-100.0,17973127.3593,0.0,0.0,0.0,0.0,0.0,0.0
1402760630134427851,3,-9.38051946,-7.1377884924,0.666493605306,2.38304939926,1.96704503217,-3.84635974695,-0.044868275454,0.0,-0.0272779820884,0.0,0.0577377295921,0.0,-0.552629308012,0.0,-0.021309449497,0.0,0.000679097540917,0.0,-0.0219397173444,0.0,0.0671025785715,0.0,-0.0122705489979,0.0,-0.0,-0.0,0.592139422894,-19.0,140.296115413,-126.249157948,1.04259428183,0.0,-1.04719749291,0.0,1.0471975512,62.0,-1.0471975512,-100.0,17973127.3593,0.0,0.0,0.0,0.0,0.0,0.0
1402760630154898567,3,-9.38256378651,-7.1377884924,0.66227346256,2.38304939926,1.9699632633,-3.84635974695,-0.0378691889807,0.0,-0.0312737217724,0.0,0.0528948862751,0.0,-0.553623813376,0.0,-0.0204925653767,0.0,0.000125331641968,0.0,-0.0251792615449,0.0,0.0674659994434,0.0,-0.00429541473694,0.0,-0.0,-0.0,0.592139422894,-19.0,140.296115413,-126.249157948,1.04259428183,0.0,-1.04719749291,0.0,1.0471975512,62.0,-1.0471975512,-100.0,17973127.3593,0.0,0.0,0.0,0.0,0.0,0.0
1402760630174668480,3,-9.38256378651,-7.1377884924,0.66227346256,2.38304939926,1.9699632633,-3.84635974695,-0.0378691889807,0.0,-0.0312737217724,0.0,0.0528948862751,0.0,-0.553623813376,0.0,-0.0204925653767,0.0,0.000125331641968,0.0,-0.0251792615449,0.0,0.0674659994434,0.0,-0.00429541473694,0.0,-0.0,-0.0,0.592139422894,-19.0,140.296115413,-126.249157948,1.04259428183,0.0,-1.04719749291,0.0,1.0471975512,62.0,-1.0471975512,-100.0,17973127.3593,0.0,0.0,0.0,0.0,0.0,0.0
1402760630194439004,3,-9.39068176717,-7.1377884924,0.656326040488,2.38304939926,1.98710671555,-3.84635974695,-0.0317932377071,0.0,-0.0290211739169,0.0,0.0528247468332,0.0,-0.555029027467,0.0,-0.0269161573669,0.0,-0.00143314442938,0.0,-0.0204707078326,0.0,0.0673873461264,0.0,0.00290268886595,0.0,-0.0,-0.0,0.592139422894,-19.0,140.296115413,-126.249157948,1.04259428183,0.0,-1.04719749291,0.0,1.0471975512,62.0,-1.0471975512,-100.0,17973127.3593,0.0,0.0,0.0,0.0,0.0,0.0
1402760630214926454,3,-9.39068176717,-7.1377884924,0.656326040488,2.38304939926,1.98710671555,-3.84635974695,-0.0317932377071,0.0,-0.0290211739169,0.0,0.0528247468332,0.0,-0.555029027467,0.0,-0.0269161573669,0.0,-0.00143314442938,0.0,-0.0204707078326,0.0,0.0673873461264,0.0,0.00290268886595,0.0,-0.0,-0.0,0.592139422894,-19.0,140.296115413,-126.249157948,1.04259428183,0.0,-1.04719749291,0.0,1.0471975512,62.0,-1.0471975512,-100.0,17973127.3593,0.0,0.0,0.0,0.0,0.0,0.0
1402760630234469726,3,-9.40388934093,-7.1377884924,0.649801659867,2.38304939926,1.99479675861,-3.84635974695,-0.0448276242367,0.0,-0.0334632550493,0.0,0.0498768841646,0.0,-0.556094192093,0.0,-0.0257596369674,0.0,-0.00137752910568,0.0,-0.0195435677595,0.0,0.0663437123434,0.0,0.01301675978,0.0,-0.0,-0.0,0.592139422894,-19.0,140.296115413,-126.249157948,1.04259428183,0.0,-1.04719749291,0.0,1.0471975512,62.0,-1.0471975512,-100.0,17973127.3593,0.0,0.0,0.0,0.0,0.0,0.0
1402760630254248183,3,-9.40388934093,-7.1377884924,0.649801659867,2.38304939926,1.99479675861,-3.84635974695,-0.0448276242367,0.0,-0.0334632550493,0.0,0.0498768841646,0.0,-0.556094192093,0.0,-0.0257596369674,0.0,-0.00137752910568,0.0,-0.0195435677595,0.0,0.0663437123434,0.0,0.01301675978,0.0,-0.0,-0.0,0.592139422894,-19.0,140.296115413,-126.249157948,1.04259428183,0.0,-1.04719749291,0.0,1.0471975512,62.0,-1.0471975512,-100.0,17973127.3593,0.0,0.0,0.0,0.0,0.0,0.0
1402760630275445399,3,-9.41160485121,-7.1377884924,0.645281861255,2.38304939926,1.99880850151,-3.84635974695,-0.0506912636699,0.0,-0.0381083392085,0.0,0.0465791193824,0.0,-0.556488770551,0.0,-0.0224792377539,0.0,-0.000909700554236,0.0,-0.0131388563196,0.0,0.0662136655657,0.0,0.0128345172947,0.0,-0.0,-0.0,0.592139422894,-19.0,140.296115413,-126.249157948,1.04259428183,0.0,-1.04719749291,0.0,1.0471975512,62.0,-1.0471975512,-100.0,17973127.3593,0.0,0.0,0.0,0.0,0.0,0.0
1402760630294206544,3,-9.41160485121,-7.1377884924,0.645281861255,2.38304939926,1.99880850151,-3.84635974695,-0.0506912636699,0.0,-0.0381083392085,0.0,0.0465791193824,0.0,-0.556488770551,0.0,-0.0224792377539,0.0,-0.000909700554236,0.0,-0.0131388563196,0.0,0.0662136655657,0.0,0.0128345172947,0.0,-0.0,-0.0,0.592139422894,-19.0,140.296115413,-126.249157948,1.04259428183,0.0,-1.04719749291,0.0,1.0471975512,62.0,-1.0471975512,-100.0,17973127.3593,0.0,0.0,0.0,0.0,0.0,0.0
1402760630314516660,3,-9.41341529967,-7.1377884924,0.643799499043,2.38304939926,2.01457980556,-3.84635974695,-0.0293993656292,0.0,-0.0222608268948,0.0,0.048894321846,0.0,-0.557908973067,0.0,-0.0203819128818,0.0,-0.00477848966234,0.0,-0.00666856362906,0.0,0.0675053909452,0.0,0.0142007576136,0.0,-0.0,-0.0,0.592139422894,-19.0,140.296115413,-126.249157948,1.04259428183,0.0,-1.04719749291,0.0,1.0471975512,62.0,-1.0471975512,-100.0,17973127.3593,0.0,0.0,0.0,0.0,0.0,0.0
1402760630334913220,3,-9.41341529967,-7.1377884924,0.643799499043,2.38304939926,2.01457980556,-3.84635974695,-0.0293993656292,0.0,-0.0222608268948,0.0,0.048894321846,0.0,-0.557908973067,0.0,-0.0203819128818,0.0,-0.00477848966234,0.0,-0.00666856362906,0.0,0.0675053909452,0.0,0.0142007576136,0.0,-0.0,-0.0,0.592139422894,-19.0,140.296115413,-126.249157948,1.04259428183,0.0,-1.04719749291,0.0,1.0471975512,62.0,-1.0471975512,-100.0,17973127.3593,0.0,0.0,0.0,0.0,0.0,0.0
1402760630354280126,3,-9.42887670914,-7.1377884924,0.638517249238,2.38304939926,2.03407123597,-3.84635974695,-0.0390354287503,0.0,-0.0161026385821,0.0,0.0528356321435,0.0,-0.558754573565,0.0,-0.021919020187,0.0,-0.00530876666626,0.0,0.00244156992806,0.0,0.0666103760711,0.0,0.0182669198258,0.0,-0.0,-0.0,0.592139422894,-19.0,140.296115413,-126.249157948,1.04259428183,0.0,-1.04719749291,0.0,1.0471975512,62.0,-1.0471975512,-100.0,17973127.3593,0.0,0.0,0.0,0.0,0.0,0.0
1402760630374236757,3,-9.42887670914,-7.1377884924,0.638517249238,2.38304939926,2.03407123597,-3.84635974695,-0.0390354287503,0.0,-0.0161026385821,0.0,0.0528356321435,0.0,-0.558754573565,0.0,-0.021919020187,0.0,-0.00530876666626,0.0,0.00244156992806,0.0,0.0666103760711,0.0,0.0182669198258,0.0,-0.0,-0.0,0.592139422894,-19.0,140.296115413,-126.249157948,1.04259428183,0.0,-1.04719749291,0.0,1.0471975512,62.0,-1.0471975512,-100.0,17973127.3593,0.0,0.0,0.0,0.0,0.0,0.0
1402760630394651601,3,-9.43086286468,-7.1377884924,0.637769128303,2.38304939926,2.03675815518,-3.84635974695,-0.0406135092964,0.0,-0.0145121406582,0.0,0.0543781187793,0.0,-0.559877544416,0.0,-0.0258859977309,0.0,-0.00527462831046,0.0,0.0178737072064,0.0,0.0675132647343,0.0,0.00233288182515,0.0,-0.0,-0.0,0.592139422894,-19.0,140.296115413,-126.249157948,1.04259428183,0.0,-1.04719749291,0.0,1.0471975512,62.0,-1.0471975512,-100.0,17973127.3593,0.0,0.0,0.0,0.0,0.0,0.0
1402760630414187683,3,-9.43086286468,-7.1377884924,0.637769128303,2.38304939926,2.03675815518,-3.84635974695,-0.0406135092964,0.0,-0.0145121406582,0.0,0.0543781187793,0.0,-0.559877544416,0.0,-0.0258859977309,0.0,-0.00527462831046,0.0,0.0178737072064,0.0,0.0675132647343,0.0,0.00233288182515,0.0,-0.0,-0.0,0.592139422894,-19.0,140.296115413,-126.249157948,1.04412874381,0.0,-1.04719749291,0.0,1.0471975512,62.0,-1.0471975512,-100.0,17973127.3593,0.0,0.0,0.0,0.0,0.0,0.0
1402760630434273928,3,-9.43765100873,-7.1377884924,0.631735382099,2.38304939926,2.03903906216,-3.84635974695,-0.0418247159666,0.0,-0.0229866564317,0.0,0.0513713977213,0.0,-0.560516812503,0.0,-0.0242345592146,0.0,-0.00360607089423,0.0,0.0178587345875,0.0,0.0686018707165,0.0,0.00525625376481,0.0,-0.0,-0.0,0.592139422894,-19.0,140.296115413,-126.249157948,1.04259428183,0.0,-1.04719749291,0.0,1.0471975512,62.0,-1.0471975512,-100.0,17973127.3593,0.0,0.0,0.0,0.0,0.0,0.0
1402760630454990571,3,-9.4468981553,-7.1377884924,0.627529694067,2.38304939926,2.0500503213,-3.84635974695,-0.0445212984291,0.0,-0.0217784597552,0.0,0.0529199754216,0.0,-0.560848853059,0.0,-0.0183396013818,0.0,-0.00328908342651,0.0,0.0282056489175,0.0,0.0685939417928,0.0,0.0111759793801,0.0,-0.0,-0.0,0.592139422894,-19.0,140.296115413,-126.249157948,1.04259428183,0.0,-1.04719749291,0.0,1.0471975512,62.0,-1.0471975512,-100.0,17973127.3593,0.0,0.0,0.0,0.0,0.0,0.0
1402760630474310034,3,-9.4468981553,-7.1377884924,0.627529694067,2.38304939926,2.0500503213,-3.84635974695,-0.0445212984291,0.0,-0.0217784597552,0.0,0.0529199754216,0.0,-0.560848853059,0.0,-0.0183396013818,0.0,-0.00328908342651,0.0,0.0282056489175,0.0,0.0685939417928,0.0,0.0111759793801,0.0,-0.0,-0.0,0.592139422894,-19.0,140.296115413,-126.249157948,1.04259428183,0.0,-1.04719749291,0.0,1.0471975512,62.0,-1.0471975512,-100.0,17973127.3593,0.0,0.0,0.0,0.0,0.0,0.0
1402760630494301849,3,-9.44793632528,-7.1377884924,0.62697484005,2.38304939926,2.05123816102,-3.84635974695,-0.0457948721963,0.0,-0.0222803616795,0.0,0.0539707871571,0.0,-0.561115730655,0.0,-0.0122920828519,0.0,-0.00290277910492,0.0,0.0292225182512,0.0,0.0690307940101,0.0,0.00847300344086,0.0,-0.0,-0.0,0.592139422894,-19.0,140.296115413,-126.249157948,1.04259428183,0.0,-1.04719749291,0.0,1.0471975512,62.0,-1.0471975512,-100.0,17973127.3593,0.0,0.0,0.0,0.0,0.0,0.0
1402760630514804043,3,-9.44793632528,-7.1377884924,0.62697484005,2.38304939926,2.05123816102,-3.84635974695,-0.0457948721963,0.0,-0.0222803616795,0.0,0.0539707871571,0.0,-0.561115730655,0.0,-0.0122920828519,0.0,-0.00290277910492,0.0,0.0292225182512,0.0,0.0690307940101,0.0,0.00847300344086,0.0,-0.0,-0.0,0.592139422894,-19.0,140.296115413,-126.249157948,1.04412874381,0.0,-1.04719749291,0.0,1.0471975512,62.0,-1.0471975512,-100.0,17973127.3593,0.0,0.0,0.0,0.0,0.0,0.0
1402760630534317442,3,-9.45837802285,-7.1377884924,0.616601004052,2.38304939926,2.07387797435,-3.84635974695,-0.0418139925577,0.0,-0.0338112845619,0.0,0.0598297267452,0.0,-0.561704001943,0.0,-0.015977004894,0.0,-0.000889818458513,0.0,0.0310573473225,0.0,0.0712344831578,0.0,0.00171525625234,0.0,-0.0,-0.0,0.592139422894,-19.0,140.296115413,-126.249157948,1.04412874381,0.0,-1.04719749291,0.0,1.0471975512,62.0,-1.0471975512,-100.0,17973127.3593,0.0,0.0,0.0,0.0,0.0,0.0
1402760630554340244,3,-9.45837802285,-7.1377884924,0.616601004052,2.38304939926,2.07387797435,-3.84635974695,-0.0418139925577,0.0,-0.0338112845619,0.0,0.0598297267452,0.0,-0.561704001943,0.0,-0.015977004894,0.0,-0.000889818458513,0.0,0.0310573473225,0.0,0.0712344831578,0.0,0.00171525625234,0.0,-0.0,-0.0,0.592139422894,-19.0,140.296115413,-126.249157948,1.04259428183,0.0,-1.04719749291,0.0,1.0471975512,62.0,-1.0471975512,-100.0,17973127.3593,0.0,0.0,0.0,0.0,0.0,0.0
1402760630574827568,3,-9.45997165304,-7.1377884924,0.615410273019,2.38304939926,2.07595829839,-3.84635974695,-0.0423626536054,0.0,-0.0362868111111,0.0,0.0629602223253,0.0,-0.562364171131,0.0,-0.0158891534445,0.0,0.000308865415472,0.0,0.037206545381,0.0,0.0720104351502,0.0,0.00502026354558,0.0,-0.0,-0.0,0.592139422894,-19.0,140.296115413,-126.249157948,1.04259428183,0.0,-1.04719749291,0.0,1.0471975512,62.0,-1.0471975512,-100.0,17973127.3593,0.0,0.0,0.0,0.0,0.0,0.0
1402760630594407257,3,-9.45997165304,-7.1377884924,0.615410273019,2.38304939926,2.07595829839,-3.84635974695,-0.0423626536054,0.0,-0.0362868111111,0.0,0.0629602223253,0.0,-0.562364171131,0.0,-0.0158891534445,0.0,0.000308865415472,0.0,0.037206545381,0.0,0.0720104351502,0.0,0.00502026354558,0.0,-0.0,-0.0,0.592139422894,-19.0,140.296115413,-126.249157948,1.04259428183,0.0,-1.04719749291,0.0,1.0471975512,62.0,-1.0471975512,-100.0,17973127.3593,0.0,0.0,0.0,0.0,0.0,0.0
1402760630614293470,3,-9.47157078446,-7.1377884924,0.608308321547,2.38304939926,2.09628809519,-3.84635974695,-0.0441727624461,0.0,-0.0371387303847,0.0,0.0664139751629,0.0,-0.563021316869,0.0,-0.0166084286967,0.0,0.00146205782259,0.0,0.0387070328921,0.0,0.0727081514961,0.0,-0.00807671333392,0.0,-0.0,-0.0,0.592139422894,-19.0,140.296115413,-126.249157948,1.04259428183,0.0,-1.04719749291,0.0,1.0471975512,62.0,-1.0471975512,-100.0,17973127.3593,0.0,0.0,0.0,0.0,0.0,0.0
1402760630634821627,3,-9.47157078446,-7.1377884924,0.608308321547,2.38304939926,2.09628809519,-3.84635974695,-0.0441727624461,0.0,-0.0371387303847,0.0,0.0664139751629,0.0,-0.563021316869,0.0,-0.0166084286967,0.0,0.00146205782259,0.0,0.0387070328921,0.0,0.0727081514961,0.0,-0.00807671333392,0.0,-0.0,-0.0,0.592139422894,-19.0,140.296115413,-126.249157948,1.04259428183,0.0,-1.04719749291,0.0,1.0471975512,62.0,-1.0471975512,-100.0,17973127.3593,0.0,0.0,0.0,0.0,0.0,0.0
1402760630654387955,3,-9.47305031259,-7.1377884924,0.608277525336,2.38304939926,2.096711109,-3.84635974695,-0.0334010562947,0.0,-0.0284737739779,0.0,0.0636002074346,0.0,-0.564026950376,0.0,-0.0204164002341,0.0,0.00159715925469,0.0,0.0370111004295,0.0,0.0736100622381,0.0,-0.00546996035895,0.0,-0.0,-0.0,0.592139422894,-19.0,140.296115413,-126.249157948,1.04259428183,0.0,-1.04719749291,0.0,1.0471975512,62.0,-1.0471975512,-100.0,17973127.3593,0.0,0.0,0.0,0.0,0.0,0.0
1402760630674389287,3,-9.47305031259,-7.1377884924,0.608277525336,2.38304939926,2.096711109,-3.84635974695,-0.0334010562947,0.0,-0.0284737739779,0.0,0.0636002074346,0.0,-0.564026950376,0.0,-0.0204164002341,0.0,0.00159715925469,0.0,0.0370111004295,0.0,0.0736100622381,0.0,-0.00546996035895,0.0,-0.0,-0.0,0.592139422894,-19.0,140.296115413,-126.249157948,1.04259428183,0.0,-1.04719749291,0.0,1.0471975512,62.0,-1.0471975512,-100.0,17973127.3593,0.0,0.0,0.0,0.0,0.0,0.0
1402760630695234359,3,-9.48631028687,-7.1377884924,0.600765335704,2.38304939926,2.10414805963,-3.84635974695,-0.0466602543688,0.0,-0.0381786866359,0.0,0.0613558617394,0.0,-0.564677454894,0.0,-0.0163279939056,0.0,0.00490718033025,0.0,0.0229858757859,0.0,0.0734967365903,0.0,-0.00832789064346,0.0,-0.0,-0.0,0.592139422894,-19.0,140.296115413,-126.249157948,1.04259428183,0.0,-1.04719749291,0.0,1.0471975512,62.0,-1.0471975512,-100.0,17973127.3593,0.0,0.0,0.0,0.0,0.0,0.0
1402760630714375709,3,-9.48631028687,-7.1377884924,0.600765335704,2.38304939926,2.10414805963,-3.84635974695,-0.0466602543688,0.0,-0.0381786866359,0.0,0.0613558617394,0.0,-0.564677454894,0.0,-0.0163279939056,0.0,0.00490718033025,0.0,0.0229858757859,0.0,0.0734967365903,0.0,-0.00832789064346,0.0,-0.0,-0.0,0.592139422894,-19.0,140.296115413,-126.249157948,1.04259428183,0.0,-1.04719749291,0.0,1.0471975512,62.0,-1.0471975512,-100.0,17973127.3593,0.0,0.0,0.0,0.0,0.0,0.0
1402760630734293464,3,-9.4950909513,-7.1377884924,0.5976694979,2.38304939926,2.11806595872,-3.84635974695,-0.0425398300553,0.0,-0.0303545559282,0.0,0.0623149816478,0.0,-0.565157275756,0.0,-0.0206079564368,0.0,0.00428999947531,0.0,0.028686207928,0.0,0.07334923778,0.0,-0.00723865262059,0.0,-0.0,-0.0,0.592139422894,-19.0,140.296115413,-126.249157948,1.04412874381,0.0,-1.04719749291,0.0,1.0471975512,62.0,-1.0471975512,-100.0,17973127.3593,0.0,0.0,0.0,0.0,0.0,0.0
1402760630754818108,3,-9.4950909513,-7.1377884924,0.5976694979,2.38304939926,2.11806595872,-3.84635974695,-0.0425398300553,0.0,-0.0303545559282,0.0,0.0623149816478,0.0,-0.565157275756,0.0,-0.0206079564368,0.0,0.00428999947531,0.0,0.028686207928,0.0,0.07334923778,0.0,-0.00723865262059,0.0,-0.0,-0.0,0.592139422894,-19.0,140.296115413,-126.249157948,1.04259428183,0.0,-1.04719749291,0.0,1.0471975512,62.0,-1.0471975512,-100.0,17973127.3593,0.0,0.0,0.0,0.0,0.0,0.0
1402760630774329644,3,-9.50718410824,-7.1377884924,0.590162763465,2.38304939926,2.13459282401,-3.84635974695,-0.0448289836244,0.0,-0.0336963965353,0.0,0.06373675546,0.0,-0.565864516762,0.0,-0.0139297344142,0.0,0.00564755308058,0.0,0.0184695878091,0.0,0.0737067342289,0.0,-0.00771859800789,0.0,-0.0,-0.0,0.592139422894,-19.0,140.296115413,-126.249157948,1.04412874381,0.0,-1.04719749291,0.0,1.0471975512,62.0,-1.0471975512,-100.0,17973127.3593,0.0,0.0,0.0,0.0,0.0,0.0
1402760630794412146,3,-9.50718410824,-7.1377884924,0.590162763465,2.38304939926,2.13459282401,-3.84635974695,-0.0448289836244,0.0,-0.0336963965353,0.0,0.06373675546,0.0,-0.565864516762,0.0,-0.0139297344142,0.0,0.00564755308058,0.0,0.0184695878091,0.0,0.0737067342289,0.0,-0.00771859800789,0.0,-0.0,-0.0,0.592139422894,-19.0,140.296115413,-126.249157948,1.04259428183,0.0,-1.04719749291,0.0,1.0471975512,62.0,-1.0471975512,-100.0,17973127.3593,0.0,0.0,0.0,0.0,0.0,0.0
1402760630814674720,3,-9.51675880312,-7.1377884924,0.582156983827,2.38304939926,2.15169143111,-3.84635974695,-0.0382943447423,0.0,-0.0363431463456,0.0,0.0658899264776,0.0,-0.566536131494,0.0,-0.0185137347861,0.0,0.00630790617716,0.0,0.00311065283488,0.0,0.0747123901655,0.0,0.000780032670029,0.0,-0.0,-0.0,0.592139422894,-19.0,140.296115413,-126.249157948,1.04259428183,0.0,-1.04719749291,0.0,1.0471975512,62.0,-1.0471975512,-100.0,17973127.3593,0.0,0.0,0.0,0.0,0.0,0.0
1402760630834274576,3,-9.51675880312,-7.1377884924,0.582156983827,2.38304939926,2.15169143111,-3.84635974695,-0.0382943447423,0.0,-0.0363431463456,0.0,0.0658899264776,0.0,-0.566536131494,0.0,-0.0185137347861,0.0,0.00630790617716,0.0,0.00311065283488,0.0,0.0747123901655,0.0,0.000780032670029,0.0,-0.0,-0.0,0.592139422894,-19.0,140.296115413,-126.249157948,1.04259428183,0.0,-1.04719749291,0.0,1.0471975512,62.0,-1.0471975512,-100.0,17973127.3593,0.0,0.0,0.0,0.0,0.0,0.0
1402760630854324716,3,-9.52504607297,-7.1377884924,0.577203392067,2.38304939926,2.15950080768,-3.84635974695,-0.0390145755404,0.0,-0.0368512973797,0.0,0.0647042408726,0.0,-0.56741178692,0.0,-0.0191657405758,0.0,0.00665127016193,0.0,-0.00413657454861,0.0,0.0746016741195,0.0,0.00371097195335,0.0,-0.0,-0.0,0.592139422894,-19.0,140.296115413,-126.249157948,1.04412874381,0.0,-1.04719749291,0.0,1.0471975512,62.0,-1.0471975512,-100.0,17973127.3593,0.0,0.0,0.0,0.0,0.0,0.0
1402760630874775401,3,-9.52504607297,-7.1377884924,0.577203392067,2.38304939926,2.15950080768,-3.84635974695,-0.0390145755404,0.0,-0.0368512973797,0.0,0.0647042408726,0.0,-0.56741178692,0.0,-0.0191657405758,0.0,0.00665127016193,0.0,-0.00413657454861,0.0,0.0746016741195,0.0,0.00371097195335,0.0,-0.0,-0.0,0.592139422894,-19.0,140.296115413,-126.249157948,1.04259428183,0.0,-1.04719749291,0.0,1.0471975512,62.0,-1.0471975512,-100.0,17973127.3593,0.0,0.0,0.0,0.0,0.0,0.0
1402760630894306366,3,-9.54203339174,-7.1377884924,0.571091867339,2.38304939926,2.17582729943,-3.84635974695,-0.052387122961,0.0,-0.0337837067954,0.0,0.0664855284893,0.0,-0.568383054372,0.0,-0.0200865662868,0.0,0.00666891698917,0.0,-0.0111084257149,0.0,0.0728743208538,0.0,0.00149639631549,0.0,-0.0,-0.0,0.592139422894,-19.0,140.296115413,-126.249157948,1.04259428183,0.0,-1.04719749291,0.0,1.0471975512,62.0,-1.0471975512,-100.0,17973127.3593,0.0,0.0,0.0,0.0,0.0,0.0
1402760630914390778,3,-9.54203339174,-7.1377884924,0.571091867339,2.38304939926,2.17582729943,-3.84635974695,-0.052387122961,0.0,-0.0337837067954,0.0,0.0664855284893,0.0,-0.568383054372,0.0,-0.0200865662868,0.0,0.00666891698917,0.0,-0.0111084257149,0.0,0.0728743208538,0.0,0.00149639631549,0.0,-0.0,-0.0,0.592139422894,-19.0,140.296115413,-126.249157948,1.04259428183,0.0,-1.04719749291,0.0,1.0471975512,62.0,-1.0471975512,-100.0,17973127.3593,0.0,0.0,0.0,0.0,0.0,0.0
1402760630934982435,3,-9.54524191856,-7.1377884924,0.568272517602,2.38304939926,2.17824438254,-3.84635974695,-0.0395962849761,0.0,-0.0292823452757,0.0,0.0633097108179,0.0,-0.569421887112,0.0,-0.0148334605487,0.0,0.00460356518854,0.0,-0.0211669038803,0.0,0.0733369474839,0.0,0.00892261980647,0.0,-0.0,-0.0,0.592139422894,-19.0,140.296115413,-126.249157948,1.04412874381,0.0,-1.04719749291,0.0,1.0471975512,62.0,-1.0471975512,-100.0,17973127.3593,0.0,0.0,0.0,0.0,0.0,0.0
1402760630954218355,3,-9.54524191856,-7.1377884924,0.568272517602,2.38304939926,2.17824438254,-3.84635974695,-0.0395962849761,0.0,-0.0292823452757,0.0,0.0633097108179,0.0,-0.569421887112,0.0,-0.0148334605487,0.0,0.00460356518854,0.0,-0.0211669038803,0.0,0.0733369474839,0.0,0.00892261980647,0.0,-0.0,-0.0,0.592139422894,-19.0,140.296115413,-126.249157948,1.04412874381,0.0,-1.04719749291,0.0,1.0471975512,62.0,-1.0471975512,-100.0,17973127.3593,0.0,0.0,0.0,0.0,0.0,0.0
1402760630974314993,3,-9.54613107478,-7.1377884924,0.567532534862,2.38304939926,2.17978156181,-3.84635974695,-0.0394222376179,0.0,-0.0280354814687,0.0,0.0637050909431,0.0,-0.569854387364,0.0,-0.0195695791808,0.0,0.00408507191687,0.0,-0.0284086661946,0.0,0.0731318279338,0.0,0.00729261068791,0.0,-0.0,-0.0,0.592139422894,-19.0,140.296115413,-126.249157948,1.04412874381,0.0,-1.04719749291,0.0,1.0471975512,62.0,-1.0471975512,-100.0,17973127.3593,0.0,0.0,0.0,0.0,0.0,0.0
1402760630994453459,3,-9.54613107478,-7.1377884924,0.567532534862,2.38304939926,2.17978156181,-3.84635974695,-0.0394222376179,0.0,-0.0280354814687,0.0,0.0637050909431,0.0,-0.569854387364,0.0,-0.0195695791808,0.0,0.00408507191687,0.0,-0.0284086661946,0.0,0.0731318279338,0.0,0.00729261068791,0.0,-0.0,-0.0,0.592139422894,-19.0,140.296115413,-126.249157948,1.04412874381,0.0,-1.04719749291,0.0,1.0471975512,62.0,-1.0471975512,-100.0,17973127.3593,0.0,0.0,0.0,0.0,0.0,0.0
1402760631016419468,3,-9.56024401389,-7.1377884924,0.55461150186,2.38304939926,2.20349318841,-3.84635974695,-0.039533073781,0.0,-0.0429892855657,0.0,0.0677591791029,0.0,-0.570870543333,0.0,-0.0253342060995,0.0,0.00465013476633,0.0,-0.0392423836622,0.0,0.0738778787266,0.0,0.00724559141365,0.0,-0.0,-0.0,0.592139422894,-19.0,140.296115413,-126.249157948,1.04259428183,0.0,-1.04719749291,0.0,1.0471975512,62.0,-1.0471975512,-100.0,17973127.3593,0.0,0.0,0.0,0.0,0.0,0.0
1402760631034249270,3,-9.56024401389,-7.1377884924,0.55461150186,2.38304939926,2.20349318841,-3.84635974695,-0.039533073781,0.0,-0.0429892855657,0.0,0.0677591791029,0.0,-0.570870543333,0.0,-0.0253342060995,0.0,0.00465013476633,0.0,-0.0392423836622,0.0,0.0738778787266,0.0,0.00724559141365,0.0,-0.0,-0.0,0.592139422894,-19.0,140.296115413,-126.249157948,1.04259428183,0.0,-1.04719749291,0.0,1.0471975512,62.0,-1.0471975512,-100.0,17973127.3593,0.0,0.0,0.0,0.0,0.0,0.0
1402760631054127406,3,-9.57481879286,-7.1377884924,0.552988686509,2.38304939926,2.21493851938,-3.84635974695,-0.0507450121496,0.0,-0.0286101407589,0.0,0.0676653229389,0.0,-0.571747055247,0.0,-0.0271351780483,0.0,0.00192670371934,0.0,-0.0421906682701,0.0,0.0710004465595,0.0,0.0119844075958,0.0,-0.0,-0.0,0.592139422894,-19.0,140.296115413,-126.249157948,1.04259428183,0.0,-1.04719749291,0.0,1.0471975512,62.0,-1.0471975512,-100.0,17973127.3593,0.0,0.0,0.0,0.0,0.0,0.0
1402760631074848688,3,-9.57481879286,-7.1377884924,0.552988686509,2.38304939926,2.21493851938,-3.84635974695,-0.0507450121496,0.0,-0.0286101407589,0.0,0.0676653229389,0.0,-0.571747055247,0.0,-0.0271351780483,0.0,0.00192670371934,0.0,-0.0421906682701,0.0,0.0710004465595,0.0,0.0119844075958,0.0,-0.0,-0.0,0.592139422894,-19.0,140.296115413,-126.249157948,1.04259428183,0.0,-1.04719749291,0.0,1.0471975512,62.0,-1.0471975512,-100.0,17973127.3593,0.0,0.0,0.0,0.0,0.0,0.0
1402760631094426983,3,-9.57700453755,-7.1377884924,0.551741226466,2.38304939926,2.2178402195,-3.84635974695,-0.0521126898642,0.0,-0.0289563635173,0.0,0.0674380550817,0.0,-0.572873639408,0.0,-0.0250481613404,0.0,0.000262880188634,0.0,-0.0452840716338,0.0,0.0704007500254,0.0,0.00977011281492,0.0,-0.0,-0.0,0.592139422894,-19.0,140.296115413,-126.249157948,1.04259428183,0.0,-1.04719749291,0.0,1.0471975512,62.0,-1.0471975512,-100.0,17973127.3593,0.0,0.0,0.0,0.0,0.0,0.0
1402760631114333896,3,-9.57700453755,-7.1377884924,0.551741226466,2.38304939926,2.2178402195,-3.84635974695,-0.0521126898642,0.0,-0.0289563635173,0.0,0.0674380550817,0.0,-0.572873639408,0.0,-0.0250481613404,0.0,0.000262880188634,0.0,-0.0452840716338,0.0,0.0704007500254,0.0,0.00977011281492,0.0,-0.0,-0.0,0.592139422894,-19.0,140.296115413,-126.249157948,1.04259428183,0.0,-1.04719749291,0.0,1.0471975512,62.0,-1.0471975512,-100.0,17973127.3593,0.0,0.0,0.0,0.0,0.0,0.0
1402760631134757345,3,-9.59467746751,-7.1377884924,0.540483879245,2.38304939926,2.2378250494,-3.84635974695,-0.045991574728,0.0,-0.0316641074324,0.0,0.0643735035488,0.0,-0.574469039438,0.0,-0.0289274852517,0.0,-0.00203081490651,0.0,-0.0499275042787,0.0,0.070267717604,0.0,0.0102717449434,0.0,-0.0,-0.0,0.592139422894,-19.0,140.296115413,-126.249157948,1.04259428183,0.0,-1.04719749291,0.0,1.0471975512,62.0,-1.0471975512,-100.0,17973127.3593,0.0,0.0,0.0,0.0,0.0,0.0
1402760631154436852,3,-9.59467746751,-7.1377884924,0.540483879245,2.38304939926,2.2378250494,-3.84635974695,-0.045991574728,0.0,-0.0316641074324,0.0,0.0643735035488,0.0,-0.574469039438,0.0,-0.0289274852517,0.0,-0.00203081490651,0.0,-0.0499275042787,0.0,0.070267717604,0.0,0.0102717449434,0.0,-0.0,-0.0,0.592139422894,-19.0,140.296115413,-126.249157948,1.04259428183,0.0,-1.04719749291,0.0,1.0471975512,62.0,-1.0471975512,-100.0,17973127.3593,0.0,0.0,0.0,0.0,0.0,0.0
1402760631174414849,3,-9.59598206,-7.1377884924,0.539489799868,2.38304939926,2.23974821286,-3.84635974695,-0.0471134413668,0.0,-0.0327596138667,0.0,0.0644513340137,0.0,-0.575458445182,0.0,-0.029045955521,0.0,-0.00325998316721,0.0,-0.0417592409291,0.0,0.0696332560416,0.0,0.00537897116884,0.0,-0.0,-0.0,0.592139422894,-19.0,140.296115413,-126.249157948,1.04259428183,0.0,-1.04719749291,0.0,1.0471975512,62.0,-1.0471975512,-100.0,17973127.3593,0.0,0.0,0.0,0.0,0.0,0.0
1402760631195040276,3,-9.59695722021,-7.1377884924,0.538836936276,2.38304939926,2.24108255162,-3.84635974695,-0.0478219556718,0.0,-0.0320539689767,0.0,0.0637436405369,0.0,-0.576067497964,0.0,-0.0279503910632,0.0,-0.00416042849478,0.0,-0.0505674502298,0.0,0.0691776724821,0.0,0.00569703495348,0.0,-0.0,-0.0,0.592139422894,-19.0,140.296115413,-126.249157948,1.04259428183,0.0,-1.04719749291,0.0,1.0471975512,62.0,-1.0471975512,-100.0,17973127.3593,0.0,0.0,0.0,0.0,0.0,0.0
1402760631214996586,3,-9.59695722021,-7.1377884924,0.538836936276,2.38304939926,2.24108255162,-3.84635974695,-0.0478219556718,0.0,-0.0320539689767,0.0,0.0637436405369,0.0,-0.576067497964,0.0,-0.0279503910632,0.0,-0.00416042849478,0.0,-0.0505674502298,0.0,0.0691776724821,0.0,0.00569703495348,0.0,-0.0,-0.0,0.592139422894,-19.0,140.296115413,-126.249157948,1.04412874381,0.0,-1.04719749291,0.0,1.0471975512,62.0,-1.0471975512,-100.0,17973127.3593,0.0,0.0,0.0,0.0,0.0,0.0
1402760631234483525,3,-9.60718233288,-7.1377884924,0.536520251453,2.38304939926,2.24841524921,-3.84635974695,-0.0512565681971,0.0,-0.0248245298446,0.0,0.0617623721797,0.0,-0.576735223154,0.0,-0.0353816061148,0.0,-0.00563815242426,0.0,-0.054296862103,0.0,0.0678642423679,0.0,0.00937009677321,0.0,-0.0,-0.0,0.592139422894,-19.0,140.296115413,-126.249157948,1.04259428183,0.0,-1.04719749291,0.0,1.0471975512,62.0,-1.0471975512,-100.0,17973127.3593,0.0,0.0,0.0,0.0,0.0,0.0
1402760631255036210,3,-9.60718233288,-7.1377884924,0.536520251453,2.38304939926,2.24841524921,-3.84635974695,-0.0512565681971,0.0,-0.0248245298446,0.0,0.0617623721797,0.0,-0.576735223154,0.0,-0.0353816061148,0.0,-0.00563815242426,0.0,-0.054296862103,0.0,0.0678642423679,0.0,0.00937009677321,0.0,-0.0,-0.0,0.592139422894,-19.0,140.296115413,-126.249157948,1.04259428183,0.0,-1.04719749291,0.0,1.0471975512,62.0,-1.0471975512,-100.0,17973127.3593,0.0,0.0,0.0,0.0,0.0,0.0
1402760631274322262,3,-9.62027269916,-7.1377884924,0.527709751646,2.38304939926,2.26222574982,-3.84635974695,-0.0574837910294,0.0,-0.0368014825142,0.0,0.0614227521127,0.0,-0.577984665184,0.0,-0.0293429760059,0.0,-0.00560730590937,0.0,-0.0337285028168,0.0,0.0674888911061,0.0,0.00188284800075,0.0,-0.0,-0.0,0.592139422894,-19.0,140.296115413,-126.249157948,1.04259428183,0.0,-1.04719749291,0.0,1.0471975512,62.0,-1.0471975512,-100.0,17973127.3593,0.0,0.0,0.0,0.0,0.0,0.0
1402760631294327263,3,-9.62027269916,-7.1377884924,0.527709751646,2.38304939926,2.26222574982,-3.84635974695,-0.0574837910294,0.0,-0.0368014825142,0.0,0.0614227521127,0.0,-0.577984665184,0.0,-0.0293429760059,0.0,-0.00560730590937,0.0,-0.0337285028168,0.0,0.0674888911061,0.0,0.00188284800075,0.0,-0.0,-0.0,0.592139422894,-19.0,140.296115413,-126.249157948,1.04259428183,0.0,-1.04719749291,0.0,1.0471975512,62.0,-1.0471975512,-100.0,17973127.3593,0.0,0.0,0.0,0.0,0.0,0.0
1402760631315080026,3,-9.63303123887,-7.1377884924,0.521296172159,2.38304939926,2.28415078495,-3.84635974695,-0.0566253015131,0.0,-0.034068051581,0.0,0.0638841685231,0.0,-0.579471086592,0.0,-0.0283976751592,0.0,-0.00752578263972,0.0,-0.0234900140194,0.0,0.0667805727414,0.0,-0.00178626858546,0.0,-0.0,-0.0,0.592139422894,-19.0,140.296115413,-126.249157948,1.04412874381,0.0,-1.04719749291,0.0,1.0471975512,62.0,-1.0471975512,-100.0,17973127.3593,0.0,0.0,0.0,0.0,0.0,0.0
1402760631334446702,3,-9.63303123887,-7.1377884924,0.521296172159,2.38304939926,2.28415078495,-3.84635974695,-0.0566253015131,0.0,-0.034068051581,0.0,0.0638841685231,0.0,-0.579471086592,0.0,-0.0283976751592,0.0,-0.00752578263972,0.0,-0.0234900140194,0.0,0.0667805727414,0.0,-0.00178626858546,0.0,-0.0,-0.0,0.592139422894,-19.0,140.296115413,-126.249157948,1.04259428183,0.0,-1.04719749291,0.0,1.0471975512,62.0,-1.0471975512,-100.0,17973127.3593,0.0,0.0,0.0,0.0,0.0,0.0
1402760631354388394,3,-9.64019824264,-7.1377884924,0.518047335548,2.38304939926,2.29253998417,-3.84635974695,-0.0520840427878,0.0,-0.0270119783021,0.0,0.060613755,0.0,-0.581513129616,0.0,-0.0337634567595,0.0,-0.00928282098852,0.0,-0.0173149632297,0.0,0.0660139259632,0.0,-0.00644455601735,0.0,-0.0,-0.0,0.592139422894,-19.0,140.296115413,-126.249157948,1.04259428183,0.0,-1.04719749291,0.0,1.0471975512,62.0,-1.0471975512,-100.0,17973127.3593,0.0,0.0,0.0,0.0,0.0,0.0
1402760631374533754,3,-9.64019824264,-7.1377884924,0.518047335548,2.38304939926,2.29253998417,-3.84635974695,-0.0520840427878,0.0,-0.0270119783021,0.0,0.060613755,0.0,-0.581513129616,0.0,-0.0337634567595,0.0,-0.00928282098852,0.0,-0.0173149632297,0.0,0.0660139259632,0.0,-0.00644455601735,0.0,-0.0,-0.0,0.592139422894,-19.0,140.296115413,-126.249157948,1.04259428183,0.0,-1.04719749291,0.0,1.0471975512,62.0,-1.0471975512,-100.0,17973127.3593,0.0,0.0,0.0,0.0,0.0,0.0
1402760631395007896,3,-9.64907064197,-7.1377884924,0.510387013802,2.38304939926,2.30370072004,-3.84635974695,-0.0506299995393,0.0,-0.035172021565,0.0,0.0594647649378,0.0,-0.58326373886,0.0,-0.0383993117753,0.0,-0.00830817562712,0.0,-0.0027511482572,0.0,0.0662930258043,0.0,-0.00967608717792,0.0,-0.0,-0.0,0.592139422894,-19.0,140.296115413,-126.249157948,1.04259428183,0.0,-1.04719749291,0.0,1.0471975512,62.0,-1.0471975512,-100.0,17973127.3593,0.0,0.0,0.0,0.0,0.0,0.0
1402760631414076514,3,-9.64907064197,-7.1377884924,0.510387013802,2.38304939926,2.30370072004,-3.84635974695,-0.0506299995393,0.0,-0.035172021565,0.0,0.0594647649378,0.0,-0.58326373886,0.0,-0.0383993117753,0.0,-0.00830817562712,0.0,-0.0027511482572,0.0,0.0662930258043,0.0,-0.00967608717792,0.0,-0.0,-0.0,0.592139422894,-19.0,140.296115413,-126.249157948,1.04259428183,0.0,-1.04719749291,0.0,1.0471975512,62.0,-1.0471975512,-100.0,17973127.3593,0.0,0.0,0.0,0.0,0.0,0.0
1402760631434280808,3,-9.65020041709,-7.1377884924,0.509611369054,2.38304939926,2.30499330833,-3.84635974695,-0.0513183756568,0.0,-0.0354613341932,0.0,0.0590286244884,0.0,-0.584004041387,0.0,-0.0340135177258,0.0,-0.00814136446251,0.0,0.0053575103757,0.0,0.0660850047963,0.0,-0.0133930969954,0.0,-0.0,-0.0,0.592139422894,-19.0,140.296115413,-126.249157948,1.04412874381,0.0,-1.04719749291,0.0,1.0471975512,62.0,-1.0471975512,-100.0,17973127.3593,0.0,0.0,0.0,0.0,0.0,0.0
1402760631454982051,3,-9.65020041709,-7.1377884924,0.509611369054,2.38304939926,2.30499330833,-3.84635974695,-0.0513183756568,0.0,-0.0354613341932,0.0,0.0590286244884,0.0,-0.584004041387,0.0,-0.0340135177258,0.0,-0.00814136446251,0.0,0.0053575103757,0.0,0.0660850047963,0.0,-0.0133930969954,0.0,-0.0,-0.0,0.592139422894,-19.0,140.296115413,-126.249157948,1.04259428183,0.0,-1.04719749291,0.0,1.0471975512,62.0,-1.0471975512,-100.0,17973127.3593,0.0,0.0,0.0,0.0,0.0,0.0
1402760631474283603,3,-9.65833549698,-7.1377884924,0.507431391132,2.38304939926,2.3053788102,-3.84635974695,-0.0568147595234,0.0,-0.0330680960522,0.0,0.0538513894097,0.0,-0.585200583038,0.0,-0.0301549506867,0.0,-0.00715885578929,0.0,0.0175559312322,0.0,0.0651988475619,0.0,-0.0161146465588,0.0,-0.0,-0.0,0.592139422894,-19.0,140.296115413,-126.249157948,1.04259428183,0.0,-1.04719749291,0.0,1.0471975512,62.0,-1.0471975512,-100.0,17973127.3593,0.0,0.0,0.0,0.0,0.0,0.0
1402760631494361253,3,-9.65833549698,-7.1377884924,0.507431391132,2.38304939926,2.3053788102,-3.84635974695,-0.0568147595234,0.0,-0.0330680960522,0.0,0.0538513894097,0.0,-0.585200583038,0.0,-0.0301549506867,0.0,-0.00715885578929,0.0,0.0175559312322,0.0,0.0651988475619,0.0,-0.0161146465588,0.0,-0.0,-0.0,0.592139422894,-19.0,140.296115413,-126.249157948,1.04412874381,0.0,-1.04719749291,0.0,1.0471975512,62.0,-1.0471975512,-100.0,17973127.3593,0.0,0.0,0.0,0.0,0.0,0.0
1402760631515871963,3,-9.6643316945,-7.1377884924,0.501759672074,2.38304939926,2.3126545616,-3.84635974695,-0.0526974355116,0.0,-0.0377612117424,0.0,0.0521310741658,0.0,-0.586455461407,0.0,-0.0279136585419,0.0,-0.0055700091413,0.0,0.0299449295503,0.0,0.0660386116379,0.0,-0.0160858759323,0.0,-0.0,-0.0,0.592139422894,-19.0,140.296115413,-126.249157948,1.04259428183,0.0,-1.04719749291,0.0,1.0471975512,62.0,-1.0471975512,-100.0,17973127.3593,0.0,0.0,0.0,0.0,0.0,0.0
1402760631534445003,3,-9.6643316945,-7.1377884924,0.501759672074,2.38304939926,2.3126545616,-3.84635974695,-0.0526974355116,0.0,-0.0377612117424,0.0,0.0521310741658,0.0,-0.586455461407,0.0,-0.0279136585419,0.0,-0.0055700091413,0.0,0.0299449295503,0.0,0.0660386116379,0.0,-0.0160858759323,0.0,-0.0,-0.0,0.592139422894,-19.0,140.296115413,-126.249157948,1.04412874381,0.0,-1.04719749291,0.0,1.0471975512,62.0,-1.0471975512,-100.0,17973127.3593,0.0,0.0,0.0,0.0,0.0,0.0
1402760631554327687,3,-9.66646812315,-7.1377884924,0.500180788332,2.38304939926,2.31476886848,-3.84635974695,-0.0532068400411,0.0,-0.0367984022047,0.0,0.0528241654679,0.0,-0.587431672203,0.0,-0.0256601929605,0.0,-0.0040062036148,0.0,0.0376824045159,0.0,0.0663018009372,0.0,-0.0147148023181,0.0,-0.0,-0.0,0.592139422894,-19.0,140.296115413,-126.249157948,1.04259428183,0.0,-1.04719749291,0.0,1.0471975512,62.0,-1.0471975512,-100.0,17973127.3593,0.0,0.0,0.0,0.0,0.0,0.0
1402760631574755669,3,-9.66646812315,-7.1377884924,0.500180788332,2.38304939926,2.31476886848,-3.84635974695,-0.0532068400411,0.0,-0.0367984022047,0.0,0.0528241654679,0.0,-0.587431672203,0.0,-0.0256601929605,0.0,-0.0040062036148,0.0,0.0376824045159,0.0,0.0663018009372,0.0,-0.0147148023181,0.0,-0.0,-0.0,0.592139422894,-19.0,140.296115413,-126.249157948,1.04259428183,0.0,-1.04719749291,0.0,1.0471975512,62.0,-1.0471975512,-100.0,17973127.3593,0.0,0.0,0.0,0.0,0.0,0.0
1402760631594255072,3,-9.68258986476,-7.1377884924,0.490048423284,2.38304939926,2.33938586959,-3.84635974695,-0.0631139371556,0.0,-0.0440864918841,0.0,0.0590892433153,0.0,-0.588243930236,0.0,-0.0267530717335,0.0,-0.000826872086056,0.0,0.0402833598919,0.0,0.0665382943628,0.0,-0.013878998068,0.0,-0.0,-0.0,0.592139422894,-19.0,140.296115413,-126.249157948,1.04259428183,0.0,-1.04719749291,0.0,1.0471975512,62.0,-1.0471975512,-100.0,17973127.3593,0.0,0.0,0.0,0.0,0.0,0.0
1402760631614302513,3,-9.68258986476,-7.1377884924,0.490048423284,2.38304939926,2.33938586959,-3.84635974695,-0.0631139371556,0.0,-0.0440864918841,0.0,0.0590892433153,0.0,-0.588243930236,0.0,-0.0267530717335,0.0,-0.000826872086056,0.0,0.0402833598919,0.0,0.0665382943628,0.0,-0.013878998068,0.0,-0.0,-0.0,0.592139422894,-19.0,140.296115413,-126.249157948,1.04259428183,62.0,-1.04719749291,-100.0,1.0471975512,62.0,-1.0471975512,-100.0,17973127.3593,0.0,0.0,0.0,0.0,0.0,0.0
1402760631634955583,3,-9.68578322197,-7.1377884924,0.489114833456,2.38304939926,2.34236829555,-3.84635974695,-0.056094618496,0.0,-0.0343335275504,0.0,0.0567789641005,0.0,-0.589909127463,0.0,-0.030611540704,0.0,0.000114348720931,0.0,0.0505655069931,0.0,0.0672171292074,0.0,-0.0153677875989,0.0,-0.0,-0.0,0.592139422894,-19.0,140.296115413,-126.249157948,1.04259428183,62.0,-1.04719749291,-100.0,1.0471975512,62.0,-1.0471975512,-100.0,17973127.3593,0.0,0.0,0.0,0.0,0.0,0.0
1402760631654236706,3,-9.68578322197,-7.1377884924,0.489114833456,2.38304939926,2.34236829555,-3.84635974695,-0.056094618496,0.0,-0.0343335275504,0.0,0.0567789641005,0.0,-0.589909127463,0.0,-0.030611540704,0.0,0.000114348720931,0.0,0.0505655069931,0.0,0.0672171292074,0.0,-0.0153677875989,0.0,-0.0,-0.0,0.592139422894,-19.0,140.296115413,-126.249157948,1.04412874381,62.0,-1.04719749291,-100.0,1.0471975512,62.0,-1.0471975512,-100.0,17973127.3593,0.0,0.0,0.0,0.0,0.0,0.0
1402760631674196551,3,-9.69264651574,-7.1377884924,0.482696561716,2.38304939926,2.35581792745,-3.84635974695,-0.0505177406828,0.0,-0.0378879359706,0.0,0.0588373697209,0.0,-0.590616531067,0.0,-0.0308067127931,0.0,0.00153330920026,0.0,0.0447203692345,0.0,0.0686151676353,0.0,-0.00492818510302,0.0,-0.0,-0.0,0.592139422894,-19.0,140.296115413,-126.249157948,1.04259428183,62.0,-1.04719749291,-100.0,1.0471975512,62.0,-1.0471975512,-100.0,17973127.3593,0.0,0.0,0.0,0.0,0.0,0.0
1402760631694801443,3,-9.69372630395,-7.1377884924,0.481876588848,2.38304939926,2.3570359057,-3.84635974695,-0.0510561557921,0.0,-0.0382303280716,0.0,0.0593660467128,0.0,-0.591192645037,0.0,-0.0244525049174,0.0,0.00244126879431,0.0,0.0446208331096,0.0,0.0689993487064,0.0,-0.00407879530775,0.0,-0.0,-0.0,0.592139422894,-19.0,140.296115413,-126.249157948,1.04259428183,62.0,-1.04719749291,-100.0,1.0471975512,62.0,-1.0471975512,-100.0,17973127.3593,0.0,0.0,0.0,0.0,0.0,0.0
1402760631714197907,3,-9.69372630395,-7.1377884924,0.481876588848,2.38304939926,2.3570359057,-3.84635974695,-0.0510561557921,0.0,-0.0382303280716,0.0,0.0593660467128,0.0,-0.591192645037,0.0,-0.0244525049174,0.0,0.00244126879431,0.0,0.0446208331096,0.0,0.0689993487064,0.0,-0.00407879530775,0.0,-0.0,-0.0,0.592139422894,-19.0,140.296115413,-126.249157948,1.04259428183,62.0,-1.04719749291,-100.0,1.0471975512,62.0,-1.0471975512,-100.0,17973127.3593,0.0,0.0,0.0,0.0,0.0,0.0
1402760631734445400,3,-9.7000124534,-7.1377884924,0.476069234025,2.38304939926,2.36995077269,-3.84635974695,-0.0457058674457,0.0,-0.0397298787758,0.0,0.0605513147709,0.0,-0.591672274177,0.0,-0.0270355891611,0.0,0.00322985399255,0.0,0.0500375149405,0.0,0.0700905551773,0.0,-0.00757952152812,0.0,-0.0,-0.0,0.592139422894,-19.0,140.296115413,-126.249157948,1.04259428183,62.0,-1.05180064042,-100.0,1.0471975512,62.0,-1.0471975512,-100.0,17973127.3593,0.0,0.0,0.0,0.0,0.0,0.0
1402760631754333733,3,-9.7000124534,-7.1377884924,0.476069234025,2.38304939926,2.36995077269,-3.84635974695,-0.0457058674457,0.0,-0.0397298787758,0.0,0.0605513147709,0.0,-0.591672274177,0.0,-0.0270355891611,0.0,0.00322985399255,0.0,0.0500375149405,0.0,0.0700905551773,0.0,-0.00757952152812,0.0,-0.0,-0.0,0.592139422894,-19.0,140.296115413,-126.249157948,1.04259428183,62.0,-1.04873195489,-100.0,1.0471975512,62.0,-1.0471975512,-100.0,17973127.3593,0.0,0.0,0.0,0.0,0.0,0.0
1402760631774960405,3,-9.70797512634,-7.1377884924,0.468643045376,2.38304939926,2.3845465102,-3.84635974695,-0.0407506558796,0.0,-0.0439671331716,0.0,0.0623079709952,0.0,-0.592694346456,0.0,-0.0311348248985,0.0,0.00513778149835,0.0,0.0492120123091,0.0,0.0718521877548,0.0,-0.00526819446744,0.0,-0.0,-0.0,0.592139422894,-19.0,140.296115413,-126.249157948,1.04259428183,62.0,-1.04259458383,-100.0,1.0471975512,62.0,-1.0471975512,-100.0,17973127.3593,0.0,0.0,0.0,0.0,0.0,0.0
1402760631794209758,3,-9.70797512634,-7.1377884924,0.468643045376,2.38304939926,2.3845465102,-3.84635974695,-0.0407506558796,0.0,-0.0439671331716,0.0,0.0623079709952,0.0,-0.592694346456,0.0,-0.0311348248985,0.0,0.00513778149835,0.0,0.0492120123091,0.0,0.0718521877548,0.0,-0.00526819446744,0.0,-0.0,-0.0,0.592139422894,-19.0,140.296115413,-126.249157948,1.04259428183,62.0,-1.04259458383,-100.0,1.0471975512,62.0,-1.0471975512,-100.0,17973127.3593,0.0,0.0,0.0,0.0,0.0,0.0
1402760631814775130,3,-9.70976189891,-7.1377884924,0.466575850583,2.38304939926,2.38707612217,-3.84635974695,-0.0460474053195,0.0,-0.0588519040477,0.0,0.0661480915453,0.0,-0.593292854622,0.0,-0.00752834501239,0.0,0.00778305774861,0.0,0.0703049127693,0.0,0.0727514407879,0.0,-0.0295346092332,0.0,-0.0,-0.0,0.592139422894,-19.0,140.296115413,-126.249157948,1.04259428183,62.0,-1.04259458383,-100.0,1.0471975512,62.0,-1.0471975512,-100.0,17973127.3593,0.0,0.0,0.0,0.0,0.0,0.0
1402760631834709817,3,-9.70976189891,-7.1377884924,0.466575850583,2.38304939926,2.38707612217,-3.84635974695,-0.0460474053195,0.0,-0.0588519040477,0.0,0.0661480915453,0.0,-0.593292854622,0.0,-0.00752834501239,0.0,0.00778305774861,0.0,0.0703049127693,0.0,0.0727514407879,0.0,-0.0295346092332,0.0,-0.0,-0.0,0.592139422894,-19.0,140.296115413,-126.249157948,1.04259428183,62.0,-1.04106012185,-100.0,1.0471975512,62.0,-1.0471975512,-100.0,17973127.3593,0.0,0.0,0.0,0.0,0.0,0.0
1402760631854284500,3,-9.72045708253,-7.1377884924,0.462042893344,2.38304939926,2.38674419039,-3.84635974695,-0.0580320206472,0.0,-0.0634660404552,0.0,0.0602267741928,0.0,-0.592091153033,0.0,0.0366322938578,0.0,0.00589943056419,0.0,0.0181598262084,0.0,0.0726096339891,0.0,0.00229773926493,0.0,-0.0,-0.0,0.592139422894,-19.0,140.296115413,-126.249157948,1.04259428183,62.0,-1.03799143632,-100.0,1.0471975512,62.0,-1.0471975512,-100.0,17973127.3593,0.0,0.0,0.0,0.0,0.0,0.0
1402760631874166222,3,-9.72045708253,-7.1377884924,0.462042893344,2.38304939926,2.38674419039,-3.84635974695,-0.0580320206472,0.0,-0.0634660404552,0.0,0.0602267741928,0.0,-0.592091153033,0.0,0.0366322938578,0.0,0.00589943056419,0.0,0.0181598262084,0.0,0.0726096339891,0.0,0.00229773926493,0.0,-0.0,-0.0,0.592139422894,-19.0,140.296115413,-126.249157948,1.04259428183,62.0,-1.03645697435,-100.0,1.0471975512,62.0,-1.0471975512,-100.0,17973127.3593,0.0,0.0,0.0,0.0,0.0,0.0
1402760631894979829,3,-9.73878488217,-7.1377884924,0.449580354755,2.38304939926,2.40871873374,-3.84635974695,-0.0796719806491,0.0,-0.0805929947741,0.0,0.064028785592,0.0,-0.588938380459,0.0,0.083629610037,0.0,0.0028398512401,0.0,-0.0621306088865,0.0,0.0724858031638,0.0,0.0466882268784,0.0,-0.0,-0.0,0.592139422894,-19.0,140.296115413,-126.249157948,1.04259428183,62.0,-1.03645697435,-100.0,1.0471975512,62.0,-1.0471975512,-100.0,17973127.3593,0.0,0.0,0.0,0.0,0.0,0.0
1402760631914016173,3,-9.73878488217,-7.1377884924,0.449580354755,2.38304939926,2.40871873374,-3.84635974695,-0.0796719806491,0.0,-0.0805929947741,0.0,0.064028785592,0.0,-0.588938380459,0.0,0.083629610037,0.0,0.0028398512401,0.0,-0.0621306088865,0.0,0.0724858031638,0.0,0.0466882268784,0.0,-0.0,-0.0,0.592139422894,-19.0,140.296115413,-126.249157948,1.04259428183,62.0,-1.03645697435,-100.0,1.0471975512,62.0,-1.0471975512,-100.0,17973127.3593,0.0,0.0,0.0,0.0,0.0,0.0
1402760631934228306,3,-9.74064940378,-7.1377884924,0.447606145968,2.38304939926,2.41047905213,-3.84635974695,-0.0840382976419,0.0,-0.0842421481995,0.0,0.0671643027099,0.0,-0.587074196704,0.0,0.0958376943876,0.0,0.000675682634746,0.0,-0.0867696381467,0.0,0.0726196474355,0.0,0.0652241676551,0.0,-0.0,-0.0,0.592139422894,-19.0,140.296115413,-126.249157948,1.04259428183,62.0,-1.03645697435,-100.0,1.0471975512,62.0,-1.0471975512,-100.0,17973127.3593,0.0,0.0,0.0,0.0,0.0,0.0
1402760631954291570,3,-9.74064940378,-7.1377884924,0.447606145968,2.38304939926,2.41047905213,-3.84635974695,-0.0840382976419,0.0,-0.0842421481995,0.0,0.0671643027099,0.0,-0.587074196704,0.0,0.0958376943876,0.0,0.000675682634746,0.0,-0.0867696381467,0.0,0.0726196474355,0.0,0.0652241676551,0.0,-0.0,-0.0,0.592139422894,-19.0,140.296115413,-126.249157948,1.04412874381,62.0,-1.03645697435,-100.0,1.0471975512,62.0,-1.0471975512,-100.0,17973127.3593,0.0,0.0,0.0,0.0,0.0,0.0
1402760631974970992,3,-9.74753028896,-7.1377884924,0.441811129436,2.38304939926,2.41862562197,-3.84635974695,-0.0920564447444,0.0,-0.0894622078479,0.0,0.0674830325972,0.0,-0.581741306022,0.0,0.128106111575,0.0,-0.00614945306616,0.0,-0.0991057991829,0.0,0.0723059499394,0.0,0.0429312649491,0.0,-0.0,-0.0,0.592139422894,-19.0,140.296115413,-126.249157948,1.04259428183,62.0,-1.03645697435,-100.0,1.0471975512,62.0,-1.0471975512,-100.0,17973127.3593,0.0,0.0,0.0,0.0,0.0,0.0
1402760631994177540,3,-9.74753028896,-7.1377884924,0.441811129436,2.38304939926,2.41862562197,-3.84635974695,-0.0920564447444,0.0,-0.0894622078479,0.0,0.0674830325972,0.0,-0.581741306022,0.0,0.128106111575,0.0,-0.00614945306616,0.0,-0.0991057991829,0.0,0.0723059499394,0.0,0.0429312649491,0.0,-0.0,-0.0,0.592139422894,-19.0,140.296115413,-126.249157948,1.04259428183,62.0,-1.03645697435,-100.0,1.0471975512,62.0,-1.0471975512,-100.0,17973127.3593,0.0,0.0,0.0,0.0,0.0,0.0
1402760632014400422,3,-9.75427202171,-7.1377884924,0.434854318146,2.38304939926,2.42440206585,-3.84635974695,-0.100404810269,0.0,-0.100561305497,0.0,0.057315489017,0.0,-0.575659834308,0.0,0.13641854144,0.0,-0.0100325722434,0.0,-0.0747654726996,0.0,0.0719954276611,0.0,0.0220415081098,0.0,-0.0,-0.0,0.592139422894,-19.0,140.296115413,-126.249157948,1.04259428183,62.0,-1.03645697435,-100.0,1.0471975512,62.0,-1.0471975512,-100.0,17973127.3593,0.0,0.0,0.0,0.0,0.0,0.0
1402760632034814806,3,-9.75535997946,-7.1377884924,0.433667117754,2.38304939926,2.42516186038,-3.84635974695,-0.10375665028,0.0,-0.103673612543,0.0,0.0526422252981,0.0,-0.574101298547,0.0,0.148057865248,0.0,-0.0109201860048,0.0,-0.0759328784621,0.0,0.0718228485973,0.0,0.0307026383699,0.0,-0.0,-0.0,0.592139422894,-19.0,140.296115413,-126.249157948,1.04259428183,62.0,-1.03645697435,-100.0,1.0471975512,62.0,-1.0471975512,-100.0,17973127.3593,0.0,0.0,0.0,0.0,0.0,0.0
1402760632054136444,3,-9.76966550348,-7.1377884924,0.428679605432,2.38304939926,2.43571296334,-3.84635974695,-0.121324994138,0.0,-0.101916915545,0.0,0.0496730910126,0.0,-0.573756701496,0.0,0.150643983453,0.0,-0.0126831437255,0.0,-0.0869403281425,0.0,0.0697600214447,0.0,0.0155006910337,0.0,-0.0,-0.0,0.592139422894,-19.0,140.296115413,-126.249157948,1.04259428183,62.0,-1.03645697435,-100.0,1.0471975512,62.0,-1.0471975512,-100.0,17973127.3593,0.0,0.0,0.0,0.0,0.0,0.0
1402760632074243582,3,-9.76966550348,-7.1377884924,0.428679605432,2.38304939926,2.43571296334,-3.84635974695,-0.121324994138,0.0,-0.101916915545,0.0,0.0496730910126,0.0,-0.573756701496,0.0,0.150643983453,0.0,-0.0126831437255,0.0,-0.0869403281425,0.0,0.0697600214447,0.0,0.0155006910337,0.0,-0.0,-0.0,0.592139422894,-19.0,140.296115413,-126.249157948,1.04259428183,62.0,-1.03645697435,-100.0,1.0471975512,62.0,-1.0471975512,-100.0,17973127.3593,0.0,0.0,0.0,0.0,0.0,0.0
1402760632094378113,3,-9.77474043248,-7.1377884924,0.42400195394,2.38304939926,2.4380360119,-3.84635974695,-0.132939486664,0.0,-0.115698736004,0.0,0.0545523650876,0.0,-0.567231504979,0.0,0.162496048123,0.0,-0.0147255949697,0.0,-0.0569515665322,0.0,0.0684155375065,0.0,0.00290909630224,0.0,-0.0,-0.0,0.592139422894,-19.0,140.296115413,-126.249157948,1.04412874381,62.0,-1.03645697435,-100.0,1.0471975512,62.0,-1.0471975512,-100.0,17973127.3593,0.0,0.0,0.0,0.0,0.0,0.0
1402760632114372408,3,-9.77474043248,-7.1377884924,0.42400195394,2.38304939926,2.4380360119,-3.84635974695,-0.132939486664,0.0,-0.115698736004,0.0,0.0545523650876,0.0,-0.567231504979,0.0,0.162496048123,0.0,-0.0147255949697,0.0,-0.0569515665322,0.0,0.0684155375065,0.0,0.00290909630224,0.0,-0.0,-0.0,0.592139422894,-19.0,140.296115413,-126.249157948,1.04259428183,62.0,-1.03645697435,-100.0,1.0471975512,62.0,-1.0471975512,-100.0,17973127.3593,0.0,0.0,0.0,0.0,0.0,0.0
1402760632134087898,3,-9.80235830282,-7.1377884924,0.411396408728,2.38304939926,2.44626057474,-3.84635974695,-0.166716840994,0.0,-0.129723393533,0.0,0.0521419075787,0.0,-0.561008263225,0.0,0.185844721953,0.0,-0.014937189846,0.0,-0.0420366490821,0.0,0.0647230028048,0.0,-0.0107866455654,0.0,-0.0,-0.0,0.592139422894,-19.0,140.296115413,-126.249157948,1.04259428183,62.0,-1.03645697435,-100.0,1.0471975512,62.0,-1.0471975512,-100.0,17973127.3593,0.0,0.0,0.0,0.0,0.0,0.0
1402760632154357650,3,-9.80235830282,-7.1377884924,0.411396408728,2.38304939926,2.44626057474,-3.84635974695,-0.166716840994,0.0,-0.129723393533,0.0,0.0521419075787,0.0,-0.561008263225,0.0,0.185844721953,0.0,-0.014937189846,0.0,-0.0420366490821,0.0,0.0647230028048,0.0,-0.0107866455654,0.0,-0.0,-0.0,0.592139422894,-19.0,140.296115413,-126.249157948,1.04259428183,62.0,-1.03645697435,-100.0,1.0471975512,62.0,-1.0471975512,-100.0,17973127.3593,0.0,0.0,0.0,0.0,0.0,0.0
1402760632174463213,3,-9.80779376824,-7.1377884924,0.407042467768,2.38304939926,2.44800825748,-3.84635974695,-0.176164461742,0.0,-0.140048617355,0.0,0.0511208590747,0.0,-0.555038356399,0.0,0.188337207542,0.0,-0.0152708982333,0.0,-0.00263079193717,0.0,0.0638430166671,0.0,-0.0221415249572,0.0,-0.0,-0.0,0.592139422894,-19.0,140.296115413,-126.249157948,1.04259428183,62.0,-1.03645697435,-100.0,1.0471975512,62.0,-1.0471975512,-100.0,17973127.3593,0.0,0.0,0.0,0.0,0.0,0.0
1402760632194246984,3,-9.81899798209,-7.1377884924,0.398118093995,2.38304939926,2.45671496036,-3.84635974695,-0.185036442577,0.0,-0.149994689967,0.0,0.0493831076772,0.0,-0.549702439891,0.0,0.198859063676,0.0,-0.0142544060278,0.0,-0.0229411379355,0.0,0.0635450307074,0.0,-0.0174812754637,0.0,-0.0,-0.0,0.592139422894,-19.0,140.296115413,-126.249157948,1.04259428183,62.0,-1.03492275079,-100.0,1.0471975512,62.0,-1.0471975512,-100.0,17973127.3593,0.0,0.0,0.0,0.0,0.0,0.0
1402760632214292358,3,-9.81899798209,-7.1377884924,0.398118093995,2.38304939926,2.45671496036,-3.84635974695,-0.185036442577,0.0,-0.149994689967,0.0,0.0493831076772,0.0,-0.549702439891,0.0,0.198859063676,0.0,-0.0142544060278,0.0,-0.0229411379355,0.0,0.0635450307074,0.0,-0.0174812754637,0.0,-0.0,-0.0,0.592139422894,-19.0,140.296115413,-126.249157948,1.04259428183,62.0,-1.03645697435,-100.0,1.0471975512,62.0,-1.0471975512,-100.0,17973127.3593,0.0,0.0,0.0,0.0,0.0,0.0
1402760632235602885,3,-9.82315668325,-7.1377884924,0.394672319539,2.38304939926,2.45794981182,-3.84635974695,-0.192424067168,0.0,-0.154961971742,0.0,0.046541066409,0.0,-0.54553488617,0.0,0.189253530231,0.0,-0.0143298327849,0.0,-0.0174651030066,0.0,0.0628288484206,0.0,-0.0375229581658,0.0,-0.0,-0.0,0.592139422894,-19.0,140.296115413,-126.249157948,1.04259428183,62.0,-1.03492275079,-100.0,1.0471975512,62.0,-1.0471975512,-100.0,17973127.3593,0.0,0.0,0.0,0.0,0.0,0.0
1402760632254293749,3,-9.82315668325,-7.1377884924,0.394672319539,2.38304939926,2.45794981182,-3.84635974695,-0.192424067168,0.0,-0.154961971742,0.0,0.046541066409,0.0,-0.54553488617,0.0,0.189253530231,0.0,-0.0143298327849,0.0,-0.0174651030066,0.0,0.0628288484206,0.0,-0.0375229581658,0.0,-0.0,-0.0,0.592139422894,-19.0,140.296115413,-126.249157948,1.04259428183,62.0,-1.03645697435,-100.0,1.0471975512,62.0,-1.0471975512,-100.0,17973127.3593,0.0,0.0,0.0,0.0,0.0,0.0
1402760632274357293,3,-9.83011000547,-7.1377884924,0.386363775058,2.38304939926,2.4582622363,-3.84635974695,-0.186031394373,0.0,-0.16384280037,0.0,0.0434884926432,0.0,-0.535644069932,0.0,0.202982258507,0.0,-0.0145590617302,0.0,-0.00123159874996,0.0,0.0629668552755,0.0,-0.0276775252361,0.0,-0.0,-0.0,0.592139422894,-19.0,140.296115413,-126.249157948,1.04259428183,62.0,-1.03492275079,-100.0,1.0471975512,62.0,-1.0471975512,-100.0,17973127.3593,0.0,0.0,0.0,0.0,0.0,0.0
1402760632294986235,3,-9.83011000547,-7.1377884924,0.386363775058,2.38304939926,2.4582622363,-3.84635974695,-0.186031394373,0.0,-0.16384280037,0.0,0.0434884926432,0.0,-0.535644069932,0.0,0.202982258507,0.0,-0.0145590617302,0.0,-0.00123159874996,0.0,0.0629668552755,0.0,-0.0276775252361,0.0,-0.0,-0.0,0.592139422894,-19.0,140.296115413,-126.249157948,1.04259428183,62.0,-1.03645697435,-100.0,1.0471975512,62.0,-1.0471975512,-100.0,17973127.3593,0.0,0.0,0.0,0.0,0.0,0.0
1402760632314377879,3,-9.84507761634,-7.1377884924,0.373116155505,2.38304939926,2.46993929768,-3.84635974695,-0.195775170052,0.0,-0.179653463827,0.0,0.0498821853899,0.0,-0.5260061658,0.0,0.196019027172,0.0,-0.0132295871392,0.0,0.0164190531532,0.0,0.0628155915032,0.0,-0.0386901139218,0.0,-0.0,-0.0,0.592139422894,-19.0,140.296115413,-126.249157948,1.04259428183,62.0,-1.03492275079,-100.0,1.0471975512,62.0,-1.0471975512,-100.0,17973127.3593,0.0,0.0,0.0,0.0,0.0,0.0
1402760632334237211,3,-9.84507761634,-7.1377884924,0.373116155505,2.38304939926,2.46993929768,-3.84635974695,-0.195775170052,0.0,-0.179653463827,0.0,0.0498821853899,0.0,-0.5260061658,0.0,0.196019027172,0.0,-0.0132295871392,0.0,0.0164190531532,0.0,0.0628155915032,0.0,-0.0386901139218,0.0,-0.0,-0.0,0.592139422894,-19.0,140.296115413,-126.249157948,1.04259428183,62.0,-1.03645697435,-100.0,1.0471975512,62.0,-1.0471975512,-100.0,17973127.3593,0.0,0.0,0.0,0.0,0.0,0.0
1402760632354178378,3,-9.86135127362,-7.1377884924,0.35853805416,2.38304939926,2.48489503537,-3.84635974695,-0.199895614258,0.0,-0.192073975903,0.0,0.0545236183416,0.0,-0.514432538018,0.0,0.204841204219,0.0,-0.0124941598892,0.0,0.0166771021911,0.0,0.0626726470833,0.0,-0.017632668161,0.0,-0.0,-0.0,0.592139422894,-19.0,140.296115413,-126.249157948,1.04259428183,62.0,-1.03492275079,-100.0,1.0471975512,62.0,-1.0471975512,-100.0,17973127.3593,0.0,0.0,0.0,0.0,0.0,0.0
1402760632374856322,3,-9.86135127362,-7.1377884924,0.35853805416,2.38304939926,2.48489503537,-3.84635974695,-0.199895614258,0.0,-0.192073975903,0.0,0.0545236183416,0.0,-0.514432538018,0.0,0.204841204219,0.0,-0.0124941598892,0.0,0.0166771021911,0.0,0.0626726470833,0.0,-0.017632668161,0.0,-0.0,-0.0,0.592139422894,-19.0,140.296115413,-126.249157948,1.04259428183,62.0,-1.03492275079,-100.0,1.0471975512,62.0,-1.0471975512,-100.0,17973127.3593,0.0,0.0,0.0,0.0,0.0,0.0
1402760632394201376,3,-9.86773822522,-7.1377884924,0.352537041695,2.38304939926,2.48665989013,-3.84635974695,-0.206931668528,0.0,-0.198134563143,0.0,0.0617639139196,0.0,-0.507942833651,0.0,0.213789617083,0.0,-0.0118256734684,0.0,0.0129446929094,0.0,0.0622608551154,0.0,-0.024268689635,0.0,-0.0,-0.0,0.592139422894,-19.0,140.296115413,-126.249157948,1.04259428183,62.0,-1.03492275079,-100.0,1.0471975512,62.0,-1.0471975512,-100.0,17973127.3593,0.0,0.0,0.0,0.0,0.0,0.0
1402760632414324078,3,-9.88011260006,-7.1377884924,0.348364570455,2.38304939926,2.49697173233,-3.84635974695,-0.210844921093,0.0,-0.185600844381,0.0,0.0599687774639,0.0,-0.505179747364,0.0,0.210218141174,0.0,-0.0130224117118,0.0,0.00834018430387,0.0,0.06102715136,0.0,-0.0248206354887,0.0,-0.0,-0.0,0.592139422894,-19.0,140.296115413,-126.249157948,1.04259428183,62.0,-1.03492275079,-100.0,1.0471975512,62.0,-1.0471975512,-100.0,17973127.3593,0.0,0.0,0.0,0.0,0.0,0.0
1402760632434665664,3,-9.88011260006,-7.1377884924,0.348364570455,2.38304939926,2.49697173233,-3.84635974695,-0.210844921093,0.0,-0.185600844381,0.0,0.0599687774639,0.0,-0.505179747364,0.0,0.210218141174,0.0,-0.0130224117118,0.0,0.00834018430387,0.0,0.06102715136,0.0,-0.0248206354887,0.0,-0.0,-0.0,0.592139422894,-19.0,140.296115413,-126.249157948,1.04259428183,62.0,-1.03492275079,-100.0,1.0471975512,62.0,-1.0471975512,-100.0,17973127.3593,0.0,0.0,0.0,0.0,0.0,0.0
1402760632454308867,3,-9.88457240818,-7.1377884924,0.344389889176,2.38304939926,2.49845749547,-3.84635974695,-0.216584948061,0.0,-0.18906027281,0.0,0.0643613187937,0.0,-0.500758444836,0.0,0.208930301893,0.0,-0.0126183717944,0.0,0.0173573011134,0.0,0.0608355165757,0.0,-0.0234719311779,0.0,-0.0,-0.0,0.592139422894,-19.0,140.296115413,-126.249157948,1.04259428183,62.0,-1.03492275079,-100.0,1.0471975512,62.0,-1.0471975512,-100.0,17973127.3593,0.0,0.0,0.0,0.0,0.0,0.0
1402760632474212935,3,-9.88457240818,-7.1377884924,0.344389889176,2.38304939926,2.49845749547,-3.84635974695,-0.216584948061,0.0,-0.18906027281,0.0,0.0643613187937,0.0,-0.500758444836,0.0,0.208930301893,0.0,-0.0126183717944,0.0,0.0173573011134,0.0,0.0608355165757,0.0,-0.0234719311779,0.0,-0.0,-0.0,0.592139422894,-19.0,140.296115413,-126.249157948,1.04259428183,62.0,-1.03492275079,-100.0,1.0471975512,62.0,-1.0471975512,-100.0,17973127.3593,0.0,0.0,0.0,0.0,0.0,0.0
1402760632494837569,3,-9.90683804867,-7.1377884924,0.325887389145,2.38304939926,2.51761209305,-3.84635974695,-0.236419271645,0.0,-0.210386447904,0.0,0.0694542236288,0.0,-0.491019026208,0.0,0.213125965929,0.0,-0.00929652565681,0.0,0.0119569557544,0.0,0.0604623541995,0.0,-0.0212936955966,0.0,-0.0,-0.0,0.592139422894,-19.0,140.296115413,-126.249157948,1.04259428183,62.0,-1.03492275079,-100.0,1.0471975512,62.0,-1.0471975512,-100.0,17973127.3593,0.0,0.0,0.0,0.0,0.0,0.0
1402760632514302969,3,-9.90683804867,-7.1377884924,0.325887389145,2.38304939926,2.51761209305,-3.84635974695,-0.236419271645,0.0,-0.210386447904,0.0,0.0694542236288,0.0,-0.491019026208,0.0,0.213125965929,0.0,-0.00929652565681,0.0,0.0119569557544,0.0,0.0604623541995,0.0,-0.0212936955966,0.0,-0.0,-0.0,0.592139422894,-19.0,140.296115413,-126.249157948,1.04259428183,62.0,-1.03492275079,-100.0,1.0471975512,62.0,-1.0471975512,-100.0,17973127.3593,0.0,0.0,0.0,0.0,0.0,0.0
1402760632534199979,3,-9.9208682616,-7.1377884924,0.318185435578,2.38304939926,2.52216108902,-3.84635974695,-0.24433565103,0.0,-0.204138465331,0.0,0.0682263911081,0.0,-0.482545975727,0.0,0.220676299988,0.0,-0.0102982430421,0.0,0.00869799903454,0.0,0.0592875454099,0.0,-0.0257948342117,0.0,-0.0,-0.0,0.592139422894,-19.0,140.296115413,-126.249157948,1.04259428183,62.0,-1.03338852723,-100.0,1.0471975512,62.0,-1.0471975512,-100.0,17973127.3593,0.0,0.0,0.0,0.0,0.0,0.0
1402760632554279466,3,-9.9208682616,-7.1377884924,0.318185435578,2.38304939926,2.52216108902,-3.84635974695,-0.24433565103,0.0,-0.204138465331,0.0,0.0682263911081,0.0,-0.482545975727,0.0,0.220676299988,0.0,-0.0102982430421,0.0,0.00869799903454,0.0,0.0592875454099,0.0,-0.0257948342117,0.0,-0.0,-0.0,0.592139422894,-19.0,140.296115413,-126.249157948,1.04259428183,62.0,-1.03492275079,-100.0,1.0471975512,62.0,-1.0471975512,-100.0,17973127.3593,0.0,0.0,0.0,0.0,0.0,0.0
1402760632575024253,3,-9.93412960558,-7.1377884924,0.307164443916,2.38304939926,2.52598392337,-3.84635974695,-0.255213933657,0.0,-0.209811291274,0.0,0.0714127134342,0.0,-0.470772420328,0.0,0.227842031721,0.0,-0.0102908034912,0.0,-0.008876314209,0.0,0.0586287298988,0.0,-0.00971067925868,0.0,-0.0,-0.0,0.592139422894,-19.0,140.296115413,-126.249157948,1.04259428183,62.0,-1.03492275079,-100.0,1.0471975512,62.0,-1.0471975512,-100.0,17973127.3593,0.0,0.0,0.0,0.0,0.0,0.0
1402760632594202369,3,-9.93412960558,-7.1377884924,0.307164443916,2.38304939926,2.52598392337,-3.84635974695,-0.255213933657,0.0,-0.209811291274,0.0,0.0714127134342,0.0,-0.470772420328,0.0,0.227842031721,0.0,-0.0102908034912,0.0,-0.008876314209,0.0,0.0586287298988,0.0,-0.00971067925868,0.0,-0.0,-0.0,0.592139422894,-19.0,140.296115413,-126.249157948,1.04105981986,62.0,-1.03492275079,-100.0,1.0471975512,62.0,-1.0471975512,-100.0,17973127.3593,0.0,0.0,0.0,0.0,0.0,0.0
