rosbagTimestamp,control_method,x_current,x_desired,y_current,y_desired,z_current,z_desired,x_velocity_current,x_velocity_desired,y_velocity_current,y_velocity_desired,z_velocity_current,z_velocity_desired,yaw_current,yaw_desired,yaw_velocity_current,yaw_velocity_desired,roll_current,roll_desired,roll_velocity_current,roll_velocity_desired,pitch_current,pitch_desired,pitch_velocity_current,pitch_velocity_desired,required_force_x,required_force_y,required_moment_z,resultant_force_x,resultant_force_y,resultant_moment_z,current_port_servo_angle,current_port_thruster_force,current_starboard_servo_angle,current_starboard_thruster_force,estimated_port_servo_angle,estimated_port_thruster_force,estimated_starboard_servo_angle,estimated_starboard_thruster_force,cost_value,step,user_defined_1,user_defined_2,user_defined_3,user_defined_4,user_defined_5
1402754254451841887,3,-18.1142376745,-0.00591572024346,-16.475392014,-0.122189614607,58.2571484804,0.10862951003,0.00987539074836,0.0,-0.0134548455498,0.0,0.0769628214704,0.0,1.13670014889,0.0,0.00361859879465,0.0,3.28161735309e-05,0.0,0.00135082913457,0.0,0.0710874013609,0.0,-0.00587350814223,0.0,0.0,0.0,0.0,-50.0,0.0,15.24,0.00230154196664,0.0,-0.00383606751517,0.0,-0.0,-50.0,-0.0,0.0,253628.8,0.0,0.0,0.0,0.0,0.0,0.0
1402754254471572581,3,-18.1142376745,-0.00591572024346,-16.475392014,-0.122189614607,58.2571484804,0.10862951003,0.00987539074836,0.0,-0.0134548455498,0.0,0.0769628214704,0.0,1.13670014889,0.0,0.00361859879465,0.0,3.28161735309e-05,0.0,0.00135082913457,0.0,0.0710874013609,0.0,-0.00587350814223,0.0,0.0,0.0,0.0,-50.0,0.0,15.24,0.00230154196664,0.0,-0.00383606751517,0.0,-0.0,-50.0,-0.0,0.0,253628.8,0.0,0.0,0.0,0.0,0.0,0.0
1402754254491901678,3,-18.1152134876,-0.00591572024346,-16.4775320127,-0.122189614607,58.256545306,0.10862951003,0.00950159027791,0.0,-0.0101336530609,0.0,0.0747350071618,0.0,1.13657890695,0.0,-0.000746795442578,0.0,-9.82010926008e-05,0.0,0.00439462090046,0.0,0.0713825157106,0.0,-0.0048212756357,0.0,0.0,0.0,0.0,-50.0,0.0,15.24,0.00230154196664,0.0,-0.00383606751517,0.0,-0.0,-50.0,-0.0,0.0,253628.8,0.0,0.0,0.0,0.0,0.0,0.0
1402754254511486976,3,-18.1152134876,-0.00591572024346,-16.4775320127,-0.122189614607,58.256545306,0.10862951003,0.00950159027791,0.0,-0.0101336530609,0.0,0.0747350071618,0.0,1.13657890695,0.0,-0.000746795442578,0.0,-9.82010926008e-05,0.0,0.00439462090046,0.0,0.0713825157106,0.0,-0.0048212756357,0.0,0.0,0.0,0.0,-50.0,0.0,15.24,0.00230154196664,0.0,-0.00383606751517,0.0,-0.0,-50.0,-0.0,0.0,253628.8,0.0,0.0,0.0,0.0,0.0,0.0
1402754254531446145,3,-18.1146554952,-0.00591572024346,-16.477928992,-0.122189614607,58.2594641131,0.10862951003,0.00999915650975,0.0,-0.00990465248103,0.0,0.0761819770635,0.0,1.13668305136,0.0,0.000795120579391,0.0,-3.74882465779e-06,0.0,0.00193910063889,0.0,0.0712094372297,0.0,0.00327398118288,0.0,0.0,0.0,0.0,-50.0,0.0,15.24,0.00230154196664,0.0,-0.00383606751517,0.0,-0.0,-50.0,-0.0,0.0,253628.8,0.0,0.0,0.0,0.0,0.0,0.0
1402754254551682830,3,-18.1146554952,-0.00591572024346,-16.477928992,-0.122189614607,58.2594641131,0.10862951003,0.00999915650975,0.0,-0.00990465248103,0.0,0.0761819770635,0.0,1.13668305136,0.0,0.000795120579391,0.0,-3.74882465779e-06,0.0,0.00193910063889,0.0,0.0712094372297,0.0,0.00327398118288,0.0,0.0,0.0,0.0,-50.0,0.0,15.24,0.00230154196664,0.0,-0.00383606751517,0.0,-0.0,-50.0,-0.0,0.0,253628.8,0.0,0.0,0.0,0.0,0.0,0.0
1402754254571812203,3,-18.1144249941,-0.00591572024346,-16.4783397268,-0.122189614607,58.262587467,0.10862951003,0.00814019768258,0.0,-0.00990674700249,0.0,0.0761945507308,0.0,1.13666260658,0.0,0.0017377836714,0.0,-0.000234108796584,0.0,0.00218845207303,0.0,0.0710555758561,0.0,-0.0148311251166,0.0,0.0,0.0,0.0,-50.0,0.0,15.24,0.00230154196664,0.0,-0.00383606751517,0.0,-0.0,-50.0,-0.0,0.0,253628.8,0.0,0.0,0.0,0.0,0.0,0.0
1402754254591549821,3,-18.1144249941,-0.00591572024346,-16.4783397268,-0.122189614607,58.262587467,0.10862951003,0.00814019768258,0.0,-0.00990674700249,0.0,0.0761945507308,0.0,1.13666260658,0.0,0.0017377836714,0.0,-0.000234108796584,0.0,0.00218845207303,0.0,0.0710555758561,0.0,-0.0148311251166,0.0,0.0,0.0,0.0,-50.0,0.0,15.24,0.00230154196664,0.0,-0.00383606751517,0.0,-0.0,-50.0,-0.0,0.0,253628.8,0.0,0.0,0.0,0.0,0.0,0.0
1402754254611402693,3,-18.1134071657,-0.00591572024346,-16.4851593758,-0.122189614607,58.2679066404,0.10862951003,0.0140286674877,0.0,-0.0145387979958,0.0,0.0766613653601,0.0,1.13662629317,0.0,0.00498891519425,0.0,0.000394689344124,0.0,-0.0012395798575,0.0,0.0706390612218,0.0,-0.000173512907384,0.0,0.0,0.0,0.0,-50.0,0.0,15.24,0.00230154196664,0.0,-0.00383606751517,0.0,-0.0,-50.0,-0.0,0.0,253628.8,0.0,0.0,0.0,0.0,0.0,0.0
1402754254631947345,3,-18.1134071657,-0.00591572024346,-16.4851593758,-0.122189614607,58.2679066404,0.10862951003,0.0140286674877,0.0,-0.0145387979958,0.0,0.0766613653601,0.0,1.13662629317,0.0,0.00498891519425,0.0,0.000394689344124,0.0,-0.0012395798575,0.0,0.0706390612218,0.0,-0.000173512907384,0.0,0.0,0.0,0.0,-50.0,0.0,15.24,0.00230154196664,0.0,-0.00383606751517,0.0,-0.0,-50.0,-0.0,0.0,253628.8,0.0,0.0,0.0,0.0,0.0,0.0
1402754254651661387,3,-18.1101364404,-0.00591572024346,-16.4911086783,-0.122189614607,58.2853905683,0.10862951003,0.0194338872506,0.0,-0.0119862579131,0.0,0.0792346692244,0.0,1.13674658963,0.0,0.0024213512084,0.0,0.000730541609427,0.0,0.00182595791826,0.0,0.0712286909052,0.0,-0.00301363710846,0.0,0.0,0.0,0.0,-50.0,0.0,15.24,0.00230154196664,0.0,-0.00383606751517,0.0,-0.0,-50.0,-0.0,0.0,253628.8,0.0,0.0,0.0,0.0,0.0,0.0
1402754254671481224,3,-18.1101364404,-0.00591572024346,-16.4911086783,-0.122189614607,58.2853905683,0.10862951003,0.0194338872506,0.0,-0.0119862579131,0.0,0.0792346692244,0.0,1.13674658963,0.0,0.0024213512084,0.0,0.000730541609427,0.0,0.00182595791826,0.0,0.0712286909052,0.0,-0.00301363710846,0.0,0.0,0.0,0.0,-50.0,0.0,15.24,0.00230154196664,0.0,-0.00383606751517,0.0,-0.0,-50.0,-0.0,0.0,253628.8,0.0,0.0,0.0,0.0,0.0,0.0
1402754254691679718,3,-18.1172709912,-0.00591572024346,-16.4954351603,-0.122189614607,58.2902552993,0.10862951003,0.00501123110691,0.0,-0.010816999562,0.0,0.0783892788947,0.0,1.13669672707,0.0,0.000639914761245,0.0,-0.000794287518729,0.0,0.00186161446563,0.0,0.070625855447,0.0,0.0023205773667,0.0,0.0,0.0,0.0,-50.0,0.0,15.24,0.00230154196664,0.0,-0.00383606751517,0.0,-0.0,-50.0,-0.0,0.0,253628.8,0.0,0.0,0.0,0.0,0.0,0.0
1402754254711655120,3,-18.1172709912,-0.00591572024346,-16.4954351603,-0.122189614607,58.2902552993,0.10862951003,0.00501123110691,0.0,-0.010816999562,0.0,0.0783892788947,0.0,1.13669672707,0.0,0.000639914761245,0.0,-0.000794287518729,0.0,0.00186161446563,0.0,0.070625855447,0.0,0.0023205773667,0.0,0.0,0.0,0.0,-50.0,0.0,15.24,0.00230154196664,0.0,-0.00383606751517,0.0,-0.0,-50.0,-0.0,0.0,253628.8,0.0,0.0,0.0,0.0,0.0,0.0
1402754254731406683,3,-18.1158385444,-0.00591572024346,-16.5070557719,-0.122189614607,58.3037794163,0.10862951003,0.00873873864035,0.0,-0.0159912214434,0.0,0.0793989310492,0.0,1.1366870777,0.0,0.000105666462661,0.0,-9.2340470379e-05,0.0,-0.00631202052498,0.0,0.0702162972891,0.0,-0.00113200757164,0.0,0.0,0.0,0.0,-50.0,0.0,15.24,0.00230154196664,0.0,-0.00383606751517,0.0,-0.0,-50.0,-0.0,0.0,253628.8,0.0,0.0,0.0,0.0,0.0,0.0
1402754254751537702,3,-18.1158385444,-0.00591572024346,-16.5070557719,-0.122189614607,58.3037794163,0.10862951003,0.00873873864035,0.0,-0.0159912214434,0.0,0.0793989310492,0.0,1.1366870777,0.0,0.000105666462661,0.0,-9.2340470379e-05,0.0,-0.00631202052498,0.0,0.0702162972891,0.0,-0.00113200757164,0.0,0.0,0.0,0.0,-50.0,0.0,15.24,0.00230154196664,0.0,-0.00383606751517,0.0,-0.0,-50.0,-0.0,0.0,253628.8,0.0,0.0,0.0,0.0,0.0,0.0
1402754254771307674,3,-18.1171824101,-0.00591572024346,-16.5100249646,-0.122189614607,58.3050359068,0.10862951003,0.00694260199364,0.0,-0.0141399317951,0.0,0.0771273491466,0.0,1.13664450585,0.0,0.00172512135272,0.0,-0.000554571480675,0.0,-0.00317414055645,0.0,0.0703869163654,0.0,-0.00538999714255,0.0,0.0,0.0,0.0,-50.0,0.0,15.24,0.00230154196664,0.0,-0.00383606751517,0.0,-0.0,-50.0,-0.0,0.0,253628.8,0.0,0.0,0.0,0.0,0.0,0.0
1402754254792065780,3,-18.1171824101,-0.00591572024346,-16.5100249646,-0.122189614607,58.3050359068,0.10862951003,0.00694260199364,0.0,-0.0141399317951,0.0,0.0771273491466,0.0,1.13664450585,0.0,0.00172512135272,0.0,-0.000554571480675,0.0,-0.00317414055645,0.0,0.0703869163654,0.0,-0.00538999714255,0.0,0.0,0.0,0.0,-50.0,0.0,15.24,0.00230154196664,0.0,-0.00383606751517,0.0,-0.0,-50.0,-0.0,0.0,253628.8,0.0,0.0,0.0,0.0,0.0,0.0
1402754254811278341,3,-18.1171090749,-0.00591572024346,-16.5103349921,-0.122189614607,58.3065058592,0.10862951003,0.0072907264078,0.0,-0.0140563702571,0.0,0.0775958654325,0.0,1.13662592896,0.0,0.00230837103957,0.0,-0.000608641488328,0.0,-0.00454457418182,0.0,0.0704351794192,0.0,-0.00178001927017,0.0,0.0,0.0,0.0,-50.0,0.0,15.24,0.00230154196664,0.0,-0.00383606751517,0.0,-0.0,-50.0,-0.0,0.0,253628.8,0.0,0.0,0.0,0.0,0.0,0.0
1402754254831254730,3,-18.1171090749,-0.00591572024346,-16.5103349921,-0.122189614607,58.3065058592,0.10862951003,0.0072907264078,0.0,-0.0140563702571,0.0,0.0775958654325,0.0,1.13662592896,0.0,0.00230837103957,0.0,-0.000608641488328,0.0,-0.00454457418182,0.0,0.0704351794192,0.0,-0.00178001927017,0.0,0.0,0.0,0.0,-50.0,0.0,15.24,0.00230154196664,0.0,-0.00383606751517,0.0,-0.0,-50.0,-0.0,0.0,253628.8,0.0,0.0,0.0,0.0,0.0,0.0
1402754254851391679,3,-18.1172599922,-0.00591572024346,-16.513669885,-0.122189614607,58.307245023,0.10862951003,0.00787920591253,0.0,-0.0144163042557,0.0,0.0759706046903,0.0,1.13667119437,0.0,0.00185443704058,0.0,-0.000668840963889,0.0,-0.00240983422933,0.0,0.0705077428966,0.0,-0.000852324107566,0.0,0.0,0.0,0.0,-50.0,0.0,15.24,0.00230154196664,0.0,-0.00383606751517,0.0,-0.0,-50.0,-0.0,0.0,253628.8,0.0,0.0,0.0,0.0,0.0,0.0
1402754254871262930,3,-18.1172599922,-0.00591572024346,-16.513669885,-0.122189614607,58.307245023,0.10862951003,0.00787920591253,0.0,-0.0144163042557,0.0,0.0759706046903,0.0,1.13667119437,0.0,0.00185443704058,0.0,-0.000668840963889,0.0,-0.00240983422933,0.0,0.0705077428966,0.0,-0.000852324107566,0.0,0.0,0.0,0.0,-50.0,0.0,15.24,0.00230154196664,-50.0,-0.00383606751517,0.0,-0.0,-50.0,-0.0,0.0,253628.8,0.0,0.0,0.0,0.0,0.0,0.0
1402754254891509168,3,-18.1133633831,-0.00591572024346,-16.5180783505,-0.122189614607,58.3211011788,0.10862951003,0.0148001754823,0.0,-0.0101593373386,0.0,0.0805436548546,0.0,1.13657774932,0.0,0.000839227323441,0.0,-0.000322197423165,0.0,-0.0076591253751,0.0,0.0715049526109,0.0,0.00357907170079,0.0,0.0,0.0,0.0,-50.0,0.0,15.24,0.00230154196664,-50.0,-0.00383606751517,0.0,-0.0,-50.0,-0.0,0.0,253628.8,0.0,0.0,0.0,0.0,0.0,0.0
1402754254911113667,3,-18.1133633831,-0.00591572024346,-16.5180783505,-0.122189614607,58.3211011788,0.10862951003,0.0148001754823,0.0,-0.0101593373386,0.0,0.0805436548546,0.0,1.13657774932,0.0,0.000839227323441,0.0,-0.000322197423165,0.0,-0.0076591253751,0.0,0.0715049526109,0.0,0.00357907170079,0.0,0.0,0.0,0.0,-50.0,0.0,15.24,0.00230154196664,-50.0,-0.00383606751517,0.0,-0.0,-50.0,-0.0,0.0,253628.8,0.0,0.0,0.0,0.0,0.0,0.0
1402754254931363095,3,-18.1112421583,-0.00591572024346,-16.5191200072,-0.122189614607,58.317307147,0.10862951003,0.0192889687623,0.0,-0.00885553789707,0.0,0.0791546793699,0.0,1.13651837109,0.0,0.000259816420718,0.0,8.66674123271e-05,0.0,-0.00518524416139,0.0,0.072039362021,0.0,0.00287506918612,0.0,0.0,0.0,0.0,-50.0,0.0,15.24,0.00230154196664,-50.0,-0.00383606751517,0.0,-0.0,-50.0,-0.0,0.0,253628.8,0.0,0.0,0.0,0.0,0.0,0.0
1402754254951347828,3,-18.1112421583,-0.00591572024346,-16.5191200072,-0.122189614607,58.317307147,0.10862951003,0.0192889687623,0.0,-0.00885553789707,0.0,0.0791546793699,0.0,1.13651837109,0.0,0.000259816420718,0.0,8.66674123271e-05,0.0,-0.00518524416139,0.0,0.072039362021,0.0,0.00287506918612,0.0,0.0,0.0,0.0,-50.0,0.0,15.24,0.00230154196664,-50.0,-0.00383606751517,0.0,-0.0,-50.0,-0.0,0.0,253628.8,0.0,0.0,0.0,0.0,0.0,0.0
1402754254972480855,3,-18.1137894687,-0.00591572024346,-16.5214665606,-0.122189614607,58.3185978351,0.10862951003,0.0112992468816,0.0,-0.00833577696355,0.0,0.0802567043432,0.0,1.13663622211,0.0,0.0039565027272,0.0,-0.000598759072753,0.0,-0.00264286983759,0.0,0.0718864380706,0.0,0.00101205010649,0.0,0.0,0.0,0.0,-50.0,0.0,15.24,0.00230154196664,-50.0,-0.00383606751517,0.0,-0.0,-50.0,-0.0,0.0,253628.8,0.0,0.0,0.0,0.0,0.0,0.0
1402754254991532327,3,-18.1137894687,-0.00591572024346,-16.5214665606,-0.122189614607,58.3185978351,0.10862951003,0.0112992468816,0.0,-0.00833577696355,0.0,0.0802567043432,0.0,1.13663622211,0.0,0.0039565027272,0.0,-0.000598759072753,0.0,-0.00264286983759,0.0,0.0718864380706,0.0,0.00101205010649,0.0,0.0,0.0,0.0,-50.0,0.0,15.24,0.00230154196664,-50.0,-0.00383606751517,0.0,-0.0,-50.0,-0.0,0.0,253628.8,0.0,0.0,0.0,0.0,0.0,0.0
1402754255011472632,3,-18.11620843,-0.00591572024346,-16.521042878,-0.122189614607,58.3119317641,0.10862951003,0.00436138893901,0.0,-0.00678049435473,0.0,0.0776457830545,0.0,1.13678712797,0.0,0.0102666112545,0.0,-0.00134238610169,0.0,-0.000948957910074,0.0,0.0721279778079,0.0,-0.00476254258904,0.0,0.0,0.0,0.0,-50.0,0.0,15.24,0.00230154196664,-50.0,-0.00383606751517,0.0,-0.0,-50.0,-0.0,0.0,253628.8,0.0,0.0,0.0,0.0,0.0,0.0
1402754255032021976,3,-18.11620843,-0.00591572024346,-16.521042878,-0.122189614607,58.3119317641,0.10862951003,0.00436138893901,0.0,-0.00678049435473,0.0,0.0776457830545,0.0,1.13678712797,0.0,0.0102666112545,0.0,-0.00134238610169,0.0,-0.000948957910074,0.0,0.0721279778079,0.0,-0.00476254258904,0.0,0.0,0.0,0.0,-50.0,0.0,15.24,0.00230154196664,-50.0,-0.00383606751517,0.0,-0.0,-50.0,-0.0,0.0,253628.8,0.0,0.0,0.0,0.0,0.0,0.0
1402754255051903065,3,-18.1162557879,-0.00591572024346,-16.5213387674,-0.122189614607,58.3142633053,0.10862951003,-0.00220214906107,0.0,-0.014234303621,0.0,0.0766274589728,0.0,1.13708374168,0.0,0.0165884609155,0.0,-0.00149999957252,0.0,-0.00455176312651,0.0,0.0722421513191,0.0,-0.00332041440514,0.0,0.0,0.0,0.0,-50.0,0.0,15.24,0.00230154196664,-50.0,-0.00383606751517,0.0,-0.0,-50.0,-0.0,0.0,253628.8,0.0,0.0,0.0,0.0,0.0,0.0
1402754255071275570,3,-18.1134442494,-0.00591572024346,-16.5249381308,-0.122189614607,58.3136346325,0.10862951003,-0.00165684259564,0.0,-0.0228175332399,0.0,0.0762385600855,0.0,1.13762159202,0.0,0.0180981418687,0.0,-0.000618058763873,0.0,-0.00575956458895,0.0,0.0723583110197,0.0,0.0129763049004,0.0,0.0,0.0,0.0,-50.0,0.0,15.24,0.00230154196664,-50.0,-0.00383606751517,0.0,-0.0,-50.0,-0.0,0.0,253628.8,0.0,0.0,0.0,0.0,0.0,0.0
1402754255091453451,3,-18.1134442494,-0.00591572024346,-16.5249381308,-0.122189614607,58.3136346325,0.10862951003,-0.00165684259564,0.0,-0.0228175332399,0.0,0.0762385600855,0.0,1.13762159202,0.0,0.0180981418687,0.0,-0.000618058763873,0.0,-0.00575956458895,0.0,0.0723583110197,0.0,0.0129763049004,0.0,0.0,0.0,0.0,-50.0,0.0,15.24,0.00230154196664,-50.0,-0.00383606751517,0.0,-0.0,-50.0,-0.0,0.0,253628.8,0.0,0.0,0.0,0.0,0.0,0.0
1402754255111465291,3,-18.1133407863,-0.00591572024346,-16.525325878,-0.122189614607,58.3150911822,0.10862951003,-0.00252646135415,0.0,-0.0249099091082,0.0,0.079605033708,0.0,1.13805392774,0.0,0.0237383994286,0.0,-0.000355558767268,0.0,-0.0156016701955,0.0,0.0726883815437,0.0,0.0159032212151,0.0,0.0,0.0,0.0,-50.0,0.0,15.24,0.00230154196664,-50.0,-0.00383606751517,0.0,-0.0,-50.0,-0.0,0.0,253628.8,0.0,0.0,0.0,0.0,0.0,0.0
1402754255131373365,3,-18.1133407863,-0.00591572024346,-16.525325878,-0.122189614607,58.3150911822,0.10862951003,-0.00252646135415,0.0,-0.0249099091082,0.0,0.079605033708,0.0,1.13805392774,0.0,0.0237383994286,0.0,-0.000355558767268,0.0,-0.0156016701955,0.0,0.0726883815437,0.0,0.0159032212151,0.0,0.0,0.0,0.0,-50.0,0.0,15.24,0.00230154196664,-50.0,-0.00383606751517,0.0,-0.0,-50.0,-0.0,0.0,253628.8,0.0,0.0,0.0,0.0,0.0,0.0
1402754255151455027,3,-18.1161808108,-0.00591572024346,-16.5283841503,-0.122189614607,58.3073001255,0.10862951003,-0.014077836133,0.0,-0.0371776916009,0.0,0.0762792145899,0.0,1.13913704457,0.0,0.0279769505017,0.0,-0.000673018542905,0.0,-0.0127149328776,0.0,0.0725793416964,0.0,0.0140315062841,0.0,0.0,0.0,0.0,-50.0,0.0,15.24,0.00230154196664,-50.0,-0.00383606751517,0.0,-0.0,-50.0,-0.0,0.0,253628.8,0.0,0.0,0.0,0.0,0.0,0.0
1402754255171247241,3,-18.1161808108,-0.00591572024346,-16.5283841503,-0.122189614607,58.3073001255,0.10862951003,-0.014077836133,0.0,-0.0371776916009,0.0,0.0762792145899,0.0,1.13913704457,0.0,0.0279769505017,0.0,-0.000673018542905,0.0,-0.0127149328776,0.0,0.0725793416964,0.0,0.0140315062841,0.0,0.0,0.0,0.0,-50.0,0.0,15.24,0.00230154196664,-50.0,-0.00383606751517,0.0,-0.0,-50.0,-0.0,0.0,253628.8,0.0,0.0,0.0,0.0,0.0,0.0
1402754255191381260,3,-18.1143790052,-0.00591572024346,-16.5327670971,-0.122189614607,58.3089121674,0.10862951003,-0.0135837794436,0.0,-0.0482826073261,0.0,0.079489963886,0.0,1.14068023212,0.0,0.0357137367925,0.0,0.000340394519515,0.0,-0.0114827590808,0.0,0.073029464766,0.0,0.00554494117006,0.0,0.0,0.0,0.0,-50.0,0.0,15.24,0.00230154196664,-50.0,-0.00383606751517,0.0,-0.0,-50.0,-0.0,0.0,253628.8,0.0,0.0,0.0,0.0,0.0,0.0
1402754255211325739,3,-18.1143790052,-0.00591572024346,-16.5327670971,-0.122189614607,58.3089121674,0.10862951003,-0.0135837794436,0.0,-0.0482826073261,0.0,0.079489963886,0.0,1.14068023212,0.0,0.0357137367925,0.0,0.000340394519515,0.0,-0.0114827590808,0.0,0.073029464766,0.0,0.00554494117006,0.0,0.0,0.0,0.0,-50.0,0.0,15.24,0.00230154196664,-50.0,-0.00383606751517,0.0,-0.0,-50.0,-0.0,0.0,253628.8,0.0,0.0,0.0,0.0,0.0,0.0
1402754255231389366,3,-18.1150306039,-0.00591572024346,-16.5347728931,-0.122189614607,58.3119894809,0.10862951003,-0.0171884725926,0.0,-0.0561522151295,0.0,0.0824517239052,0.0,1.14225585759,0.0,0.0445945342132,0.0,0.000784604219597,0.0,-0.00882950390511,0.0,0.0736489751408,0.0,0.0123609201706,0.0,0.0,0.0,0.0,-50.0,0.0,15.24,0.00230154196664,-50.0,-0.00383606751517,0.0,-0.0,-50.0,-0.0,0.0,253628.8,0.0,0.0,0.0,0.0,0.0,0.0
1402754255251477312,3,-18.1150306039,-0.00591572024346,-16.5347728931,-0.122189614607,58.3119894809,0.10862951003,-0.0171884725926,0.0,-0.0561522151295,0.0,0.0824517239052,0.0,1.14225585759,0.0,0.0445945342132,0.0,0.000784604219597,0.0,-0.00882950390511,0.0,0.0736489751408,0.0,0.0123609201706,0.0,0.0,0.0,0.0,-50.0,0.0,15.24,0.00230154196664,-50.0,-0.00383606751517,0.0,-0.0,-50.0,-0.0,0.0,253628.8,0.0,0.0,0.0,0.0,0.0,0.0
1402754255271432210,3,-18.1158100916,-0.00591572024346,-16.5330105686,-0.122189614607,58.2982740391,0.10862951003,-0.021177951638,0.0,-0.0578055764813,0.0,0.0809863171929,0.0,1.14427227219,0.0,0.0484239689715,0.0,0.000687224044632,0.0,-0.00815154679254,0.0,0.0748375630988,0.0,0.00935655632041,0.0,0.0,0.0,0.0,-50.0,0.0,15.24,0.00230154196664,-50.0,-0.00383606751517,0.0,-0.0,-50.0,-0.0,0.0,253628.8,0.0,0.0,0.0,0.0,0.0,0.0
1402754255291280341,3,-18.1158100916,-0.00591572024346,-16.5330105686,-0.122189614607,58.2982740391,0.10862951003,-0.021177951638,0.0,-0.0578055764813,0.0,0.0809863171929,0.0,1.14427227219,0.0,0.0484239689715,0.0,0.000687224044632,0.0,-0.00815154679254,0.0,0.0748375630988,0.0,0.00935655632041,0.0,0.0,0.0,0.0,-50.0,0.0,15.24,0.00230154196664,-50.0,-0.00383606751517,0.0,-0.0,-50.0,-0.0,0.0,253628.8,0.0,0.0,0.0,0.0,0.0,0.0
1402754255311586413,3,-18.1148944434,-0.00591572024346,-16.537918537,-0.122189614607,58.2934008832,0.10862951003,-0.0221141541037,0.0,-0.0750550353053,0.0,0.0841750024379,0.0,1.14718995947,0.0,0.0514999481555,0.0,0.00179543857121,0.0,-0.00364411104463,0.0,0.0747576376768,0.0,0.00607884531574,0.0,0.0,0.0,0.0,-50.0,0.0,15.24,0.00230154196664,-50.0,-0.00383606751517,0.0,-0.0,-50.0,-0.0,0.0,253628.8,0.0,0.0,0.0,0.0,0.0,0.0
1402754255331737754,3,-18.1148944434,-0.00591572024346,-16.537918537,-0.122189614607,58.2934008832,0.10862951003,-0.0221141541037,0.0,-0.0750550353053,0.0,0.0841750024379,0.0,1.14718995947,0.0,0.0514999481555,0.0,0.00179543857121,0.0,-0.00364411104463,0.0,0.0747576376768,0.0,0.00607884531574,0.0,0.0,0.0,0.0,-50.0,0.0,15.24,0.00230154196664,-50.0,-0.00383606751517,0.0,-0.0,-50.0,-0.0,0.0,253628.8,0.0,0.0,0.0,0.0,0.0,0.0
1402754255352364391,3,-18.1160986835,-0.00591572024346,-16.5428765645,-0.122189614607,58.2939843627,0.10862951003,-0.0265948967343,0.0,-0.0855841735395,0.0,0.0883118796707,0.0,1.15011376203,0.0,0.0620581579978,0.0,0.00174263995902,0.0,0.00194899829029,0.0,0.0748571687962,0.0,0.00612975791022,0.0,0.0,0.0,0.0,-50.0,0.0,15.24,0.00230154196664,-50.0,-0.00383606751517,0.0,-0.0,-50.0,-0.0,0.0,253628.8,0.0,0.0,0.0,0.0,0.0,0.0
1402754255371314780,3,-18.1160986835,-0.00591572024346,-16.5428765645,-0.122189614607,58.2939843627,0.10862951003,-0.0265948967343,0.0,-0.0855841735395,0.0,0.0883118796707,0.0,1.15011376203,0.0,0.0620581579978,0.0,0.00174263995902,0.0,0.00194899829029,0.0,0.0748571687962,0.0,0.00612975791022,0.0,0.0,0.0,0.0,-50.0,0.0,15.24,0.00230154196664,-50.0,-0.00383606751517,0.0,-0.0,-50.0,-0.0,0.0,253628.8,0.0,0.0,0.0,0.0,0.0,0.0
1402754255391341434,3,-18.1177756226,-0.00591572024346,-16.5440608419,-0.122189614607,58.27883732,0.10862951003,-0.0294888577321,0.0,-0.0923039190256,0.0,0.0853454809843,0.0,1.15145695068,0.0,0.0614673846922,0.0,0.00194108005911,0.0,-0.00354481845242,0.0,0.0744617649189,0.0,0.00437964040048,0.0,0.0,0.0,0.0,-50.0,0.0,15.24,0.00230154196664,-50.0,-0.00383606751517,0.0,-0.0,-50.0,-0.0,0.0,253628.8,0.0,0.0,0.0,0.0,0.0,0.0
1402754255411288762,3,-18.1177756226,-0.00591572024346,-16.5440608419,-0.122189614607,58.27883732,0.10862951003,-0.0294888577321,0.0,-0.0923039190256,0.0,0.0853454809843,0.0,1.15145695068,0.0,0.0614673846922,0.0,0.00194108005911,0.0,-0.00354481845242,0.0,0.0744617649189,0.0,0.00437964040048,0.0,0.0,0.0,0.0,-50.0,0.0,15.24,0.00230154196664,-50.0,-0.00383606751517,0.0,-0.0,-50.0,-0.0,0.0,253628.8,0.0,0.0,0.0,0.0,0.0,0.0
1402754255431271630,3,-18.1163941165,-0.00591572024346,-16.5502384483,-0.122189614607,58.2840437581,0.10862951003,-0.0295335418238,0.0,-0.102848401368,0.0,0.0875725651765,0.0,1.15452871384,0.0,0.0695181439446,0.0,0.00247805882015,0.0,0.00614275158134,0.0,0.074187830594,0.0,0.000231490772068,0.0,0.0,0.0,0.0,-50.0,0.0,15.24,0.00230154196664,-50.0,-0.00383606751517,0.0,-0.0,-50.0,-0.0,0.0,253628.8,0.0,0.0,0.0,0.0,0.0,0.0
1402754255451499236,3,-18.1163941165,-0.00591572024346,-16.5502384483,-0.122189614607,58.2840437581,0.10862951003,-0.0295335418238,0.0,-0.102848401368,0.0,0.0875725651765,0.0,1.15452871384,0.0,0.0695181439446,0.0,0.00247805882015,0.0,0.00614275158134,0.0,0.074187830594,0.0,0.000231490772068,0.0,0.0,0.0,0.0,-50.0,0.0,15.24,0.00230154196664,-50.0,-0.00383606751517,0.0,-0.0,-50.0,-0.0,0.0,253628.8,0.0,0.0,0.0,0.0,0.0,0.0
1402754255471854662,3,-18.1176533536,-0.00591572024346,-16.5547722416,-0.122189614607,58.2879026713,0.10862951003,-0.0347889791605,0.0,-0.109267031636,0.0,0.0904164514694,0.0,1.15745756422,0.0,0.0728813590735,0.0,0.00236674814322,0.0,0.00431390476397,0.0,0.0739456112285,0.0,-0.00776518565034,0.0,0.0,0.0,0.0,-50.0,0.0,15.24,0.00230154196664,-50.0,-0.00383606751517,0.0,-0.0,-50.0,-0.0,0.0,253628.8,0.0,0.0,0.0,0.0,0.0,0.0
1402754255491308440,3,-18.1176533536,-0.00591572024346,-16.5547722416,-0.122189614607,58.2879026713,0.10862951003,-0.0347889791605,0.0,-0.109267031636,0.0,0.0904164514694,0.0,1.15745756422,0.0,0.0728813590735,0.0,0.00236674814322,0.0,0.00431390476397,0.0,0.0739456112285,0.0,-0.00776518565034,0.0,0.0,0.0,0.0,-50.0,0.0,15.24,0.00230154196664,-50.0,-0.00383606751517,0.0,-0.0,-50.0,-0.0,0.0,253628.8,0.0,0.0,0.0,0.0,0.0,0.0
1402754255511345706,3,-18.1197975729,-0.00591572024346,-16.5595201275,-0.122189614607,58.2837372417,0.10862951003,-0.0382964776285,0.0,-0.117112422391,0.0,0.0915677575935,0.0,1.16053220778,0.0,0.0809014650662,0.0,0.00241112857916,0.0,0.00398110832214,0.0,0.0734575218973,0.0,-0.00336868770056,0.0,0.0,0.0,0.0,-50.0,0.0,15.24,0.00230154196664,-50.0,-0.00383606751517,0.0,-0.0,-50.0,-0.0,0.0,253628.8,0.0,0.0,0.0,0.0,0.0,0.0
1402754255531253883,3,-18.1197975729,-0.00591572024346,-16.5595201275,-0.122189614607,58.2837372417,0.10862951003,-0.0382964776285,0.0,-0.117112422391,0.0,0.0915677575935,0.0,1.16053220778,0.0,0.0809014650662,0.0,0.00241112857916,0.0,0.00398110832214,0.0,0.0734575218973,0.0,-0.00336868770056,0.0,0.0,0.0,0.0,-50.0,0.0,15.24,0.00230154196664,-50.0,-0.00383606751517,0.0,-0.0,-50.0,-0.0,0.0,253628.8,0.0,0.0,0.0,0.0,0.0,0.0
1402754255551382988,3,-18.1215062252,-0.00591572024346,-16.5644153949,-0.122189614607,58.287445786,0.10862951003,-0.0422873697916,0.0,-0.12393204018,0.0,0.0920114331136,0.0,1.16385093447,0.0,0.0835642454645,0.0,0.00222340636192,0.0,0.0066496987351,0.0,0.0730525460413,0.0,-0.00637430318853,0.0,0.0,0.0,0.0,-50.0,0.0,15.24,0.00230154196664,-50.0,-0.00383606751517,0.0,-0.0,-50.0,-0.0,0.0,253628.8,0.0,0.0,0.0,0.0,0.0,0.0
1402754255571804603,3,-18.1215062252,-0.00591572024346,-16.5644153949,-0.122189614607,58.287445786,0.10862951003,-0.0422873697916,0.0,-0.12393204018,0.0,0.0920114331136,0.0,1.16385093447,0.0,0.0835642454645,0.0,0.00222340636192,0.0,0.0066496987351,0.0,0.0730525460413,0.0,-0.00637430318853,0.0,0.0,0.0,0.0,-50.0,0.0,15.24,0.00230154196664,-50.0,-0.00383606751517,0.0,-0.0,-50.0,-0.0,0.0,253628.8,0.0,0.0,0.0,0.0,0.0,0.0
1402754255591364465,3,-18.1242869978,-0.00591572024346,-16.5608205652,-0.122189614607,58.2781264332,0.10862951003,-0.046216661458,0.0,-0.112527988285,0.0,0.0898786331711,0.0,1.16739493492,0.0,0.0881666889979,0.0,0.00107672412002,0.0,0.0108668137893,0.0,0.074659773768,0.0,-0.00388833343806,0.0,0.0,0.0,0.0,-50.0,0.0,15.24,0.00230154196664,-50.0,-0.00383606751517,0.0,-0.0,-50.0,-0.0,0.0,253628.8,0.0,0.0,0.0,0.0,0.0,0.0
1402754255611293152,3,-18.1242869978,-0.00591572024346,-16.5608205652,-0.122189614607,58.2781264332,0.10862951003,-0.046216661458,0.0,-0.112527988285,0.0,0.0898786331711,0.0,1.16739493492,0.0,0.0881666889979,0.0,0.00107672412002,0.0,0.0108668137893,0.0,0.074659773768,0.0,-0.00388833343806,0.0,0.0,0.0,0.0,-50.0,0.0,15.24,0.00230154196664,-50.0,-0.00383606751517,0.0,-0.0,-50.0,-0.0,0.0,253628.8,0.0,0.0,0.0,0.0,0.0,0.0
1402754255631352011,3,-18.123919386,-0.00591572024346,-16.566856135,-0.122189614607,58.2645658373,0.10862951003,-0.0429992520314,0.0,-0.128121257747,0.0,0.0900729397313,0.0,1.1726714844,0.0,0.0970328684658,0.0,0.00211215966253,0.0,0.0171296281397,0.0,0.073589359652,0.0,0.00616503420319,0.0,0.0,0.0,0.0,-50.0,0.0,15.24,0.00230154196664,-50.0,-0.00383606751517,0.0,-0.0,-50.0,-0.0,0.0,253628.8,0.0,0.0,0.0,0.0,0.0,0.0
1402754255651338856,3,-18.123919386,-0.00591572024346,-16.566856135,-0.122189614607,58.2645658373,0.10862951003,-0.0429992520314,0.0,-0.128121257747,0.0,0.0900729397313,0.0,1.1726714844,0.0,0.0970328684658,0.0,0.00211215966253,0.0,0.0171296281397,0.0,0.073589359652,0.0,0.00616503420319,0.0,0.0,0.0,0.0,-50.0,0.0,15.24,0.00230154196664,-50.0,-0.00383606751517,0.0,-0.0,-50.0,-0.0,0.0,253628.8,0.0,0.0,0.0,0.0,0.0,0.0
1402754255671612109,3,-18.1253659252,-0.00591572024346,-16.570762185,-0.122189614607,58.2672918643,0.10862951003,-0.045590791153,0.0,-0.131967689686,0.0,0.0921653273988,0.0,1.17580278896,0.0,0.105309118411,0.0,0.00204790504662,0.0,0.00728102657742,0.0,0.0733612996456,0.0,-0.00044725929177,0.0,0.0,0.0,0.0,-50.0,0.0,15.24,0.00230154196664,-50.0,-0.00383606751517,0.0,-0.0,-50.0,-0.0,0.0,253628.8,0.0,0.0,0.0,0.0,0.0,0.0
1402754255692048450,3,-18.1230277025,-0.00591572024346,-16.5746051872,-0.122189614607,58.2634523677,0.10862951003,-0.0399530988916,0.0,-0.142074218902,0.0,0.0926824129422,0.0,1.17829369323,0.0,0.105845079362,0.0,0.0031553598782,0.0,0.0121592716326,0.0,0.0726814585174,0.0,0.00410882487721,0.0,0.0,0.0,0.0,-50.0,0.0,15.24,0.00230154196664,-50.0,-0.00383606751517,0.0,-0.0,-50.0,-0.0,0.0,253628.8,0.0,0.0,0.0,0.0,0.0,0.0
1402754255711417498,3,-18.1230277025,-0.00591572024346,-16.5746051872,-0.122189614607,58.2634523677,0.10862951003,-0.0399530988916,0.0,-0.142074218902,0.0,0.0926824129422,0.0,1.17829369323,0.0,0.105845079362,0.0,0.0031553598782,0.0,0.0121592716326,0.0,0.0726814585174,0.0,0.00410882487721,0.0,0.0,0.0,0.0,-50.0,0.0,15.24,0.00230154196664,-50.0,-0.00383606751517,0.0,-0.0,-50.0,-0.0,0.0,253628.8,0.0,0.0,0.0,0.0,0.0,0.0
1402754255731248161,3,-18.1239271422,-0.00591572024346,-16.5774498305,-0.122189614607,58.2651488963,0.10862951003,-0.0427607191014,0.0,-0.144915250155,0.0,0.0934129418227,0.0,1.18052268242,0.0,0.10630573284,0.0,0.00302664161216,0.0,0.00670945979655,0.0,0.0725343024179,0.0,-0.00701791205354,0.0,0.0,0.0,0.0,-50.0,0.0,15.24,0.00230154196664,-50.0,-0.00383606751517,0.0,-0.0,-50.0,-0.0,0.0,253628.8,0.0,0.0,0.0,0.0,0.0,0.0
1402754255751602503,3,-18.1239271422,-0.00591572024346,-16.5774498305,-0.122189614607,58.2651488963,0.10862951003,-0.0427607191014,0.0,-0.144915250155,0.0,0.0934129418227,0.0,1.18052268242,0.0,0.10630573284,0.0,0.00302664161216,0.0,0.00670945979655,0.0,0.0725343024179,0.0,-0.00701791205354,0.0,0.0,0.0,0.0,-50.0,0.0,15.24,0.00230154196664,-50.0,-0.00383606751517,0.0,-0.0,-50.0,-0.0,0.0,253628.8,0.0,0.0,0.0,0.0,0.0,0.0
1402754255789882600,3,-18.1281099598,-0.00591572024346,-16.5740881985,-0.122189614607,58.253601044,0.10862951003,-0.0505659135383,0.0,-0.138429561376,0.0,0.0940814872886,0.0,1.18452910372,0.0,0.111054289524,0.0,0.00190818857632,0.0,0.00679205943078,0.0,0.0734748288722,0.0,0.00662238935103,0.0,0.0,0.0,0.0,-50.0,0.0,15.24,0.00230154196664,-50.0,-0.00383606751517,0.0,-0.0,-50.0,-0.0,0.0,253628.8,0.0,0.0,0.0,0.0,0.0,0.0
1402754255791343964,3,-18.1281099598,-0.00591572024346,-16.5740881985,-0.122189614607,58.253601044,0.10862951003,-0.0505659135383,0.0,-0.138429561376,0.0,0.0940814872886,0.0,1.18452910372,0.0,0.111054289524,0.0,0.00190818857632,0.0,0.00679205943078,0.0,0.0734748288722,0.0,0.00662238935103,0.0,0.0,0.0,0.0,-50.0,0.0,15.24,0.00230154196664,-50.0,-0.00383606751517,0.0,-0.0,-50.0,-0.0,0.0,253628.8,0.0,0.0,0.0,0.0,0.0,0.0
1402754255811302029,3,-18.1247308968,-0.00591572024346,-16.5742843835,-0.122189614607,58.2358205301,0.10862951003,-0.0415126570941,0.0,-0.145946211206,0.0,0.0919815674049,0.0,1.18999557808,0.0,0.111789060607,0.0,0.00343991891405,0.0,0.00389711435277,0.0,0.0736318809092,0.0,0.000246934998791,0.0,0.0,0.0,0.0,-50.0,0.0,15.24,0.00230154196664,-50.0,-0.00383606751517,0.0,-0.0,-50.0,-0.0,0.0,253628.8,0.0,0.0,0.0,0.0,0.0,0.0
1402754255831730302,3,-18.1247308968,-0.00591572024346,-16.5742843835,-0.122189614607,58.2358205301,0.10862951003,-0.0415126570941,0.0,-0.145946211206,0.0,0.0919815674049,0.0,1.18999557808,0.0,0.111789060607,0.0,0.00343991891405,0.0,0.00389711435277,0.0,0.0736318809092,0.0,0.000246934998791,0.0,0.0,0.0,0.0,-50.0,0.0,15.24,0.00230154196664,-50.0,-0.00383606751517,0.0,-0.0,-50.0,-0.0,0.0,253628.8,0.0,0.0,0.0,0.0,0.0,0.0
1402754255851867873,3,-18.1324845874,-0.00591572024346,-16.5763553371,-0.122189614607,58.2318170233,0.10862951003,-0.0612355510692,0.0,-0.149642307326,0.0,0.0945652451856,0.0,1.19355232909,0.0,0.117545617114,0.0,0.00148897592867,0.0,0.00154352431054,0.0,0.0731995940221,0.0,-0.000311689058281,0.0,0.0,0.0,0.0,-50.0,0.0,15.24,0.00230154196664,-50.0,-0.00383606751517,0.0,-0.0,-50.0,-0.0,0.0,253628.8,0.0,0.0,0.0,0.0,0.0,0.0
1402754255871315501,3,-18.1324845874,-0.00591572024346,-16.5763553371,-0.122189614607,58.2318170233,0.10862951003,-0.0612355510692,0.0,-0.149642307326,0.0,0.0945652451856,0.0,1.19355232909,0.0,0.117545617114,0.0,0.00148897592867,0.0,0.00154352431054,0.0,0.0731995940221,0.0,-0.000311689058281,0.0,0.0,0.0,0.0,-50.0,0.0,15.24,0.00230154196664,-50.0,-0.00383606751517,0.0,-0.0,-50.0,-0.0,0.0,253628.8,0.0,0.0,0.0,0.0,0.0,0.0
1402754255891383944,3,-18.1288927966,-0.00591572024346,-16.5702232519,-0.122189614607,58.206930531,0.10862951003,-0.0469758254331,0.0,-0.144252515948,0.0,0.0905840074273,0.0,1.19993958165,0.0,0.119238321712,0.0,0.00284106987998,0.0,-0.00307206696766,0.0,0.0750953440497,0.0,0.00626699872845,0.0,0.0,0.0,0.0,-50.0,0.0,15.24,0.00230154196664,-50.0,-0.00383606751517,0.0,-0.0,-50.0,-0.0,0.0,253628.8,0.0,0.0,0.0,0.0,0.0,0.0
1402754255911727595,3,-18.1288927966,-0.00591572024346,-16.5702232519,-0.122189614607,58.206930531,0.10862951003,-0.0469758254331,0.0,-0.144252515948,0.0,0.0905840074273,0.0,1.19993958165,0.0,0.119238321712,0.0,0.00284106987998,0.0,-0.00307206696766,0.0,0.0750953440497,0.0,0.00626699872845,0.0,0.0,0.0,0.0,-50.0,0.0,15.24,0.00230154196664,-50.0,-0.00383606751517,0.0,-0.0,-50.0,-0.0,0.0,253628.8,0.0,0.0,0.0,0.0,0.0,0.0
1402754255931971349,3,-18.1309481189,-0.00591572024346,-16.5764396905,-0.122189614607,58.2107914267,0.10862951003,-0.0491745359758,0.0,-0.151517359133,0.0,0.0908878228971,0.0,1.20495115458,0.0,0.128459343867,0.0,0.00278549688949,0.0,0.00067258645062,0.0,0.0751320211535,0.0,-0.00215667225812,0.0,0.0,0.0,0.0,-50.0,0.0,15.24,0.00230154196664,-50.0,-0.00383606751517,0.0,-0.0,-50.0,-0.0,0.0,253628.8,0.0,0.0,0.0,0.0,0.0,0.0
1402754255951368190,3,-18.1309481189,-0.00591572024346,-16.5764396905,-0.122189614607,58.2107914267,0.10862951003,-0.0491745359758,0.0,-0.151517359133,0.0,0.0908878228971,0.0,1.20495115458,0.0,0.128459343867,0.0,0.00278549688949,0.0,0.00067258645062,0.0,0.0751320211535,0.0,-0.00215667225812,0.0,0.0,0.0,0.0,-50.0,0.0,15.24,0.00230154196664,-50.0,-0.00383606751517,0.0,-0.0,-50.0,-0.0,0.0,253628.8,0.0,0.0,0.0,0.0,0.0,0.0
1402754255971508827,3,-18.137881497,-0.00591572024346,-16.5774984987,-0.122189614607,58.1981044697,0.10862951003,-0.0643631065055,0.0,-0.156874849125,0.0,0.0908285250975,0.0,1.20932388801,0.0,0.128578427838,0.0,0.00136049732742,0.0,-0.0031027664434,0.0,0.0747094897341,0.0,0.00396462305315,0.0,0.0,0.0,0.0,-50.0,0.0,15.24,0.00230154196664,-50.0,-0.00383606751517,0.0,-0.0,-50.0,-0.0,0.0,253628.8,0.0,0.0,0.0,0.0,0.0,0.0
1402754255991421639,3,-18.137881497,-0.00591572024346,-16.5774984987,-0.122189614607,58.1981044697,0.10862951003,-0.0643631065055,0.0,-0.156874849125,0.0,0.0908285250975,0.0,1.20932388801,0.0,0.128578427838,0.0,0.00136049732742,0.0,-0.0031027664434,0.0,0.0747094897341,0.0,0.00396462305315,0.0,0.0,0.0,0.0,-50.0,0.0,15.24,0.00230154196664,-50.0,-0.00383606751517,0.0,-0.0,-50.0,-0.0,0.0,253628.8,0.0,0.0,0.0,0.0,0.0,0.0
1402754256011330274,3,-18.140865524,-0.00591572024346,-16.5778055693,-0.122189614607,58.1770628721,0.10862951003,-0.0697569608825,0.0,-0.166549645364,0.0,0.0896052697523,0.0,1.2144320895,0.0,0.129085152974,0.0,0.00112383067787,0.0,-0.00376870664218,0.0,0.0742695474796,0.0,0.00641423988298,0.0,0.0,0.0,0.0,-50.0,0.0,15.24,0.00230154196664,-50.0,-0.00383606751517,0.0,-0.0,-50.0,-0.0,0.0,253628.8,0.0,0.0,0.0,0.0,0.0,0.0
1402754256031343703,3,-18.140865524,-0.00591572024346,-16.5778055693,-0.122189614607,58.1770628721,0.10862951003,-0.0697569608825,0.0,-0.166549645364,0.0,0.0896052697523,0.0,1.2144320895,0.0,0.129085152974,0.0,0.00112383067787,0.0,-0.00376870664218,0.0,0.0742695474796,0.0,0.00641423988298,0.0,0.0,0.0,0.0,-50.0,0.0,15.24,0.00230154196664,-50.0,-0.00383606751517,0.0,-0.0,-50.0,-0.0,0.0,253628.8,0.0,0.0,0.0,0.0,0.0,0.0
1402754256052039986,3,-18.137787571,-0.00591572024346,-16.5817769157,-0.122189614607,58.1581840847,0.10862951003,-0.0610845898034,0.0,-0.183362990869,0.0,0.0898105633959,0.0,1.22205254376,0.0,0.136966264479,0.0,0.00269270280419,0.0,0.000542865309052,0.0,0.0738627777142,0.0,0.00124054633752,0.0,0.0,0.0,0.0,-50.0,0.0,15.24,0.00230154196664,-50.0,-0.00383606751517,0.0,-0.0,-50.0,-0.0,0.0,253628.8,0.0,0.0,0.0,0.0,0.0,0.0
1402754256071442098,3,-18.137787571,-0.00591572024346,-16.5817769157,-0.122189614607,58.1581840847,0.10862951003,-0.0610845898034,0.0,-0.183362990869,0.0,0.0898105633959,0.0,1.22205254376,0.0,0.136966264479,0.0,0.00269270280419,0.0,0.000542865309052,0.0,0.0738627777142,0.0,0.00124054633752,0.0,0.0,0.0,0.0,-50.0,0.0,15.24,0.00230154196664,-50.0,-0.00383606751517,0.0,-0.0,-50.0,-0.0,0.0,253628.8,0.0,0.0,0.0,0.0,0.0,0.0
1402754256091306810,3,-18.1433574997,-0.00591572024346,-16.5802763088,-0.122189614607,58.13822279,0.10862951003,-0.0758575424083,0.0,-0.183847502147,0.0,0.090865560666,0.0,1.22837436323,0.0,0.134845568333,0.0,0.00102062346797,0.0,-0.000986307318955,0.0,0.0743316421072,0.0,-0.00266421400643,0.0,0.0,0.0,0.0,-50.0,0.0,15.24,0.00230154196664,-50.0,-0.00383606751517,0.0,-0.0,-50.0,-0.0,0.0,253628.8,0.0,0.0,0.0,0.0,0.0,0.0
1402754256111409303,3,-18.1433574997,-0.00591572024346,-16.5802763088,-0.122189614607,58.13822279,0.10862951003,-0.0758575424083,0.0,-0.183847502147,0.0,0.090865560666,0.0,1.22837436323,0.0,0.134845568333,0.0,0.00102062346797,0.0,-0.000986307318955,0.0,0.0743316421072,0.0,-0.00266421400643,0.0,0.0,0.0,0.0,-50.0,0.0,15.24,0.00230154196664,-50.0,-0.00383606751517,0.0,-0.0,-50.0,-0.0,0.0,253628.8,0.0,0.0,0.0,0.0,0.0,0.0
1402754256131324380,3,-18.144989223,-0.00591572024346,-16.5840422003,-0.122189614607,58.1400345129,0.10862951003,-0.0758326323281,0.0,-0.187208985849,0.0,0.0925019926475,0.0,1.2311641222,0.0,0.141471154349,0.0,0.000954822572251,0.0,0.00235394891551,0.0,0.0742911819907,0.0,0.00113630752138,0.0,0.0,0.0,0.0,-50.0,0.0,15.24,0.00230154196664,-50.0,-0.00383606751517,0.0,-0.0,-50.0,-0.0,0.0,253628.8,0.0,0.0,0.0,0.0,0.0,0.0
1402754256151387288,3,-18.144989223,-0.00591572024346,-16.5840422003,-0.122189614607,58.1400345129,0.10862951003,-0.0758326323281,0.0,-0.187208985849,0.0,0.0925019926475,0.0,1.2311641222,0.0,0.141471154349,0.0,0.000954822572251,0.0,0.00235394891551,0.0,0.0742911819907,0.0,0.00113630752138,0.0,0.0,0.0,0.0,-50.0,0.0,15.24,0.00230154196664,-50.0,-0.00383606751517,0.0,-0.0,-50.0,-0.0,0.0,253628.8,0.0,0.0,0.0,0.0,0.0,0.0
1402754256172152201,3,-18.1417603198,-0.00591572024346,-16.5897713797,-0.122189614607,58.1174052745,0.10862951003,-0.068881711235,0.0,-0.211272634305,0.0,0.0908605932228,0.0,1.23742152125,0.0,0.140910582108,0.0,0.00274296533266,0.0,0.00340249514618,0.0,0.0725067189788,0.0,-0.00432912396278,0.0,0.0,0.0,0.0,-50.0,0.0,15.24,0.00230154196664,-50.0,-0.00383606751517,0.0,-0.0,-50.0,-0.0,0.0,253628.8,0.0,0.0,0.0,0.0,0.0,0.0
1402754256191338302,3,-18.1417603198,-0.00591572024346,-16.5897713797,-0.122189614607,58.1174052745,0.10862951003,-0.068881711235,0.0,-0.211272634305,0.0,0.0908605932228,0.0,1.23742152125,0.0,0.140910582108,0.0,0.00274296533266,0.0,0.00340249514618,0.0,0.0725067189788,0.0,-0.00432912396278,0.0,0.0,0.0,0.0,-50.0,0.0,15.24,0.00230154196664,-50.0,-0.00383606751517,0.0,-0.0,-50.0,-0.0,0.0,253628.8,0.0,0.0,0.0,0.0,0.0,0.0
1402754256211268267,3,-18.1449569507,-0.00591572024346,-16.5925517861,-0.122189614607,58.1052503583,0.10862951003,-0.0800374561031,0.0,-0.222909395218,0.0,0.0936381668455,0.0,1.24306745106,0.0,0.150191460192,0.0,0.00210418680465,0.0,0.00987051905343,0.0,0.0715569554719,0.0,-0.00161203505531,0.0,0.0,0.0,0.0,-50.0,0.0,15.24,0.00230154196664,-50.0,-0.00383606751517,0.0,-0.0,-50.0,-0.0,0.0,253628.8,0.0,0.0,0.0,0.0,0.0,0.0
1402754256231275157,3,-18.1449569507,-0.00591572024346,-16.5925517861,-0.122189614607,58.1052503583,0.10862951003,-0.0800374561031,0.0,-0.222909395218,0.0,0.0936381668455,0.0,1.24306745106,0.0,0.150191460192,0.0,0.00210418680465,0.0,0.00987051905343,0.0,0.0715569554719,0.0,-0.00161203505531,0.0,0.0,0.0,0.0,-50.0,0.0,15.24,0.00230154196664,-50.0,-0.00383606751517,0.0,-0.0,-50.0,-0.0,0.0,253628.8,0.0,0.0,0.0,0.0,0.0,0.0
1402754256251376333,3,-18.1454752399,-0.00591572024346,-16.5881583817,-0.122189614607,58.0763391189,0.10862951003,-0.0802704107096,0.0,-0.223552128684,0.0,0.0934434373526,0.0,1.24954290071,0.0,0.156682576274,0.0,0.00212159352187,0.0,0.0027959073883,0.0,0.0720050521964,0.0,-0.00644521393596,0.0,0.0,0.0,0.0,-50.0,0.0,15.24,0.00230154196664,-50.0,-0.00383606751517,0.0,-0.0,-50.0,-0.0,0.0,253628.8,0.0,0.0,0.0,0.0,0.0,0.0
1402754256271990379,3,-18.1454752399,-0.00591572024346,-16.5881583817,-0.122189614607,58.0763391189,0.10862951003,-0.0802704107096,0.0,-0.223552128684,0.0,0.0934434373526,0.0,1.24954290071,0.0,0.156682576274,0.0,0.00212159352187,0.0,0.0027959073883,0.0,0.0720050521964,0.0,-0.00644521393596,0.0,0.0,0.0,0.0,-50.0,0.0,15.24,0.00230154196664,-50.0,-0.00383606751517,0.0,-0.0,-50.0,-0.0,0.0,253628.8,0.0,0.0,0.0,0.0,0.0,0.0
1402754256291110539,3,-18.148259788,-0.00591572024346,-16.5904598543,-0.122189614607,58.0507895261,0.10862951003,-0.0860722877389,0.0,-0.23924552975,0.0,0.0931248078867,0.0,1.25589976376,0.0,0.159537612864,0.0,0.00216256821037,0.0,-0.000906548627033,0.0,0.0708357692526,0.0,-0.00833127342026,0.0,0.0,0.0,0.0,-50.0,0.0,15.24,0.00230154196664,-50.0,-0.00383606751517,0.0,-0.0,-50.0,-0.0,0.0,253628.8,0.0,0.0,0.0,0.0,0.0,0.0
1402754256311317343,3,-18.148259788,-0.00591572024346,-16.5904598543,-0.122189614607,58.0507895261,0.10862951003,-0.0860722877389,0.0,-0.23924552975,0.0,0.0931248078867,0.0,1.25589976376,0.0,0.159537612864,0.0,0.00216256821037,0.0,-0.000906548627033,0.0,0.0708357692526,0.0,-0.00833127342026,0.0,0.0,0.0,0.0,-50.0,0.0,15.24,0.00230154196664,-50.0,-0.00383606751517,0.0,-0.0,-50.0,-0.0,0.0,253628.8,0.0,0.0,0.0,0.0,0.0,0.0
1402754256331354069,3,-18.1459058848,-0.00591572024346,-16.5803477831,-0.122189614607,58.0244047463,0.10862951003,-0.0762899980401,0.0,-0.223437208181,0.0,0.0921498133985,0.0,1.26255922592,0.0,0.160777814758,0.0,0.00261565542352,0.0,0.00934929859565,0.0,0.0736927538881,0.0,0.0139764793681,0.0,0.0,0.0,0.0,-50.0,0.0,15.24,0.00230154196664,-50.0,-0.00383606751517,0.0,-0.0,-50.0,-0.0,0.0,253628.8,0.0,0.0,0.0,0.0,0.0,0.0
1402754256351378001,3,-18.1459058848,-0.00591572024346,-16.5803477831,-0.122189614607,58.0244047463,0.10862951003,-0.0762899980401,0.0,-0.223437208181,0.0,0.0921498133985,0.0,1.26255922592,0.0,0.160777814758,0.0,0.00261565542352,0.0,0.00934929859565,0.0,0.0736927538881,0.0,0.0139764793681,0.0,0.0,0.0,0.0,-50.0,0.0,15.24,0.00230154196664,-50.0,-0.00383606751517,0.0,-0.0,-50.0,-0.0,0.0,253628.8,0.0,0.0,0.0,0.0,0.0,0.0
1402754256372123674,3,-18.1490759159,-0.00591572024346,-16.5896562058,-0.122189614607,58.0281893737,0.10862951003,-0.0795812805897,0.0,-0.229399997828,0.0,0.094322506934,0.0,1.26921028394,0.0,0.161959038433,0.0,0.00274212562644,0.0,0.00287277480706,0.0,0.0734764531502,0.0,0.000884886812403,0.0,0.0,0.0,0.0,-50.0,0.0,15.24,0.00230154196664,-50.0,-0.00383606751517,0.0,-0.0,-50.0,-0.0,0.0,253628.8,0.0,0.0,0.0,0.0,0.0,0.0
1402754256391900579,3,-18.1490759159,-0.00591572024346,-16.5896562058,-0.122189614607,58.0281893737,0.10862951003,-0.0795812805897,0.0,-0.229399997828,0.0,0.094322506934,0.0,1.26921028394,0.0,0.161959038433,0.0,0.00274212562644,0.0,0.00287277480706,0.0,0.0734764531502,0.0,0.000884886812403,0.0,0.0,0.0,0.0,-50.0,0.0,15.24,0.00230154196664,-50.0,-0.00383606751517,0.0,-0.0,-50.0,-0.0,0.0,253628.8,0.0,0.0,0.0,0.0,0.0,0.0
1402754256411453546,3,-18.1514374987,-0.00591572024346,-16.5902190726,-0.122189614607,57.9999023913,0.10862951003,-0.0827128131155,0.0,-0.241038001682,0.0,0.0926021098137,0.0,1.27581148081,0.0,0.166300297047,0.0,0.00317812234001,0.0,0.00573440911272,0.0,0.0724966514663,0.0,0.00586722719179,0.0,0.0,0.0,0.0,-50.0,0.0,15.24,0.00230154196664,-50.0,-0.00383606751517,0.0,-0.0,-50.0,-0.0,0.0,253628.8,0.0,0.0,0.0,0.0,0.0,0.0
1402754256431354029,3,-18.1514374987,-0.00591572024346,-16.5902190726,-0.122189614607,57.9999023913,0.10862951003,-0.0827128131155,0.0,-0.241038001682,0.0,0.0926021098137,0.0,1.27581148081,0.0,0.166300297047,0.0,0.00317812234001,0.0,0.00573440911272,0.0,0.0724966514663,0.0,0.00586722719179,0.0,0.0,0.0,0.0,-50.0,0.0,15.24,0.00230154196664,-50.0,-0.00383606751517,0.0,-0.0,-50.0,-0.0,0.0,253628.8,0.0,0.0,0.0,0.0,0.0,0.0
1402754256451378792,3,-18.1504407259,-0.00591572024346,-16.5898586904,-0.122189614607,57.9723786562,0.10862951003,-0.079365114945,0.0,-0.250218834729,0.0,0.0930997716435,0.0,1.28243094817,0.0,0.162485800647,0.0,0.00402352361602,0.0,0.00351121227905,0.0,0.0721232970497,0.0,0.00897289889282,0.0,0.0,0.0,0.0,-50.0,0.0,15.24,0.00230154196664,-50.0,-0.00383606751517,0.0,-0.0,-50.0,-0.0,0.0,253628.8,0.0,0.0,0.0,0.0,0.0,0.0
1402754256471410936,3,-18.1504407259,-0.00591572024346,-16.5898586904,-0.122189614607,57.9723786562,0.10862951003,-0.079365114945,0.0,-0.250218834729,0.0,0.0930997716435,0.0,1.28243094817,0.0,0.162485800647,0.0,0.00402352361602,0.0,0.00351121227905,0.0,0.0721232970497,0.0,0.00897289889282,0.0,0.0,0.0,0.0,-50.0,0.0,15.24,0.00230154196664,-50.0,-0.00383606751517,0.0,-0.0,-50.0,-0.0,0.0,253628.8,0.0,0.0,0.0,0.0,0.0,0.0
1402754256491353675,3,-18.1498424494,-0.00591572024346,-16.5874884256,-0.122189614607,57.9363841993,0.10862951003,-0.0756508608078,0.0,-0.259316728534,0.0,0.0907472142455,0.0,1.28935875729,0.0,0.161002648547,0.0,0.00479060383254,0.0,0.00373720600027,0.0,0.0717378260317,0.0,0.0111580956396,0.0,0.0,0.0,0.0,-50.0,0.0,15.24,0.00230154196664,-50.0,-0.00383606751517,0.0,-0.0,-50.0,-0.0,0.0,253628.8,0.0,0.0,0.0,0.0,0.0,0.0
1402754256511435541,3,-18.1498424494,-0.00591572024346,-16.5874884256,-0.122189614607,57.9363841993,0.10862951003,-0.0756508608078,0.0,-0.259316728534,0.0,0.0907472142455,0.0,1.28935875729,0.0,0.161002648547,0.0,0.00479060383254,0.0,0.00373720600027,0.0,0.0717378260317,0.0,0.0111580956396,0.0,0.0,0.0,0.0,-50.0,0.0,15.24,0.00230154196664,-50.0,-0.00383606751517,0.0,-0.0,-50.0,-0.0,0.0,253628.8,0.0,0.0,0.0,0.0,0.0,0.0
1402754256531538362,3,-18.1537382989,-0.00591572024346,-16.6010937189,-0.122189614607,57.9411106825,0.10862951003,-0.0755273432981,0.0,-0.26710165832,0.0,0.093787079228,0.0,1.29825820986,0.0,0.168885597825,0.0,0.00497532046433,0.0,-0.00356032650581,0.0,0.0718169282843,0.0,0.00529656433175,0.0,0.0,0.0,0.0,-50.0,0.0,15.24,0.00230154196664,-50.0,-0.00383606751517,0.0,-0.0,-50.0,-0.0,0.0,253628.8,0.0,0.0,0.0,0.0,0.0,0.0
1402754256551371824,3,-18.1537382989,-0.00591572024346,-16.6010937189,-0.122189614607,57.9411106825,0.10862951003,-0.0755273432981,0.0,-0.26710165832,0.0,0.093787079228,0.0,1.29825820986,0.0,0.168885597825,0.0,0.00497532046433,0.0,-0.00356032650581,0.0,0.0718169282843,0.0,0.00529656433175,0.0,0.0,0.0,0.0,-50.0,0.0,15.24,0.00230154196664,-50.0,-0.00383606751517,0.0,-0.0,-50.0,-0.0,0.0,253628.8,0.0,0.0,0.0,0.0,0.0,0.0
1402754256571559443,3,-18.1625151781,-0.00591572024346,-16.5938428609,-0.122189614607,57.8983660874,0.10862951003,-0.0980375011887,0.0,-0.269978112489,0.0,0.0899440720922,0.0,1.30298745074,0.0,0.170945733952,0.0,0.00257860053358,0.0,-0.00684271461422,0.0,0.0713817794654,0.0,-0.0046591227464,0.0,0.0,0.0,0.0,-50.0,0.0,15.24,0.00230154196664,-50.0,-0.00383606751517,0.0,-0.0,-50.0,-0.0,0.0,253628.8,0.0,0.0,0.0,0.0,0.0,0.0
1402754256591364406,3,-18.1645682868,-0.00591572024346,-16.5995654474,-0.122189614607,57.9001781297,0.10862951003,-0.0978964130407,0.0,-0.274005482654,0.0,0.0904935448887,0.0,1.30653653687,0.0,0.172470322835,0.0,0.00255968992161,0.0,-0.00458493364125,0.0,0.0713901340478,0.0,0.00147789208538,0.0,0.0,0.0,0.0,-50.0,0.0,15.24,0.00230154196664,-50.0,-0.00383606751517,0.0,-0.0,-50.0,-0.0,0.0,253628.8,0.0,0.0,0.0,0.0,0.0,0.0
1402754256611317960,3,-18.1645682868,-0.00591572024346,-16.5995654474,-0.122189614607,57.9001781297,0.10862951003,-0.0978964130407,0.0,-0.274005482654,0.0,0.0904935448887,0.0,1.30653653687,0.0,0.172470322835,0.0,0.00255968992161,0.0,-0.00458493364125,0.0,0.0713901340478,0.0,0.00147789208538,0.0,0.0,0.0,0.0,-50.0,0.0,15.24,0.00230154196664,-50.0,-0.00383606751517,0.0,-0.0,-50.0,-0.0,0.0,253628.8,0.0,0.0,0.0,0.0,0.0,0.0
1402754256631432466,3,-18.1613493582,-0.00591572024346,-16.592422471,-0.122189614607,57.885043613,0.10862951003,-0.0972821768226,0.0,-0.26716533246,0.0,0.0931596224775,0.0,1.31017732493,0.0,0.17249717949,0.0,0.00228237336277,0.0,0.00064129759697,0.0,0.0726817204522,0.0,-0.0018791636818,0.0,0.0,0.0,0.0,-50.0,0.0,15.24,0.00230154196664,-50.0,-0.00383606751517,0.0,-0.0,-50.0,-0.0,0.0,253628.8,0.0,0.0,0.0,0.0,0.0,0.0
1402754256651372603,3,-18.1613493582,-0.00591572024346,-16.592422471,-0.122189614607,57.885043613,0.10862951003,-0.0972821768226,0.0,-0.26716533246,0.0,0.0931596224775,0.0,1.31017732493,0.0,0.17249717949,0.0,0.00228237336277,0.0,0.00064129759697,0.0,0.0726817204522,0.0,-0.0018791636818,0.0,0.0,0.0,0.0,-50.0,0.0,15.24,0.00230154196664,-50.0,-0.00383606751517,0.0,-0.0,-50.0,-0.0,0.0,253628.8,0.0,0.0,0.0,0.0,0.0,0.0
1402754256671573183,3,-18.1588345515,-0.00591572024346,-16.5899251175,-0.122189614607,57.843549572,0.10862951003,-0.084124129286,0.0,-0.273464993182,0.0,0.0899422744379,0.0,1.31760428079,0.0,0.170145090026,0.0,0.00394679641485,0.0,-0.00112813455352,0.0,0.0729362696974,0.0,0.00863613163951,0.0,0.0,0.0,0.0,-50.0,0.0,15.24,0.00230154196664,-50.0,-0.00383606751517,0.0,-0.0,-50.0,-0.0,0.0,253628.8,0.0,0.0,0.0,0.0,0.0,0.0
1402754256691960456,3,-18.1588345515,-0.00591572024346,-16.5899251175,-0.122189614607,57.843549572,0.10862951003,-0.084124129286,0.0,-0.273464993182,0.0,0.0899422744379,0.0,1.31760428079,0.0,0.170145090026,0.0,0.00394679641485,0.0,-0.00112813455352,0.0,0.0729362696974,0.0,0.00863613163951,0.0,0.0,0.0,0.0,-50.0,0.0,15.24,0.00230154196664,-50.0,-0.00383606751517,0.0,-0.0,-50.0,-0.0,0.0,253628.8,0.0,0.0,0.0,0.0,0.0,0.0
1402754256711485305,3,-18.1640454457,-0.00591572024346,-16.5914955368,-0.122189614607,57.8259009357,0.10862951003,-0.0985828960201,0.0,-0.277710887923,0.0,0.0920349687566,0.0,1.32486270016,0.0,0.184894453314,0.0,0.00219741113836,0.0,-0.00129549117932,0.0,0.0729497785159,0.0,-0.00747378948748,0.0,0.0,0.0,0.0,-50.0,0.0,15.24,0.00230154196664,-50.0,-0.00383606751517,0.0,-0.0,-50.0,-0.0,0.0,253628.8,0.0,0.0,0.0,0.0,0.0,0.0
1402754256731344201,3,-18.1640454457,-0.00591572024346,-16.5914955368,-0.122189614607,57.8259009357,0.10862951003,-0.0985828960201,0.0,-0.277710887923,0.0,0.0920349687566,0.0,1.32486270016,0.0,0.184894453314,0.0,0.00219741113836,0.0,-0.00129549117932,0.0,0.0729497785159,0.0,-0.00747378948748,0.0,0.0,0.0,0.0,-50.0,0.0,15.24,0.00230154196664,-50.0,-0.00383606751517,0.0,-0.0,-50.0,-0.0,0.0,253628.8,0.0,0.0,0.0,0.0,0.0,0.0
1402754256751423253,3,-18.1592689122,-0.00591572024346,-16.5904307228,-0.122189614607,57.8030151676,0.10862951003,-0.0852442231857,0.0,-0.27781103464,0.0,0.093267105438,0.0,1.3325275735,0.0,0.185748522691,0.0,0.00347914432614,0.0,-0.00437743267648,0.0,0.0739584784047,0.0,-0.00270307986375,0.0,0.0,0.0,0.0,-50.0,0.0,15.24,0.00230154196664,-50.0,-0.00383606751517,0.0,-0.0,-50.0,-0.0,0.0,253628.8,0.0,0.0,0.0,0.0,0.0,0.0
1402754256790274474,3,-18.1592689122,-0.00591572024346,-16.5904307228,-0.122189614607,57.8030151676,0.10862951003,-0.0852442231857,0.0,-0.27781103464,0.0,0.093267105438,0.0,1.3325275735,0.0,0.185748522691,0.0,0.00347914432614,0.0,-0.00437743267648,0.0,0.0739584784047,0.0,-0.00270307986375,0.0,0.0,0.0,0.0,-50.0,0.0,15.24,0.00230154196664,-50.0,-0.00383606751517,0.0,-0.0,-50.0,-0.0,0.0,253628.8,0.0,0.0,0.0,0.0,0.0,0.0
1402754256791204507,3,-18.1643275401,-0.00591572024346,-16.5871427422,-0.122189614607,57.7529350851,0.10862951003,-0.0901832239053,0.0,-0.286933176965,0.0,0.0856823125153,0.0,1.34000120671,0.0,0.184788163986,0.0,0.00310048628491,0.0,0.00284733541275,0.0,0.0734446397062,0.0,-0.000731248302534,0.0,0.0,0.0,0.0,-50.0,0.0,15.24,0.00230154196664,-50.0,-0.00383606751517,0.0,-0.0,-50.0,-0.0,0.0,253628.8,0.0,0.0,0.0,0.0,0.0,0.0
1402754256811236964,3,-18.1643275401,-0.00591572024346,-16.5871427422,-0.122189614607,57.7529350851,0.10862951003,-0.0901832239053,0.0,-0.286933176965,0.0,0.0856823125153,0.0,1.34000120671,0.0,0.184788163986,0.0,0.00310048628491,0.0,0.00284733541275,0.0,0.0734446397062,0.0,-0.000731248302534,0.0,0.0,0.0,0.0,-50.0,0.0,15.24,0.00230154196664,-50.0,-0.00383606751517,0.0,-0.0,-50.0,-0.0,0.0,253628.8,0.0,0.0,0.0,0.0,0.0,0.0
1402754256831325319,3,-18.1679612463,-0.00591572024346,-16.5907916697,-0.122189614607,57.7360862265,0.10862951003,-0.0986427903584,0.0,-0.29439772183,0.0,0.0882209847838,0.0,1.3476628986,0.0,0.185093230452,0.0,0.00194120634581,0.0,-0.000675121389211,0.0,0.0731443399601,0.0,-0.00880077030545,0.0,0.0,0.0,0.0,-50.0,0.0,15.24,0.00230154196664,-50.0,-0.00383606751517,0.0,-0.0,-50.0,-0.0,0.0,253628.8,0.0,0.0,0.0,0.0,0.0,0.0
1402754256852343484,3,-18.1679612463,-0.00591572024346,-16.5907916697,-0.122189614607,57.7360862265,0.10862951003,-0.0986427903584,0.0,-0.29439772183,0.0,0.0882209847838,0.0,1.3476628986,0.0,0.185093230452,0.0,0.00194120634581,0.0,-0.000675121389211,0.0,0.0731443399601,0.0,-0.00880077030545,0.0,0.0,0.0,0.0,-50.0,0.0,15.24,0.00230154196664,-50.0,-0.00383606751517,0.0,-0.0,-50.0,-0.0,0.0,253628.8,0.0,0.0,0.0,0.0,0.0,0.0
1402754256872896471,3,-18.1728997334,-0.00591572024346,-16.6062464279,-0.122189614607,57.740584373,0.10862951003,-0.0979790440944,0.0,-0.301588108367,0.0,0.0881552277413,0.0,1.35732978986,0.0,0.189006096267,0.0,0.00154701538777,0.0,-0.00311867171761,0.0,0.073161605764,0.0,-0.0118147919393,0.0,0.0,0.0,0.0,-50.0,0.0,15.24,0.00230154196664,-50.0,-0.00383606751517,0.0,-0.0,-50.0,-0.0,0.0,253628.8,0.0,0.0,0.0,0.0,0.0,0.0
1402754256891463623,3,-18.1728997334,-0.00591572024346,-16.6062464279,-0.122189614607,57.740584373,0.10862951003,-0.0979790440944,0.0,-0.301588108367,0.0,0.0881552277413,0.0,1.35732978986,0.0,0.189006096267,0.0,0.00154701538777,0.0,-0.00311867171761,0.0,0.073161605764,0.0,-0.0118147919393,0.0,0.0,0.0,0.0,-50.0,0.0,15.24,0.00230154196664,-50.0,-0.00383606751517,0.0,-0.0,-50.0,-0.0,0.0,253628.8,0.0,0.0,0.0,0.0,0.0,0.0
1402754256911459317,3,-18.1744523676,-0.00591572024346,-16.6086767522,-0.122189614607,57.7004040719,0.10862951003,-0.100573716488,0.0,-0.31877298707,0.0,0.0902115807788,0.0,1.36671541665,0.0,0.190539382834,0.0,0.00127489732487,0.0,-0.00136916117227,0.0,0.0720017773782,0.0,-0.0124055047772,0.0,0.0,0.0,0.0,-50.0,0.0,15.24,0.00230154196664,-50.0,-0.00383606751517,0.0,-0.0,-50.0,-0.0,0.0,253628.8,0.0,0.0,0.0,0.0,0.0,0.0
1402754256931946778,3,-18.1744523676,-0.00591572024346,-16.6086767522,-0.122189614607,57.7004040719,0.10862951003,-0.100573716488,0.0,-0.31877298707,0.0,0.0902115807788,0.0,1.36671541665,0.0,0.190539382834,0.0,0.00127489732487,0.0,-0.00136916117227,0.0,0.0720017773782,0.0,-0.0124055047772,0.0,0.0,0.0,0.0,-50.0,0.0,15.24,0.00230154196664,-50.0,-0.00383606751517,0.0,-0.0,-50.0,-0.0,0.0,253628.8,0.0,0.0,0.0,0.0,0.0,0.0
1402754256951308906,3,-18.1763754917,-0.00591572024346,-16.6150727434,-0.122189614607,57.7022422044,0.10862951003,-0.0997351221276,0.0,-0.322360661205,0.0,0.0905073884888,0.0,1.37049883754,0.0,0.194365571841,0.0,0.00109187396951,0.0,0.00219791364611,0.0,0.0719384977208,0.0,-0.00935335713394,0.0,0.0,0.0,0.0,-50.0,0.0,15.24,0.00230154196664,-50.0,-0.00383606751517,0.0,-0.0,-50.0,-0.0,0.0,253628.8,0.0,0.0,0.0,0.0,0.0,0.0
1402754256971517991,3,-18.1763754917,-0.00591572024346,-16.6150727434,-0.122189614607,57.7022422044,0.10862951003,-0.0997351221276,0.0,-0.322360661205,0.0,0.0905073884888,0.0,1.37049883754,0.0,0.194365571841,0.0,0.00109187396951,0.0,0.00219791364611,0.0,0.0719384977208,0.0,-0.00935335713394,0.0,0.0,0.0,0.0,-50.0,0.0,15.24,0.00230154196664,-50.0,-0.00383606751517,0.0,-0.0,-50.0,-0.0,0.0,253628.8,0.0,0.0,0.0,0.0,0.0,0.0
1402754256991394041,3,-18.1815389548,-0.00591572024346,-16.618135676,-0.122189614607,57.6697940299,0.10862951003,-0.102180814553,0.0,-0.328238052571,0.0,0.0862949488842,0.0,1.37836405745,0.0,0.189263025226,0.0,0.000764671280337,0.0,0.00211788328294,0.0,0.0716664925404,0.0,0.00177421878749,0.0,0.0,0.0,0.0,-50.0,0.0,15.24,0.00230154196664,-50.0,-0.00383606751517,0.0,-0.0,-50.0,-0.0,0.0,253628.8,0.0,0.0,0.0,0.0,0.0,0.0
1402754257011350969,3,-18.1815389548,-0.00591572024346,-16.618135676,-0.122189614607,57.6697940299,0.10862951003,-0.102180814553,0.0,-0.328238052571,0.0,0.0862949488842,0.0,1.37836405745,0.0,0.189263025226,0.0,0.000764671280337,0.0,0.00211788328294,0.0,0.0716664925404,0.0,0.00177421878749,0.0,0.0,0.0,0.0,-50.0,0.0,15.24,0.00230154196664,-50.0,-0.00383606751517,0.0,-0.0,-50.0,-0.0,0.0,253628.8,0.0,0.0,0.0,0.0,0.0,0.0
1402754257031898360,3,-18.1856666979,-0.00591572024346,-16.631783726,-0.122189614607,57.6734426235,0.10862951003,-0.102215054479,0.0,-0.335374011352,0.0,0.0864978710051,0.0,1.38617191876,0.0,0.192739299165,0.0,0.000605049779357,0.0,0.00648585096799,0.0,0.0714626683133,0.0,-0.0028689571803,0.0,0.0,0.0,0.0,-50.0,0.0,15.24,0.00230154196664,-50.0,-0.00383606751517,0.0,-0.0,-50.0,-0.0,0.0,253628.8,0.0,0.0,0.0,0.0,0.0,0.0
1402754257051355469,3,-18.1856666979,-0.00591572024346,-16.631783726,-0.122189614607,57.6734426235,0.10862951003,-0.102215054479,0.0,-0.335374011352,0.0,0.0864978710051,0.0,1.38617191876,0.0,0.192739299165,0.0,0.000605049779357,0.0,0.00648585096799,0.0,0.0714626683133,0.0,-0.0028689571803,0.0,0.0,0.0,0.0,-50.0,0.0,15.24,0.00230154196664,-50.0,-0.00383606751517,0.0,-0.0,-50.0,-0.0,0.0,253628.8,0.0,0.0,0.0,0.0,0.0,0.0
1402754257071651714,3,-18.1902114447,-0.00591572024346,-16.635987107,-0.122189614607,57.6632522599,0.10862951003,-0.108843431132,0.0,-0.330880853617,0.0,0.0890982168466,0.0,1.3939812971,0.0,0.191228107718,0.0,-0.000635118592446,0.0,0.00476160740945,0.0,0.0724161640858,0.0,-0.00119398796349,0.0,0.0,0.0,0.0,-50.0,0.0,15.24,0.00230154196664,-50.0,-0.00383606751517,0.0,-0.0,-50.0,-0.0,0.0,253628.8,0.0,0.0,0.0,0.0,0.0,0.0
1402754257091846068,3,-18.1902114447,-0.00591572024346,-16.635987107,-0.122189614607,57.6632522599,0.10862951003,-0.108843431132,0.0,-0.330880853617,0.0,0.0890982168466,0.0,1.3939812971,0.0,0.191228107718,0.0,-0.000635118592446,0.0,0.00476160740945,0.0,0.0724161640858,0.0,-0.00119398796349,0.0,0.0,0.0,0.0,-50.0,0.0,15.24,0.00230154196664,-50.0,-0.00383606751517,0.0,-0.0,-50.0,-0.0,0.0,253628.8,0.0,0.0,0.0,0.0,0.0,0.0
1402754257111823456,3,-18.1874793819,-0.00591572024346,-16.6447517152,-0.122189614607,57.6499463976,0.10862951003,-0.0936809700795,0.0,-0.336034485696,0.0,0.0894460326198,0.0,1.40201641019,0.0,0.192355892105,0.0,0.00114668138424,0.0,-0.00083216263374,0.0,0.0724671608547,0.0,-0.00516236947754,0.0,0.0,0.0,0.0,-50.0,0.0,15.24,0.00230154196664,-50.0,-0.00383606751517,0.0,-0.0,-50.0,-0.0,0.0,253628.8,0.0,0.0,0.0,0.0,0.0,0.0
1402754257131483674,3,-18.1874793819,-0.00591572024346,-16.6447517152,-0.122189614607,57.6499463976,0.10862951003,-0.0936809700795,0.0,-0.336034485696,0.0,0.0894460326198,0.0,1.40201641019,0.0,0.192355892105,0.0,0.00114668138424,0.0,-0.00083216263374,0.0,0.0724671608547,0.0,-0.00516236947754,0.0,0.0,0.0,0.0,-50.0,0.0,15.24,0.00230154196664,-50.0,-0.00383606751517,0.0,-0.0,-50.0,-0.0,0.0,253628.8,0.0,0.0,0.0,0.0,0.0,0.0
1402754257151394629,3,-18.189732619,-0.00591572024346,-16.652819989,-0.122189614607,57.6418114497,0.10862951003,-0.091582890264,0.0,-0.338122697434,0.0,0.0895021150769,0.0,1.4100996543,0.0,0.19456709507,0.0,0.000997880279534,0.0,0.00855431361421,0.0,0.0728132798473,0.0,-0.000507124719382,0.0,0.0,0.0,0.0,-50.0,0.0,15.24,0.00230154196664,-50.0,-0.00383606751517,0.0,-0.0,-50.0,-0.0,0.0,253628.8,0.0,0.0,0.0,0.0,0.0,0.0
1402754257171977713,3,-18.189732619,-0.00591572024346,-16.652819989,-0.122189614607,57.6418114497,0.10862951003,-0.091582890264,0.0,-0.338122697434,0.0,0.0895021150769,0.0,1.4100996543,0.0,0.19456709507,0.0,0.000997880279534,0.0,0.00855431361421,0.0,0.0728132798473,0.0,-0.000507124719382,0.0,0.0,0.0,0.0,-50.0,0.0,15.24,0.00230154196664,-50.0,-0.00383606751517,0.0,-0.0,-50.0,-0.0,0.0,253628.8,0.0,0.0,0.0,0.0,0.0,0.0
1402754257191538772,3,-18.1895550746,-0.00591572024346,-16.6708191538,-0.122189614607,57.6473462251,0.10862951003,-0.0845484799885,0.0,-0.351235707944,0.0,0.0966126838002,0.0,1.41981907618,0.0,0.189577859656,0.0,0.00196598791447,0.0,0.00490183353744,0.0,0.0719880601483,0.0,5.43766614514e-05,0.0,0.0,0.0,0.0,-50.0,0.0,15.24,0.00230154196664,-50.0,-0.00383606751517,0.0,-0.0,-50.0,-0.0,0.0,253628.8,0.0,0.0,0.0,0.0,0.0,0.0
1402754257211360536,3,-18.1895550746,-0.00591572024346,-16.6708191538,-0.122189614607,57.6473462251,0.10862951003,-0.0845484799885,0.0,-0.351235707944,0.0,0.0966126838002,0.0,1.41981907618,0.0,0.189577859656,0.0,0.00196598791447,0.0,0.00490183353744,0.0,0.0719880601483,0.0,5.43766614514e-05,0.0,0.0,0.0,0.0,-50.0,0.0,15.24,0.00230154196664,-50.0,-0.00383606751517,0.0,-0.0,-50.0,-0.0,0.0,253628.8,0.0,0.0,0.0,0.0,0.0,0.0
