rosbagTimestamp,control_method,x_current,x_desired,y_current,y_desired,z_current,z_desired,x_velocity_current,x_velocity_desired,y_velocity_current,y_velocity_desired,z_velocity_current,z_velocity_desired,yaw_current,yaw_desired,yaw_velocity_current,yaw_velocity_desired,roll_current,roll_desired,roll_velocity_current,roll_velocity_desired,pitch_current,pitch_desired,pitch_velocity_current,pitch_velocity_desired,required_force_x,required_force_y,required_moment_z,resultant_force_x,resultant_force_y,resultant_moment_z,current_port_servo_angle,current_port_thruster_force,current_starboard_servo_angle,current_starboard_thruster_force,estimated_port_servo_angle,estimated_port_thruster_force,estimated_starboard_servo_angle,estimated_starboard_thruster_force,cost_value,step,user_defined_1,user_defined_2,user_defined_3,user_defined_4,user_defined_5
1402756672861625275,3,-8.80178066194,-7.1377884924,3.67526908167,2.38304939926,0.476276405614,-3.84635974695,-0.0463367714855,0.0,0.0396258556787,0.0,0.238113616532,0.0,-2.76442629268,0.0,0.00638476356001,0.0,0.00237130183971,0.0,-0.00309305626548,0.0,0.0716440236729,0.0,0.000137137088241,0.0,0.0,0.0,0.0,-14.1421356237,-127.279220614,130.932134245,0.772547809285,0.0,-0.783288391429,0.0,0.785398163397,-100.0,-0.785398163397,80.0,16763611.889,0.0,0.0,0.0,0.0,0.0,0.0
1402756672880726698,3,-8.80356342924,-7.1377884924,3.67675259076,2.38304939926,0.486087969311,-3.84635974695,-0.0467283863194,0.0,0.0389399688426,0.0,0.238840318157,0.0,-2.7639199097,0.0,0.00910624772537,0.0,0.00204881641636,0.0,0.00975030245713,0.0,0.0715105613386,0.0,0.00356889038078,0.0,0.0,0.0,0.0,-14.1421356237,-127.279220614,130.932134245,0.771013585729,0.0,-0.784822614985,0.0,0.785398163397,-100.0,-0.785398163397,80.0,16763611.889,0.0,0.0,0.0,0.0,0.0,0.0
1402756672900464160,3,-8.80356342924,-7.1377884924,3.67675259076,2.38304939926,0.486087969311,-3.84635974695,-0.0467283863194,0.0,0.0389399688426,0.0,0.238840318157,0.0,-2.7639199097,0.0,0.00910624772537,0.0,0.00204881641636,0.0,0.00975030245713,0.0,0.0715105613386,0.0,0.00356889038078,0.0,0.0,0.0,0.0,-14.1421356237,-127.279220614,130.932134245,0.771013585729,0.0,-0.783288391429,0.0,0.785398163397,-100.0,-0.785398163397,80.0,16763611.889,0.0,0.0,0.0,0.0,0.0,0.0
1402756672920425221,3,-8.79621351264,-7.1377884924,3.67386091753,2.38304939926,0.496649238882,-3.84635974695,-0.0308211277344,0.0,0.0340388451976,0.0,0.238363201773,0.0,-2.76370620734,0.0,0.00504871676414,0.0,0.000852638707548,0.0,0.0110118479515,0.0,0.0702544573672,0.0,0.00239422622712,0.0,0.0,0.0,0.0,-14.1421356237,-127.279220614,130.932134245,0.771013585729,0.0,-0.783288391429,0.0,0.785398163397,-100.0,-0.785398163397,80.0,16763611.889,0.0,0.0,0.0,0.0,0.0,0.0
1402756672940757332,3,-8.79621351264,-7.1377884924,3.67386091753,2.38304939926,0.496649238882,-3.84635974695,-0.0308211277344,0.0,0.0340388451976,0.0,0.238363201773,0.0,-2.76370620734,0.0,0.00504871676414,0.0,0.000852638707548,0.0,0.0110118479515,0.0,0.0702544573672,0.0,0.00239422622712,0.0,0.0,0.0,0.0,-14.1421356237,-127.279220614,130.932134245,0.772547809285,0.0,-0.783288391429,0.0,0.785398163397,-100.0,-0.785398163397,80.0,16763611.889,0.0,0.0,0.0,0.0,0.0,0.0
1402756672960388047,3,-8.796681253,-7.1377884924,3.6649206522,2.38304939926,0.492916132964,-3.84635974695,-0.0372906850752,0.0,0.0203298460159,0.0,0.235248397357,0.0,-2.76344384799,0.0,0.00486164184677,0.0,-0.000442991191459,0.0,0.00526698400814,0.0,0.071757626084,0.0,-0.00321887241007,0.0,0.0,0.0,0.0,-14.1421356237,-127.279220614,130.932134245,0.772547809285,0.0,-0.783288391429,0.0,0.785398163397,-100.0,-0.785398163397,80.0,16763611.889,0.0,0.0,0.0,0.0,0.0,0.0
1402756672980664821,3,-8.796681253,-7.1377884924,3.6649206522,2.38304939926,0.492916132964,-3.84635974695,-0.0372906850752,0.0,0.0203298460159,0.0,0.235248397357,0.0,-2.76344384799,0.0,0.00486164184677,0.0,-0.000442991191459,0.0,0.00526698400814,0.0,0.071757626084,0.0,-0.00321887241007,0.0,0.0,0.0,0.0,-14.1421356237,-127.279220614,130.932134245,0.771013585729,0.0,-0.783288391429,0.0,0.785398163397,-100.0,-0.785398163397,80.0,16763611.889,0.0,0.0,0.0,0.0,0.0,0.0
1402756673000863653,3,-8.79634932985,-7.1377884924,3.66661391193,2.38304939926,0.503653561718,-3.84635974695,-0.0364708954929,0.0,0.0244040266726,0.0,0.235126646724,0.0,-2.76304463655,0.0,0.00666412402211,0.0,-0.000302134101753,0.0,0.00960521564484,0.0,0.0716235190354,0.0,-0.00458198853331,0.0,0.0,0.0,0.0,-14.1421356237,-127.279220614,130.932134245,0.771013585729,0.0,-0.783288391429,0.0,0.785398163397,-100.0,-0.785398163397,80.0,16763611.889,0.0,0.0,0.0,0.0,0.0,0.0
1402756673021130874,3,-8.79634932985,-7.1377884924,3.66661391193,2.38304939926,0.503653561718,-3.84635974695,-0.0364708954929,0.0,0.0244040266726,0.0,0.235126646724,0.0,-2.76304463655,0.0,0.00666412402211,0.0,-0.000302134101753,0.0,0.00960521564484,0.0,0.0716235190354,0.0,-0.00458198853331,0.0,0.0,0.0,0.0,-14.1421356237,-127.279220614,130.932134245,0.771013585729,0.0,-0.783288391429,0.0,0.785398163397,-100.0,-0.785398163397,80.0,16763611.889,0.0,0.0,0.0,0.0,0.0,0.0
1402756673041206654,3,-8.79782130187,-7.1377884924,3.66744375034,2.38304939926,0.513132310407,-3.84635974695,-0.0361408198241,0.0,0.023629667112,0.0,0.234432980141,0.0,-2.76267103196,0.0,0.013367161973,0.0,-0.000773401023222,0.0,0.0161443540459,0.0,0.0719161982206,0.0,0.00193945864574,0.0,0.0,0.0,0.0,-14.1421356237,-127.279220614,130.932134245,0.771013585729,0.0,-0.783288391429,0.0,0.785398163397,-100.0,-0.785398163397,80.0,16763611.889,0.0,0.0,0.0,0.0,0.0,0.0
1402756673060874490,3,-8.79782130187,-7.1377884924,3.66744375034,2.38304939926,0.513132310407,-3.84635974695,-0.0361408198241,0.0,0.023629667112,0.0,0.234432980141,0.0,-2.76267103196,0.0,0.013367161973,0.0,-0.000773401023222,0.0,0.0161443540459,0.0,0.0719161982206,0.0,0.00193945864574,0.0,0.0,0.0,0.0,-14.1421356237,-127.279220614,130.932134245,0.771013585729,0.0,-0.783288391429,0.0,0.785398163397,-100.0,-0.785398163397,80.0,16763611.889,0.0,0.0,0.0,0.0,0.0,0.0
1402756673080593674,3,-8.79719757652,-7.1377884924,3.66977905852,2.38304939926,0.511664225383,-3.84635974695,-0.0359607793118,0.0,0.0341557594023,0.0,0.23274181464,0.0,-2.76225141484,0.0,0.00757906431315,0.0,-9.85629389252e-05,0.0,0.0108761728921,0.0,0.0715196672536,0.0,0.00163949082959,0.0,0.0,0.0,0.0,-14.1421356237,-127.279220614,130.932134245,0.771013585729,0.0,-0.783288391429,0.0,0.785398163397,-100.0,-0.785398163397,80.0,16763611.889,0.0,0.0,0.0,0.0,0.0,0.0
1402756673100781484,3,-8.79719757652,-7.1377884924,3.66977905852,2.38304939926,0.511664225383,-3.84635974695,-0.0359607793118,0.0,0.0341557594023,0.0,0.23274181464,0.0,-2.76225141484,0.0,0.00757906431315,0.0,-9.85629389252e-05,0.0,0.0108761728921,0.0,0.0715196672536,0.0,0.00163949082959,0.0,0.0,0.0,0.0,-14.1421356237,-127.279220614,130.932134245,0.771013585729,0.0,-0.783288391429,0.0,0.785398163397,-100.0,-0.785398163397,80.0,16763611.889,0.0,0.0,0.0,0.0,0.0,0.0
1402756673120996221,3,-8.80002275218,-7.1377884924,3.66727541045,2.38304939926,0.517677438816,-3.84635974695,-0.0431456595957,0.0,0.030597303517,0.0,0.232486920144,0.0,-2.76186024092,0.0,0.00833082664348,0.0,-0.000571235005925,0.0,0.00599266681314,0.0,0.0727006563488,0.0,-0.00780133823977,0.0,0.0,0.0,0.0,-14.1421356237,-127.279220614,130.932134245,0.771013585729,0.0,-0.783288391429,0.0,0.785398163397,-100.0,-0.785398163397,80.0,16763611.889,0.0,0.0,0.0,0.0,0.0,0.0
1402756673140445883,3,-8.80002275218,-7.1377884924,3.66727541045,2.38304939926,0.517677438816,-3.84635974695,-0.0431456595957,0.0,0.030597303517,0.0,0.232486920144,0.0,-2.76186024092,0.0,0.00833082664348,0.0,-0.000571235005925,0.0,0.00599266681314,0.0,0.0727006563488,0.0,-0.00780133823977,0.0,0.0,0.0,0.0,-14.1421356237,-127.279220614,130.932134245,0.771013585729,0.0,-0.783288391429,0.0,0.785398163397,-100.0,-0.785398163397,80.0,16763611.889,0.0,0.0,0.0,0.0,0.0,0.0
1402756673160238687,3,-8.80529224126,-7.1377884924,3.67291894589,2.38304939926,0.539310191021,-3.84635974695,-0.0479357005215,0.0,0.0371055969031,0.0,0.233583267198,0.0,-2.76133993666,0.0,0.00543454536367,0.0,-0.0002557940532,0.0,0.000684461619172,0.0,0.0732129919533,0.0,-0.00349512618138,0.0,0.0,0.0,0.0,-14.1421356237,-127.279220614,130.932134245,0.771013585729,0.0,-0.783288391429,0.0,0.785398163397,-100.0,-0.785398163397,80.0,16763611.889,0.0,0.0,0.0,0.0,0.0,0.0
1402756673182175612,3,-8.80529224126,-7.1377884924,3.67291894589,2.38304939926,0.539310191021,-3.84635974695,-0.0479357005215,0.0,0.0371055969031,0.0,0.233583267198,0.0,-2.76133993666,0.0,0.00543454536367,0.0,-0.0002557940532,0.0,0.000684461619172,0.0,0.0732129919533,0.0,-0.00349512618138,0.0,0.0,0.0,0.0,-14.1421356237,-127.279220614,130.932134245,0.771013585729,0.0,-0.783288391429,0.0,0.785398163397,-100.0,-0.785398163397,80.0,16763611.889,0.0,0.0,0.0,0.0,0.0,0.0
1402756673200271234,3,-8.79841555828,-7.1377884924,3.67766315224,2.38304939926,0.560235738119,-3.84635974695,-0.027750119285,0.0,0.0437977144844,0.0,0.235945580873,0.0,-2.76064967589,0.0,0.0049703599752,0.0,-0.000376355688215,0.0,0.00148821329026,0.0,0.0709679346853,0.0,-0.0062671213489,0.0,0.0,0.0,0.0,-14.1421356237,-127.279220614,130.932134245,0.771013585729,0.0,-0.783288391429,0.0,0.785398163397,-100.0,-0.785398163397,80.0,16763611.889,0.0,0.0,0.0,0.0,0.0,0.0
1402756673221197967,3,-8.80630608775,-7.1377884924,3.67523653622,2.38304939926,0.573998243227,-3.84635974695,-0.0424991327872,0.0,0.0316091374903,0.0,0.23537356144,0.0,-2.76058716355,0.0,0.0124571745493,0.0,-0.00119893847814,0.0,0.0105776206948,0.0,0.0731493917069,0.0,0.00200059646407,0.0,0.0,0.0,0.0,-14.1421356237,-127.279220614,130.932134245,0.772547809285,0.0,-0.783288391429,0.0,0.785398163397,-100.0,-0.785398163397,80.0,16763611.889,0.0,0.0,0.0,0.0,0.0,0.0
1402756673240521676,3,-8.80690044092,-7.1377884924,3.67543889108,2.38304939926,0.576794551956,-3.84635974695,-0.0433344379084,0.0,0.0329223055308,0.0,0.236510848711,0.0,-2.76040031586,0.0,0.0130826108753,0.0,-0.00116002086053,0.0,-0.00198600516694,0.0,0.0731871279574,0.0,-0.00458115907788,0.0,0.0,0.0,0.0,-14.1421356237,-127.279220614,130.932134245,0.771013585729,0.0,-0.783288391429,0.0,0.785398163397,-100.0,-0.785398163397,80.0,16763611.889,0.0,0.0,0.0,0.0,0.0,0.0
1402756673260722807,3,-8.80690044092,-7.1377884924,3.67543889108,2.38304939926,0.576794551956,-3.84635974695,-0.0433344379084,0.0,0.0329223055308,0.0,0.236510848711,0.0,-2.76040031586,0.0,0.0130826108753,0.0,-0.00116002086053,0.0,-0.00198600516694,0.0,0.0731871279574,0.0,-0.00458115907788,0.0,0.0,0.0,0.0,-14.1421356237,-127.279220614,130.932134245,0.771013585729,0.0,-0.783288391429,0.0,0.785398163397,-100.0,-0.785398163397,80.0,16763611.889,0.0,0.0,0.0,0.0,0.0,0.0
1402756673280330203,3,-8.80711842185,-7.1377884924,3.68093175865,2.38304939926,0.596532573272,-3.84635974695,-0.0371765436173,0.0,0.0385630066091,0.0,0.237559087151,0.0,-2.75996337267,0.0,0.012812181126,0.0,-0.000835219793074,0.0,-0.00526568325382,0.0,0.0722283637423,0.0,-0.00256175652631,0.0,0.0,0.0,0.0,-14.1421356237,-127.279220614,130.932134245,0.771013585729,0.0,-0.783288391429,0.0,0.785398163397,-100.0,-0.785398163397,80.0,16763611.889,0.0,0.0,0.0,0.0,0.0,0.0
1402756673300970258,3,-8.80711842185,-7.1377884924,3.68093175865,2.38304939926,0.596532573272,-3.84635974695,-0.0371765436173,0.0,0.0385630066091,0.0,0.237559087151,0.0,-2.75996337267,0.0,0.012812181126,0.0,-0.000835219793074,0.0,-0.00526568325382,0.0,0.0722283637423,0.0,-0.00256175652631,0.0,0.0,0.0,0.0,-14.1421356237,-127.279220614,130.932134245,0.771013585729,0.0,-0.783288391429,0.0,0.785398163397,-100.0,-0.785398163397,80.0,16763611.889,0.0,0.0,0.0,0.0,0.0,0.0
1402756673320239703,3,-8.80856796416,-7.1377884924,3.68232906664,2.38304939926,0.606377015218,-3.84635974695,-0.0356038198744,0.0,0.0397225676538,0.0,0.238484202652,0.0,-2.75943376889,0.0,0.00648690717093,0.0,-0.000780924534984,0.0,-0.0172031111234,0.0,0.0719870894299,0.0,0.00966470167041,0.0,0.0,0.0,0.0,-14.1421356237,-127.279220614,130.932134245,0.771013585729,0.0,-0.783288391429,0.0,0.785398163397,-100.0,-0.785398163397,80.0,16763611.889,0.0,0.0,0.0,0.0,0.0,0.0
1402756673340293439,3,-8.80856796416,-7.1377884924,3.68232906664,2.38304939926,0.606377015218,-3.84635974695,-0.0356038198744,0.0,0.0397225676538,0.0,0.238484202652,0.0,-2.75943376889,0.0,0.00648690717093,0.0,-0.000780924534984,0.0,-0.0172031111234,0.0,0.0719870894299,0.0,0.00966470167041,0.0,0.0,0.0,0.0,-14.1421356237,-127.279220614,130.932134245,0.771013585729,0.0,-0.783288391429,0.0,0.785398163397,-100.0,-0.785398163397,80.0,16763611.889,0.0,0.0,0.0,0.0,0.0,0.0
1402756673360207383,3,-8.80884925576,-7.1377884924,3.68764940625,2.38304939926,0.660111995779,-3.84635974695,-0.0235898366782,0.0,0.0317244794499,0.0,0.244464773021,0.0,-2.75899897351,0.0,0.00979276749951,0.0,-0.00177157275213,0.0,-0.006339503686,0.0,0.0708026023989,0.0,0.014375512108,0.0,0.0,0.0,0.0,-14.1421356237,-127.279220614,130.932134245,0.771013585729,0.0,-0.783288391429,0.0,0.785398163397,-100.0,-0.785398163397,80.0,16763611.889,0.0,0.0,0.0,0.0,0.0,0.0
1402756673380069125,3,-8.80884925576,-7.1377884924,3.68764940625,2.38304939926,0.660111995779,-3.84635974695,-0.0235898366782,0.0,0.0317244794499,0.0,0.244464773021,0.0,-2.75899897351,0.0,0.00979276749951,0.0,-0.00177157275213,0.0,-0.006339503686,0.0,0.0708026023989,0.0,0.014375512108,0.0,0.0,0.0,0.0,-14.1421356237,-127.279220614,130.932134245,0.772547809285,0.0,-0.783288391429,0.0,0.785398163397,-100.0,-0.785398163397,80.0,16763611.889,0.0,0.0,0.0,0.0,0.0,0.0
1402756673400094677,3,-8.81727755094,-7.1377884924,3.69331739721,2.38304939926,0.681516526641,-3.84635974695,-0.034008238054,0.0,0.035467117744,0.0,0.246522609898,0.0,-2.75859578539,0.0,0.00486175245907,0.0,-0.000962257820314,0.0,-0.0121744324627,0.0,0.0712407622468,0.0,0.00251120581294,0.0,0.0,0.0,0.0,-14.1421356237,-127.279220614,130.932134245,0.772547809285,-100.0,-0.783288391429,80.0,0.785398163397,-100.0,-0.785398163397,80.0,16763611.889,0.0,0.0,0.0,0.0,0.0,0.0
1402756673420171549,3,-8.81727755094,-7.1377884924,3.69331739721,2.38304939926,0.681516526641,-3.84635974695,-0.034008238054,0.0,0.035467117744,0.0,0.246522609898,0.0,-2.75859578539,0.0,0.00486175245907,0.0,-0.000962257820314,0.0,-0.0121744324627,0.0,0.0712407622468,0.0,0.00251120581294,0.0,0.0,0.0,0.0,-14.1421356237,-127.279220614,130.932134245,0.772547809285,-100.0,-0.783288391429,80.0,0.785398163397,-100.0,-0.785398163397,80.0,16763611.889,0.0,0.0,0.0,0.0,0.0,0.0
1402756673440731247,3,-8.8221346155,-7.1377884924,3.69694729181,2.38304939926,0.692381138084,-3.84635974695,-0.0371015297079,0.0,0.0388823513803,0.0,0.244717592544,0.0,-2.75819278205,0.0,0.00152364165614,0.0,-0.000346482991576,0.0,-0.00958239567192,0.0,0.0709924887017,0.0,0.00796375565844,0.0,0.0,0.0,0.0,-14.1421356237,-127.279220614,130.932134245,0.771013585729,-100.0,-0.783288391429,80.0,0.785398163397,-100.0,-0.785398163397,80.0,16763611.889,0.0,0.0,0.0,0.0,0.0,0.0
1402756673460188439,3,-8.8221346155,-7.1377884924,3.69694729181,2.38304939926,0.692381138084,-3.84635974695,-0.0371015297079,0.0,0.0388823513803,0.0,0.244717592544,0.0,-2.75819278205,0.0,0.00152364165614,0.0,-0.000346482991576,0.0,-0.00958239567192,0.0,0.0709924887017,0.0,0.00796375565844,0.0,0.0,0.0,0.0,-14.1421356237,-127.279220614,130.932134245,0.771013585729,-100.0,-0.783288391429,80.0,0.785398163397,-100.0,-0.785398163397,80.0,16763611.889,0.0,0.0,0.0,0.0,0.0,0.0
1402756673480198155,3,-8.83063704988,-7.1377884924,3.701945646,2.38304939926,0.720133611788,-3.84635974695,-0.0461113875274,0.0,0.0392638308302,0.0,0.245324311159,0.0,-2.75760040008,0.0,0.00486822491283,0.0,9.95276841839e-05,0.0,-0.00934915283983,0.0,0.0714877220317,0.0,0.00436255514039,0.0,0.0,0.0,0.0,-14.1421356237,-127.279220614,130.932134245,0.772547809285,-100.0,-0.781754167872,80.0,0.785398163397,-100.0,-0.785398163397,80.0,16763611.889,0.0,0.0,0.0,0.0,0.0,0.0
1402756673500179255,3,-8.83063704988,-7.1377884924,3.701945646,2.38304939926,0.720133611788,-3.84635974695,-0.0461113875274,0.0,0.0392638308302,0.0,0.245324311159,0.0,-2.75760040008,0.0,0.00486822491283,0.0,9.95276841839e-05,0.0,-0.00934915283983,0.0,0.0714877220317,0.0,0.00436255514039,0.0,0.0,0.0,0.0,-14.1421356237,-127.279220614,130.932134245,0.772547809285,-100.0,-0.781754167872,80.0,0.785398163397,-100.0,-0.785398163397,80.0,16763611.889,0.0,0.0,0.0,0.0,0.0,0.0
1402756673520921210,3,-8.83256303145,-7.1377884924,3.70324705035,2.38304939926,0.730184397503,-3.84635974695,-0.0467087586244,0.0,0.0392695514535,0.0,0.245048437189,0.0,-2.75716180358,0.0,0.00922097936017,0.0,0.000179355587067,0.0,-0.00452436129345,0.0,0.0710892509542,0.0,0.00607408834594,0.0,0.0,0.0,0.0,-14.1421356237,-127.279220614,130.932134245,0.772547809285,-100.0,-0.781754167872,80.0,0.785398163397,-100.0,-0.785398163397,80.0,16763611.889,0.0,0.0,0.0,0.0,0.0,0.0
1402756673540308293,3,-8.83256303145,-7.1377884924,3.70324705035,2.38304939926,0.730184397503,-3.84635974695,-0.0467087586244,0.0,0.0392695514535,0.0,0.245048437189,0.0,-2.75716180358,0.0,0.00922097936017,0.0,0.000179355587067,0.0,-0.00452436129345,0.0,0.0710892509542,0.0,0.00607408834594,0.0,0.0,0.0,0.0,-14.1421356237,-127.279220614,130.932134245,0.772547809285,-100.0,-0.781754167872,80.0,0.785398163397,-100.0,-0.785398163397,80.0,16763611.889,0.0,0.0,0.0,0.0,0.0,0.0
1402756673560181296,3,-8.83276231167,-7.1377884924,3.70401406346,2.38304939926,0.749458712005,-3.84635974695,-0.0371418616436,0.0,0.0330989380045,0.0,0.241665388151,0.0,-2.75669969365,0.0,0.0115536762871,0.0,-0.000629894554909,0.0,0.0157434083401,0.0,0.0704663068172,0.0,0.0104615935509,0.0,0.0,0.0,0.0,-14.1421356237,-127.279220614,130.932134245,0.77408227126,-100.0,-0.781754167872,80.0,0.785398163397,-100.0,-0.785398163397,80.0,16763611.889,0.0,0.0,0.0,0.0,0.0,0.0
1402756673580854538,3,-8.83276231167,-7.1377884924,3.70401406346,2.38304939926,0.749458712005,-3.84635974695,-0.0371418616436,0.0,0.0330989380045,0.0,0.241665388151,0.0,-2.75669969365,0.0,0.0115536762871,0.0,-0.000629894554909,0.0,0.0157434083401,0.0,0.0704663068172,0.0,0.0104615935509,0.0,0.0,0.0,0.0,-14.1421356237,-127.279220614,130.932134245,0.77408227126,-100.0,-0.781754167872,80.0,0.785398163397,-100.0,-0.785398163397,80.0,16763611.889,0.0,0.0,0.0,0.0,0.0,0.0
1402756673600420573,3,-8.84304008661,-7.1377884924,3.71268054228,2.38304939926,0.79471233262,-3.84635974695,-0.0470183024359,0.0,0.0167301673176,0.0,0.25344912604,0.0,-2.75686294897,0.0,-0.0244556335795,0.0,0.000418516369682,0.0,-0.150683553339,0.0,0.0708664420257,0.0,-0.049063865037,0.0,0.0,0.0,0.0,-14.1421356237,-127.279220614,130.932134245,0.77408227126,-100.0,-0.781754167872,80.0,0.785398163397,-100.0,-0.785398163397,80.0,16763611.889,0.0,0.0,0.0,0.0,0.0,0.0
1402756673620188095,3,-8.84304008661,-7.1377884924,3.71268054228,2.38304939926,0.79471233262,-3.84635974695,-0.0470183024359,0.0,0.0167301673176,0.0,0.25344912604,0.0,-2.75686294897,0.0,-0.0244556335795,0.0,0.000418516369682,0.0,-0.150683553339,0.0,0.0708664420257,0.0,-0.049063865037,0.0,0.0,0.0,0.0,-14.1421356237,-127.279220614,130.932134245,0.77408227126,-100.0,-0.781754167872,80.0,0.785398163397,-100.0,-0.785398163397,80.0,16763611.889,0.0,0.0,0.0,0.0,0.0,0.0
1402756673640489489,3,-8.84153639631,-7.1377884924,3.71841649716,2.38304939926,0.823975133904,-3.84635974695,-0.0284797786089,0.0,0.00473115236366,0.0,0.261247266246,0.0,-2.75627723867,0.0,-0.0215598453918,0.0,0.00213644026098,0.0,-0.0192111615892,0.0,0.0693609010047,0.0,-0.0226960662552,0.0,0.0,0.0,0.0,-14.1421356237,-127.279220614,130.932134245,0.77408227126,-100.0,-0.781754167872,80.0,0.785398163397,-100.0,-0.785398163397,80.0,16763611.889,0.0,0.0,0.0,0.0,0.0,0.0
1402756673660386366,3,-8.84187154286,-7.1377884924,3.71860664618,2.38304939926,0.828822246999,-3.84635974695,-0.0255297780064,0.0,-0.00017898074286,0.0,0.257039279952,0.0,-2.75683968262,0.0,-0.0471195160659,0.0,0.00419775695601,0.0,-0.116074425914,0.0,0.0693249680114,0.0,-0.0548811384764,0.0,0.0,0.0,0.0,-14.1421356237,-127.279220614,130.932134245,0.772547809285,-100.0,-0.781754167872,80.0,0.785398163397,-100.0,-0.785398163397,80.0,16763611.889,0.0,0.0,0.0,0.0,0.0,0.0
1402756673680431236,3,-8.84187154286,-7.1377884924,3.71860664618,2.38304939926,0.828822246999,-3.84635974695,-0.0255297780064,0.0,-0.00017898074286,0.0,0.257039279952,0.0,-2.75683968262,0.0,-0.0471195160659,0.0,0.00419775695601,0.0,-0.116074425914,0.0,0.0693249680114,0.0,-0.0548811384764,0.0,0.0,0.0,0.0,-14.1421356237,-127.279220614,130.932134245,0.772547809285,-100.0,-0.781754167872,80.0,0.785398163397,-100.0,-0.785398163397,80.0,16763611.889,0.0,0.0,0.0,0.0,0.0,0.0
1402756673700297863,3,-8.84689682723,-7.1377884924,3.72398533836,2.38304939926,0.870570149483,-3.84635974695,-0.0213488504388,0.0,-0.00992928779609,0.0,0.259120384146,0.0,-2.75776755357,0.0,-0.0473704686244,0.0,0.00658055516695,0.0,-0.122385513608,0.0,0.069190412908,0.0,-0.0481088543123,0.0,0.0,0.0,0.0,-14.1421356237,-127.279220614,130.932134245,0.772547809285,-100.0,-0.781754167872,80.0,0.785398163397,-100.0,-0.785398163397,80.0,16763611.889,0.0,0.0,0.0,0.0,0.0,0.0
1402756673720837832,3,-8.84689682723,-7.1377884924,3.72398533836,2.38304939926,0.870570149483,-3.84635974695,-0.0213488504388,0.0,-0.00992928779609,0.0,0.259120384146,0.0,-2.75776755357,0.0,-0.0473704686244,0.0,0.00658055516695,0.0,-0.122385513608,0.0,0.069190412908,0.0,-0.0481088543123,0.0,0.0,0.0,0.0,-14.1421356237,-127.279220614,130.932134245,0.772547809285,-100.0,-0.781754167872,80.0,0.785398163397,-100.0,-0.785398163397,80.0,16763611.889,0.0,0.0,0.0,0.0,0.0,0.0
1402756673740239596,3,-8.84756062995,-7.1377884924,3.7230535217,2.38304939926,0.881408166777,-3.84635974695,-0.01705628323,0.0,-0.0223477466119,0.0,0.263268943077,0.0,-2.75979943944,0.0,-0.0683943922566,0.0,0.0119216480466,0.0,-0.154051961961,0.0,0.0688556761842,0.0,-0.0607562583564,0.0,0.0,0.0,0.0,-14.1421356237,-127.279220614,130.932134245,0.772547809285,-100.0,-0.781754167872,80.0,0.785398163397,-100.0,-0.785398163397,80.0,16763611.889,0.0,0.0,0.0,0.0,0.0,0.0
1402756673760186565,3,-8.84756062995,-7.1377884924,3.7230535217,2.38304939926,0.881408166777,-3.84635974695,-0.01705628323,0.0,-0.0223477466119,0.0,0.263268943077,0.0,-2.75979943944,0.0,-0.0683943922566,0.0,0.0119216480466,0.0,-0.154051961961,0.0,0.0688556761842,0.0,-0.0607562583564,0.0,0.0,0.0,0.0,-14.1421356237,-127.279220614,130.932134245,0.772547809285,-100.0,-0.781754167872,80.0,0.785398163397,-100.0,-0.785398163397,80.0,16763611.889,0.0,0.0,0.0,0.0,0.0,0.0
1402756673781628153,3,-8.85622283235,-7.1377884924,3.72877133017,2.38304939926,0.921759122566,-3.84635974695,-0.0122596299071,0.0,-0.0391414791149,0.0,0.25613873313,0.0,-2.76317723675,0.0,-0.0804160312028,0.0,0.0173712956916,0.0,-0.110346560576,0.0,0.0687707962932,0.0,-0.0189197966745,0.0,0.0,0.0,0.0,-14.1421356237,-127.279220614,130.932134245,0.771013585729,-100.0,-0.781754167872,80.0,0.785398163397,-100.0,-0.785398163397,80.0,16763611.889,0.0,0.0,0.0,0.0,0.0,0.0
1402756673800224046,3,-8.85622283235,-7.1377884924,3.72877133017,2.38304939926,0.921759122566,-3.84635974695,-0.0122596299071,0.0,-0.0391414791149,0.0,0.25613873313,0.0,-2.76317723675,0.0,-0.0804160312028,0.0,0.0173712956916,0.0,-0.110346560576,0.0,0.0687707962932,0.0,-0.0189197966745,0.0,0.0,0.0,0.0,-14.1421356237,-127.279220614,130.932134245,0.771013585729,-100.0,-0.781754167872,80.0,0.785398163397,-100.0,-0.785398163397,80.0,16763611.889,0.0,0.0,0.0,0.0,0.0,0.0
1402756673820557682,3,-8.86601653265,-7.1377884924,3.73441311522,2.38304939926,0.964711668608,-3.84635974695,-0.0167396593816,0.0,-0.0541077141779,0.0,0.265079882527,0.0,-2.76770777927,0.0,-0.0925886204567,0.0,0.0219666224301,0.0,-0.105562330273,0.0,0.0688247944923,0.0,-0.0188212173012,0.0,0.0,0.0,0.0,-14.1421356237,-127.279220614,130.932134245,0.771013585729,-100.0,-0.781754167872,80.0,0.785398163397,-100.0,-0.785398163397,80.0,16763611.889,0.0,0.0,0.0,0.0,0.0,0.0
1402756673840146384,3,-8.86601653265,-7.1377884924,3.73441311522,2.38304939926,0.964711668608,-3.84635974695,-0.0167396593816,0.0,-0.0541077141779,0.0,0.265079882527,0.0,-2.76770777927,0.0,-0.0925886204567,0.0,0.0219666224301,0.0,-0.105562330273,0.0,0.0688247944923,0.0,-0.0188212173012,0.0,0.0,0.0,0.0,-14.1421356237,-127.279220614,130.932134245,0.771013585729,-100.0,-0.781754167872,80.0,0.785398163397,-100.0,-0.785398163397,80.0,16763611.889,0.0,0.0,0.0,0.0,0.0,0.0
1402756673860721949,3,-8.8722679109,-7.1377884924,3.74713353926,2.38304939926,1.01484603931,-3.84635974695,-0.00341878212942,0.0,-0.0588751162776,0.0,0.265426725162,0.0,-2.76907634068,0.0,-0.106351773019,0.0,0.0262968163088,0.0,-0.0660169342737,0.0,0.0669667918756,0.0,-0.0104815591532,0.0,0.0,0.0,0.0,-14.1421356237,-127.279220614,130.932134245,0.771013585729,-100.0,-0.781754167872,80.0,0.785398163397,-100.0,-0.785398163397,80.0,16763611.889,0.0,0.0,0.0,0.0,0.0,0.0
1402756673880415833,3,-8.8722679109,-7.1377884924,3.74713353926,2.38304939926,1.01484603931,-3.84635974695,-0.00341878212942,0.0,-0.0588751162776,0.0,0.265426725162,0.0,-2.76907634068,0.0,-0.106351773019,0.0,0.0262968163088,0.0,-0.0660169342737,0.0,0.0669667918756,0.0,-0.0104815591532,0.0,0.0,0.0,0.0,-14.1421356237,-127.279220614,130.932134245,0.771013585729,-100.0,-0.781754167872,80.0,0.785398163397,-100.0,-0.785398163397,80.0,16763611.889,0.0,0.0,0.0,0.0,0.0,0.0
1402756673900269641,3,-8.8786957787,-7.1377884924,3.75287798289,2.38304939926,1.07955462717,-3.84635974695,0.00969280102634,0.0,-0.087512754603,0.0,0.273374480802,0.0,-2.77366624885,0.0,-0.116515819809,0.0,0.0268082822652,0.0,-0.0134836445261,0.0,0.0662810439132,0.0,0.00466509036723,0.0,0.0,0.0,0.0,-14.1421356237,-127.279220614,130.932134245,0.772547809285,-100.0,-0.781754167872,80.0,0.785398163397,-100.0,-0.785398163397,80.0,16763611.889,0.0,0.0,0.0,0.0,0.0,0.0
1402756673920147159,3,-8.8786957787,-7.1377884924,3.75287798289,2.38304939926,1.07955462717,-3.84635974695,0.00969280102634,0.0,-0.087512754603,0.0,0.273374480802,0.0,-2.77366624885,0.0,-0.116515819809,0.0,0.0268082822652,0.0,-0.0134836445261,0.0,0.0662810439132,0.0,0.00466509036723,0.0,0.0,0.0,0.0,-14.1421356237,-127.279220614,130.932134245,0.771013585729,-100.0,-0.781754167872,80.0,0.785398163397,-100.0,-0.785398163397,80.0,16763611.889,0.0,0.0,0.0,0.0,0.0,0.0
1402756673940307452,3,-8.87817095775,-7.1377884924,3.7490238811,2.38304939926,1.09034430773,-3.84635974695,0.0160904068975,0.0,-0.102040185041,0.0,0.279251075729,0.0,-2.77830414442,0.0,-0.124958972422,0.0,0.027267573527,0.0,-0.00942037381602,0.0,0.0657335273324,0.0,-0.000779870494584,0.0,0.0,0.0,0.0,-14.1421356237,-127.279220614,130.932134245,0.771013585729,-100.0,-0.781754167872,80.0,0.785398163397,-100.0,-0.785398163397,80.0,16763611.889,0.0,0.0,0.0,0.0,0.0,0.0
1402756673960236106,3,-8.87817095775,-7.1377884924,3.7490238811,2.38304939926,1.09034430773,-3.84635974695,0.0160904068975,0.0,-0.102040185041,0.0,0.279251075729,0.0,-2.77830414442,0.0,-0.124958972422,0.0,0.027267573527,0.0,-0.00942037381602,0.0,0.0657335273324,0.0,-0.000779870494584,0.0,0.0,0.0,0.0,-14.1421356237,-127.279220614,130.932134245,0.772547809285,-100.0,-0.781754167872,80.0,0.785398163397,-100.0,-0.785398163397,80.0,16763611.889,0.0,0.0,0.0,0.0,0.0,0.0
1402756673980355691,3,-8.88900529208,-7.1377884924,3.75944917445,2.38304939926,1.16108729035,-3.84635974695,0.0180049837455,0.0,-0.123184462827,0.0,0.287705067663,0.0,-2.78358839637,0.0,-0.131990064706,0.0,0.0262477047719,0.0,0.0226535927808,0.0,0.0655935694342,0.0,0.0041910990607,0.0,0.0,0.0,0.0,-14.1421356237,-127.279220614,130.932134245,0.772547809285,-100.0,-0.781754167872,80.0,0.785398163397,-100.0,-0.785398163397,80.0,16763611.889,0.0,0.0,0.0,0.0,0.0,0.0
1402756674000349014,3,-8.88900529208,-7.1377884924,3.75944917445,2.38304939926,1.16108729035,-3.84635974695,0.0180049837455,0.0,-0.123184462827,0.0,0.287705067663,0.0,-2.78358839637,0.0,-0.131990064706,0.0,0.0262477047719,0.0,0.0226535927808,0.0,0.0655935694342,0.0,0.0041910990607,0.0,0.0,0.0,0.0,-14.1421356237,-127.279220614,130.932134245,0.771013585729,-100.0,-0.781754167872,80.0,0.785398163397,-100.0,-0.785398163397,80.0,16763611.889,0.0,0.0,0.0,0.0,0.0,0.0
1402756674020886031,3,-8.89979444218,-7.1377884924,3.77439799985,2.38304939926,1.22256639531,-3.84635974695,0.0263546039521,0.0,-0.125511616647,0.0,0.279529529228,0.0,-2.78764823768,0.0,-0.129055125699,0.0,0.0253858716018,0.0,0.0559558927209,0.0,0.064814528275,0.0,0.0319585032225,0.0,0.0,0.0,0.0,-14.1421356237,-127.279220614,130.932134245,0.771013585729,-100.0,-0.781754167872,80.0,0.785398163397,-100.0,-0.785398163397,80.0,16763611.889,0.0,0.0,0.0,0.0,0.0,0.0
1402756674040386237,3,-8.89979444218,-7.1377884924,3.77439799985,2.38304939926,1.22256639531,-3.84635974695,0.0263546039521,0.0,-0.125511616647,0.0,0.279529529228,0.0,-2.78764823768,0.0,-0.129055125699,0.0,0.0253858716018,0.0,0.0559558927209,0.0,0.064814528275,0.0,0.0319585032225,0.0,0.0,0.0,0.0,-14.1421356237,-127.279220614,130.932134245,0.772547809285,-100.0,-0.781754167872,80.0,0.785398163397,-100.0,-0.785398163397,80.0,16763611.889,0.0,0.0,0.0,0.0,0.0,0.0
1402756674060249599,3,-8.90586491045,-7.1377884924,3.77524326194,2.38304939926,1.26683310434,-3.84635974695,0.0284488361783,0.0,-0.151114930064,0.0,0.2812014088,0.0,-2.79384811397,0.0,-0.130225147318,0.0,0.0219828513555,0.0,0.0750988918887,0.0,0.0652755845504,0.0,0.0300910395936,0.0,0.0,0.0,0.0,-14.1421356237,-127.279220614,130.932134245,0.771013585729,-100.0,-0.781754167872,80.0,0.785398163397,-100.0,-0.785398163397,80.0,16763611.889,0.0,0.0,0.0,0.0,0.0,0.0
1402756674080763458,3,-8.90586491045,-7.1377884924,3.77524326194,2.38304939926,1.26683310434,-3.84635974695,0.0284488361783,0.0,-0.151114930064,0.0,0.2812014088,0.0,-2.79384811397,0.0,-0.130225147318,0.0,0.0219828513555,0.0,0.0750988918887,0.0,0.0652755845504,0.0,0.0300910395936,0.0,0.0,0.0,0.0,-14.1421356237,-127.279220614,130.932134245,0.771013585729,-100.0,-0.781754167872,80.0,0.785398163397,-100.0,-0.785398163397,80.0,16763611.889,0.0,0.0,0.0,0.0,0.0,0.0
1402756674100359797,3,-8.90535700955,-7.1377884924,3.77011046461,2.38304939926,1.28437694738,-3.84635974695,0.0374170565884,0.0,-0.165397343716,0.0,0.285452717887,0.0,-2.79890179688,0.0,-0.128775362658,0.0,0.01867087934,0.0,0.0804135248394,0.0,0.0649812320609,0.0,0.0290023453582,0.0,0.0,0.0,0.0,-14.1421356237,-127.279220614,130.932134245,0.771013585729,-100.0,-0.781754167872,80.0,0.785398163397,-100.0,-0.785398163397,80.0,16763611.889,0.0,0.0,0.0,0.0,0.0,0.0
1402756674120216349,3,-8.90535700955,-7.1377884924,3.77011046461,2.38304939926,1.28437694738,-3.84635974695,0.0374170565884,0.0,-0.165397343716,0.0,0.285452717887,0.0,-2.79890179688,0.0,-0.128775362658,0.0,0.01867087934,0.0,0.0804135248394,0.0,0.0649812320609,0.0,0.0290023453582,0.0,0.0,0.0,0.0,-14.1421356237,-127.279220614,130.932134245,0.771013585729,-100.0,-0.781754167872,80.0,0.785398163397,-100.0,-0.785398163397,80.0,16763611.889,0.0,0.0,0.0,0.0,0.0,0.0
1402756674140198960,3,-8.90858121967,-7.1377884924,3.76806968881,2.38304939926,1.3104527524,-3.84635974695,0.0408882973355,0.0,-0.178138588878,0.0,0.280817272987,0.0,-2.8043166018,0.0,-0.13187219452,0.0,0.0155795711693,0.0,0.0704803878712,0.0,0.0650818746385,0.0,0.0278851076025,0.0,0.0,0.0,0.0,-14.1421356237,-127.279220614,130.932134245,0.771013585729,-100.0,-0.781754167872,80.0,0.785398163397,-100.0,-0.785398163397,80.0,16763611.889,0.0,0.0,0.0,0.0,0.0,0.0
1402756674160278967,3,-8.90858121967,-7.1377884924,3.76806968881,2.38304939926,1.3104527524,-3.84635974695,0.0408882973355,0.0,-0.178138588878,0.0,0.280817272987,0.0,-2.8043166018,0.0,-0.13187219452,0.0,0.0155795711693,0.0,0.0704803878712,0.0,0.0650818746385,0.0,0.0278851076025,0.0,0.0,0.0,0.0,-14.1421356237,-127.279220614,130.932134245,0.771013585729,-100.0,-0.781754167872,80.0,0.785398163397,-100.0,-0.785398163397,80.0,16763611.889,0.0,0.0,0.0,0.0,0.0,0.0
1402756674180234315,3,-8.90667284193,-7.1377884924,3.76056183438,2.38304939926,1.32192815423,-3.84635974695,0.0446187437782,0.0,-0.186165570127,0.0,0.287664726183,0.0,-2.80942936886,0.0,-0.12293774832,0.0,0.0127223001266,0.0,0.061563134128,0.0,0.0651020500714,0.0,0.0150114223266,0.0,0.0,0.0,0.0,-14.1421356237,-127.279220614,130.932134245,0.771013585729,-100.0,-0.780219705897,80.0,0.785398163397,-100.0,-0.785398163397,80.0,16763611.889,0.0,0.0,0.0,0.0,0.0,0.0
1402756674200074679,3,-8.90667284193,-7.1377884924,3.76056183438,2.38304939926,1.32192815423,-3.84635974695,0.0446187437782,0.0,-0.186165570127,0.0,0.287664726183,0.0,-2.80942936886,0.0,-0.12293774832,0.0,0.0127223001266,0.0,0.061563134128,0.0,0.0651020500714,0.0,0.0150114223266,0.0,0.0,0.0,0.0,-14.1421356237,-127.279220614,130.932134245,0.771013585729,-100.0,-0.781754167872,80.0,0.785398163397,-100.0,-0.785398163397,80.0,16763611.889,0.0,0.0,0.0,0.0,0.0,0.0
1402756674220830093,3,-8.90722700216,-7.1377884924,3.75553735898,2.38304939926,1.3593736859,-3.84635974695,0.0537203223276,0.0,-0.204283314091,0.0,0.282006025467,0.0,-2.81458410935,0.0,-0.120761490612,0.0,0.00962095523236,0.0,0.0539827730284,0.0,0.0653434961696,0.0,0.00694213995002,0.0,0.0,0.0,0.0,-14.1421356237,-127.279220614,130.932134245,0.769479123754,-100.0,-0.781754167872,80.0,0.785398163397,-100.0,-0.785398163397,80.0,16763611.889,0.0,0.0,0.0,0.0,0.0,0.0
1402756674240168578,3,-8.90722700216,-7.1377884924,3.75553735898,2.38304939926,1.3593736859,-3.84635974695,0.0537203223276,0.0,-0.204283314091,0.0,0.282006025467,0.0,-2.81458410935,0.0,-0.120761490612,0.0,0.00962095523236,0.0,0.0539827730284,0.0,0.0653434961696,0.0,0.00694213995002,0.0,0.0,0.0,0.0,-14.1421356237,-127.279220614,130.932134245,0.771013585729,-100.0,-0.781754167872,80.0,0.785398163397,-100.0,-0.785398163397,80.0,16763611.889,0.0,0.0,0.0,0.0,0.0,0.0
1402756674260392716,3,-8.90703899034,-7.1377884924,3.75510479034,2.38304939926,1.38820492224,-3.84635974695,0.0628937915061,0.0,-0.202898512533,0.0,0.277230426297,0.0,-2.81838707087,0.0,-0.118635914566,0.0,0.00851786939944,0.0,0.0471423699782,0.0,0.06482510223,0.0,0.0199777745886,0.0,0.0,0.0,0.0,-14.1421356237,-127.279220614,130.932134245,0.771013585729,-100.0,-0.781754167872,80.0,0.785398163397,-100.0,-0.785398163397,80.0,16763611.889,0.0,0.0,0.0,0.0,0.0,0.0
1402756674280698848,3,-8.90703899034,-7.1377884924,3.75510479034,2.38304939926,1.38820492224,-3.84635974695,0.0628937915061,0.0,-0.202898512533,0.0,0.277230426297,0.0,-2.81838707087,0.0,-0.118635914566,0.0,0.00851786939944,0.0,0.0471423699782,0.0,0.06482510223,0.0,0.0199777745886,0.0,0.0,0.0,0.0,-14.1421356237,-127.279220614,130.932134245,0.771013585729,-100.0,-0.781754167872,80.0,0.785398163397,-100.0,-0.785398163397,80.0,16763611.889,0.0,0.0,0.0,0.0,0.0,0.0
1402756674300625632,3,-8.9041383282,-7.1377884924,3.75083335699,2.38304939926,1.4346019735,-3.84635974695,0.0736772673925,0.0,-0.214926928406,0.0,0.284438955105,0.0,-2.82242771645,0.0,-0.109506612141,0.0,0.0065977756794,0.0,0.0308870119936,0.0,0.0644157455222,0.0,0.0111004738449,0.0,0.0,0.0,0.0,-14.1421356237,-127.279220614,130.932134245,0.771013585729,-100.0,-0.781754167872,80.0,0.785398163397,-100.0,-0.785398163397,80.0,16763611.889,0.0,0.0,0.0,0.0,0.0,0.0
1402756674320193133,3,-8.9041383282,-7.1377884924,3.75083335699,2.38304939926,1.4346019735,-3.84635974695,0.0736772673925,0.0,-0.214926928406,0.0,0.284438955105,0.0,-2.82242771645,0.0,-0.109506612141,0.0,0.0065977756794,0.0,0.0308870119936,0.0,0.0644157455222,0.0,0.0111004738449,0.0,0.0,0.0,0.0,-14.1421356237,-127.279220614,130.932134245,0.771013585729,-100.0,-0.781754167872,80.0,0.785398163397,-100.0,-0.785398163397,80.0,16763611.889,0.0,0.0,0.0,0.0,0.0,0.0
1402756674340530855,3,-8.90477581409,-7.1377884924,3.73963571857,2.38304939926,1.46609919287,-3.84635974695,0.0750261076466,0.0,-0.234500795147,0.0,0.286686928297,0.0,-2.82876751617,0.0,-0.110362065828,0.0,0.00496684252414,0.0,0.0132911488892,0.0,0.0657285663858,0.0,0.0122311931243,0.0,0.0,0.0,0.0,-14.1421356237,-127.279220614,130.932134245,0.771013585729,-100.0,-0.781754167872,80.0,0.785398163397,-100.0,-0.785398163397,80.0,16763611.889,0.0,0.0,0.0,0.0,0.0,0.0
1402756674360009255,3,-8.90477581409,-7.1377884924,3.73963571857,2.38304939926,1.46609919287,-3.84635974695,0.0750261076466,0.0,-0.234500795147,0.0,0.286686928297,0.0,-2.82876751617,0.0,-0.110362065828,0.0,0.00496684252414,0.0,0.0132911488892,0.0,0.0657285663858,0.0,0.0122311931243,0.0,0.0,0.0,0.0,-14.1421356237,-127.279220614,130.932134245,0.771013585729,-100.0,-0.781754167872,80.0,0.785398163397,-100.0,-0.785398163397,80.0,16763611.889,0.0,0.0,0.0,0.0,0.0,0.0
1402756674380511416,3,-8.90451805933,-7.1377884924,3.73234359147,2.38304939926,1.48559889739,-3.84635974695,0.0745819594331,0.0,-0.237142667155,0.0,0.290114995695,0.0,-2.83377364619,0.0,-0.0996751007676,0.0,0.00584393667586,0.0,-0.0169613047896,0.0,0.0659848660392,0.0,-0.0236864775905,0.0,0.0,0.0,0.0,-14.1421356237,-127.279220614,130.932134245,0.771013585729,-100.0,-0.781754167872,80.0,0.785398163397,-100.0,-0.785398163397,80.0,16763611.889,0.0,0.0,0.0,0.0,0.0,0.0
1402756674400738250,3,-8.90451805933,-7.1377884924,3.73234359147,2.38304939926,1.48559889739,-3.84635974695,0.0745819594331,0.0,-0.237142667155,0.0,0.290114995695,0.0,-2.83377364619,0.0,-0.0996751007676,0.0,0.00584393667586,0.0,-0.0169613047896,0.0,0.0659848660392,0.0,-0.0236864775905,0.0,0.0,0.0,0.0,-14.1421356237,-127.279220614,130.932134245,0.771013585729,-100.0,-0.781754167872,80.0,0.785398163397,-100.0,-0.785398163397,80.0,16763611.889,0.0,0.0,0.0,0.0,0.0,0.0
1402756674420903835,3,-8.90289425417,-7.1377884924,3.72721828618,2.38304939926,1.4916623507,-3.84635974695,0.0762628343052,0.0,-0.244778216092,0.0,0.282109290825,0.0,-2.83578971159,0.0,-0.108149065063,0.0,0.00610480142654,0.0,-0.0208448094812,0.0,0.0660107611822,0.0,-0.0184571618652,0.0,0.0,0.0,0.0,-14.1421356237,-127.279220614,130.932134245,0.771013585729,-100.0,-0.781754167872,80.0,0.785398163397,-100.0,-0.785398163397,80.0,16763611.889,0.0,0.0,0.0,0.0,0.0,0.0
1402756674440135457,3,-8.90289425417,-7.1377884924,3.72721828618,2.38304939926,1.4916623507,-3.84635974695,0.0762628343052,0.0,-0.244778216092,0.0,0.282109290825,0.0,-2.83578971159,0.0,-0.108149065063,0.0,0.00610480142654,0.0,-0.0208448094812,0.0,0.0660107611822,0.0,-0.0184571618652,0.0,0.0,0.0,0.0,-14.1421356237,-127.279220614,130.932134245,0.769479123754,-100.0,-0.781754167872,80.0,0.785398163397,-100.0,-0.785398163397,80.0,16763611.889,0.0,0.0,0.0,0.0,0.0,0.0
1402756674460861584,3,-8.90825508416,-7.1377884924,3.72993956022,2.38304939926,1.50810582739,-3.84635974695,0.0780398098592,0.0,-0.2360045429,0.0,0.274281777474,0.0,-2.83946267846,0.0,-0.0970322015102,0.0,0.00854546697538,0.0,-0.0130862370304,0.0,0.0659277588747,0.0,0.00609042125698,0.0,0.0,0.0,0.0,-14.1421356237,-127.279220614,130.932134245,0.769479123754,-100.0,-0.781754167872,80.0,0.785398163397,-100.0,-0.785398163397,80.0,16763611.889,0.0,0.0,0.0,0.0,0.0,0.0
1402756674480201751,3,-8.90825508416,-7.1377884924,3.72993956022,2.38304939926,1.50810582739,-3.84635974695,0.0780398098592,0.0,-0.2360045429,0.0,0.274281777474,0.0,-2.83946267846,0.0,-0.0970322015102,0.0,0.00854546697538,0.0,-0.0130862370304,0.0,0.0659277588747,0.0,0.00609042125698,0.0,0.0,0.0,0.0,-14.1421356237,-127.279220614,130.932134245,0.769479123754,-100.0,-0.781754167872,80.0,0.785398163397,-100.0,-0.785398163397,80.0,16763611.889,0.0,0.0,0.0,0.0,0.0,0.0
1402756674500316060,3,-8.90460569074,-7.1377884924,3.72114131647,2.38304939926,1.53403150661,-3.84635974695,0.0931388292441,0.0,-0.254075941285,0.0,0.267532455628,0.0,-2.84284115167,0.0,-0.0941806294641,0.0,0.00855084737969,0.0,-0.0136737886626,0.0,0.0651273930459,0.0,0.00608813830445,0.0,0.0,0.0,0.0,-14.1421356237,-127.279220614,130.932134245,0.769479123754,-100.0,-0.781754167872,80.0,0.785398163397,-100.0,-0.785398163397,80.0,16763611.889,0.0,0.0,0.0,0.0,0.0,0.0
1402756674520890989,3,-8.90460569074,-7.1377884924,3.72114131647,2.38304939926,1.53403150661,-3.84635974695,0.0931388292441,0.0,-0.254075941285,0.0,0.267532455628,0.0,-2.84284115167,0.0,-0.0941806294641,0.0,0.00855084737969,0.0,-0.0136737886626,0.0,0.0651273930459,0.0,0.00608813830445,0.0,0.0,0.0,0.0,-14.1421356237,-127.279220614,130.932134245,0.769479123754,-100.0,-0.781754167872,80.0,0.785398163397,-100.0,-0.785398163397,80.0,16763611.889,0.0,0.0,0.0,0.0,0.0,0.0
1402756674540236504,3,-8.90078835343,-7.1377884924,3.71094245601,2.38304939926,1.54472578062,-3.84635974695,0.0926920431348,0.0,-0.261543252094,0.0,0.277944962693,0.0,-2.84652501913,0.0,-0.101580190501,0.0,0.00996552529671,0.0,-0.0349865254974,0.0,0.0651690760957,0.0,-0.0186665262596,0.0,0.0,0.0,0.0,-14.1421356237,-127.279220614,130.932134245,0.767944900197,-100.0,-0.781754167872,80.0,0.785398163397,-100.0,-0.785398163397,80.0,16763611.889,0.0,0.0,0.0,0.0,0.0,0.0
1402756674560533755,3,-8.90078835343,-7.1377884924,3.71094245601,2.38304939926,1.54472578062,-3.84635974695,0.0926920431348,0.0,-0.261543252094,0.0,0.277944962693,0.0,-2.84652501913,0.0,-0.101580190501,0.0,0.00996552529671,0.0,-0.0349865254974,0.0,0.0651690760957,0.0,-0.0186665262596,0.0,0.0,0.0,0.0,-14.1421356237,-127.279220614,130.932134245,0.769479123754,-100.0,-0.781754167872,80.0,0.785398163397,-100.0,-0.785398163397,80.0,16763611.889,0.0,0.0,0.0,0.0,0.0,0.0
1402756674580652541,3,-8.89919290363,-7.1377884924,3.70614538087,2.38304939926,1.53878512105,-3.84635974695,0.099250498611,0.0,-0.261817165941,0.0,0.278570103891,0.0,-2.84967953211,0.0,-0.0922229489173,0.0,0.0120135159357,0.0,-0.0346253339195,0.0,0.0639846093404,0.0,-0.0235986354073,0.0,0.0,0.0,0.0,-14.1421356237,-127.279220614,130.932134245,0.767944900197,-100.0,-0.781754167872,80.0,0.785398163397,-100.0,-0.785398163397,80.0,16763611.889,0.0,0.0,0.0,0.0,0.0,0.0
1402756674600180313,3,-8.89919290363,-7.1377884924,3.70614538087,2.38304939926,1.53878512105,-3.84635974695,0.099250498611,0.0,-0.261817165941,0.0,0.278570103891,0.0,-2.84967953211,0.0,-0.0922229489173,0.0,0.0120135159357,0.0,-0.0346253339195,0.0,0.0639846093404,0.0,-0.0235986354073,0.0,0.0,0.0,0.0,-14.1421356237,-127.279220614,130.932134245,0.767944900197,-100.0,-0.781754167872,80.0,0.785398163397,-100.0,-0.785398163397,80.0,16763611.889,0.0,0.0,0.0,0.0,0.0,0.0
1402756674620262326,3,-8.90136847116,-7.1377884924,3.69600348977,2.38304939926,1.54840992438,-3.84635974695,0.102975800349,0.0,-0.276581565874,0.0,0.273292816937,0.0,-2.85297795885,0.0,-0.0859132322754,0.0,0.0125386931504,0.0,-0.0424035460346,0.0,0.0645044888124,0.0,-0.0108703684256,0.0,0.0,0.0,0.0,-14.1421356237,-127.279220614,130.932134245,0.767944900197,-100.0,-0.781754167872,80.0,0.785398163397,-100.0,-0.785398163397,80.0,16763611.889,0.0,0.0,0.0,0.0,0.0,0.0
1402756674640656936,3,-8.90136847116,-7.1377884924,3.69600348977,2.38304939926,1.54840992438,-3.84635974695,0.102975800349,0.0,-0.276581565874,0.0,0.273292816937,0.0,-2.85297795885,0.0,-0.0859132322754,0.0,0.0125386931504,0.0,-0.0424035460346,0.0,0.0645044888124,0.0,-0.0108703684256,0.0,0.0,0.0,0.0,-14.1421356237,-127.279220614,130.932134245,0.769479123754,-100.0,-0.781754167872,80.0,0.785398163397,-100.0,-0.785398163397,80.0,16763611.889,0.0,0.0,0.0,0.0,0.0,0.0
1402756674660440168,3,-8.90371560203,-7.1377884924,3.68503604766,2.38304939926,1.53542161123,-3.84635974695,0.0988487788683,0.0,-0.284205567968,0.0,0.269675305079,0.0,-2.85612387166,0.0,-0.0744995270602,0.0,0.0136317868435,0.0,-0.0454800767728,0.0,0.0653079812338,0.0,-0.0247941522046,0.0,0.0,0.0,0.0,-14.1421356237,-127.279220614,130.932134245,0.769479123754,-100.0,-0.781754167872,80.0,0.785398163397,-100.0,-0.785398163397,80.0,16763611.889,0.0,0.0,0.0,0.0,0.0,0.0
1402756674680186956,3,-8.90371560203,-7.1377884924,3.68503604766,2.38304939926,1.53542161123,-3.84635974695,0.0988487788683,0.0,-0.284205567968,0.0,0.269675305079,0.0,-2.85612387166,0.0,-0.0744995270602,0.0,0.0136317868435,0.0,-0.0454800767728,0.0,0.0653079812338,0.0,-0.0247941522046,0.0,0.0,0.0,0.0,-14.1421356237,-127.279220614,130.932134245,0.767944900197,-100.0,-0.781754167872,80.0,0.785398163397,-100.0,-0.785398163397,80.0,16763611.889,0.0,0.0,0.0,0.0,0.0,0.0
1402756674700487650,3,-8.89898407672,-7.1377884924,3.67027405502,2.38304939926,1.50996337699,-3.84635974695,0.108077836596,0.0,-0.291308397299,0.0,0.267244141849,0.0,-2.85887313385,0.0,-0.0633358708246,0.0,0.0146212751392,0.0,-0.0114773466655,0.0,0.0651081509327,0.0,0.00575850657364,0.0,0.0,0.0,0.0,-14.1421356237,-127.279220614,130.932134245,0.767944900197,-100.0,-0.781754167872,80.0,0.785398163397,-100.0,-0.785398163397,80.0,16763611.889,0.0,0.0,0.0,0.0,0.0,0.0
1402756674720280975,3,-8.89898407672,-7.1377884924,3.67027405502,2.38304939926,1.50996337699,-3.84635974695,0.108077836596,0.0,-0.291308397299,0.0,0.267244141849,0.0,-2.85887313385,0.0,-0.0633358708246,0.0,0.0146212751392,0.0,-0.0114773466655,0.0,0.0651081509327,0.0,0.00575850657364,0.0,0.0,0.0,0.0,-14.1421356237,-127.279220614,130.932134245,0.767944900197,-100.0,-0.781754167872,80.0,0.785398163397,-100.0,-0.785398163397,80.0,16763611.889,0.0,0.0,0.0,0.0,0.0,0.0
1402756674740133230,3,-8.88902401325,-7.1377884924,3.64749861497,2.38304939926,1.48223621163,-3.84635974695,0.118991462764,0.0,-0.310010434989,0.0,0.259261609039,0.0,-2.86137181202,0.0,-0.0674871110498,0.0,0.0142681354832,0.0,0.00443483011161,0.0,0.0652360441497,0.0,0.00318339526228,0.0,0.0,0.0,0.0,-14.1421356237,-127.279220614,130.932134245,0.767944900197,-100.0,-0.781754167872,80.0,0.785398163397,-100.0,-0.785398163397,80.0,16763611.889,0.0,0.0,0.0,0.0,0.0,0.0
1402756674760801864,3,-8.88902401325,-7.1377884924,3.64749861497,2.38304939926,1.48223621163,-3.84635974695,0.118991462764,0.0,-0.310010434989,0.0,0.259261609039,0.0,-2.86137181202,0.0,-0.0674871110498,0.0,0.0142681354832,0.0,0.00443483011161,0.0,0.0652360441497,0.0,0.00318339526228,0.0,0.0,0.0,0.0,-14.1421356237,-127.279220614,130.932134245,0.767944900197,-100.0,-0.780219705897,80.0,0.785398163397,-100.0,-0.785398163397,80.0,16763611.889,0.0,0.0,0.0,0.0,0.0,0.0
1402756674780210496,3,-8.88693712638,-7.1377884924,3.62945454521,2.38304939926,1.43843548394,-3.84635974695,0.103784488831,0.0,-0.307976058825,0.0,0.274564955408,0.0,-2.86384330352,0.0,-0.0617798222742,0.0,0.0155282932205,0.0,-0.00613706276159,0.0,0.0668013511752,0.0,-0.0253212503103,0.0,0.0,0.0,0.0,-14.1421356237,-127.279220614,130.932134245,0.767944900197,-100.0,-0.781754167872,80.0,0.785398163397,-100.0,-0.785398163397,80.0,16763611.889,0.0,0.0,0.0,0.0,0.0,0.0
1402756674800234926,3,-8.88693712638,-7.1377884924,3.62945454521,2.38304939926,1.43843548394,-3.84635974695,0.103784488831,0.0,-0.307976058825,0.0,0.274564955408,0.0,-2.86384330352,0.0,-0.0617798222742,0.0,0.0155282932205,0.0,-0.00613706276159,0.0,0.0668013511752,0.0,-0.0253212503103,0.0,0.0,0.0,0.0,-14.1421356237,-127.279220614,130.932134245,0.767944900197,-100.0,-0.780219705897,80.0,0.785398163397,-100.0,-0.785398163397,80.0,16763611.889,0.0,0.0,0.0,0.0,0.0,0.0
1402756674820691666,3,-8.88230724097,-7.1377884924,3.61657625009,2.38304939926,1.44976374536,-3.84635974695,0.104874257798,0.0,-0.312849658726,0.0,0.294549303337,0.0,-2.86604723654,0.0,-0.0581950503359,0.0,0.0155929278882,0.0,-0.00408016034579,0.0,0.0671450720145,0.0,-0.0217898387702,0.0,0.0,0.0,0.0,-14.1421356237,-127.279220614,130.932134245,0.767944900197,-100.0,-0.781754167872,80.0,0.785398163397,-100.0,-0.785398163397,80.0,16763611.889,0.0,0.0,0.0,0.0,0.0,0.0
1402756674840226347,3,-8.88230724097,-7.1377884924,3.61657625009,2.38304939926,1.44976374536,-3.84635974695,0.104874257798,0.0,-0.312849658726,0.0,0.294549303337,0.0,-2.86604723654,0.0,-0.0581950503359,0.0,0.0155929278882,0.0,-0.00408016034579,0.0,0.0671450720145,0.0,-0.0217898387702,0.0,0.0,0.0,0.0,-14.1421356237,-127.279220614,130.932134245,0.767944900197,-100.0,-0.781754167872,80.0,0.785398163397,-100.0,-0.785398163397,80.0,16763611.889,0.0,0.0,0.0,0.0,0.0,0.0
1402756674860893078,3,-8.87676473501,-7.1377884924,3.59783646134,2.38304939926,1.42431857336,-3.84635974695,0.106960969189,0.0,-0.324635378378,0.0,0.287953576845,0.0,-2.86792044124,0.0,-0.0464780784084,0.0,0.0154780627328,0.0,-0.000578684597069,0.0,0.0675912536024,0.0,0.000851353153057,0.0,0.0,0.0,0.0,-14.1421356237,-127.279220614,130.932134245,0.767944900197,-100.0,-0.781754167872,80.0,0.785398163397,-100.0,-0.785398163397,80.0,16763611.889,0.0,0.0,0.0,0.0,0.0,0.0
1402756674880243011,3,-8.87676473501,-7.1377884924,3.59783646134,2.38304939926,1.42431857336,-3.84635974695,0.106960969189,0.0,-0.324635378378,0.0,0.287953576845,0.0,-2.86792044124,0.0,-0.0464780784084,0.0,0.0154780627328,0.0,-0.000578684597069,0.0,0.0675912536024,0.0,0.000851353153057,0.0,0.0,0.0,0.0,-14.1421356237,-127.279220614,130.932134245,0.767944900197,-100.0,-0.781754167872,80.0,0.785398163397,-100.0,-0.785398163397,80.0,16763611.889,0.0,0.0,0.0,0.0,0.0,0.0
1402756674901338935,3,-8.87321784565,-7.1377884924,3.58361066338,2.38304939926,1.41154978699,-3.84635974695,0.10489457592,0.0,-0.330241838786,0.0,0.292486228502,0.0,-2.86974726734,0.0,-0.0423808383826,0.0,0.0158600076066,0.0,-0.000416162700906,0.0,0.068070207919,0.0,-0.00191995266785,0.0,0.0,0.0,0.0,-14.1421356237,-127.279220614,130.932134245,0.767944900197,-100.0,-0.781754167872,80.0,0.785398163397,-100.0,-0.785398163397,80.0,16763611.889,0.0,0.0,0.0,0.0,0.0,0.0
1402756674920272020,3,-8.87321784565,-7.1377884924,3.58361066338,2.38304939926,1.41154978699,-3.84635974695,0.10489457592,0.0,-0.330241838786,0.0,0.292486228502,0.0,-2.86974726734,0.0,-0.0423808383826,0.0,0.0158600076066,0.0,-0.000416162700906,0.0,0.068070207919,0.0,-0.00191995266785,0.0,0.0,0.0,0.0,-14.1421356237,-127.279220614,130.932134245,0.767944900197,-100.0,-0.781754167872,80.0,0.785398163397,-100.0,-0.785398163397,80.0,16763611.889,0.0,0.0,0.0,0.0,0.0,0.0
1402756674940403922,3,-8.86538228102,-7.1377884924,3.56236928897,2.38304939926,1.39176663687,-3.84635974695,0.113898734691,0.0,-0.345418540091,0.0,0.290720410332,0.0,-2.87102512291,0.0,-0.0268868716842,0.0,0.0150245580572,0.0,0.0204535483664,0.0,0.0682217402269,0.0,0.0211995383833,0.0,0.0,0.0,0.0,-14.1421356237,-127.279220614,130.932134245,0.767944900197,-100.0,-0.780219705897,80.0,0.785398163397,-100.0,-0.785398163397,80.0,16763611.889,0.0,0.0,0.0,0.0,0.0,0.0
1402756674960707882,3,-8.86538228102,-7.1377884924,3.56236928897,2.38304939926,1.39176663687,-3.84635974695,0.113898734691,0.0,-0.345418540091,0.0,0.290720410332,0.0,-2.87102512291,0.0,-0.0268868716842,0.0,0.0150245580572,0.0,0.0204535483664,0.0,0.0682217402269,0.0,0.0211995383833,0.0,0.0,0.0,0.0,-14.1421356237,-127.279220614,130.932134245,0.767944900197,-100.0,-0.780219705897,80.0,0.785398163397,-100.0,-0.785398163397,80.0,16763611.889,0.0,0.0,0.0,0.0,0.0,0.0
1402756674980553028,3,-8.86275172359,-7.1377884924,3.54682995629,2.38304939926,1.38031421937,-3.84635974695,0.109754216496,0.0,-0.350326471052,0.0,0.295112107959,0.0,-2.87184442067,0.0,-0.0191986040487,0.0,0.0150064279385,0.0,0.0115101081704,0.0,0.068638992786,0.0,0.0221574115809,0.0,0.0,0.0,0.0,-14.1421356237,-127.279220614,130.932134245,0.767944900197,-100.0,-0.781754167872,80.0,0.785398163397,-100.0,-0.785398163397,80.0,16763611.889,0.0,0.0,0.0,0.0,0.0,0.0
1402756675000243319,3,-8.86275172359,-7.1377884924,3.54682995629,2.38304939926,1.38031421937,-3.84635974695,0.109754216496,0.0,-0.350326471052,0.0,0.295112107959,0.0,-2.87184442067,0.0,-0.0191986040487,0.0,0.0150064279385,0.0,0.0115101081704,0.0,0.068638992786,0.0,0.0221574115809,0.0,0.0,0.0,0.0,-14.1421356237,-127.279220614,130.932134245,0.767944900197,-100.0,-0.780219705897,80.0,0.785398163397,-100.0,-0.785398163397,80.0,16763611.889,0.0,0.0,0.0,0.0,0.0,0.0
1402756675020638025,3,-8.85726650993,-7.1377884924,3.5285396807,2.38304939926,1.39555917395,-3.84635974695,0.111494553125,0.0,-0.367009161472,0.0,0.293857301634,0.0,-2.8726826069,0.0,-0.0177842399945,0.0,0.0146190881055,0.0,0.0212576716856,0.0,0.0688946728382,0.0,0.00858230168334,0.0,0.0,0.0,0.0,-14.1421356237,-127.279220614,130.932134245,0.767944900197,-100.0,-0.781754167872,80.0,0.785398163397,-100.0,-0.785398163397,80.0,16763611.889,0.0,0.0,0.0,0.0,0.0,0.0
1402756675040866002,3,-8.85726650993,-7.1377884924,3.5285396807,2.38304939926,1.39555917395,-3.84635974695,0.111494553125,0.0,-0.367009161472,0.0,0.293857301634,0.0,-2.8726826069,0.0,-0.0177842399945,0.0,0.0146190881055,0.0,0.0212576716856,0.0,0.0688946728382,0.0,0.00858230168334,0.0,0.0,0.0,0.0,-14.1421356237,-127.279220614,130.932134245,0.767944900197,-100.0,-0.781754167872,80.0,0.785398163397,-100.0,-0.785398163397,80.0,16763611.889,0.0,0.0,0.0,0.0,0.0,0.0
1402756675060175801,3,-8.84547977549,-7.1377884924,3.51197339137,2.38304939926,1.38366184959,-3.84635974695,0.12600040275,0.0,-0.369910523969,0.0,0.290182410422,0.0,-2.87346796481,0.0,-0.0120642290734,0.0,0.0142941030307,0.0,0.0132274112243,0.0,0.0678356030263,0.0,0.00577042190712,0.0,0.0,0.0,0.0,-14.1421356237,-127.279220614,130.932134245,0.767944900197,-100.0,-0.781754167872,80.0,0.785398163397,-100.0,-0.785398163397,80.0,16763611.889,0.0,0.0,0.0,0.0,0.0,0.0
1402756675080238799,3,-8.84119350055,-7.1377884924,3.50314832564,2.38304939926,1.36934539431,-3.84635974695,0.123276673767,0.0,-0.365892934634,0.0,0.284952636229,0.0,-2.87369226751,0.0,-0.00347352637364,0.0,0.0148664646771,0.0,-0.00341662941377,0.0,0.0677499064257,0.0,-0.0236232993525,0.0,0.0,0.0,0.0,-14.1421356237,-127.279220614,130.932134245,0.767944900197,-100.0,-0.781754167872,80.0,0.785398163397,-100.0,-0.785398163397,80.0,16763611.889,0.0,0.0,0.0,0.0,0.0,0.0
1402756675101250966,3,-8.84119350055,-7.1377884924,3.50314832564,2.38304939926,1.36934539431,-3.84635974695,0.123276673767,0.0,-0.365892934634,0.0,0.284952636229,0.0,-2.87369226751,0.0,-0.00347352637364,0.0,0.0148664646771,0.0,-0.00341662941377,0.0,0.0677499064257,0.0,-0.0236232993525,0.0,0.0,0.0,0.0,-14.1421356237,-127.279220614,130.932134245,0.769479123754,-100.0,-0.781754167872,80.0,0.785398163397,-100.0,-0.785398163397,80.0,16763611.889,0.0,0.0,0.0,0.0,0.0,0.0
1402756675120408147,3,-8.83857811927,-7.1377884924,3.4957806979,2.38304939926,1.37480714114,-3.84635974695,0.128791990012,0.0,-0.371840096845,0.0,0.271820429233,0.0,-2.87363675417,0.0,0.00334026252767,0.0,0.0146899249079,0.0,0.00573698875453,0.0,0.0678829609115,0.0,0.0010852874332,0.0,0.0,0.0,0.0,-14.1421356237,-127.279220614,130.932134245,0.767944900197,-100.0,-0.781754167872,80.0,0.785398163397,-100.0,-0.785398163397,80.0,16763611.889,0.0,0.0,0.0,0.0,0.0,0.0
1402756675140089812,3,-8.83857811927,-7.1377884924,3.4957806979,2.38304939926,1.37480714114,-3.84635974695,0.128791990012,0.0,-0.371840096845,0.0,0.271820429233,0.0,-2.87363675417,0.0,0.00334026252767,0.0,0.0146899249079,0.0,0.00573698875453,0.0,0.0678829609115,0.0,0.0010852874332,0.0,0.0,0.0,0.0,-14.1421356237,-127.279220614,130.932134245,0.767944900197,-100.0,-0.781754167872,80.0,0.785398163397,-100.0,-0.785398163397,80.0,16763611.889,0.0,0.0,0.0,0.0,0.0,0.0
1402756675160819874,3,-8.83249733253,-7.1377884924,3.47741117412,2.38304939926,1.3603748887,-3.84635974695,0.127465487968,0.0,-0.376965418589,0.0,0.268317259251,0.0,-2.87361457856,0.0,-0.00360740322873,0.0,0.0151707506008,0.0,-0.000116121353919,0.0,0.0684951376431,0.0,-0.00130994266904,0.0,0.0,0.0,0.0,-14.1421356237,-127.279220614,130.932134245,0.767944900197,-100.0,-0.781754167872,80.0,0.785398163397,-100.0,-0.785398163397,80.0,16763611.889,0.0,0.0,0.0,0.0,0.0,0.0
1402756675180460952,3,-8.83249733253,-7.1377884924,3.47741117412,2.38304939926,1.3603748887,-3.84635974695,0.127465487968,0.0,-0.376965418589,0.0,0.268317259251,0.0,-2.87361457856,0.0,-0.00360740322873,0.0,0.0151707506008,0.0,-0.000116121353919,0.0,0.0684951376431,0.0,-0.00130994266904,0.0,0.0,0.0,0.0,-14.1421356237,-127.279220614,130.932134245,0.767944900197,-100.0,-0.780219705897,80.0,0.785398163397,-100.0,-0.785398163397,80.0,16763611.889,0.0,0.0,0.0,0.0,0.0,0.0
1402756675200324304,3,-8.83030016077,-7.1377884924,3.45547559864,2.38304939926,1.35821816443,-3.84635974695,0.116806786263,0.0,-0.390214694235,0.0,0.260659044125,0.0,-2.87255259157,0.0,-0.000242271403093,0.0,0.0143005637152,0.0,0.0153801397726,0.0,0.0709876259823,0.0,0.0049453469465,0.0,0.0,0.0,0.0,-14.1421356237,-127.279220614,130.932134245,0.767944900197,-100.0,-0.781754167872,80.0,0.785398163397,-100.0,-0.785398163397,80.0,16763611.889,0.0,0.0,0.0,0.0,0.0,0.0
1402756675220069230,3,-8.83030016077,-7.1377884924,3.45547559864,2.38304939926,1.35821816443,-3.84635974695,0.116806786263,0.0,-0.390214694235,0.0,0.260659044125,0.0,-2.87255259157,0.0,-0.000242271403093,0.0,0.0143005637152,0.0,0.0153801397726,0.0,0.0709876259823,0.0,0.0049453469465,0.0,0.0,0.0,0.0,-14.1421356237,-127.279220614,130.932134245,0.767944900197,-100.0,-0.780219705897,80.0,0.785398163397,-100.0,-0.785398163397,80.0,16763611.889,0.0,0.0,0.0,0.0,0.0,0.0
1402756675240009833,3,-8.82569272008,-7.1377884924,3.43937533977,2.38304939926,1.36905354807,-3.84635974695,0.111814709841,0.0,-0.392894391596,0.0,0.269658804793,0.0,-2.87224455501,0.0,0.00556677265688,0.0,0.0142973959614,0.0,0.00239414333292,0.0,0.0717148026989,0.0,-0.0386296906333,0.0,0.0,0.0,0.0,-14.1421356237,-127.279220614,130.932134245,0.767944900197,-100.0,-0.781754167872,80.0,0.785398163397,-100.0,-0.785398163397,80.0,16763611.889,0.0,0.0,0.0,0.0,0.0,0.0
1402756675260035272,3,-8.82569272008,-7.1377884924,3.43937533977,2.38304939926,1.36905354807,-3.84635974695,0.111814709841,0.0,-0.392894391596,0.0,0.269658804793,0.0,-2.87224455501,0.0,0.00556677265688,0.0,0.0142973959614,0.0,0.00239414333292,0.0,0.0717148026989,0.0,-0.0386296906333,0.0,0.0,0.0,0.0,-14.1421356237,-127.279220614,130.932134245,0.767944900197,-100.0,-0.781754167872,80.0,0.785398163397,-100.0,-0.785398163397,80.0,16763611.889,0.0,0.0,0.0,0.0,0.0,0.0
1402756675280477094,3,-8.80824445108,-7.1377884924,3.41785604754,2.38304939926,1.35811171473,-3.84635974695,0.128976593803,0.0,-0.39287757006,0.0,0.277520584058,0.0,-2.87300139892,0.0,0.00951543846836,0.0,0.0142941238953,0.0,0.00495474376203,0.0,0.0706935994917,0.0,-0.0407261771671,0.0,0.0,0.0,0.0,-14.1421356237,-127.279220614,130.932134245,0.767944900197,-100.0,-0.780219705897,80.0,0.785398163397,-100.0,-0.785398163397,80.0,16763611.889,0.0,0.0,0.0,0.0,0.0,0.0
1402756675300327233,3,-8.80824445108,-7.1377884924,3.41785604754,2.38304939926,1.35811171473,-3.84635974695,0.128976593803,0.0,-0.39287757006,0.0,0.277520584058,0.0,-2.87300139892,0.0,0.00951543846836,0.0,0.0142941238953,0.0,0.00495474376203,0.0,0.0706935994917,0.0,-0.0407261771671,0.0,0.0,0.0,0.0,-14.1421356237,-127.279220614,130.932134245,0.767944900197,-100.0,-0.780219705897,80.0,0.785398163397,-100.0,-0.785398163397,80.0,16763611.889,0.0,0.0,0.0,0.0,0.0,0.0
1402756675320867491,3,-8.80714915675,-7.1377884924,3.39714407714,2.38304939926,1.3447737372,-3.84635974695,0.114553751828,0.0,-0.400401007426,0.0,0.25975424248,0.0,-2.87164091685,0.0,0.00742669500721,0.0,0.0140186666447,0.0,0.0166423521572,0.0,0.0732850934674,0.0,-0.0307866114852,0.0,0.0,0.0,0.0,-14.1421356237,-127.279220614,130.932134245,0.767944900197,-100.0,-0.780219705897,80.0,0.785398163397,-100.0,-0.785398163397,80.0,16763611.889,0.0,0.0,0.0,0.0,0.0,0.0
1402756675340877144,3,-8.80714915675,-7.1377884924,3.39714407714,2.38304939926,1.3447737372,-3.84635974695,0.114553751828,0.0,-0.400401007426,0.0,0.25975424248,0.0,-2.87164091685,0.0,0.00742669500721,0.0,0.0140186666447,0.0,0.0166423521572,0.0,0.0732850934674,0.0,-0.0307866114852,0.0,0.0,0.0,0.0,-14.1421356237,-127.279220614,130.932134245,0.767944900197,-100.0,-0.780219705897,80.0,0.785398163397,-100.0,-0.785398163397,80.0,16763611.889,0.0,0.0,0.0,0.0,0.0,0.0
1402756675360578879,3,-8.79892438266,-7.1377884924,3.37645837683,2.38304939926,1.32204481147,-3.84635974695,0.116639051449,0.0,-0.399783015819,0.0,0.248352836822,0.0,-2.87141558566,0.0,0.0119279450966,0.0,0.0138179768647,0.0,0.0196575331763,0.0,0.0735659630974,0.0,-0.00181692104644,0.0,0.0,0.0,0.0,-14.1421356237,-127.279220614,130.932134245,0.767944900197,-100.0,-0.781754167872,80.0,0.785398163397,-100.0,-0.785398163397,80.0,16763611.889,0.0,0.0,0.0,0.0,0.0,0.0
