rosbagTimestamp,control_method,x_current,x_desired,y_current,y_desired,x_velocity_current,x_velocity_desired,y_velocity_current,y_velocity_desired,yaw_current,yaw_desired,required_force_x,required_force_y,required_moment_z,resultant_force_x,resultant_force_y,resultant_moment_z,current_port_servo_angle,current_port_thruster_force,current_starboard_servo_angle,current_starboard_thruster_force,estimated_port_servo_angle,estimated_port_thruster_force,estimated_starboard_servo_angle,estimated_starboard_thruster_force,cost_value,step,user_defined_1,user_defined_2,user_defined_3,user_defined_4,user_defined_5
1402598210922750660,0,15.7775704403,-0.114322152727,-25.199165295,0.043815185726,0.162903734798,0.0,-0.132253878524,0.0,-1.74305299361,0.0,0.0,0.0,0.0,-0.0,-0.0,0.0,0.00537022749826,-0.0,-0.00383606751517,-0.0,0.0,-0.0,0.0,-0.0,2.1777378682e-07,0.0,0.0,0.0,0.0,0.0,0.0
1402598210942876320,0,15.7775704403,-0.114322152727,-25.199165295,0.043815185726,0.162903734798,0.0,-0.132253878524,0.0,-1.74305299361,0.0,0.0,0.0,0.0,-0.0,-0.0,0.0,0.00537022749826,-0.0,-0.00383606751517,-0.0,0.0,-0.0,0.0,-0.0,2.1777378682e-07,0.0,0.0,0.0,0.0,0.0,0.0
1402598210962407190,0,15.7842597722,-0.114322152727,-25.2045715992,0.043815185726,0.164642564414,0.0,-0.131618359456,0.0,-1.74305326834,0.0,0.0,0.0,0.0,-0.0,-0.0,0.0,0.00537022749826,-0.0,-0.00383606751517,-0.0,0.0,-0.0,0.0,-0.0,2.1777378682e-07,0.0,0.0,0.0,0.0,0.0,0.0
1402598210982897392,0,15.7842597722,-0.114322152727,-25.2045715992,0.043815185726,0.164642564414,0.0,-0.131618359456,0.0,-1.74305326834,0.0,0.0,0.0,0.0,-0.0,-0.0,0.0,0.00537022749826,-0.0,-0.00383606751517,-0.0,0.0,-0.0,0.0,-0.0,2.1777378682e-07,0.0,0.0,0.0,0.0,0.0,0.0
1402598211002431621,0,15.7914025621,-0.114322152727,-25.2098403043,0.043815185726,0.167926923663,0.0,-0.132484880819,0.0,-1.74301041212,0.0,0.0,0.0,0.0,-0.0,-0.0,0.0,0.00537022749826,-0.0,-0.00383606751517,-0.0,0.0,-0.0,0.0,-0.0,2.1777378682e-07,0.0,0.0,0.0,0.0,0.0,0.0
1402598211022319380,0,15.7914025621,-0.114322152727,-25.2098403043,0.043815185726,0.167926923663,0.0,-0.132484880819,0.0,-1.74301041212,0.0,0.0,0.0,0.0,-0.0,-0.0,0.0,0.00537022749826,-0.0,-0.00383606751517,-0.0,0.0,-0.0,0.0,-0.0,2.1777378682e-07,0.0,0.0,0.0,0.0,0.0,0.0
1402598211042347340,0,15.7985964224,-0.114322152727,-25.215325804,0.043815185726,0.170625152389,0.0,-0.132578084773,0.0,-1.74275467861,0.0,0.0,0.0,0.0,4.51882742345,0.0,1.37733859867,0.00537022749826,-0.0,-0.00537029107169,-0.0,-0.118957229128,-0.0,0.0,4.51882742345,2071.61995568,0.0,0.0,0.0,0.0,0.0,0.0
1402598211062297207,0,15.7985964224,-0.114322152727,-25.215325804,0.043815185726,0.170625152389,0.0,-0.132578084773,0.0,-1.74275467861,0.0,0.0,0.0,0.0,19.8904414159,0.0553709360066,6.02252352301,0.00537022749826,-0.0,-0.00383606751517,4.51882742345,-0.370759773384,-0.0,0.00278378904804,19.8905184865,39896.5750848,0.0,0.0,0.0,0.0,0.0,0.0
1402598211082367099,0,15.8056665577,-0.114322152727,-25.220792816,0.043815185726,0.173305306504,0.0,-0.13281585009,0.0,-1.74239008116,0.0,0.0,0.0,0.0,-28.1088898133,46.6680498122,14.0502438952,0.00230154196664,-0.0,-0.00383606751517,19.8905184865,-0.3892062471,-100.0,0.134600270667,65.0000870228,1298288.65515,0.0,0.0,0.0,0.0,0.0,0.0
1402598211102747991,0,15.8056665577,-0.114322152727,-25.220792816,0.043815185726,0.173305306504,0.0,-0.13281585009,0.0,-1.74239008116,0.0,0.0,0.0,0.0,3.34944320192,67.7141412153,8.26237528608,-0.01304212411,-100.0,-0.00230160554007,65.0000870228,-0.395261609628,-100.0,0.296413262306,100.0,2427296.82261,0.0,0.0,0.0,0.0,0.0,0.0
1402598211122152991,0,15.8153489883,-0.114322152727,-25.2274097182,0.043815185726,0.178234560623,0.0,-0.132840558358,0.0,-1.74164003854,0.0,0.0,0.0,0.0,4.40292948057,71.1041499546,5.38039139714,-0.0345231612499,-100.0,0.00843891302987,100.0,-0.426043096499,-100.0,0.302356506793,100.0,2643343.66677,0.0,0.0,0.0,0.0,0.0,0.0
1402598211142222121,0,15.8153489883,-0.114322152727,-25.2274097182,0.043815185726,0.178234560623,0.0,-0.132840558358,0.0,-1.74164003854,0.0,0.0,0.0,0.0,5.88831248538,73.3091634594,3.43829132593,-0.0652102549847,-100.0,0.0191794315998,100.0,-0.456712413314,-100.0,0.296413262306,100.0,2794761.25953,0.0,0.0,0.0,0.0,0.0,0.0
1402598211162336557,0,15.8206719322,-0.114322152727,-25.2313269169,0.043815185726,0.18101340416,0.0,-0.132952228002,0.0,-1.74119128526,0.0,0.0,0.0,0.0,6.53917342809,75.5200495244,1.53259454331,-0.103568943339,-100.0,0.062141267461,100.0,-0.475102788997,-100.0,0.302356506793,100.0,2954951.40354,0.0,0.0,0.0,0.0,0.0,0.0
1402598211182303372,0,15.824520754,-0.114322152727,-25.2341044644,0.043815185726,0.18327967841,0.0,-0.134229991539,0.0,-1.74086083768,0.0,0.0,0.0,0.0,6.71445877066,74.9521625997,1.99711486054,-0.143462332087,-100.0,0.0759507099812,100.0,-0.475102788997,-100.0,0.296413262306,100.0,2913161.77169,0.0,0.0,0.0,0.0,0.0,0.0
1402598211202742961,0,15.824520754,-0.114322152727,-25.2341044644,0.043815185726,0.18327967841,0.0,-0.134229991539,0.0,-1.74086083768,0.0,0.0,0.0,0.0,6.71445877066,74.9521625997,1.99711486054,-0.184889705973,-100.0,0.126584378881,100.0,-0.475102788997,-100.0,0.296413262306,100.0,2913161.77146,0.0,0.0,0.0,0.0,0.0,0.0
1402598211222293786,0,15.8282757289,-0.114322152727,-25.2367378876,0.043815185726,0.182846227603,0.0,-0.13424755525,0.0,-1.74052977761,0.0,0.0,0.0,0.0,6.71445877066,74.9521625997,1.99711486054,-0.214042576152,-100.0,0.14499649207,100.0,-0.475102788997,-100.0,0.296413262306,100.0,2913161.77135,0.0,0.0,0.0,0.0,0.0,0.0
1402598211243475737,0,15.8282757289,-0.114322152727,-25.2367378876,0.043815185726,0.182846227603,0.0,-0.13424755525,0.0,-1.74052977761,0.0,0.0,0.0,0.0,6.71445877066,74.9521625997,1.99711486054,-0.246264131861,-100.0,0.181821195287,100.0,-0.475102788997,-100.0,0.296413262306,100.0,2913161.77122,0.0,0.0,0.0,0.0,0.0,0.0
1402598211262316722,0,15.8361994957,-0.114322152727,-25.242351776,0.043815185726,0.185462252515,0.0,-0.134509630879,0.0,-1.73980831279,0.0,0.0,0.0,0.0,6.71445877066,74.9521625997,1.99711486054,-0.278485449153,-100.0,0.240126458806,100.0,-0.475102788997,-100.0,0.296413262306,100.0,2913161.77111,0.0,0.0,0.0,0.0,0.0,0.0
1402598211282951138,0,15.8361994957,-0.114322152727,-25.242351776,0.043815185726,0.185462252515,0.0,-0.134509630879,0.0,-1.73980831279,0.0,0.0,0.0,0.0,6.71445877066,74.9521625997,1.99711486054,-0.316844375926,-100.0,0.258538810415,100.0,-0.475102788997,-100.0,0.296413262306,100.0,2913161.77103,0.0,0.0,0.0,0.0,0.0,0.0
1402598211302357810,0,15.8441044616,-0.114322152727,-25.2480667577,0.043815185726,0.18931362193,0.0,-0.15183143136,0.0,-1.73837313851,0.0,0.0,0.0,0.0,6.71445877066,74.9521625997,1.99711486054,-0.350600155192,-100.0,0.293829051656,100.0,-0.475102788997,-100.0,0.296413262306,100.0,2913161.77097,0.0,0.0,0.0,0.0,0.0,0.0
1402598211322946257,0,15.8441044616,-0.114322152727,-25.2480667577,0.043815185726,0.18931362193,0.0,-0.15183143136,0.0,-1.73837313851,0.0,0.0,0.0,0.0,6.71445877066,74.9521625997,1.99711486054,-0.384355934459,-100.0,0.299966422719,100.0,-0.475102788997,-100.0,0.296413262306,100.0,2913161.77094,0.0,0.0,0.0,0.0,0.0,0.0
1402598211342455892,0,15.8525586959,-0.114322152727,-25.254324887,0.043815185726,0.207076268605,0.0,-0.162381823008,0.0,-1.73509936331,0.0,0.0,0.0,0.0,6.71445877066,74.9521625997,1.99711486054,-0.41197458108,-100.0,0.301500646276,100.0,-0.475102788997,-100.0,0.296413262306,100.0,2913161.77092,0.0,0.0,0.0,0.0,0.0,0.0
1402598211363157322,0,15.8525586959,-0.114322152727,-25.254324887,0.043815185726,0.207076268605,0.0,-0.162381823008,0.0,-1.73509936331,0.0,0.0,0.0,0.0,6.71445877066,74.9521625997,1.99711486054,-0.431921156245,-100.0,0.299966422719,100.0,-0.475102788997,-100.0,0.296413262306,100.0,2913161.77091,0.0,0.0,0.0,0.0,0.0,0.0
1402598211382734760,0,15.8610222054,-0.114322152727,-25.2613357096,0.043815185726,0.208360034207,0.0,-0.176047825162,0.0,-1.72962718721,0.0,0.0,0.0,0.0,6.71445877066,74.9521625997,1.99711486054,-0.442661674815,-100.0,0.301500646276,100.0,-0.475102788997,-100.0,0.296413262306,100.0,2913161.7709,0.0,0.0,0.0,0.0,0.0,0.0
1402598211402926075,0,15.8610222054,-0.114322152727,-25.2613357096,0.043815185726,0.208360034207,0.0,-0.176047825162,0.0,-1.72962718721,0.0,0.0,0.0,0.0,6.71445877066,74.9521625997,1.99711486054,-0.445730360347,-100.0,0.303035108251,100.0,-0.475102788997,-100.0,0.296413262306,100.0,2913161.7709,0.0,0.0,0.0,0.0,0.0,0.0
1402598211422377071,0,15.8697568416,-0.114322152727,-25.2682379636,0.043815185726,0.214221568632,0.0,-0.180245627896,0.0,-1.72161478694,0.0,0.0,0.0,0.0,6.71445877066,74.9521625997,1.99711486054,-0.44879880746,-100.0,0.301500646276,100.0,-0.475102788997,-100.0,0.296413262306,100.0,2913161.7709,0.0,0.0,0.0,0.0,0.0,0.0
1402598211443388133,0,15.8697568416,-0.114322152727,-25.2682379636,0.043815185726,0.214221568632,0.0,-0.180245627896,0.0,-1.72161478694,0.0,0.0,0.0,0.0,6.71445877066,74.9521625997,1.99711486054,-0.44879880746,-100.0,0.301500646276,100.0,-0.475102788997,-100.0,0.296413262306,100.0,2913161.7709,0.0,0.0,0.0,0.0,0.0,0.0
1402598211463158081,0,15.7046423343,-0.114322152727,-25.2221441091,0.043815185726,0.0155870927547,0.0,-0.121634280259,0.0,-1.70998378556,0.0,0.0,0.0,0.0,6.71445877066,74.9521625997,1.99711486054,-0.44879880746,-100.0,0.299966422719,100.0,-0.475102788997,-100.0,0.296413262306,100.0,2913161.7709,0.0,0.0,0.0,0.0,0.0,0.0
1402598211483072780,0,15.7046423343,-0.114322152727,-25.2221441091,0.043815185726,0.0155870927547,0.0,-0.121634280259,0.0,-1.70998378556,0.0,0.0,0.0,0.0,6.71445877066,74.9521625997,1.99711486054,-0.44879880746,-100.0,0.299966422719,100.0,-0.475102788997,-100.0,0.296413262306,100.0,2913161.7709,0.0,0.0,0.0,0.0,0.0,0.0
1402598211502279937,0,15.7057400516,-0.114322152727,-25.2268797057,0.043815185726,0.0215595485515,0.0,-0.124982686046,0.0,-1.69622719176,0.0,0.0,0.0,0.0,6.71445877066,74.9521625997,1.99711486054,-0.44879880746,-100.0,0.299966422719,100.0,-0.475102788997,-100.0,0.296413262306,100.0,2913161.7709,0.0,0.0,0.0,0.0,0.0,0.0
1402598211522853318,0,15.7057400516,-0.114322152727,-25.2268797057,0.043815185726,0.0215595485515,0.0,-0.124982686046,0.0,-1.69622719176,0.0,0.0,0.0,0.0,6.71445877066,74.9521625997,1.99711486054,-0.44879880746,-100.0,0.299966422719,100.0,-0.475102788997,-100.0,0.296413262306,100.0,2913161.7709,0.0,0.0,0.0,0.0,0.0,0.0
1402598211542291757,0,15.7072707056,-0.114322152727,-25.2336141219,0.043815185726,0.0320657549014,0.0,-0.129950428989,0.0,-1.67573875831,0.0,0.0,0.0,0.0,6.71445877066,74.9521625997,1.99711486054,-0.44879880746,-100.0,0.298432199163,100.0,-0.475102788997,-100.0,0.296413262306,100.0,2913161.7709,0.0,0.0,0.0,0.0,0.0,0.0
1402598211563083756,0,15.7072707056,-0.114322152727,-25.2336141219,0.043815185726,0.0320657549014,0.0,-0.129950428989,0.0,-1.67573875831,0.0,0.0,0.0,0.0,6.71445877066,74.9521625997,1.99711486054,-0.44879880746,-100.0,0.299966422719,100.0,-0.475102788997,-100.0,0.296413262306,100.0,2913161.7709,0.0,0.0,0.0,0.0,0.0,0.0
1402598211582288642,0,15.7644814152,-0.114322152727,-25.2903135577,0.043815185726,0.101851295388,0.0,-0.189958498072,0.0,-1.65032726257,0.0,0.0,0.0,0.0,6.71445877066,74.9521625997,1.99711486054,-0.44879880746,-100.0,0.299966422719,100.0,-0.475102788997,-100.0,0.296413262306,100.0,2913161.7709,0.0,0.0,0.0,0.0,0.0,0.0
1402598211603028626,0,15.7644814152,-0.114322152727,-25.2903135577,0.043815185726,0.101851295388,0.0,-0.189958498072,0.0,-1.65032726257,0.0,0.0,0.0,0.0,6.71445877066,74.9521625997,1.99711486054,-0.44879880746,-100.0,0.298432199163,100.0,-0.475102788997,-100.0,0.296413262306,100.0,2913161.7709,0.0,0.0,0.0,0.0,0.0,0.0
1402598211622500182,0,15.7665999944,-0.114322152727,-25.2940920453,0.043815185726,0.108662369923,0.0,-0.188953809242,0.0,-1.6397331884,0.0,0.0,0.0,0.0,6.71445877066,74.9521625997,1.99711486054,-0.44879880746,-100.0,0.298432199163,100.0,-0.475102788997,-100.0,0.296413262306,100.0,2913161.7709,0.0,0.0,0.0,0.0,0.0,0.0
1402598211642910319,0,15.7665999944,-0.114322152727,-25.2940920453,0.043815185726,0.108662369923,0.0,-0.188953809242,0.0,-1.6397331884,0.0,0.0,0.0,0.0,6.71445877066,74.9521625997,1.99711486054,-0.44879880746,-100.0,0.298432199163,100.0,-0.475102788997,-100.0,0.296413262306,100.0,2913161.7709,0.0,0.0,0.0,0.0,0.0,0.0
1402598211662358481,0,15.7711760538,-0.114322152727,-25.3018301973,0.043815185726,0.116857385854,0.0,-0.192548127138,0.0,-1.61739507951,0.0,0.0,0.0,0.0,6.71445877066,74.9521625997,1.99711486054,-0.44879880746,-100.0,0.298432199163,100.0,-0.475102788997,-100.0,0.296413262306,100.0,2913161.7709,0.0,0.0,0.0,0.0,0.0,0.0
1402598211682898914,0,15.7711760538,-0.114322152727,-25.3018301973,0.043815185726,0.116857385854,0.0,-0.192548127138,0.0,-1.61739507951,0.0,0.0,0.0,0.0,6.71445877066,74.9521625997,1.99711486054,-0.44879880746,-100.0,0.298432199163,100.0,-0.475102788997,-100.0,0.296413262306,100.0,2913161.7709,0.0,0.0,0.0,0.0,0.0,0.0
1402598211702473887,0,15.7981940711,-0.114322152727,-25.3252404019,0.043815185726,0.153724760106,0.0,-0.206647316049,0.0,-1.59217414494,0.0,0.0,0.0,0.0,6.71445877066,74.9521625997,1.99711486054,-0.44879880746,-100.0,0.298432199163,100.0,-0.475102788997,-100.0,0.296413262306,100.0,2913161.7709,0.0,0.0,0.0,0.0,0.0,0.0
1402598211722765858,0,15.7981940711,-0.114322152727,-25.3252404019,0.043815185726,0.153724760106,0.0,-0.206647316049,0.0,-1.59217414494,0.0,0.0,0.0,0.0,6.71445877066,74.9521625997,1.99711486054,-0.44879880746,-100.0,0.298432199163,100.0,-0.475102788997,-100.0,0.296413262306,100.0,2913161.7709,0.0,0.0,0.0,0.0,0.0,0.0
1402598211742451800,0,15.8048878054,-0.114322152727,-25.3336970961,0.043815185726,0.157554633588,0.0,-0.207015323343,0.0,-1.56565888447,0.0,0.0,0.0,0.0,6.71445877066,74.9521625997,1.99711486054,-0.44879880746,-100.0,0.298432199163,100.0,-0.475102788997,-100.0,0.296413262306,100.0,2913161.7709,0.0,0.0,0.0,0.0,0.0,0.0
1402598211762993670,0,15.8048878054,-0.114322152727,-25.3336970961,0.043815185726,0.157554633588,0.0,-0.207015323343,0.0,-1.56565888447,0.0,0.0,0.0,0.0,6.71445877066,74.9521625997,1.99711486054,-0.44879880746,-100.0,0.298432199163,100.0,-0.475102788997,-100.0,0.296413262306,100.0,2913161.7709,0.0,0.0,0.0,0.0,0.0,0.0
1402598211782351009,0,15.8118262243,-0.114322152727,-25.3421950084,0.043815185726,0.178458324415,0.0,-0.202859747711,0.0,-1.53728695264,0.0,0.0,0.0,0.0,6.71445877066,74.9521625997,1.99711486054,-0.44879880746,-100.0,0.298432199163,100.0,-0.475102788997,-100.0,0.296413262306,100.0,2913161.7709,0.0,0.0,0.0,0.0,0.0,0.0
1402598211803051636,0,15.8118262243,-0.114322152727,-25.3421950084,0.043815185726,0.178458324415,0.0,-0.202859747711,0.0,-1.53728695264,0.0,0.0,0.0,0.0,6.71445877066,74.9521625997,1.99711486054,-0.44879880746,-100.0,0.296897737188,100.0,-0.475102788997,-100.0,0.296413262306,100.0,2913161.7709,0.0,0.0,0.0,0.0,0.0,0.0
1402598211823035313,0,15.7877374231,-0.114322152727,-25.3638763796,0.043815185726,0.122154167504,0.0,-0.209541834313,0.0,-1.49985710665,0.0,0.0,0.0,0.0,6.71445877066,74.9521625997,1.99711486054,-0.44879880746,-100.0,0.298432199163,100.0,-0.475102788997,-100.0,0.296413262306,100.0,2913161.7709,0.0,0.0,0.0,0.0,0.0,0.0
1402598211842368119,0,15.7877374231,-0.114322152727,-25.3638763796,0.043815185726,0.122154167504,0.0,-0.209541834313,0.0,-1.49985710665,0.0,0.0,0.0,0.0,6.71445877066,74.9521625997,1.99711486054,-0.447264583903,-100.0,0.296897737188,100.0,-0.475102788997,-100.0,0.296413262306,100.0,2913161.7709,0.0,0.0,0.0,0.0,0.0,0.0
1402598211863038254,0,15.7950038993,-0.114322152727,-25.3746332548,0.043815185726,0.132858893084,0.0,-0.206596064024,0.0,-1.46041516398,0.0,0.0,0.0,0.0,6.71445877066,74.9521625997,1.99711486054,-0.447264583903,-100.0,0.298432199163,100.0,-0.475102788997,-100.0,0.296413262306,100.0,2913161.7709,0.0,0.0,0.0,0.0,0.0,0.0
1402598211882420173,0,15.7950038993,-0.114322152727,-25.3746332548,0.043815185726,0.132858893084,0.0,-0.206596064024,0.0,-1.46041516398,0.0,0.0,0.0,0.0,6.71445877066,74.9521625997,1.99711486054,-0.447264583903,-100.0,0.296897737188,100.0,-0.475102788997,-100.0,0.296413262306,100.0,2913161.7709,0.0,0.0,0.0,0.0,0.0,0.0
1402598211902894426,0,15.7977259469,-0.114322152727,-25.3789458119,0.043815185726,0.136035744191,0.0,-0.208304874352,0.0,-1.44381595985,0.0,0.0,0.0,0.0,6.71445877066,74.9521625997,1.99711486054,-0.44879880746,-100.0,0.298432199163,100.0,-0.475102788997,-100.0,0.296413262306,100.0,2913161.7709,0.0,0.0,0.0,0.0,0.0,0.0
1402598211922436023,0,15.7977259469,-0.114322152727,-25.3789458119,0.043815185726,0.136035744191,0.0,-0.208304874352,0.0,-1.44381595985,0.0,0.0,0.0,0.0,6.71445877066,74.9521625997,1.99711486054,-0.447264583903,-100.0,0.298432199163,100.0,-0.475102788997,-100.0,0.296413262306,100.0,2913161.7709,0.0,0.0,0.0,0.0,0.0,0.0
1402598211943703755,0,15.7997196408,-0.114322152727,-25.4026716945,0.043815185726,0.121329627208,0.0,-0.2244510089,0.0,-1.40916433764,0.0,0.0,0.0,0.0,6.71445877066,74.9521625997,1.99711486054,-0.44879880746,-100.0,0.298432199163,100.0,-0.475102788997,-100.0,0.296413262306,100.0,2913161.7709,0.0,0.0,0.0,0.0,0.0,0.0
1402598211962528450,0,15.7997196408,-0.114322152727,-25.4026716945,0.043815185726,0.121329627208,0.0,-0.2244510089,0.0,-1.40916433764,0.0,0.0,0.0,0.0,6.71445877066,74.9521625997,1.99711486054,-0.44879880746,-100.0,0.298432199163,100.0,-0.475102788997,-100.0,0.296413262306,100.0,2913161.7709,0.0,0.0,0.0,0.0,0.0,0.0
1402598211983255164,0,15.8104718135,-0.114322152727,-25.4307264676,0.043815185726,0.137104288025,0.0,-0.243851259728,0.0,-1.37214683036,0.0,0.0,0.0,0.0,6.71445877066,74.9521625997,1.99711486054,-0.44879880746,-100.0,0.296897737188,100.0,-0.475102788997,-100.0,0.296413262306,100.0,2913161.7709,0.0,0.0,0.0,0.0,0.0,0.0
1402598212002562405,0,15.8104718135,-0.114322152727,-25.4307264676,0.043815185726,0.137104288025,0.0,-0.243851259728,0.0,-1.37214683036,0.0,0.0,0.0,0.0,6.71445877066,74.9521625997,1.99711486054,-0.44879880746,-100.0,0.296897737188,100.0,-0.475102788997,-100.0,0.296413262306,100.0,2913161.7709,0.0,0.0,0.0,0.0,0.0,0.0
1402598212022992138,0,15.8226526085,-0.114322152727,-25.4471577996,0.043815185726,0.14025690877,0.0,-0.243869431712,0.0,-1.32698315925,0.0,0.0,0.0,0.0,6.71445877066,74.9521625997,1.99711486054,-0.44879880746,-100.0,0.298432199163,100.0,-0.475102788997,-100.0,0.296413262306,100.0,2913161.7709,0.0,0.0,0.0,0.0,0.0,0.0
1402598212042274372,0,15.8226526085,-0.114322152727,-25.4471577996,0.043815185726,0.14025690877,0.0,-0.243869431712,0.0,-1.32698315925,0.0,0.0,0.0,0.0,6.71445877066,74.9521625997,1.99711486054,-0.44879880746,-100.0,0.296897737188,100.0,-0.475102788997,-100.0,0.296413262306,100.0,2913161.7709,0.0,0.0,0.0,0.0,0.0,0.0
1402598212062995601,0,15.8254454808,-0.114322152727,-25.4576409713,0.043815185726,0.132245104252,0.0,-0.237267610253,0.0,-1.30110642928,0.0,0.0,0.0,0.0,6.71445877066,74.9521625997,1.99711486054,-0.447264583903,-100.0,0.298432199163,100.0,-0.475102788997,-100.0,0.296413262306,100.0,2913161.7709,0.0,0.0,0.0,0.0,0.0,0.0
1402598212082638224,0,15.8283377436,-0.114322152727,-25.4626962702,0.043815185726,0.139554293257,0.0,-0.236160443935,0.0,-1.28272775129,0.0,0.0,0.0,0.0,6.71445877066,74.9521625997,1.99711486054,-0.447264583903,-100.0,0.298432199163,100.0,-0.475102788997,-100.0,0.296413262306,100.0,2913161.7709,0.0,0.0,0.0,0.0,0.0,0.0
1402598212102864565,0,15.8283377436,-0.114322152727,-25.4626962702,0.043815185726,0.139554293257,0.0,-0.236160443935,0.0,-1.28272775129,0.0,0.0,0.0,0.0,6.71445877066,74.9521625997,1.99711486054,-0.44879880746,-100.0,0.296897737188,100.0,-0.475102788997,-100.0,0.296413262306,100.0,2913161.7709,0.0,0.0,0.0,0.0,0.0,0.0
1402598212122454725,0,15.8314579578,-0.114322152727,-25.467187026,0.043815185726,0.138165725335,0.0,-0.232744413499,0.0,-1.26493019894,0.0,0.0,0.0,0.0,6.71445877066,74.9521625997,1.99711486054,-0.44879880746,-100.0,0.298432199163,100.0,-0.475102788997,-100.0,0.296413262306,100.0,2913161.7709,0.0,0.0,0.0,0.0,0.0,0.0
1402598212142959087,0,15.8314579578,-0.114322152727,-25.467187026,0.043815185726,0.138165725335,0.0,-0.232744413499,0.0,-1.26493019894,0.0,0.0,0.0,0.0,6.71445877066,74.9521625997,1.99711486054,-0.447264583903,-100.0,0.296897737188,100.0,-0.475102788997,-100.0,0.296413262306,100.0,2913161.7709,0.0,0.0,0.0,0.0,0.0,0.0
1402598212162399658,0,15.8373326431,-0.114322152727,-25.4768914931,0.043815185726,0.148524986806,0.0,-0.223170775454,0.0,-1.22740546745,0.0,0.0,0.0,0.0,6.71445877066,74.9521625997,1.99711486054,-0.447264583903,-100.0,0.296897737188,100.0,-0.475102788997,-100.0,0.296413262306,100.0,2913161.7709,0.0,0.0,0.0,0.0,0.0,0.0
1402598212182891252,0,15.8373326431,-0.114322152727,-25.4768914931,0.043815185726,0.148524986806,0.0,-0.223170775454,0.0,-1.22740546745,0.0,0.0,0.0,0.0,6.71445877066,74.9521625997,1.99711486054,-0.447264583903,-100.0,0.298432199163,100.0,-0.475102788997,-100.0,0.296413262306,100.0,2913161.7709,0.0,0.0,0.0,0.0,0.0,0.0
1402598212202390269,0,15.8376492542,-0.114322152727,-25.4867529451,0.043815185726,0.127317152816,0.0,-0.214370060016,0.0,-1.19137601005,0.0,0.0,0.0,0.0,6.71445877066,74.9521625997,1.99711486054,-0.447264583903,-100.0,0.296897737188,100.0,-0.475102788997,-100.0,0.296413262306,100.0,2913161.7709,0.0,0.0,0.0,0.0,0.0,0.0
1402598212222725561,0,15.8376492542,-0.114322152727,-25.4867529451,0.043815185726,0.127317152816,0.0,-0.214370060016,0.0,-1.19137601005,0.0,0.0,0.0,0.0,6.71445877066,74.9521625997,1.99711486054,-0.447264583903,-100.0,0.296897737188,100.0,-0.475102788997,-100.0,0.296413262306,100.0,2913161.7709,0.0,0.0,0.0,0.0,0.0,0.0
1402598212242202604,0,15.8433973068,-0.114322152727,-25.4954682032,0.043815185726,0.142839386068,0.0,-0.204408813173,0.0,-1.15316326175,0.0,0.0,0.0,0.0,6.71445877066,74.9521625997,1.99711486054,-0.447264583903,-100.0,0.296897737188,100.0,-0.475102788997,-100.0,0.296413262306,100.0,2913161.7709,0.0,0.0,0.0,0.0,0.0,0.0
1402598212262838127,0,15.8433973068,-0.114322152727,-25.4954682032,0.043815185726,0.142839386068,0.0,-0.204408813173,0.0,-1.15316326175,0.0,0.0,0.0,0.0,6.71445877066,74.9521625997,1.99711486054,-0.447264583903,-100.0,0.295363513631,100.0,-0.475102788997,-100.0,0.296413262306,100.0,2913161.7709,0.0,0.0,0.0,0.0,0.0,0.0
1402598212282404238,0,15.8512109462,-0.114322152727,-25.5054282556,0.043815185726,0.154130312805,0.0,-0.190650259352,0.0,-1.10530437852,0.0,0.0,0.0,0.0,6.71445877066,74.9521625997,1.99711486054,-0.447264583903,-100.0,0.293829051656,100.0,-0.475102788997,-100.0,0.296413262306,100.0,2913161.7709,0.0,0.0,0.0,0.0,0.0,0.0
1402598212303181958,0,15.8512109462,-0.114322152727,-25.5054282556,0.043815185726,0.154130312805,0.0,-0.190650259352,0.0,-1.10530437852,0.0,0.0,0.0,0.0,6.71445877066,74.9521625997,1.99711486054,-0.447264583903,-100.0,0.293829051656,100.0,-0.475102788997,-100.0,0.296413262306,100.0,2913161.7709,0.0,0.0,0.0,0.0,0.0,0.0
1402598212322545878,0,15.8813849789,-0.114322152727,-25.5230924862,0.043815185726,0.20493053861,0.0,-0.190719341372,0.0,-1.0533991001,0.0,0.0,0.0,0.0,6.71445877066,74.9521625997,1.99711486054,-0.447264583903,-100.0,0.295363513631,100.0,-0.475102788997,-100.0,0.296413262306,100.0,2913161.7709,0.0,0.0,0.0,0.0,0.0,0.0
1402598212342775499,0,15.8813849789,-0.114322152727,-25.5230924862,0.043815185726,0.20493053861,0.0,-0.190719341372,0.0,-1.0533991001,0.0,0.0,0.0,0.0,6.71445877066,74.9521625997,1.99711486054,-0.44879880746,-100.0,0.295363513631,100.0,-0.475102788997,-100.0,0.296413262306,100.0,2913161.7709,0.0,0.0,0.0,0.0,0.0,0.0
1402598212362340815,0,15.8860262317,-0.114322152727,-25.527131278,0.043815185726,0.20976100451,0.0,-0.182112055571,0.0,-1.03370827468,0.0,0.0,0.0,0.0,6.71445877066,74.9521625997,1.99711486054,-0.447264583903,-100.0,0.295363513631,100.0,-0.475102788997,-100.0,0.296413262306,100.0,2913161.7709,0.0,0.0,0.0,0.0,0.0,0.0
1402598212382836270,0,15.8860262317,-0.114322152727,-25.527131278,0.043815185726,0.20976100451,0.0,-0.182112055571,0.0,-1.03370827468,0.0,0.0,0.0,0.0,6.71445877066,74.9521625997,1.99711486054,-0.447264583903,-100.0,0.295363513631,100.0,-0.475102788997,-100.0,0.296413262306,100.0,2913161.7709,0.0,0.0,0.0,0.0,0.0,0.0
1402598212402358102,0,15.8922220532,-0.114322152727,-25.5333034328,0.043815185726,0.20516544288,0.0,-0.156353244283,0.0,-0.994653565618,0.0,0.0,0.0,0.0,6.71445877066,74.9521625997,1.99711486054,-0.447264583903,-100.0,0.295363513631,100.0,-0.475102788997,-100.0,0.296413262306,100.0,2913161.7709,0.0,0.0,0.0,0.0,0.0,0.0
1402598212422938616,0,15.8922220532,-0.114322152727,-25.5333034328,0.043815185726,0.20516544288,0.0,-0.156353244283,0.0,-0.994653565618,0.0,0.0,0.0,0.0,6.71445877066,74.9521625997,1.99711486054,-0.447264583903,-100.0,0.293829051656,100.0,-0.475102788997,-100.0,0.296413262306,100.0,2913161.7709,0.0,0.0,0.0,0.0,0.0,0.0
1402598212442573824,0,15.9124186851,-0.114322152727,-25.539461444,0.043815185726,0.221578064733,0.0,-0.127660709533,0.0,-0.953355878208,0.0,0.0,0.0,0.0,6.71445877066,74.9521625997,1.99711486054,-0.447264583903,-100.0,0.293829051656,100.0,-0.475102788997,-100.0,0.296413262306,100.0,2913161.7709,0.0,0.0,0.0,0.0,0.0,0.0
1402598212462863197,0,15.9124186851,-0.114322152727,-25.539461444,0.043815185726,0.221578064733,0.0,-0.127660709533,0.0,-0.953355878208,0.0,0.0,0.0,0.0,6.71445877066,74.9521625997,1.99711486054,-0.447264583903,-100.0,0.292294589681,100.0,-0.475102788997,-100.0,0.296413262306,100.0,2913161.7709,0.0,0.0,0.0,0.0,0.0,0.0
1402598212482365071,0,15.936991812,-0.114322152727,-25.5634724794,0.043815185726,0.252804788517,0.0,-0.15388650033,0.0,-0.915090436005,0.0,0.0,0.0,0.0,6.71445877066,74.9521625997,1.99711486054,-0.447264583903,-100.0,0.289225904149,100.0,-0.475102788997,-100.0,0.296413262306,100.0,2913161.7709,0.0,0.0,0.0,0.0,0.0,0.0
1402598212502955838,0,15.936991812,-0.114322152727,-25.5634724794,0.043815185726,0.252804788517,0.0,-0.15388650033,0.0,-0.915090436005,0.0,0.0,0.0,0.0,6.71445877066,74.9521625997,1.99711486054,-0.447264583903,-100.0,0.290760366124,100.0,-0.475102788997,-100.0,0.296413262306,100.0,2913161.7709,0.0,0.0,0.0,0.0,0.0,0.0
1402598212522356010,0,15.9506854821,-0.114322152727,-25.5709077482,0.043815185726,0.255361092391,0.0,-0.136060986786,0.0,-0.863944997413,0.0,0.0,0.0,0.0,6.71445877066,74.9521625997,1.99711486054,-0.447264583903,-100.0,0.290760366124,100.0,-0.475102788997,-100.0,0.296413262306,100.0,2913161.7709,0.0,0.0,0.0,0.0,0.0,0.0
1402598212543017497,0,15.9506854821,-0.114322152727,-25.5709077482,0.043815185726,0.255361092391,0.0,-0.136060986786,0.0,-0.863944997413,0.0,0.0,0.0,0.0,6.71445877066,74.9521625997,1.99711486054,-0.447264583903,-100.0,0.290760366124,100.0,-0.475102788997,-100.0,0.296413262306,100.0,2913161.7709,0.0,0.0,0.0,0.0,0.0,0.0
1402598212562430175,0,15.9571102128,-0.114322152727,-25.60951735,0.043815185726,0.221406650115,0.0,-0.178169949277,0.0,-0.842344991737,0.0,0.0,0.0,0.0,6.71445877066,74.9521625997,1.99711486054,-0.447264583903,-100.0,0.289225904149,100.0,-0.475102788997,-100.0,0.296413262306,100.0,2913161.7709,0.0,0.0,0.0,0.0,0.0,0.0
1402598212583047164,0,15.9620209942,-0.114322152727,-25.6132716996,0.043815185726,0.219819701319,0.0,-0.174746708671,0.0,-0.821732811435,0.0,0.0,0.0,0.0,6.71445877066,74.9521625997,1.99711486054,-0.447264583903,-100.0,0.290760366124,100.0,-0.475102788997,-100.0,0.296413262306,100.0,2913161.7709,0.0,0.0,0.0,0.0,0.0,0.0
1402598212602436283,0,15.9620209942,-0.114322152727,-25.6132716996,0.043815185726,0.219819701319,0.0,-0.174746708671,0.0,-0.821732811435,0.0,0.0,0.0,0.0,6.71445877066,74.9521625997,1.99711486054,-0.447264583903,-100.0,0.289225904149,100.0,-0.475102788997,-100.0,0.296413262306,100.0,2913161.7709,0.0,0.0,0.0,0.0,0.0,0.0
1402598212622913430,0,15.9665421613,-0.114322152727,-25.6166417001,0.043815185726,0.219280525952,0.0,-0.167519865344,0.0,-0.801068603894,0.0,0.0,0.0,0.0,6.71445877066,74.9521625997,1.99711486054,-0.447264583903,-100.0,0.290760366124,100.0,-0.475102788997,-100.0,0.296413262306,100.0,2913161.7709,0.0,0.0,0.0,0.0,0.0,0.0
1402598212642398626,0,15.9665421613,-0.114322152727,-25.6166417001,0.043815185726,0.219280525952,0.0,-0.167519865344,0.0,-0.801068603894,0.0,0.0,0.0,0.0,6.71445877066,74.9521625997,1.99711486054,-0.447264583903,-100.0,0.290760366124,100.0,-0.475102788997,-100.0,0.296413262306,100.0,2913161.7709,0.0,0.0,0.0,0.0,0.0,0.0
1402598212663013114,0,15.9764420316,-0.114322152727,-25.5803500287,0.043815185726,0.202034515673,0.0,-0.0700621003736,0.0,-0.738184209595,0.0,0.0,0.0,0.0,6.71445877066,74.9521625997,1.99711486054,-0.447264583903,-100.0,0.289225904149,100.0,-0.475102788997,-100.0,0.296413262306,100.0,2913161.7709,0.0,0.0,0.0,0.0,0.0,0.0
1402598212682365247,0,15.9764420316,-0.114322152727,-25.5803500287,0.043815185726,0.202034515673,0.0,-0.0700621003736,0.0,-0.738184209595,0.0,0.0,0.0,0.0,6.71445877066,74.9521625997,1.99711486054,-0.447264583903,-100.0,0.289225904149,100.0,-0.475102788997,-100.0,0.296413262306,100.0,2913161.7709,0.0,0.0,0.0,0.0,0.0,0.0
1402598212702944277,0,15.9711801575,-0.114322152727,-25.5812777008,0.043815185726,0.1858912591,0.0,-0.0789417845227,0.0,-0.692118197966,0.0,0.0,0.0,0.0,6.71445877066,74.9521625997,1.99711486054,-0.44879880746,-100.0,0.290760366124,100.0,-0.475102788997,-100.0,0.296413262306,100.0,2913161.7709,0.0,0.0,0.0,0.0,0.0,0.0
1402598212722394603,0,15.9711801575,-0.114322152727,-25.5812777008,0.043815185726,0.1858912591,0.0,-0.0789417845227,0.0,-0.692118197966,0.0,0.0,0.0,0.0,6.71445877066,74.9521625997,1.99711486054,-0.447264583903,-100.0,0.290760366124,100.0,-0.475102788997,-100.0,0.296413262306,100.0,2913161.7709,0.0,0.0,0.0,0.0,0.0,0.0
1402598212742916164,0,15.9751958485,-0.114322152727,-25.5829428426,0.043815185726,0.184062386826,0.0,-0.0737453839295,0.0,-0.671351927239,0.0,0.0,0.0,0.0,6.71445877066,74.9521625997,1.99711486054,-0.447264583903,-100.0,0.289225904149,100.0,-0.475102788997,-100.0,0.296413262306,100.0,2913161.7709,0.0,0.0,0.0,0.0,0.0,0.0
1402598212762453476,0,15.9751958485,-0.114322152727,-25.5829428426,0.043815185726,0.184062386826,0.0,-0.0737453839295,0.0,-0.671351927239,0.0,0.0,0.0,0.0,6.71445877066,74.9521625997,1.99711486054,-0.447264583903,-100.0,0.290760366124,100.0,-0.475102788997,-100.0,0.296413262306,100.0,2913161.7709,0.0,0.0,0.0,0.0,0.0,0.0
1402598212782848283,0,15.9826095677,-0.114322152727,-25.5860222122,0.043815185726,0.173430340173,0.0,-0.0651180383734,0.0,-0.629600909236,0.0,0.0,0.0,0.0,6.71445877066,74.9521625997,1.99711486054,-0.447264583903,-100.0,0.290760366124,100.0,-0.475102788997,-100.0,0.296413262306,100.0,2913161.7709,0.0,0.0,0.0,0.0,0.0,0.0
1402598212802563674,0,15.9826095677,-0.114322152727,-25.5860222122,0.043815185726,0.173430340173,0.0,-0.0651180383734,0.0,-0.629600909236,0.0,0.0,0.0,0.0,6.71445877066,74.9521625997,1.99711486054,-0.447264583903,-100.0,0.290760366124,100.0,-0.475102788997,-100.0,0.296413262306,100.0,2913161.7709,0.0,0.0,0.0,0.0,0.0,0.0
1402598212822952247,0,16.0072642008,-0.114322152727,-25.5917209325,0.043815185726,0.184809700944,0.0,-0.0683648014007,0.0,-0.575257138367,0.0,0.0,0.0,0.0,6.71445877066,74.9521625997,1.99711486054,-0.447264583903,-100.0,0.290760366124,100.0,-0.475102788997,-100.0,0.296413262306,100.0,2913161.7709,0.0,0.0,0.0,0.0,0.0,0.0
1402598212842326749,0,16.0072642008,-0.114322152727,-25.5917209325,0.043815185726,0.184809700944,0.0,-0.0683648014007,0.0,-0.575257138367,0.0,0.0,0.0,0.0,6.71445877066,74.9521625997,1.99711486054,-0.447264583903,-100.0,0.290760366124,100.0,-0.475102788997,-100.0,0.296413262306,100.0,2913161.7709,0.0,0.0,0.0,0.0,0.0,0.0
1402598212863075960,0,16.0155903647,-0.114322152727,-25.5937862177,0.043815185726,0.176707208244,0.0,-0.0430993967263,0.0,-0.541239166881,0.0,0.0,0.0,0.0,6.71445877066,74.9521625997,1.99711486054,-0.447264583903,-100.0,0.290760366124,100.0,-0.475102788997,-100.0,0.296413262306,100.0,2913161.7709,0.0,0.0,0.0,0.0,0.0,0.0
1402598212882532287,0,16.0193133024,-0.114322152727,-25.5945860967,0.043815185726,0.17077886071,0.0,-0.0435684480552,0.0,-0.521728098366,0.0,0.0,0.0,0.0,6.71445877066,74.9521625997,1.99711486054,-0.447264583903,-100.0,0.290760366124,100.0,-0.475102788997,-100.0,0.296413262306,100.0,2913161.7709,0.0,0.0,0.0,0.0,0.0,0.0
1402598212902859070,0,16.0193133024,-0.114322152727,-25.5945860967,0.043815185726,0.17077886071,0.0,-0.0435684480552,0.0,-0.521728098366,0.0,0.0,0.0,0.0,6.71445877066,74.9521625997,1.99711486054,-0.447264583903,-100.0,0.290760366124,100.0,-0.475102788997,-100.0,0.296413262306,100.0,2913161.7709,0.0,0.0,0.0,0.0,0.0,0.0
1402598212922369340,0,16.0227443853,-0.114322152727,-25.5956463482,0.043815185726,0.166374425086,0.0,-0.0362934346229,0.0,-0.500812527413,0.0,0.0,0.0,0.0,6.71445877066,74.9521625997,1.99711486054,-0.447264583903,-100.0,0.290760366124,100.0,-0.475102788997,-100.0,0.296413262306,100.0,2913161.7709,0.0,0.0,0.0,0.0,0.0,0.0
1402598212942964269,0,16.0227443853,-0.114322152727,-25.5956463482,0.043815185726,0.166374425086,0.0,-0.0362934346229,0.0,-0.500812527413,0.0,0.0,0.0,0.0,6.71445877066,74.9521625997,1.99711486054,-0.447264583903,-100.0,0.292294589681,100.0,-0.475102788997,-100.0,0.296413262306,100.0,2913161.7709,0.0,0.0,0.0,0.0,0.0,0.0
1402598212962339470,0,16.0450654875,-0.114322152727,-25.6039112927,0.043815185726,0.193304323103,0.0,-0.0521356299917,0.0,-0.449525669039,0.0,0.0,0.0,0.0,6.71445877066,74.9521625997,1.99711486054,-0.44879880746,-100.0,0.290760366124,100.0,-0.475102788997,-100.0,0.296413262306,100.0,2913161.7709,0.0,0.0,0.0,0.0,0.0,0.0
1402598212982977108,0,16.0450654875,-0.114322152727,-25.6039112927,0.043815185726,0.193304323103,0.0,-0.0521356299917,0.0,-0.449525669039,0.0,0.0,0.0,0.0,6.71445877066,74.9521625997,1.99711486054,-0.44879880746,-100.0,0.290760366124,100.0,-0.475102788997,-100.0,0.296413262306,100.0,2913161.7709,0.0,0.0,0.0,0.0,0.0,0.0
1402598213002387188,0,16.055260929,-0.114322152727,-25.6060461605,0.043815185726,0.187895844944,0.0,-0.0350155312255,0.0,-0.397034038793,0.0,0.0,0.0,0.0,6.71445877066,74.9521625997,1.99711486054,-0.447264583903,-100.0,0.290760366124,100.0,-0.475102788997,-100.0,0.296413262306,100.0,2913161.7709,0.0,0.0,0.0,0.0,0.0,0.0
1402598213022970279,0,16.055260929,-0.114322152727,-25.6060461605,0.043815185726,0.187895844944,0.0,-0.0350155312255,0.0,-0.397034038793,0.0,0.0,0.0,0.0,6.71445877066,74.9521625997,1.99711486054,-0.44879880746,-100.0,0.290760366124,100.0,-0.475102788997,-100.0,0.296413262306,100.0,2913161.7709,0.0,0.0,0.0,0.0,0.0,0.0
1402598213042684462,0,16.0591055702,-0.114322152727,-25.6067188525,0.043815185726,0.184093631433,0.0,-0.021092717224,0.0,-0.376348200153,0.0,0.0,0.0,0.0,6.71445877066,74.9521625997,1.99711486054,-0.447264583903,-100.0,0.290760366124,100.0,-0.475102788997,-100.0,0.296413262306,100.0,2913161.7709,0.0,0.0,0.0,0.0,0.0,0.0
1402598213062883108,0,16.0591055702,-0.114322152727,-25.6067188525,0.043815185726,0.184093631433,0.0,-0.021092717224,0.0,-0.376348200153,0.0,0.0,0.0,0.0,6.71445877066,74.9521625997,1.99711486054,-0.447264583903,-100.0,0.290760366124,100.0,-0.475102788997,-100.0,0.296413262306,100.0,2913161.7709,0.0,0.0,0.0,0.0,0.0,0.0
1402598213082447350,0,16.0691911606,-0.114322152727,-25.6091051067,0.043815185726,0.218401153414,0.0,-0.0356855532894,0.0,-0.339974599295,0.0,0.0,0.0,0.0,6.71445877066,74.9521625997,1.99711486054,-0.44879880746,-100.0,0.290760366124,100.0,-0.475102788997,-100.0,0.296413262306,100.0,2913161.7709,0.0,0.0,0.0,0.0,0.0,0.0
1402598213102972818,0,16.0691911606,-0.114322152727,-25.6091051067,0.043815185726,0.218401153414,0.0,-0.0356855532894,0.0,-0.339974599295,0.0,0.0,0.0,0.0,6.71445877066,74.9521625997,1.99711486054,-0.447264583903,-100.0,0.290760366124,100.0,-0.475102788997,-100.0,0.296413262306,100.0,2913161.7709,0.0,0.0,0.0,0.0,0.0,0.0
1402598213122677176,0,16.0919896419,-0.114322152727,-25.6059776355,0.043815185726,0.260505381193,0.0,-0.0220092304673,0.0,-0.298200086629,0.0,0.0,0.0,0.0,6.71445877066,74.9521625997,1.99711486054,-0.447264583903,-100.0,0.290760366124,100.0,-0.475102788997,-100.0,0.296413262306,100.0,2913161.7709,0.0,0.0,0.0,0.0,0.0,0.0
1402598213142964014,0,16.0919896419,-0.114322152727,-25.6059776355,0.043815185726,0.260505381193,0.0,-0.0220092304673,0.0,-0.298200086629,0.0,0.0,0.0,0.0,6.71445877066,74.9521625997,1.99711486054,-0.447264583903,-100.0,0.290760366124,100.0,-0.475102788997,-100.0,0.296413262306,100.0,2913161.7709,0.0,0.0,0.0,0.0,0.0,0.0
1402598213162448832,0,16.1097678938,-0.114322152727,-25.6102624329,0.043815185726,0.252193520164,0.0,-0.0134542860785,0.0,-0.246943072452,0.0,0.0,0.0,0.0,6.71445877066,74.9521625997,1.99711486054,-0.447264583903,-100.0,0.290760366124,100.0,-0.475102788997,-100.0,0.296413262306,100.0,2913161.7709,0.0,0.0,0.0,0.0,0.0,0.0
1402598213183103266,0,16.1097678938,-0.114322152727,-25.6102624329,0.043815185726,0.252193520164,0.0,-0.0134542860785,0.0,-0.246943072452,0.0,0.0,0.0,0.0,6.71445877066,74.9521625997,1.99711486054,-0.447264583903,-100.0,0.290760366124,100.0,-0.475102788997,-100.0,0.296413262306,100.0,2913161.7709,0.0,0.0,0.0,0.0,0.0,0.0
1402598213202422729,0,16.1175448504,-0.114322152727,-25.6105056965,0.043815185726,0.25372673489,0.0,0.00197848886853,0.0,-0.216810652177,0.0,0.0,0.0,0.0,6.71445877066,74.9521625997,1.99711486054,-0.447264583903,-100.0,0.290760366124,100.0,-0.475102788997,-100.0,0.296413262306,100.0,2913161.7709,0.0,0.0,0.0,0.0,0.0,0.0
1402598213223181286,0,16.1328692055,-0.114322152727,-25.6084146255,0.043815185726,0.262496326537,0.0,0.0172262808697,0.0,-0.194593430021,0.0,0.0,0.0,0.0,6.71445877066,74.9521625997,1.99711486054,-0.447264583903,-100.0,0.290760366124,100.0,-0.475102788997,-100.0,0.296413262306,100.0,2913161.7709,0.0,0.0,0.0,0.0,0.0,0.0
1402598213242349832,0,16.1328692055,-0.114322152727,-25.6084146255,0.043815185726,0.262496326537,0.0,0.0172262808697,0.0,-0.194593430021,0.0,0.0,0.0,0.0,6.71445877066,74.9521625997,1.99711486054,-0.447264583903,-100.0,0.290760366124,100.0,-0.475102788997,-100.0,0.296413262306,100.0,2913161.7709,0.0,0.0,0.0,0.0,0.0,0.0
1402598213262980894,0,16.138086533,-0.114322152727,-25.6081632224,0.043815185726,0.259629980195,0.0,0.0115770846914,0.0,-0.174204817305,0.0,0.0,0.0,0.0,6.71445877066,74.9521625997,1.99711486054,-0.447264583903,-100.0,0.292294589681,100.0,-0.475102788997,-100.0,0.296413262306,100.0,2913161.7709,0.0,0.0,0.0,0.0,0.0,0.0
1402598213282633799,0,16.138086533,-0.114322152727,-25.6081632224,0.043815185726,0.259629980195,0.0,0.0115770846914,0.0,-0.174204817305,0.0,0.0,0.0,0.0,6.71445877066,74.9521625997,1.99711486054,-0.447264583903,-100.0,0.292294589681,100.0,-0.475102788997,-100.0,0.296413262306,100.0,2913161.7709,0.0,0.0,0.0,0.0,0.0,0.0
1402598213303010601,0,16.1636977778,-0.114322152727,-25.6195968084,0.043815185726,0.297763935131,0.0,-0.00149587550006,0.0,-0.138970292323,0.0,0.0,0.0,0.0,6.71445877066,74.9521625997,1.99711486054,-0.447264583903,-100.0,0.290760366124,100.0,-0.475102788997,-100.0,0.296413262306,100.0,2913161.7709,0.0,0.0,0.0,0.0,0.0,0.0
1402598213322407542,0,16.1636977778,-0.114322152727,-25.6195968084,0.043815185726,0.297763935131,0.0,-0.00149587550006,0.0,-0.138970292323,0.0,0.0,0.0,0.0,6.71445877066,74.9521625997,1.99711486054,-0.447264583903,-100.0,0.290760366124,100.0,-0.475102788997,-100.0,0.296413262306,100.0,2913161.7709,0.0,0.0,0.0,0.0,0.0,0.0
1402598213342953469,0,16.2106015936,-0.114322152727,-25.6446044401,0.043815185726,0.365864384462,0.0,-0.0333576734256,0.0,-0.104486684586,0.0,0.0,0.0,0.0,6.71445877066,74.9521625997,1.99711486054,-0.44879880746,-100.0,0.292294589681,100.0,-0.475102788997,-100.0,0.296413262306,100.0,2913161.7709,0.0,0.0,0.0,0.0,0.0,0.0
1402598213362502090,0,16.2106015936,-0.114322152727,-25.6446044401,0.043815185726,0.365864384462,0.0,-0.0333576734256,0.0,-0.104486684586,0.0,0.0,0.0,0.0,6.71445877066,74.9521625997,1.99711486054,-0.447264583903,-100.0,0.292294589681,100.0,-0.475102788997,-100.0,0.296413262306,100.0,2913161.7709,0.0,0.0,0.0,0.0,0.0,0.0
1402598213383276364,0,16.2017548448,-0.114322152727,-25.6035554025,0.043815185726,0.232753069508,0.0,0.0715446755879,0.0,-0.0404152217228,0.0,0.0,0.0,0.0,6.71445877066,74.9521625997,1.99711486054,-0.447264583903,-100.0,0.292294589681,100.0,-0.475102788997,-100.0,0.296413262306,100.0,2913161.7709,0.0,0.0,0.0,0.0,0.0,0.0
1402598213402545867,0,16.2017548448,-0.114322152727,-25.6035554025,0.043815185726,0.232753069508,0.0,0.0715446755879,0.0,-0.0404152217228,0.0,0.0,0.0,0.0,6.71445877066,74.9521625997,1.99711486054,-0.445730360347,-100.0,0.292294589681,100.0,-0.475102788997,-100.0,0.296413262306,100.0,2913161.7709,0.0,0.0,0.0,0.0,0.0,0.0
1402598213422905591,0,16.1831361372,-0.114322152727,-25.5980808049,0.043815185726,0.119805174273,0.0,0.0608522220528,0.0,0.00809323106085,0.0,0.0,0.0,0.0,6.71445877066,74.9521625997,1.99711486054,-0.447264583903,-100.0,0.290760366124,100.0,-0.475102788997,-100.0,0.296413262306,100.0,2913161.7709,0.0,0.0,0.0,0.0,0.0,0.0
1402598213442646303,0,16.1831361372,-0.114322152727,-25.5980808049,0.043815185726,0.119805174273,0.0,0.0608522220528,0.0,0.00809323106085,0.0,0.0,0.0,0.0,6.71445877066,74.9521625997,1.99711486054,-0.447264583903,-100.0,0.290760366124,100.0,-0.475102788997,-100.0,0.296413262306,100.0,2913161.7709,0.0,0.0,0.0,0.0,0.0,0.0
1402598213463011304,0,16.1985514026,-0.114322152727,-25.5973564503,0.043815185726,0.130367614123,0.0,0.0490137780477,0.0,0.0546404677266,0.0,0.0,0.0,0.0,6.71445877066,74.9521625997,1.99711486054,-0.447264583903,-100.0,0.290760366124,100.0,-0.475102788997,-100.0,0.296413262306,100.0,2913161.7709,0.0,0.0,0.0,0.0,0.0,0.0
1402598213482578265,0,16.1985514026,-0.114322152727,-25.5973564503,0.043815185726,0.130367614123,0.0,0.0490137780477,0.0,0.0546404677266,0.0,0.0,0.0,0.0,6.71445877066,74.9521625997,1.99711486054,-0.447264583903,-100.0,0.290760366124,100.0,-0.475102788997,-100.0,0.296413262306,100.0,2913161.7709,0.0,0.0,0.0,0.0,0.0,0.0
1402598213502772423,0,16.2010500535,-0.114322152727,-25.5961650866,0.043815185726,0.122800407283,0.0,0.0497408747453,0.0,0.0748398966389,0.0,0.0,0.0,0.0,6.71445877066,74.9521625997,1.99711486054,-0.447264583903,-100.0,0.290760366124,100.0,-0.475102788997,-100.0,0.296413262306,100.0,2913161.7709,0.0,0.0,0.0,0.0,0.0,0.0
1402598213522431170,0,16.2010500535,-0.114322152727,-25.5961650866,0.043815185726,0.122800407283,0.0,0.0497408747453,0.0,0.0748398966389,0.0,0.0,0.0,0.0,6.71445877066,74.9521625997,1.99711486054,-0.447264583903,-100.0,0.292294589681,100.0,-0.475102788997,-100.0,0.296413262306,100.0,2913161.7709,0.0,0.0,0.0,0.0,0.0,0.0
1402598213542838610,0,16.2059347947,-0.114322152727,-25.5939859123,0.043815185726,0.112381401679,0.0,0.054552465693,0.0,0.114340058673,0.0,0.0,0.0,0.0,6.71445877066,74.9521625997,1.99711486054,-0.447264583903,-100.0,0.292294589681,100.0,-0.475102788997,-100.0,0.296413262306,100.0,2913161.7709,0.0,0.0,0.0,0.0,0.0,0.0
1402598213562111909,0,16.2059347947,-0.114322152727,-25.5939859123,0.043815185726,0.112381401679,0.0,0.054552465693,0.0,0.114340058673,0.0,0.0,0.0,0.0,6.71445877066,74.9521625997,1.99711486054,-0.44879880746,-100.0,0.292294589681,100.0,-0.475102788997,-100.0,0.296413262306,100.0,2913161.7709,0.0,0.0,0.0,0.0,0.0,0.0
1402598213582928721,0,16.2234806317,-0.114322152727,-25.5875306568,0.043815185726,0.12999214429,0.0,0.0667713943347,0.0,0.154635775322,0.0,0.0,0.0,0.0,6.71445877066,74.9521625997,1.99711486054,-0.447264583903,-100.0,0.290760366124,100.0,-0.475102788997,-100.0,0.296413262306,100.0,2913161.7709,0.0,0.0,0.0,0.0,0.0,0.0
1402598213603052867,0,16.2234806317,-0.114322152727,-25.5875306568,0.043815185726,0.12999214429,0.0,0.0667713943347,0.0,0.154635775322,0.0,0.0,0.0,0.0,6.71445877066,74.9521625997,1.99711486054,-0.44879880746,-100.0,0.292294589681,100.0,-0.475102788997,-100.0,0.296413262306,100.0,2913161.7709,0.0,0.0,0.0,0.0,0.0,0.0
1402598213623209933,0,16.236648573,-0.114322152727,-25.578346358,0.043815185726,0.128204182369,0.0,0.0829223328982,0.0,0.195799697492,0.0,0.0,0.0,0.0,6.71445877066,74.9521625997,1.99711486054,-0.447264583903,-100.0,0.292294589681,100.0,-0.475102788997,-100.0,0.296413262306,100.0,2913161.7709,0.0,0.0,0.0,0.0,0.0,0.0
1402598213642615163,0,16.236648573,-0.114322152727,-25.578346358,0.043815185726,0.128204182369,0.0,0.0829223328982,0.0,0.195799697492,0.0,0.0,0.0,0.0,6.71445877066,74.9521625997,1.99711486054,-0.447264583903,-100.0,0.290760366124,100.0,-0.475102788997,-100.0,0.296413262306,100.0,2913161.7709,0.0,0.0,0.0,0.0,0.0,0.0
1402598213663049376,0,16.2513163521,-0.114322152727,-25.5719914911,0.043815185726,0.129040101345,0.0,0.0804081963778,0.0,0.244456500084,0.0,0.0,0.0,0.0,6.71445877066,74.9521625997,1.99711486054,-0.447264583903,-100.0,0.292294589681,100.0,-0.475102788997,-100.0,0.296413262306,100.0,2913161.7709,0.0,0.0,0.0,0.0,0.0,0.0
1402598213682516447,0,16.2513163521,-0.114322152727,-25.5719914911,0.043815185726,0.129040101345,0.0,0.0804081963778,0.0,0.244456500084,0.0,0.0,0.0,0.0,6.71445877066,74.9521625997,1.99711486054,-0.447264583903,-100.0,0.292294589681,100.0,-0.475102788997,-100.0,0.296413262306,100.0,2913161.7709,0.0,0.0,0.0,0.0,0.0,0.0
1402598213703164567,0,16.2552572954,-0.114322152727,-25.5692543738,0.043815185726,0.12486356897,0.0,0.0836261791979,0.0,0.275748672782,0.0,0.0,0.0,0.0,6.71445877066,74.9521625997,1.99711486054,-0.447264583903,-100.0,0.290760366124,100.0,-0.475102788997,-100.0,0.296413262306,100.0,2913161.7709,0.0,0.0,0.0,0.0,0.0,0.0
1402598213722525060,0,16.2576903729,-0.114322152727,-25.5676639235,0.043815185726,0.117943550372,0.0,0.084456468549,0.0,0.2953077254,0.0,0.0,0.0,0.0,6.71445877066,74.9521625997,1.99711486054,-0.447264583903,-100.0,0.292294589681,100.0,-0.475102788997,-100.0,0.296413262306,100.0,2913161.7709,0.0,0.0,0.0,0.0,0.0,0.0
1402598213744046553,0,16.2576903729,-0.114322152727,-25.5676639235,0.043815185726,0.117943550372,0.0,0.084456468549,0.0,0.2953077254,0.0,0.0,0.0,0.0,6.71445877066,74.9521625997,1.99711486054,-0.447264583903,-100.0,0.292294589681,100.0,-0.475102788997,-100.0,0.296413262306,100.0,2913161.7709,0.0,0.0,0.0,0.0,0.0,0.0
1402598213762320536,0,16.2710421714,-0.114322152727,-25.55965847,0.043815185726,0.141674852113,0.0,0.107404858064,0.0,0.315830068943,0.0,0.0,0.0,0.0,6.71445877066,74.9521625997,1.99711486054,-0.447264583903,-100.0,0.292294589681,100.0,-0.475102788997,-100.0,0.296413262306,100.0,2913161.7709,0.0,0.0,0.0,0.0,0.0,0.0
1402598213782547677,0,16.2710421714,-0.114322152727,-25.55965847,0.043815185726,0.141674852113,0.0,0.107404858064,0.0,0.315830068943,0.0,0.0,0.0,0.0,6.71445877066,74.9521625997,1.99711486054,-0.447264583903,-100.0,0.292294589681,100.0,-0.475102788997,-100.0,0.296413262306,100.0,2913161.7709,0.0,0.0,0.0,0.0,0.0,0.0
1402598213802243704,0,16.2768215187,-0.114322152727,-25.5555714734,0.043815185726,0.134209806649,0.0,0.103994035342,0.0,0.355574234531,0.0,0.0,0.0,0.0,6.71445877066,74.9521625997,1.99711486054,-0.447264583903,-100.0,0.290760366124,100.0,-0.475102788997,-100.0,0.296413262306,100.0,2913161.7709,0.0,0.0,0.0,0.0,0.0,0.0
1402598213822743052,0,16.2768215187,-0.114322152727,-25.5555714734,0.043815185726,0.134209806649,0.0,0.103994035342,0.0,0.355574234531,0.0,0.0,0.0,0.0,6.71445877066,74.9521625997,1.99711486054,-0.447264583903,-100.0,0.292294589681,100.0,-0.475102788997,-100.0,0.296413262306,100.0,2913161.7709,0.0,0.0,0.0,0.0,0.0,0.0
1402598213842375247,0,16.2826139062,-0.114322152727,-25.5513300086,0.043815185726,0.133981513002,0.0,0.0940066480568,0.0,0.396220301082,0.0,0.0,0.0,0.0,6.71445877066,74.9521625997,1.99711486054,-0.447264583903,-100.0,0.292294589681,100.0,-0.475102788997,-100.0,0.296413262306,100.0,2913161.7709,0.0,0.0,0.0,0.0,0.0,0.0
1402598213862964868,0,16.2826139062,-0.114322152727,-25.5513300086,0.043815185726,0.133981513002,0.0,0.0940066480568,0.0,0.396220301082,0.0,0.0,0.0,0.0,6.71445877066,74.9521625997,1.99711486054,-0.447264583903,-100.0,0.292294589681,100.0,-0.475102788997,-100.0,0.296413262306,100.0,2913161.7709,0.0,0.0,0.0,0.0,0.0,0.0
1402598213882477693,0,16.2889554297,-0.114322152727,-25.5460838395,0.043815185726,0.111819375725,0.0,0.111357928588,0.0,0.445945086547,0.0,0.0,0.0,0.0,6.71445877066,74.9521625997,1.99711486054,-0.447264583903,-100.0,0.292294589681,100.0,-0.475102788997,-100.0,0.296413262306,100.0,2913161.7709,0.0,0.0,0.0,0.0,0.0,0.0
1402598213902825963,0,16.2889554297,-0.114322152727,-25.5460838395,0.043815185726,0.111819375725,0.0,0.111357928588,0.0,0.445945086547,0.0,0.0,0.0,0.0,6.71445877066,74.9521625997,1.99711486054,-0.447264583903,-100.0,0.290760366124,100.0,-0.475102788997,-100.0,0.296413262306,100.0,2913161.7709,0.0,0.0,0.0,0.0,0.0,0.0
1402598213922453955,0,16.2638532422,-0.114322152727,-25.5082668948,0.043815185726,0.00529196961528,0.0,0.182379386318,0.0,0.509662573817,0.0,0.0,0.0,0.0,6.71445877066,74.9521625997,1.99711486054,-0.447264583903,-100.0,0.290760366124,100.0,-0.475102788997,-100.0,0.296413262306,100.0,2913161.7709,0.0,0.0,0.0,0.0,0.0,0.0
1402598213942906041,0,16.2638532422,-0.114322152727,-25.5082668948,0.043815185726,0.00529196961528,0.0,0.182379386318,0.0,0.509662573817,0.0,0.0,0.0,0.0,6.71445877066,74.9521625997,1.99711486054,-0.447264583903,-100.0,0.292294589681,100.0,-0.475102788997,-100.0,0.296413262306,100.0,2913161.7709,0.0,0.0,0.0,0.0,0.0,0.0
1402598213962382737,0,16.2639932266,-0.114322152727,-25.5042755112,0.043815185726,0.00104979070043,0.0,0.181702563521,0.0,0.529468634426,0.0,0.0,0.0,0.0,6.71445877066,74.9521625997,1.99711486054,-0.447264583903,-100.0,0.292294589681,100.0,-0.475102788997,-100.0,0.296413262306,100.0,2913161.7709,0.0,0.0,0.0,0.0,0.0,0.0
1402598213983283293,0,16.2639932266,-0.114322152727,-25.5042755112,0.043815185726,0.00104979070043,0.0,0.181702563521,0.0,0.529468634426,0.0,0.0,0.0,0.0,6.71445877066,74.9521625997,1.99711486054,-0.447264583903,-100.0,0.292294589681,100.0,-0.475102788997,-100.0,0.296413262306,100.0,2913161.7709,0.0,0.0,0.0,0.0,0.0,0.0
1402598214002236742,0,16.2793434589,-0.114322152727,-25.5119738957,0.043815185726,0.0293168958132,0.0,0.145157540795,0.0,0.561087431453,0.0,0.0,0.0,0.0,6.71445877066,74.9521625997,1.99711486054,-0.447264583903,-100.0,0.292294589681,100.0,-0.475102788997,-100.0,0.296413262306,100.0,2913161.7709,0.0,0.0,0.0,0.0,0.0,0.0
1402598214022861534,0,16.2793434589,-0.114322152727,-25.5119738957,0.043815185726,0.0293168958132,0.0,0.145157540795,0.0,0.561087431453,0.0,0.0,0.0,0.0,6.71445877066,74.9521625997,1.99711486054,-0.447264583903,-100.0,0.290760366124,100.0,-0.475102788997,-100.0,0.296413262306,100.0,2913161.7709,0.0,0.0,0.0,0.0,0.0,0.0
1402598214042447249,0,16.280299661,-0.114322152727,-25.5056719148,0.043815185726,0.0169038398403,0.0,0.157901004133,0.0,0.600720265208,0.0,0.0,0.0,0.0,6.71445877066,74.9521625997,1.99711486054,-0.447264583903,-100.0,0.292294589681,100.0,-0.475102788997,-100.0,0.296413262306,100.0,2913161.7709,0.0,0.0,0.0,0.0,0.0,0.0
1402598214062905055,0,16.280299661,-0.114322152727,-25.5056719148,0.043815185726,0.0169038398403,0.0,0.157901004133,0.0,0.600720265208,0.0,0.0,0.0,0.0,6.71445877066,74.9521625997,1.99711486054,-0.447264583903,-100.0,0.292294589681,100.0,-0.475102788997,-100.0,0.296413262306,100.0,2913161.7709,0.0,0.0,0.0,0.0,0.0,0.0
1402598214082368393,0,16.278738773,-0.114322152727,-25.4843074901,0.043815185726,-0.0103943427775,0.0,0.201505336534,0.0,0.653823872816,0.0,0.0,0.0,0.0,6.71445877066,74.9521625997,1.99711486054,-0.447264583903,-100.0,0.292294589681,100.0,-0.475102788997,-100.0,0.296413262306,100.0,2913161.7709,0.0,0.0,0.0,0.0,0.0,0.0
1402598214102904295,0,16.278738773,-0.114322152727,-25.4843074901,0.043815185726,-0.0103943427775,0.0,0.201505336534,0.0,0.653823872816,0.0,0.0,0.0,0.0,6.71445877066,74.9521625997,1.99711486054,-0.44879880746,-100.0,0.292294589681,100.0,-0.475102788997,-100.0,0.296413262306,100.0,2913161.7709,0.0,0.0,0.0,0.0,0.0,0.0
1402598214122455295,0,16.2775243441,-0.114322152727,-25.4695932456,0.043815185726,-0.0334494417514,0.0,0.206651574874,0.0,0.723699236799,0.0,0.0,0.0,0.0,6.71445877066,74.9521625997,1.99711486054,-0.447264583903,-100.0,0.292294589681,100.0,-0.475102788997,-100.0,0.296413262306,100.0,2913161.7709,0.0,0.0,0.0,0.0,0.0,0.0
1402598214142892964,0,16.2775243441,-0.114322152727,-25.4695932456,0.043815185726,-0.0334494417514,0.0,0.206651574874,0.0,0.723699236799,0.0,0.0,0.0,0.0,6.71445877066,74.9521625997,1.99711486054,-0.447264583903,-100.0,0.292294589681,100.0,-0.475102788997,-100.0,0.296413262306,100.0,2913161.7709,0.0,0.0,0.0,0.0,0.0,0.0
1402598214162484545,0,16.3215728334,-0.114322152727,-25.485345369,0.043815185726,0.0525509730619,0.0,0.197143141254,0.0,0.732559170127,0.0,0.0,0.0,0.0,6.71445877066,74.9521625997,1.99711486054,-0.447264583903,-100.0,0.290760366124,100.0,-0.475102788997,-100.0,0.296413262306,100.0,2913161.7709,0.0,0.0,0.0,0.0,0.0,0.0
1402598214183048821,0,16.3215728334,-0.114322152727,-25.485345369,0.043815185726,0.0525509730619,0.0,0.197143141254,0.0,0.732559170127,0.0,0.0,0.0,0.0,6.71445877066,74.9521625997,1.99711486054,-0.447264583903,-100.0,0.292294589681,100.0,-0.475102788997,-100.0,0.296413262306,100.0,2913161.7709,0.0,0.0,0.0,0.0,0.0,0.0
1402598214202390819,0,16.3227227558,-0.114322152727,-25.4811925325,0.043815185726,0.0476682970334,0.0,0.193769198454,0.0,0.752626000134,0.0,0.0,0.0,0.0,6.71445877066,74.9521625997,1.99711486054,-0.447264583903,-100.0,0.292294589681,100.0,-0.475102788997,-100.0,0.296413262306,100.0,2913161.7709,0.0,0.0,0.0,0.0,0.0,0.0
1402598214222751730,0,16.3227227558,-0.114322152727,-25.4811925325,0.043815185726,0.0476682970334,0.0,0.193769198454,0.0,0.752626000134,0.0,0.0,0.0,0.0,6.71445877066,74.9521625997,1.99711486054,-0.447264583903,-100.0,0.292294589681,100.0,-0.475102788997,-100.0,0.296413262306,100.0,2913161.7709,0.0,0.0,0.0,0.0,0.0,0.0
1402598214242372549,0,16.3464191635,-0.114322152727,-25.4750310522,0.043815185726,0.0627483376533,0.0,0.219933531072,0.0,0.79974019881,0.0,0.0,0.0,0.0,6.71445877066,74.9521625997,1.99711486054,-0.447264583903,-100.0,0.290760366124,100.0,-0.475102788997,-100.0,0.296413262306,100.0,2913161.7709,0.0,0.0,0.0,0.0,0.0,0.0
1402598214262943804,0,16.3464191635,-0.114322152727,-25.4750310522,0.043815185726,0.0627483376533,0.0,0.219933531072,0.0,0.79974019881,0.0,0.0,0.0,0.0,6.71445877066,74.9521625997,1.99711486054,-0.445730360347,-100.0,0.292294589681,100.0,-0.475102788997,-100.0,0.296413262306,100.0,2913161.7709,0.0,0.0,0.0,0.0,0.0,0.0
1402598214282357773,0,16.3431262702,-0.114322152727,-25.4580207964,0.043815185726,0.0257412929523,0.0,0.251021787316,0.0,0.832497414677,0.0,0.0,0.0,0.0,6.71445877066,74.9521625997,1.99711486054,-0.447264583903,-100.0,0.290760366124,100.0,-0.475102788997,-100.0,0.296413262306,100.0,2913161.7709,0.0,0.0,0.0,0.0,0.0,0.0
1402598214302706287,0,16.3435861254,-0.114322152727,-25.4527795785,0.043815185726,0.0160179412392,0.0,0.258086106754,0.0,0.852738985364,0.0,0.0,0.0,0.0,6.71445877066,74.9521625997,1.99711486054,-0.445730360347,-100.0,0.290760366124,100.0,-0.475102788997,-100.0,0.296413262306,100.0,2913161.7709,0.0,0.0,0.0,0.0,0.0,0.0
1402598214322563337,0,16.3435861254,-0.114322152727,-25.4527795785,0.043815185726,0.0160179412392,0.0,0.258086106754,0.0,0.852738985364,0.0,0.0,0.0,0.0,6.71445877066,74.9521625997,1.99711486054,-0.447264583903,-100.0,0.290760366124,100.0,-0.475102788997,-100.0,0.296413262306,100.0,2913161.7709,0.0,0.0,0.0,0.0,0.0,0.0
1402598214342948294,0,16.3516569679,-0.114322152727,-25.4478398308,0.043815185726,0.0248287753356,0.0,0.262831153616,0.0,0.870047456318,0.0,0.0,0.0,0.0,6.71445877066,74.9521625997,1.99711486054,-0.447264583903,-100.0,0.290760366124,100.0,-0.475102788997,-100.0,0.296413262306,100.0,2913161.7709,0.0,0.0,0.0,0.0,0.0,0.0
1402598214362364970,0,16.3516569679,-0.114322152727,-25.4478398308,0.043815185726,0.0248287753356,0.0,0.262831153616,0.0,0.870047456318,0.0,0.0,0.0,0.0,6.71445877066,74.9521625997,1.99711486054,-0.447264583903,-100.0,0.290760366124,100.0,-0.475102788997,-100.0,0.296413262306,100.0,2913161.7709,0.0,0.0,0.0,0.0,0.0,0.0
1402598214382984417,0,16.3895980402,-0.114322152727,-25.4476365765,0.043815185726,0.0818943454483,0.0,0.266371737388,0.0,0.901040525175,0.0,0.0,0.0,0.0,6.71445877066,74.9521625997,1.99711486054,-0.44879880746,-100.0,0.290760366124,100.0,-0.475102788997,-100.0,0.296413262306,100.0,2913161.7709,0.0,0.0,0.0,0.0,0.0,0.0
1402598214402370493,0,16.3895980402,-0.114322152727,-25.4476365765,0.043815185726,0.0818943454483,0.0,0.266371737388,0.0,0.901040525175,0.0,0.0,0.0,0.0,6.71445877066,74.9521625997,1.99711486054,-0.447264583903,-100.0,0.290760366124,100.0,-0.475102788997,-100.0,0.296413262306,100.0,2913161.7709,0.0,0.0,0.0,0.0,0.0,0.0
1402598214423034251,0,16.393221802,-0.114322152727,-25.4364519802,0.043815185726,0.0740184282259,0.0,0.270528963229,0.0,0.940908174569,0.0,0.0,0.0,0.0,6.71445877066,74.9521625997,1.99711486054,-0.44879880746,-100.0,0.290760366124,100.0,-0.475102788997,-100.0,0.296413262306,100.0,2913161.7709,0.0,0.0,0.0,0.0,0.0,0.0
1402598214442433020,0,16.393221802,-0.114322152727,-25.4364519802,0.043815185726,0.0740184282259,0.0,0.270528963229,0.0,0.940908174569,0.0,0.0,0.0,0.0,6.71445877066,74.9521625997,1.99711486054,-0.447264583903,-100.0,0.292294589681,100.0,-0.475102788997,-100.0,0.296413262306,100.0,2913161.7709,0.0,0.0,0.0,0.0,0.0,0.0
1402598214462993089,0,16.4164074271,-0.114322152727,-25.4258833612,0.043815185726,0.0909537805647,0.0,0.283181119354,0.0,0.987734978446,0.0,0.0,0.0,0.0,6.71445877066,74.9521625997,1.99711486054,-0.44879880746,-100.0,0.290760366124,100.0,-0.475102788997,-100.0,0.296413262306,100.0,2913161.7709,0.0,0.0,0.0,0.0,0.0,0.0
1402598214482425387,0,16.4164074271,-0.114322152727,-25.4258833612,0.043815185726,0.0909537805647,0.0,0.283181119354,0.0,0.987734978446,0.0,0.0,0.0,0.0,6.71445877066,74.9521625997,1.99711486054,-0.447264583903,-100.0,0.290760366124,100.0,-0.475102788997,-100.0,0.296413262306,100.0,2913161.7709,0.0,0.0,0.0,0.0,0.0,0.0
1402598214502908393,0,16.4172992119,-0.114322152727,-25.4186375449,0.043815185726,0.0631254623494,0.0,0.273896227706,0.0,1.04012201325,0.0,0.0,0.0,0.0,6.71445877066,74.9521625997,1.99711486054,-0.447264583903,-100.0,0.290760366124,100.0,-0.475102788997,-100.0,0.296413262306,100.0,2913161.7709,0.0,0.0,0.0,0.0,0.0,0.0
1402598214522507408,0,16.4172992119,-0.114322152727,-25.4186375449,0.043815185726,0.0631254623494,0.0,0.273896227706,0.0,1.04012201325,0.0,0.0,0.0,0.0,6.71445877066,74.9521625997,1.99711486054,-0.447264583903,-100.0,0.292294589681,100.0,-0.475102788997,-100.0,0.296413262306,100.0,2913161.7709,0.0,0.0,0.0,0.0,0.0,0.0
1402598214542987227,0,16.4187111588,-0.114322152727,-25.4127825358,0.043815185726,0.0577557035135,0.0,0.279542819806,0.0,1.05992413435,0.0,0.0,0.0,0.0,6.71445877066,74.9521625997,1.99711486054,-0.447264583903,-100.0,0.292294589681,100.0,-0.475102788997,-100.0,0.296413262306,100.0,2913161.7709,0.0,0.0,0.0,0.0,0.0,0.0
1402598214562340031,0,16.4187111588,-0.114322152727,-25.4127825358,0.043815185726,0.0577557035135,0.0,0.279542819806,0.0,1.05992413435,0.0,0.0,0.0,0.0,6.71445877066,74.9521625997,1.99711486054,-0.447264583903,-100.0,0.290760366124,100.0,-0.475102788997,-100.0,0.296413262306,100.0,2913161.7709,0.0,0.0,0.0,0.0,0.0,0.0
1402598214582862853,0,16.4213268125,-0.114322152727,-25.4012742089,0.043815185726,0.0596966551277,0.0,0.274402852887,0.0,1.09974048534,0.0,0.0,0.0,0.0,6.71445877066,74.9521625997,1.99711486054,-0.447264583903,-100.0,0.292294589681,100.0,-0.475102788997,-100.0,0.296413262306,100.0,2913161.7709,0.0,0.0,0.0,0.0,0.0,0.0
1402598214602286052,0,16.4213268125,-0.114322152727,-25.4012742089,0.043815185726,0.0596966551277,0.0,0.274402852887,0.0,1.09974048534,0.0,0.0,0.0,0.0,6.71445877066,74.9521625997,1.99711486054,-0.447264583903,-100.0,0.290760366124,100.0,-0.475102788997,-100.0,0.296413262306,100.0,2913161.7709,0.0,0.0,0.0,0.0,0.0,0.0
1402598214622986020,0,16.4235431552,-0.114322152727,-25.3898517597,0.043815185726,0.0587734803742,0.0,0.278707711937,0.0,1.13862825855,0.0,0.0,0.0,0.0,6.71445877066,74.9521625997,1.99711486054,-0.447264583903,-100.0,0.292294589681,100.0,-0.475102788997,-100.0,0.296413262306,100.0,2913161.7709,0.0,0.0,0.0,0.0,0.0,0.0
