rosbagTimestamp,control_method,x_current,x_desired,y_current,y_desired,z_current,z_desired,x_velocity_current,x_velocity_desired,y_velocity_current,y_velocity_desired,z_velocity_current,z_velocity_desired,yaw_current,yaw_desired,yaw_velocity_current,yaw_velocity_desired,roll_current,roll_desired,roll_velocity_current,roll_velocity_desired,pitch_current,pitch_desired,pitch_velocity_current,pitch_velocity_desired,required_force_x,required_force_y,required_moment_z,resultant_force_x,resultant_force_y,resultant_moment_z,current_port_servo_angle,current_port_thruster_force,current_starboard_servo_angle,current_starboard_thruster_force,estimated_port_servo_angle,estimated_port_thruster_force,estimated_starboard_servo_angle,estimated_starboard_thruster_force,cost_value,step,user_defined_1,user_defined_2,user_defined_3,user_defined_4,user_defined_5
1402754016291047226,3,-13.6897520511,-0.00591572024346,-8.64279266728,-0.122189614607,40.8133000507,0.10862951003,0.0361121503409,0.0,-0.0700171517442,0.0,0.181435805878,0.0,1.98329940294,0.0,0.0135985904189,0.0,-0.00233734084347,0.0,0.010904417258,0.0,0.0720257882141,0.0,0.00115984715113,0.0,0.0,0.0,0.0,-75.0,0.0,-22.86,0.00230154196664,0.0,-0.00383606751517,0.0,-0.0,0.0,-0.0,-75.0,570664.8,0.0,0.0,0.0,0.0,0.0,0.0
1402754016311449042,3,-13.6890207954,-0.00591572024346,-8.64411568252,-0.122189614607,40.8168519395,0.10862951003,0.035646943203,0.0,-0.0701465843043,0.0,0.183438890869,0.0,1.98348535971,0.0,0.0141082689268,0.0,-0.00237888309365,0.0,0.00706845750329,0.0,0.0719067593166,0.0,4.33504564008e-06,0.0,0.0,0.0,0.0,-75.0,0.0,-22.86,0.00230154196664,0.0,-0.00383606751517,0.0,-0.0,0.0,-0.0,-75.0,570664.8,0.0,0.0,0.0,0.0,0.0,0.0
1402754016331187750,3,-13.6890207954,-0.00591572024346,-8.64411568252,-0.122189614607,40.8168519395,0.10862951003,0.035646943203,0.0,-0.0701465843043,0.0,0.183438890869,0.0,1.98348535971,0.0,0.0141082689268,0.0,-0.00237888309365,0.0,0.00706845750329,0.0,0.0719067593166,0.0,4.33504564008e-06,0.0,0.0,0.0,0.0,-75.0,0.0,-22.86,0.00230154196664,0.0,-0.00383606751517,0.0,-0.0,0.0,-0.0,-75.0,570664.8,0.0,0.0,0.0,0.0,0.0,0.0
1402754016350619772,3,-13.6873939484,-0.00591572024346,-8.66439848307,-0.122189614607,40.8772654108,0.10862951003,0.027376920268,0.0,-0.0681669841423,0.0,0.190022352212,0.0,1.98378262589,0.0,0.00740505964658,0.0,-0.00312332751658,0.0,0.00985414288564,0.0,0.0723533770773,0.0,0.00578102087137,0.0,0.0,0.0,0.0,-75.0,0.0,-22.86,0.00230154196664,0.0,-0.00383606751517,0.0,-0.0,0.0,-0.0,-75.0,570664.8,0.0,0.0,0.0,0.0,0.0,0.0
1402754016371132431,3,-13.6873939484,-0.00591572024346,-8.66439848307,-0.122189614607,40.8772654108,0.10862951003,0.027376920268,0.0,-0.0681669841423,0.0,0.190022352212,0.0,1.98378262589,0.0,0.00740505964658,0.0,-0.00312332751658,0.0,0.00985414288564,0.0,0.0723533770773,0.0,0.00578102087137,0.0,0.0,0.0,0.0,-75.0,0.0,-22.86,0.00230154196664,0.0,-0.00383606751517,0.0,-0.0,0.0,-0.0,-75.0,570664.8,0.0,0.0,0.0,0.0,0.0,0.0
1402754016391272945,3,-13.6864034923,-0.00591572024346,-8.67909969052,-0.122189614607,40.9144077932,0.10862951003,0.0325746938597,0.0,-0.0651825393718,0.0,0.191144142995,0.0,1.98413533301,0.0,0.0109088184411,0.0,-0.00237280572203,0.0,0.00813424057713,0.0,0.0720428755106,0.0,0.000347339216291,0.0,0.0,0.0,0.0,-75.0,0.0,-22.86,0.00230154196664,0.0,-0.00383606751517,0.0,-0.0,0.0,-0.0,-75.0,570664.8,0.0,0.0,0.0,0.0,0.0,0.0
1402754016410656471,3,-13.6864034923,-0.00591572024346,-8.67909969052,-0.122189614607,40.9144077932,0.10862951003,0.0325746938597,0.0,-0.0651825393718,0.0,0.191144142995,0.0,1.98413533301,0.0,0.0109088184411,0.0,-0.00237280572203,0.0,0.00813424057713,0.0,0.0720428755106,0.0,0.000347339216291,0.0,0.0,0.0,0.0,-75.0,0.0,-22.86,0.00230154196664,0.0,-0.00383606751517,0.0,-0.0,0.0,-0.0,-75.0,570664.8,0.0,0.0,0.0,0.0,0.0,0.0
1402754016430542788,3,-13.6850688566,-0.00591572024346,-8.68182217674,-0.122189614607,40.9221175235,0.10862951003,0.0325300179084,0.0,-0.0656810506401,0.0,0.191641622733,0.0,1.98468411337,0.0,0.0159341441939,0.0,-0.00242478008666,0.0,0.00909395725737,0.0,0.0715696263528,0.0,0.00527349405764,0.0,0.0,0.0,0.0,-75.0,0.0,-22.86,0.00230154196664,0.0,-0.00383606751517,0.0,-0.0,0.0,-0.0,-75.0,570664.8,0.0,0.0,0.0,0.0,0.0,0.0
1402754016450561258,3,-13.6850688566,-0.00591572024346,-8.68182217674,-0.122189614607,40.9221175235,0.10862951003,0.0325300179084,0.0,-0.0656810506401,0.0,0.191641622733,0.0,1.98468411337,0.0,0.0159341441939,0.0,-0.00242478008666,0.0,0.00909395725737,0.0,0.0715696263528,0.0,0.00527349405764,0.0,0.0,0.0,0.0,-75.0,0.0,-22.86,0.00230154196664,0.0,-0.00383606751517,0.0,-0.0,0.0,-0.0,-75.0,570664.8,0.0,0.0,0.0,0.0,0.0,0.0
1402754016470598878,3,-13.684819303,-0.00591572024346,-8.6976421807,-0.122189614607,40.9640695083,0.10862951003,0.0314537864856,0.0,-0.0636395688053,0.0,0.190882939752,0.0,1.9850801413,0.0,0.00638722011129,0.0,-0.00191537280644,0.0,0.0129031175875,0.0,0.0713463888957,0.0,0.000518684777307,0.0,0.0,0.0,0.0,-75.0,0.0,-22.86,0.00230154196664,0.0,-0.00383606751517,0.0,-0.0,0.0,-0.0,-75.0,570664.8,0.0,0.0,0.0,0.0,0.0,0.0
1402754016490478215,3,-13.684819303,-0.00591572024346,-8.6976421807,-0.122189614607,40.9640695083,0.10862951003,0.0314537864856,0.0,-0.0636395688053,0.0,0.190882939752,0.0,1.9850801413,0.0,0.00638722011129,0.0,-0.00191537280644,0.0,0.0129031175875,0.0,0.0713463888957,0.0,0.000518684777307,0.0,0.0,0.0,0.0,-75.0,0.0,-22.86,0.00230154196664,0.0,-0.00383606751517,0.0,-0.0,0.0,-0.0,-75.0,570664.8,0.0,0.0,0.0,0.0,0.0,0.0
1402754016511081882,3,-13.6884723698,-0.00591572024346,-8.71648460382,-0.122189614607,40.9969478106,0.10862951003,0.0304469284384,0.0,-0.0711067782676,0.0,0.18851378814,0.0,1.98568353964,0.0,0.0153924513154,0.0,-0.00217604893481,0.0,0.00548843211194,0.0,0.0701568211266,0.0,0.0173015763472,0.0,0.0,0.0,0.0,-75.0,0.0,-22.86,0.00230154196664,0.0,-0.00383606751517,0.0,-0.0,0.0,-0.0,-75.0,570664.8,0.0,0.0,0.0,0.0,0.0,0.0
1402754016530566989,3,-13.6884723698,-0.00591572024346,-8.71648460382,-0.122189614607,40.9969478106,0.10862951003,0.0304469284384,0.0,-0.0711067782676,0.0,0.18851378814,0.0,1.98568353964,0.0,0.0153924513154,0.0,-0.00217604893481,0.0,0.00548843211194,0.0,0.0701568211266,0.0,0.0173015763472,0.0,0.0,0.0,0.0,-75.0,0.0,-22.86,0.00230154196664,0.0,-0.00383606751517,0.0,-0.0,0.0,-0.0,-75.0,570664.8,0.0,0.0,0.0,0.0,0.0,0.0
1402754016550754976,3,-13.6874107346,-0.00591572024346,-8.71938992678,-0.122189614607,41.0045348024,0.10862951003,0.0294512056287,0.0,-0.071893366211,0.0,0.187469041397,0.0,1.98624683823,0.0,0.016211758544,0.0,-0.00186437398546,0.0,0.00744966001396,0.0,0.0697491163525,0.0,0.0122998618624,0.0,0.0,0.0,0.0,-75.0,0.0,-22.86,0.00230154196664,0.0,-0.00383606751517,0.0,-0.0,0.0,-0.0,-75.0,570664.8,0.0,0.0,0.0,0.0,0.0,0.0
1402754016570619809,3,-13.6874107346,-0.00591572024346,-8.71938992678,-0.122189614607,41.0045348024,0.10862951003,0.0294512056287,0.0,-0.071893366211,0.0,0.187469041397,0.0,1.98624683823,0.0,0.016211758544,0.0,-0.00186437398546,0.0,0.00744966001396,0.0,0.0697491163525,0.0,0.0122998618624,0.0,0.0,0.0,0.0,-75.0,0.0,-22.86,0.00230154196664,0.0,-0.00383606751517,0.0,-0.0,0.0,-0.0,-75.0,570664.8,0.0,0.0,0.0,0.0,0.0,0.0
1402754016590527654,3,-13.6854308523,-0.00591572024346,-8.73928327064,-0.122189614607,41.050263792,0.10862951003,0.0352096442298,0.0,-0.0726216096201,0.0,0.186608175694,0.0,1.98684297944,0.0,0.0178480611035,0.0,-0.000859713135103,0.0,0.00572256743171,0.0,0.0691346344528,0.0,0.00475820994909,0.0,0.0,0.0,0.0,-75.0,0.0,-22.86,0.00230154196664,0.0,-0.00383606751517,0.0,-0.0,0.0,-0.0,-75.0,570664.8,0.0,0.0,0.0,0.0,0.0,0.0
1402754016610490537,3,-13.6854308523,-0.00591572024346,-8.73928327064,-0.122189614607,41.050263792,0.10862951003,0.0352096442298,0.0,-0.0726216096201,0.0,0.186608175694,0.0,1.98684297944,0.0,0.0178480611035,0.0,-0.000859713135103,0.0,0.00572256743171,0.0,0.0691346344528,0.0,0.00475820994909,0.0,0.0,0.0,0.0,-75.0,0.0,-22.86,0.00230154196664,0.0,-0.00383606751517,0.0,-0.0,0.0,-0.0,-75.0,570664.8,0.0,0.0,0.0,0.0,0.0,0.0
1402754016630495330,3,-13.6865075826,-0.00591572024346,-8.75990369112,-0.122189614607,41.1098534143,0.10862951003,0.0273010640244,0.0,-0.0657873011353,0.0,0.188111362084,0.0,1.9873543877,0.0,0.0135004520769,0.0,-0.00121695054698,0.0,0.00387035819607,0.0,0.0701708185368,0.0,0.00266013618041,0.0,0.0,0.0,0.0,-75.0,0.0,-22.86,0.00230154196664,0.0,-0.00383606751517,0.0,-0.0,0.0,-0.0,-75.0,570664.8,0.0,0.0,0.0,0.0,0.0,0.0
1402754016650614925,3,-13.6865075826,-0.00591572024346,-8.75990369112,-0.122189614607,41.1098534143,0.10862951003,0.0273010640244,0.0,-0.0657873011353,0.0,0.188111362084,0.0,1.9873543877,0.0,0.0135004520769,0.0,-0.00121695054698,0.0,0.00387035819607,0.0,0.0701708185368,0.0,0.00266013618041,0.0,0.0,0.0,0.0,-75.0,0.0,-22.86,0.00230154196664,0.0,-0.00383606751517,0.0,-0.0,0.0,-0.0,-75.0,570664.8,0.0,0.0,0.0,0.0,0.0,0.0
1402754016670788281,3,-13.687256918,-0.00591572024346,-8.78243846185,-0.122189614607,41.1623002391,0.10862951003,0.0271811613556,0.0,-0.0647240236132,0.0,0.188238482433,0.0,1.98776682941,0.0,0.0110140107971,0.0,-0.000912882472671,0.0,-0.00578166364916,0.0,0.0702094076379,0.0,0.000739288183349,0.0,0.0,0.0,0.0,-75.0,0.0,-22.86,0.00230154196664,0.0,-0.00383606751517,0.0,-0.0,0.0,-0.0,-75.0,570664.8,0.0,0.0,0.0,0.0,0.0,0.0
1402754016690555542,3,-13.687256918,-0.00591572024346,-8.78243846185,-0.122189614607,41.1623002391,0.10862951003,0.0271811613556,0.0,-0.0647240236132,0.0,0.188238482433,0.0,1.98776682941,0.0,0.0110140107971,0.0,-0.000912882472671,0.0,-0.00578166364916,0.0,0.0702094076379,0.0,0.000739288183349,0.0,0.0,0.0,0.0,-75.0,0.0,-22.86,0.00230154196664,0.0,-0.00383606751517,0.0,-0.0,0.0,-0.0,-75.0,570664.8,0.0,0.0,0.0,0.0,0.0,0.0
1402754016710473160,3,-13.6885672112,-0.00591572024346,-8.80280397989,-0.122189614607,41.2137791361,0.10862951003,0.0292711146833,0.0,-0.0592126849098,0.0,0.187323819214,0.0,1.98817778304,0.0,0.0123153814878,0.0,-0.000372617049933,0.0,-0.00536814986404,0.0,0.070713146745,0.0,0.00308669873308,0.0,0.0,0.0,0.0,-75.0,0.0,-22.86,0.00230154196664,0.0,-0.00383606751517,0.0,-0.0,0.0,-0.0,-75.0,570664.8,0.0,0.0,0.0,0.0,0.0,0.0
1402754016730534888,3,-13.6885672112,-0.00591572024346,-8.80280397989,-0.122189614607,41.2137791361,0.10862951003,0.0292711146833,0.0,-0.0592126849098,0.0,0.187323819214,0.0,1.98817778304,0.0,0.0123153814878,0.0,-0.000372617049933,0.0,-0.00536814986404,0.0,0.070713146745,0.0,0.00308669873308,0.0,0.0,0.0,0.0,-75.0,0.0,-22.86,0.00230154196664,0.0,-0.00383606751517,0.0,-0.0,0.0,-0.0,-75.0,570664.8,0.0,0.0,0.0,0.0,0.0,0.0
1402754016750537953,3,-13.6884022286,-0.00591572024346,-8.83486686836,-0.122189614607,41.2847013249,0.10862951003,0.0238021171467,0.0,-0.0688545747419,0.0,0.19051528436,0.0,1.98852011926,0.0,0.00383206343218,0.0,-0.00135945052628,0.0,-0.00246315550965,0.0,0.0702218671059,0.0,-0.00319010402456,0.0,0.0,0.0,0.0,-75.0,0.0,-22.86,0.00230154196664,0.0,-0.00383606751517,0.0,-0.0,0.0,-0.0,-75.0,570664.8,0.0,0.0,0.0,0.0,0.0,0.0
1402754016770448668,3,-13.6884022286,-0.00591572024346,-8.83486686836,-0.122189614607,41.2847013249,0.10862951003,0.0238021171467,0.0,-0.0688545747419,0.0,0.19051528436,0.0,1.98852011926,0.0,0.00383206343218,0.0,-0.00135945052628,0.0,-0.00246315550965,0.0,0.0702218671059,0.0,-0.00319010402456,0.0,0.0,0.0,0.0,-75.0,0.0,-22.86,0.00230154196664,0.0,-0.00383606751517,0.0,-0.0,0.0,-0.0,-75.0,570664.8,0.0,0.0,0.0,0.0,0.0,0.0
1402754016790454120,3,-13.6901472736,-0.00591572024346,-8.86002505182,-0.122189614607,41.3405763959,0.10862951003,0.0250319846285,0.0,-0.0690865831439,0.0,0.191470345223,0.0,1.98884280114,0.0,0.00277883703254,0.0,-0.00126546456566,0.0,-0.0100672218719,0.0,0.0702491897748,0.0,0.00631322329291,0.0,0.0,0.0,0.0,-75.0,0.0,-22.86,0.00230154196664,0.0,-0.00383606751517,0.0,-0.0,0.0,-0.0,-75.0,570664.8,0.0,0.0,0.0,0.0,0.0,0.0
1402754016811107200,3,-13.6901472736,-0.00591572024346,-8.86002505182,-0.122189614607,41.3405763959,0.10862951003,0.0250319846285,0.0,-0.0690865831439,0.0,0.191470345223,0.0,1.98884280114,0.0,0.00277883703254,0.0,-0.00126546456566,0.0,-0.0100672218719,0.0,0.0702491897748,0.0,0.00631322329291,0.0,0.0,0.0,0.0,-75.0,0.0,-22.86,0.00230154196664,0.0,-0.00383606751517,0.0,-0.0,0.0,-0.0,-75.0,570664.8,0.0,0.0,0.0,0.0,0.0,0.0
1402754016830556685,3,-13.6890539958,-0.00591572024346,-8.86276428228,-0.122189614607,41.34835662,0.10862951003,0.0247513240617,0.0,-0.0704140964309,0.0,0.193044080755,0.0,1.98924240757,0.0,0.00985708926989,0.0,-0.00141324028898,0.0,-0.000242409495226,0.0,0.0703252730605,0.0,-0.00113450301552,0.0,0.0,0.0,0.0,-75.0,0.0,-22.86,0.00230154196664,0.0,-0.00383606751517,0.0,-0.0,0.0,-0.0,-75.0,570664.8,0.0,0.0,0.0,0.0,0.0,0.0
1402754016850653302,3,-13.6890539958,-0.00591572024346,-8.86276428228,-0.122189614607,41.34835662,0.10862951003,0.0247513240617,0.0,-0.0704140964309,0.0,0.193044080755,0.0,1.98924240757,0.0,0.00985708926989,0.0,-0.00141324028898,0.0,-0.000242409495226,0.0,0.0703252730605,0.0,-0.00113450301552,0.0,0.0,0.0,0.0,-75.0,0.0,-22.86,0.00230154196664,0.0,-0.00383606751517,0.0,-0.0,0.0,-0.0,-75.0,570664.8,0.0,0.0,0.0,0.0,0.0,0.0
1402754016870659353,3,-13.6893972621,-0.00591572024346,-8.88997837933,-0.122189614607,41.4123418602,0.10862951003,0.0245262767272,0.0,-0.0715212434883,0.0,0.196026351238,0.0,1.98971670584,0.0,0.0178769832766,0.0,-0.00154042573794,0.0,-0.0018559141629,0.0,0.0704241823225,0.0,0.000827417520713,0.0,0.0,0.0,0.0,-75.0,0.0,-22.86,0.00230154196664,0.0,-0.00383606751517,0.0,-0.0,0.0,-0.0,-75.0,570664.8,0.0,0.0,0.0,0.0,0.0,0.0
1402754016890624341,3,-13.6893972621,-0.00591572024346,-8.88997837933,-0.122189614607,41.4123418602,0.10862951003,0.0245262767272,0.0,-0.0715212434883,0.0,0.196026351238,0.0,1.98971670584,0.0,0.0178769832766,0.0,-0.00154042573794,0.0,-0.0018559141629,0.0,0.0704241823225,0.0,0.000827417520713,0.0,0.0,0.0,0.0,-75.0,0.0,-22.86,0.00230154196664,0.0,-0.00383606751517,0.0,-0.0,0.0,-0.0,-75.0,570664.8,0.0,0.0,0.0,0.0,0.0,0.0
1402754016910527141,3,-13.6891247933,-0.00591572024346,-8.91738219971,-0.122189614607,41.4820817369,0.10862951003,0.0199350988189,0.0,-0.0707018119487,0.0,0.199696527405,0.0,1.99006213984,0.0,0.0123584060937,0.0,-0.00174748982637,0.0,0.000658980827425,0.0,0.0707640271228,0.0,-0.00344408753822,0.0,0.0,0.0,0.0,-75.0,0.0,-22.86,0.00230154196664,0.0,-0.00383606751517,0.0,-0.0,0.0,-0.0,-75.0,570664.8,0.0,0.0,0.0,0.0,0.0,0.0
1402754016931029072,3,-13.6891247933,-0.00591572024346,-8.91738219971,-0.122189614607,41.4820817369,0.10862951003,0.0199350988189,0.0,-0.0707018119487,0.0,0.199696527405,0.0,1.99006213984,0.0,0.0123584060937,0.0,-0.00174748982637,0.0,0.000658980827425,0.0,0.0707640271228,0.0,-0.00344408753822,0.0,0.0,0.0,0.0,-75.0,0.0,-22.86,0.00230154196664,0.0,-0.00383606751517,0.0,-0.0,0.0,-0.0,-75.0,570664.8,0.0,0.0,0.0,0.0,0.0,0.0
1402754016950754116,3,-13.6836578698,-0.00591572024346,-8.94103952225,-0.122189614607,41.5485756421,0.10862951003,0.0290429021063,0.0,-0.0643613796086,0.0,0.202399245623,0.0,1.99065140362,0.0,0.0120073633282,0.0,-0.000405590548263,0.0,0.00296998349733,0.0,0.0709687343017,0.0,-0.00207321595526,0.0,0.0,0.0,0.0,-75.0,0.0,-22.86,0.00230154196664,0.0,-0.00383606751517,0.0,-0.0,0.0,-0.0,-75.0,570664.8,0.0,0.0,0.0,0.0,0.0,0.0
1402754016970460569,3,-13.6836578698,-0.00591572024346,-8.94103952225,-0.122189614607,41.5485756421,0.10862951003,0.0290429021063,0.0,-0.0643613796086,0.0,0.202399245623,0.0,1.99065140362,0.0,0.0120073633282,0.0,-0.000405590548263,0.0,0.00296998349733,0.0,0.0709687343017,0.0,-0.00207321595526,0.0,0.0,0.0,0.0,-75.0,0.0,-22.86,0.00230154196664,0.0,-0.00383606751517,0.0,-0.0,0.0,-0.0,-75.0,570664.8,0.0,0.0,0.0,0.0,0.0,0.0
1402754016990654080,3,-13.6875187577,-0.00591572024346,-8.96694337911,-0.122189614607,41.5989591956,0.10862951003,0.0255200970207,0.0,-0.070524536612,0.0,0.200925693504,0.0,1.9910997389,0.0,0.00944949056857,0.0,-0.000986115716785,0.0,0.00419199783448,0.0,0.0703762310484,0.0,0.00384719506629,0.0,0.0,0.0,0.0,-75.0,0.0,-22.86,0.00230154196664,0.0,-0.00383606751517,0.0,-0.0,0.0,-0.0,-75.0,570664.8,0.0,0.0,0.0,0.0,0.0,0.0
1402754017010527007,3,-13.6875187577,-0.00591572024346,-8.96694337911,-0.122189614607,41.5989591956,0.10862951003,0.0255200970207,0.0,-0.070524536612,0.0,0.200925693504,0.0,1.9910997389,0.0,0.00944949056857,0.0,-0.000986115716785,0.0,0.00419199783448,0.0,0.0703762310484,0.0,0.00384719506629,0.0,0.0,0.0,0.0,-75.0,0.0,-22.86,0.00230154196664,0.0,-0.00383606751517,0.0,-0.0,0.0,-0.0,-75.0,570664.8,0.0,0.0,0.0,0.0,0.0,0.0
1402754017031043485,3,-13.6864554625,-0.00591572024346,-8.9697697727,-0.122189614607,41.6070965197,0.10862951003,0.0267800365048,0.0,-0.0702653908104,0.0,0.201757482357,0.0,1.99159359379,0.0,0.0131601230212,0.0,-0.000815118028636,0.0,0.00182642940093,0.0,0.0702151665838,0.0,0.013992911632,0.0,0.0,0.0,0.0,-75.0,0.0,-22.86,0.00230154196664,0.0,-0.00383606751517,0.0,-0.0,0.0,-0.0,-75.0,570664.8,0.0,0.0,0.0,0.0,0.0,0.0
1402754017050672107,3,-13.6864554625,-0.00591572024346,-8.9697697727,-0.122189614607,41.6070965197,0.10862951003,0.0267800365048,0.0,-0.0702653908104,0.0,0.201757482357,0.0,1.99159359379,0.0,0.0131601230212,0.0,-0.000815118028636,0.0,0.00182642940093,0.0,0.0702151665838,0.0,0.013992911632,0.0,0.0,0.0,0.0,-75.0,0.0,-22.86,0.00230154196664,0.0,-0.00383606751517,0.0,-0.0,0.0,-0.0,-75.0,570664.8,0.0,0.0,0.0,0.0,0.0,0.0
1402754017070585805,3,-13.6790118522,-0.00591572024346,-8.99492792572,-0.122189614607,41.6738555738,0.10862951003,0.0393814040373,0.0,-0.0647927497281,0.0,0.203655306251,0.0,1.99219752004,0.0,0.0144699859671,0.0,0.0010775259407,0.0,0.00155213610434,0.0,0.0701056050615,0.0,0.00196260188033,0.0,0.0,0.0,0.0,-75.0,0.0,-22.86,0.00230154196664,0.0,-0.00383606751517,0.0,-0.0,0.0,-0.0,-75.0,570664.8,0.0,0.0,0.0,0.0,0.0,0.0
1402754017090432158,3,-13.6790118522,-0.00591572024346,-8.99492792572,-0.122189614607,41.6738555738,0.10862951003,0.0393814040373,0.0,-0.0647927497281,0.0,0.203655306251,0.0,1.99219752004,0.0,0.0144699859671,0.0,0.0010775259407,0.0,0.00155213610434,0.0,0.0701056050615,0.0,0.00196260188033,0.0,0.0,0.0,0.0,-75.0,0.0,-22.86,0.00230154196664,0.0,-0.00383606751517,0.0,-0.0,0.0,-0.0,-75.0,570664.8,0.0,0.0,0.0,0.0,0.0,0.0
1402754017110325927,3,-13.6821100111,-0.00591572024346,-9.01583795927,-0.122189614607,41.7236188812,0.10862951003,0.0355860779289,0.0,-0.0603840829529,0.0,0.201583983166,0.0,1.99254503347,0.0,0.0153548127484,0.0,0.00089219571653,0.0,0.0050521314154,0.0,0.0706210636477,0.0,9.11431564568e-05,0.0,0.0,0.0,0.0,-75.0,0.0,-22.86,0.00230154196664,0.0,-0.00383606751517,0.0,-0.0,0.0,-0.0,-75.0,570664.8,0.0,0.0,0.0,0.0,0.0,0.0
1402754017130379748,3,-13.6821100111,-0.00591572024346,-9.01583795927,-0.122189614607,41.7236188812,0.10862951003,0.0355860779289,0.0,-0.0603840829529,0.0,0.201583983166,0.0,1.99254503347,0.0,0.0153548127484,0.0,0.00089219571653,0.0,0.0050521314154,0.0,0.0706210636477,0.0,9.11431564568e-05,0.0,0.0,0.0,0.0,-75.0,0.0,-22.86,0.00230154196664,0.0,-0.00383606751517,0.0,-0.0,0.0,-0.0,-75.0,570664.8,0.0,0.0,0.0,0.0,0.0,0.0
1402754017151225927,3,-13.6800259069,-0.00591572024346,-9.05010727836,-0.122189614607,41.7889223838,0.10862951003,0.0345722261902,0.0,-0.0785827020967,0.0,0.202618103486,0.0,1.99294342643,0.0,0.0100699358914,0.0,9.33470651935e-05,0.0,0.00688967742964,0.0,0.0688635849213,0.0,-0.00133127693531,0.0,0.0,0.0,0.0,-75.0,0.0,-22.86,0.00230154196664,0.0,-0.00537029107169,-75.0,-0.0,0.0,-0.0,-75.0,570664.8,0.0,0.0,0.0,0.0,0.0,0.0
1402754017170444984,3,-13.6800259069,-0.00591572024346,-9.05010727836,-0.122189614607,41.7889223838,0.10862951003,0.0345722261902,0.0,-0.0785827020967,0.0,0.202618103486,0.0,1.99294342643,0.0,0.0100699358914,0.0,9.33470651935e-05,0.0,0.00688967742964,0.0,0.0688635849213,0.0,-0.00133127693531,0.0,0.0,0.0,0.0,-75.0,0.0,-22.86,0.00230154196664,0.0,-0.00383606751517,-75.0,-0.0,0.0,-0.0,-75.0,570664.8,0.0,0.0,0.0,0.0,0.0,0.0
1402754017190474037,3,-13.6784311196,-0.00591572024346,-9.07471484941,-0.122189614607,41.8453813011,0.10862951003,0.0368132565342,0.0,-0.0781047258952,0.0,0.202163065447,0.0,1.99353069599,0.0,0.0102566057523,0.0,0.000327271407064,0.0,0.000175113974325,0.0,0.0687693489691,0.0,0.00149197357112,0.0,0.0,0.0,0.0,-75.0,0.0,-22.86,0.00230154196664,0.0,-0.00383606751517,-75.0,-0.0,0.0,-0.0,-75.0,570664.8,0.0,0.0,0.0,0.0,0.0,0.0
1402754017211099210,3,-13.6784311196,-0.00591572024346,-9.07471484941,-0.122189614607,41.8453813011,0.10862951003,0.0368132565342,0.0,-0.0781047258952,0.0,0.202163065447,0.0,1.99353069599,0.0,0.0102566057523,0.0,0.000327271407064,0.0,0.000175113974325,0.0,0.0687693489691,0.0,0.00149197357112,0.0,0.0,0.0,0.0,-75.0,0.0,-22.86,0.00230154196664,0.0,-0.00383606751517,-75.0,-0.0,0.0,-0.0,-75.0,570664.8,0.0,0.0,0.0,0.0,0.0,0.0
1402754017231861738,3,-13.6733587271,-0.00591572024346,-9.09857854212,-0.122189614607,41.9183088956,0.10862951003,0.0386056155794,0.0,-0.0661981195957,0.0,0.205507351919,0.0,1.99401808977,0.0,0.00945199837701,0.0,0.000823698638275,0.0,-0.000961466519865,0.0,0.0701976023309,0.0,-0.000279499874478,0.0,0.0,0.0,0.0,-75.0,0.0,-22.86,0.00230154196664,0.0,-0.00383606751517,-75.0,-0.0,0.0,-0.0,-75.0,570664.8,0.0,0.0,0.0,0.0,0.0,0.0
1402754017250483548,3,-13.6733587271,-0.00591572024346,-9.09857854212,-0.122189614607,41.9183088956,0.10862951003,0.0386056155794,0.0,-0.0661981195957,0.0,0.205507351919,0.0,1.99401808977,0.0,0.00945199837701,0.0,0.000823698638275,0.0,-0.000961466519865,0.0,0.0701976023309,0.0,-0.000279499874478,0.0,0.0,0.0,0.0,-75.0,0.0,-22.86,0.00230154196664,0.0,-0.00383606751517,-75.0,-0.0,0.0,-0.0,-75.0,570664.8,0.0,0.0,0.0,0.0,0.0,0.0
1402754017271766736,3,-13.6725441553,-0.00591572024346,-9.10010773089,-0.122189614607,41.9227861695,0.10862951003,0.0390513854787,0.0,-0.0661058563001,0.0,0.205710055477,0.0,1.99425033474,0.0,0.0121744472294,0.0,0.000750987905063,0.0,-0.0028674391195,0.0,0.0702632489242,0.0,-0.00384271601523,0.0,0.0,0.0,0.0,-75.0,0.0,-22.86,0.00230154196664,0.0,-0.00383606751517,-75.0,-0.0,0.0,-0.0,-75.0,570664.8,0.0,0.0,0.0,0.0,0.0,0.0
1402754017290817373,3,-13.6725441553,-0.00591572024346,-9.10010773089,-0.122189614607,41.9227861695,0.10862951003,0.0390513854787,0.0,-0.0661058563001,0.0,0.205710055477,0.0,1.99425033474,0.0,0.0121744472294,0.0,0.000750987905063,0.0,-0.0028674391195,0.0,0.0702632489242,0.0,-0.00384271601523,0.0,0.0,0.0,0.0,-75.0,0.0,-22.86,0.00230154196664,0.0,-0.00383606751517,-75.0,-0.0,0.0,-0.0,-75.0,570664.8,0.0,0.0,0.0,0.0,0.0,0.0
1402754017310697077,3,-13.6722352648,-0.00591572024346,-9.12231560948,-0.122189614607,41.9614286307,0.10862951003,0.0457152968165,0.0,-0.0744104431667,0.0,0.202286317147,0.0,1.99460188092,0.0,0.00787770860771,0.0,0.00104978821655,0.0,-0.00429378714925,0.0,0.0692829066714,0.0,0.000395018304133,0.0,0.0,0.0,0.0,-75.0,0.0,-22.86,0.00230154196664,0.0,-0.00383606751517,-75.0,-0.0,0.0,-0.0,-75.0,570664.8,0.0,0.0,0.0,0.0,0.0,0.0
1402754017333148780,3,-13.6722352648,-0.00591572024346,-9.12231560948,-0.122189614607,41.9614286307,0.10862951003,0.0457152968165,0.0,-0.0744104431667,0.0,0.202286317147,0.0,1.99460188092,0.0,0.00787770860771,0.0,0.00104978821655,0.0,-0.00429378714925,0.0,0.0692829066714,0.0,0.000395018304133,0.0,0.0,0.0,0.0,-75.0,0.0,-22.86,0.00230154196664,0.0,-0.00383606751517,-75.0,-0.0,0.0,-0.0,-75.0,570664.8,0.0,0.0,0.0,0.0,0.0,0.0
1402754017350551793,3,-13.6724823657,-0.00591572024346,-9.15005220621,-0.122189614607,42.0365741593,0.10862951003,0.0418496275084,0.0,-0.0845772987339,0.0,0.203949774918,0.0,1.99413956296,0.0,-0.00770544072165,0.0,-0.000422924548196,0.0,-0.0100825520548,0.0,0.0711929990452,0.0,-0.0233318192672,0.0,0.0,0.0,0.0,-75.0,0.0,-22.86,0.00230154196664,0.0,-0.00537029107169,-75.0,-0.0,0.0,-0.0,-75.0,570664.8,0.0,0.0,0.0,0.0,0.0,0.0
1402754017370402710,3,-13.6724823657,-0.00591572024346,-9.15005220621,-0.122189614607,42.0365741593,0.10862951003,0.0418496275084,0.0,-0.0845772987339,0.0,0.203949774918,0.0,1.99413956296,0.0,-0.00770544072165,0.0,-0.000422924548196,0.0,-0.0100825520548,0.0,0.0711929990452,0.0,-0.0233318192672,0.0,0.0,0.0,0.0,-75.0,0.0,-22.86,0.00230154196664,0.0,-0.00537029107169,-75.0,-0.0,0.0,-0.0,-75.0,570664.8,0.0,0.0,0.0,0.0,0.0,0.0
1402754017391386271,3,-13.6711258388,-0.00591572024346,-9.17268986856,-0.122189614607,42.0887533565,0.10862951003,0.0531412087086,0.0,-0.0958983167124,0.0,0.201205435812,0.0,1.99363798621,0.0,-0.0160077275464,0.0,-0.000943422737848,0.0,-0.0152400823679,0.0,0.072503254741,0.0,-0.0255877160873,0.0,0.0,0.0,0.0,-75.0,0.0,-22.86,0.00230154196664,0.0,-0.00383606751517,-75.0,-0.0,0.0,-0.0,-75.0,570664.8,0.0,0.0,0.0,0.0,0.0,0.0
1402754017410592257,3,-13.6711258388,-0.00591572024346,-9.17268986856,-0.122189614607,42.0887533565,0.10862951003,0.0531412087086,0.0,-0.0958983167124,0.0,0.201205435812,0.0,1.99363798621,0.0,-0.0160077275464,0.0,-0.000943422737848,0.0,-0.0152400823679,0.0,0.072503254741,0.0,-0.0255877160873,0.0,0.0,0.0,0.0,-75.0,0.0,-22.86,0.00230154196664,0.0,-0.00537029107169,-75.0,-0.0,0.0,-0.0,-75.0,570664.8,0.0,0.0,0.0,0.0,0.0,0.0
1402754017430544872,3,-13.6670621281,-0.00591572024346,-9.20213919034,-0.122189614607,42.1460490227,0.10862951003,0.0700868528655,0.0,-0.118131015305,0.0,0.199907637561,0.0,1.99289119241,0.0,-0.025997335143,0.0,-0.00153527019259,0.0,-0.0306458001775,0.0,0.0728620998372,0.0,-0.0209098802925,0.0,0.0,0.0,0.0,-75.0,0.0,-22.86,0.00230154196664,0.0,-0.00383606751517,-75.0,-0.0,0.0,-0.0,-75.0,570664.8,0.0,0.0,0.0,0.0,0.0,0.0
1402754017451127454,3,-13.6670621281,-0.00591572024346,-9.20213919034,-0.122189614607,42.1460490227,0.10862951003,0.0700868528655,0.0,-0.118131015305,0.0,0.199907637561,0.0,1.99289119241,0.0,-0.025997335143,0.0,-0.00153527019259,0.0,-0.0306458001775,0.0,0.0728620998372,0.0,-0.0209098802925,0.0,0.0,0.0,0.0,-75.0,0.0,-22.86,0.00230154196664,0.0,-0.00383606751517,-75.0,-0.0,0.0,-0.0,-75.0,570664.8,0.0,0.0,0.0,0.0,0.0,0.0
1402754017470641274,3,-13.6637974398,-0.00591572024346,-9.20735148497,-0.122189614607,42.1544651349,0.10862951003,0.0824523652641,0.0,-0.134456063144,0.0,0.199217179492,0.0,1.99168131267,0.0,-0.0288037056515,0.0,-0.00252098190669,0.0,-0.0329958609534,0.0,0.0746102821869,0.0,-0.0350566718598,0.0,0.0,0.0,0.0,-75.0,0.0,-22.86,0.00230154196664,0.0,-0.00537029107169,-75.0,-0.0,0.0,-0.0,-75.0,570664.8,0.0,0.0,0.0,0.0,0.0,0.0
1402754017490447356,3,-13.6637974398,-0.00591572024346,-9.20735148497,-0.122189614607,42.1544651349,0.10862951003,0.0824523652641,0.0,-0.134456063144,0.0,0.199217179492,0.0,1.99168131267,0.0,-0.0288037056515,0.0,-0.00252098190669,0.0,-0.0329958609534,0.0,0.0746102821869,0.0,-0.0350566718598,0.0,0.0,0.0,0.0,-75.0,0.0,-22.86,0.00230154196664,0.0,-0.00537029107169,-75.0,-0.0,0.0,-0.0,-75.0,570664.8,0.0,0.0,0.0,0.0,0.0,0.0
1402754017510560427,3,-13.6662162883,-0.00591572024346,-9.23359396893,-0.122189614607,42.1927493292,0.10862951003,0.0891306934576,0.0,-0.159678887854,0.0,0.198495226599,0.0,1.9894012772,0.0,-0.04549566301,0.0,-0.00408524407851,0.0,-0.0288478461861,0.0,0.0754586125636,0.0,-0.0341462659428,0.0,0.0,0.0,0.0,-75.0,0.0,-22.86,0.00230154196664,0.0,-0.00537029107169,-75.0,-0.0,0.0,-0.0,-75.0,570664.8,0.0,0.0,0.0,0.0,0.0,0.0
1402754017530463508,3,-13.6662162883,-0.00591572024346,-9.23359396893,-0.122189614607,42.1927493292,0.10862951003,0.0891306934576,0.0,-0.159678887854,0.0,0.198495226599,0.0,1.9894012772,0.0,-0.04549566301,0.0,-0.00408524407851,0.0,-0.0288478461861,0.0,0.0754586125636,0.0,-0.0341462659428,0.0,0.0,0.0,0.0,-75.0,0.0,-22.86,0.00230154196664,0.0,-0.00537029107169,-75.0,-0.0,0.0,-0.0,-75.0,570664.8,0.0,0.0,0.0,0.0,0.0,0.0
1402754017550490982,3,-13.6664370233,-0.00591572024346,-9.22434970855,-0.122189614607,42.1811073428,0.10862951003,0.0947696943581,0.0,-0.154056237506,0.0,0.201146855183,0.0,1.98610730061,0.0,-0.0613054042048,0.0,-0.00403939680508,0.0,-0.0307904905089,0.0,0.0803370423631,0.0,-0.00513500382833,0.0,0.0,0.0,0.0,-75.0,0.0,-22.86,0.00230154196664,0.0,-0.00537029107169,-75.0,-0.0,0.0,-0.0,-75.0,570664.8,0.0,0.0,0.0,0.0,0.0,0.0
1402754017571833936,3,-13.6664370233,-0.00591572024346,-9.22434970855,-0.122189614607,42.1811073428,0.10862951003,0.0947696943581,0.0,-0.154056237506,0.0,0.201146855183,0.0,1.98610730061,0.0,-0.0613054042048,0.0,-0.00403939680508,0.0,-0.0307904905089,0.0,0.0803370423631,0.0,-0.00513500382833,0.0,0.0,0.0,0.0,-75.0,0.0,-22.86,0.00230154196664,0.0,-0.00537029107169,-75.0,-0.0,0.0,-0.0,-75.0,570664.8,0.0,0.0,0.0,0.0,0.0,0.0
1402754017590417723,3,-13.6618791501,-0.00591572024346,-9.2255844832,-0.122189614607,42.1641169987,0.10862951003,0.113893646836,0.0,-0.173139617823,0.0,0.205300634273,0.0,1.98486522431,0.0,-0.0610091269614,0.0,-0.00369997717158,0.0,-0.0181097649042,0.0,0.0804219144591,0.0,-0.0257647246564,0.0,0.0,0.0,0.0,-75.0,0.0,-22.86,0.00230154196664,0.0,-0.00537029107169,-75.0,-0.0,0.0,-0.0,-75.0,570664.8,0.0,0.0,0.0,0.0,0.0,0.0
1402754017610436793,3,-13.6606050639,-0.00591572024346,-9.22720520575,-0.122189614607,42.1659633157,0.10862951003,0.118056599577,0.0,-0.175306232557,0.0,0.206482260764,0.0,1.98424543253,0.0,-0.0632199676884,0.0,-0.00360115314119,0.0,-0.0259179790318,0.0,0.0806620211019,0.0,-0.000584861602495,0.0,0.0,0.0,0.0,-75.0,0.0,-22.86,0.00230154196664,0.0,-0.00537029107169,-75.0,-0.0,0.0,-0.0,-75.0,570664.8,0.0,0.0,0.0,0.0,0.0,0.0
1402754017630257893,3,-13.6582318889,-0.00591572024346,-9.23105519629,-0.122189614607,42.1705420847,0.10862951003,0.120000407474,0.0,-0.183991178421,0.0,0.214505238247,0.0,1.98283017269,0.0,-0.0698303659187,0.0,-0.0039444624044,0.0,-0.0107227860338,0.0,0.0811280615071,0.0,-0.0271770630608,0.0,0.0,0.0,0.0,-75.0,0.0,-22.86,0.00230154196664,0.0,-0.00537029107169,-75.0,-0.0,0.0,-0.0,-75.0,570664.8,0.0,0.0,0.0,0.0,0.0,0.0
1402754017650408975,3,-13.6582318889,-0.00591572024346,-9.23105519629,-0.122189614607,42.1705420847,0.10862951003,0.120000407474,0.0,-0.183991178421,0.0,0.214505238247,0.0,1.98283017269,0.0,-0.0698303659187,0.0,-0.0039444624044,0.0,-0.0107227860338,0.0,0.0811280615071,0.0,-0.0271770630608,0.0,0.0,0.0,0.0,-75.0,0.0,-22.86,0.00230154196664,0.0,-0.00537029107169,-75.0,-0.0,0.0,-0.0,-75.0,570664.8,0.0,0.0,0.0,0.0,0.0,0.0
1402754017670411361,3,-13.6531824496,-0.00591572024346,-9.23464451468,-0.122189614607,42.1722328155,0.10862951003,0.128980537924,0.0,-0.194833713587,0.0,0.217907392831,0.0,1.97934205901,0.0,-0.0753090554567,0.0,-0.0040582809998,0.0,-0.00487162831595,0.0,0.0820567424356,0.0,-0.00689432163374,0.0,0.0,0.0,0.0,-75.0,0.0,-22.86,0.00230154196664,0.0,-0.00537029107169,-75.0,-0.0,0.0,-0.0,-75.0,570664.8,0.0,0.0,0.0,0.0,0.0,0.0
1402754017690938172,3,-13.6531824496,-0.00591572024346,-9.23464451468,-0.122189614607,42.1722328155,0.10862951003,0.128980537924,0.0,-0.194833713587,0.0,0.217907392831,0.0,1.97934205901,0.0,-0.0753090554567,0.0,-0.0040582809998,0.0,-0.00487162831595,0.0,0.0820567424356,0.0,-0.00689432163374,0.0,0.0,0.0,0.0,-75.0,0.0,-22.86,0.00230154196664,0.0,-0.00537029107169,-75.0,-0.0,0.0,-0.0,-75.0,570664.8,0.0,0.0,0.0,0.0,0.0,0.0
1402754017710620415,3,-13.6607087767,-0.00591572024346,-9.22124863387,-0.122189614607,42.1042336252,0.10862951003,0.143684397965,0.0,-0.205313657178,0.0,0.21175437815,0.0,1.97679479699,0.0,-0.0856317031576,0.0,-0.00321101434622,0.0,-0.00337886853219,0.0,0.0816949916986,0.0,0.0166401221603,0.0,0.0,0.0,0.0,-75.0,0.0,-22.86,0.00230154196664,0.0,-0.00537029107169,-75.0,-0.0,0.0,-0.0,-75.0,570664.8,0.0,0.0,0.0,0.0,0.0,0.0
1402754017730436611,3,-13.6607087767,-0.00591572024346,-9.22124863387,-0.122189614607,42.1042336252,0.10862951003,0.143684397965,0.0,-0.205313657178,0.0,0.21175437815,0.0,1.97679479699,0.0,-0.0856317031576,0.0,-0.00321101434622,0.0,-0.00337886853219,0.0,0.0816949916986,0.0,0.0166401221603,0.0,0.0,0.0,0.0,-75.0,0.0,-22.86,0.00230154196664,0.0,-0.00537029107169,-75.0,-0.0,0.0,-0.0,-75.0,570664.8,0.0,0.0,0.0,0.0,0.0,0.0
1402754017751024787,3,-13.6566056512,-0.00591572024346,-9.22428547088,-0.122189614607,42.0892682879,0.10862951003,0.156116820273,0.0,-0.222481084014,0.0,0.213540622253,0.0,1.97354946018,0.0,-0.0941391819588,0.0,-0.00305033585272,0.0,0.012546211387,0.0,0.080577897849,0.0,0.0332470257386,0.0,0.0,0.0,0.0,-75.0,0.0,-22.86,0.00230154196664,0.0,-0.00537029107169,-75.0,-0.0,0.0,-0.0,-75.0,570664.8,0.0,0.0,0.0,0.0,0.0,0.0
1402754017770906411,3,-13.6566056512,-0.00591572024346,-9.22428547088,-0.122189614607,42.0892682879,0.10862951003,0.156116820273,0.0,-0.222481084014,0.0,0.213540622253,0.0,1.97354946018,0.0,-0.0941391819588,0.0,-0.00305033585272,0.0,0.012546211387,0.0,0.080577897849,0.0,0.0332470257386,0.0,0.0,0.0,0.0,-75.0,0.0,-22.86,0.00230154196664,0.0,-0.00537029107169,-75.0,-0.0,0.0,-0.0,-75.0,570664.8,0.0,0.0,0.0,0.0,0.0,0.0
1402754017790483008,3,-13.6517695175,-0.00591572024346,-9.22865886481,-0.122189614607,42.0743679743,0.10862951003,0.167697924499,0.0,-0.240653822753,0.0,0.218343273219,0.0,1.97002698907,0.0,-0.0982641674734,0.0,-0.00271997419957,0.0,0.0188200492573,0.0,0.0788945979247,0.0,0.0293614800757,0.0,0.0,0.0,0.0,-75.0,0.0,-22.86,0.00230154196664,0.0,-0.00537029107169,-75.0,-0.0,0.0,-0.0,-75.0,570664.8,0.0,0.0,0.0,0.0,0.0,0.0
1402754017810430369,3,-13.6517695175,-0.00591572024346,-9.22865886481,-0.122189614607,42.0743679743,0.10862951003,0.167697924499,0.0,-0.240653822753,0.0,0.218343273219,0.0,1.97002698907,0.0,-0.0982641674734,0.0,-0.00271997419957,0.0,0.0188200492573,0.0,0.0788945979247,0.0,0.0293614800757,0.0,0.0,0.0,0.0,-75.0,0.0,-22.86,0.00230154196664,0.0,-0.00537029107169,-75.0,-0.0,0.0,-0.0,-75.0,570664.8,0.0,0.0,0.0,0.0,0.0,0.0
1402754017830415840,3,-13.6479496511,-0.00591572024346,-9.23437338022,-0.122189614607,42.0616681523,0.10862951003,0.174328522863,0.0,-0.260283449105,0.0,0.220744949854,0.0,1.96564750177,0.0,-0.103397212214,0.0,-0.00297732712787,0.0,0.0273000092888,0.0,0.0771376835513,0.0,0.0107911733688,0.0,0.0,0.0,0.0,-75.0,0.0,-22.86,0.00230154196664,0.0,-0.00537029107169,-75.0,-0.0,0.0,-0.0,-75.0,570664.8,0.0,0.0,0.0,0.0,0.0,0.0
1402754017850645846,3,-13.6479496511,-0.00591572024346,-9.23437338022,-0.122189614607,42.0616681523,0.10862951003,0.174328522863,0.0,-0.260283449105,0.0,0.220744949854,0.0,1.96564750177,0.0,-0.103397212214,0.0,-0.00297732712787,0.0,0.0273000092888,0.0,0.0771376835513,0.0,0.0107911733688,0.0,0.0,0.0,0.0,-75.0,0.0,-22.86,0.00230154196664,0.0,-0.00537029107169,-75.0,-0.0,0.0,-0.0,-75.0,570664.8,0.0,0.0,0.0,0.0,0.0,0.0
1402754017870305998,3,-13.6507050001,-0.00591572024346,-9.2298960477,-0.122189614607,42.0229298435,0.10862951003,0.176334264393,0.0,-0.270075071374,0.0,0.213794994968,0.0,1.96043159258,0.0,-0.115672037056,0.0,-0.00313304738286,0.0,0.0311604584194,0.0,0.0760065416282,0.0,0.0122846042966,0.0,0.0,0.0,0.0,-75.0,0.0,-22.86,0.00230154196664,0.0,-0.00537029107169,-75.0,-0.0,0.0,-0.0,-75.0,570664.8,0.0,0.0,0.0,0.0,0.0,0.0
1402754017890325752,3,-13.6507050001,-0.00591572024346,-9.2298960477,-0.122189614607,42.0229298435,0.10862951003,0.176334264393,0.0,-0.270075071374,0.0,0.213794994968,0.0,1.96043159258,0.0,-0.115672037056,0.0,-0.00313304738286,0.0,0.0311604584194,0.0,0.0760065416282,0.0,0.0122846042966,0.0,0.0,0.0,0.0,-75.0,0.0,-22.86,0.00230154196664,0.0,-0.00537029107169,-75.0,-0.0,0.0,-0.0,-75.0,570664.8,0.0,0.0,0.0,0.0,0.0,0.0
1402754017910521775,3,-13.647411453,-0.00591572024346,-9.22864438826,-0.122189614607,41.9995890381,0.10862951003,0.184794816254,0.0,-0.275236501338,0.0,0.216126647051,0.0,1.95632024738,0.0,-0.111517250553,0.0,-0.00215503665366,0.0,0.036553550911,0.0,0.0750412881269,0.0,0.0068933484946,0.0,0.0,0.0,0.0,-75.0,0.0,-22.86,0.00230154196664,0.0,-0.00537029107169,-75.0,-0.0,0.0,-0.0,-75.0,570664.8,0.0,0.0,0.0,0.0,0.0,0.0
1402754017930561234,3,-13.647411453,-0.00591572024346,-9.22864438826,-0.122189614607,41.9995890381,0.10862951003,0.184794816254,0.0,-0.275236501338,0.0,0.216126647051,0.0,1.95632024738,0.0,-0.111517250553,0.0,-0.00215503665366,0.0,0.036553550911,0.0,0.0750412881269,0.0,0.0068933484946,0.0,0.0,0.0,0.0,-75.0,0.0,-22.86,0.00230154196664,0.0,-0.00537029107169,-75.0,-0.0,0.0,-0.0,-75.0,570664.8,0.0,0.0,0.0,0.0,0.0,0.0
1402754017950849204,3,-13.639649939,-0.00591572024346,-9.24017241652,-0.122189614607,42.0081587823,0.10862951003,0.192120099006,0.0,-0.287865881864,0.0,0.20960708635,0.0,1.95154574103,0.0,-0.119586880727,0.0,-0.00199209847167,0.0,0.0398316378213,0.0,0.0735531230247,0.0,-0.00198616323586,0.0,0.0,0.0,0.0,-75.0,0.0,-22.86,0.00230154196664,0.0,-0.00537029107169,-75.0,-0.0,0.0,-0.0,-75.0,570664.8,0.0,0.0,0.0,0.0,0.0,0.0
1402754017970685689,3,-13.639649939,-0.00591572024346,-9.24017241652,-0.122189614607,42.0081587823,0.10862951003,0.192120099006,0.0,-0.287865881864,0.0,0.20960708635,0.0,1.95154574103,0.0,-0.119586880727,0.0,-0.00199209847167,0.0,0.0398316378213,0.0,0.0735531230247,0.0,-0.00198616323586,0.0,0.0,0.0,0.0,-75.0,0.0,-22.86,0.00230154196664,0.0,-0.00537029107169,-75.0,-0.0,0.0,-0.0,-75.0,570664.8,0.0,0.0,0.0,0.0,0.0,0.0
1402754017990493736,3,-13.6303390862,-0.00591572024346,-9.24937812069,-0.122189614607,42.0071872406,0.10862951003,0.206395708976,0.0,-0.29890654176,0.0,0.205528234257,0.0,1.94662056073,0.0,-0.126378618519,0.0,-0.00153725185089,0.0,0.0117999208131,0.0,0.072114924853,0.0,0.0343951821632,0.0,0.0,0.0,0.0,-75.0,0.0,-22.86,0.00230154196664,0.0,-0.00537029107169,-75.0,-0.0,0.0,-0.0,-75.0,570664.8,0.0,0.0,0.0,0.0,0.0,0.0
1402754018011055677,3,-13.6303390862,-0.00591572024346,-9.24937812069,-0.122189614607,42.0071872406,0.10862951003,0.206395708976,0.0,-0.29890654176,0.0,0.205528234257,0.0,1.94662056073,0.0,-0.126378618519,0.0,-0.00153725185089,0.0,0.0117999208131,0.0,0.072114924853,0.0,0.0343951821632,0.0,0.0,0.0,0.0,-75.0,0.0,-22.86,0.00230154196664,0.0,-0.00537029107169,-75.0,-0.0,0.0,-0.0,-75.0,570664.8,0.0,0.0,0.0,0.0,0.0,0.0
1402754018030438051,3,-13.6250561975,-0.00591572024346,-9.26014965056,-0.122189614607,41.985407699,0.10862951003,0.207081401671,0.0,-0.32702096446,0.0,0.205680248897,0.0,1.93946467192,0.0,-0.126793965032,0.0,-0.00222562742445,0.0,0.0140347327286,0.0,0.0698835526172,0.0,-0.0101151528613,0.0,0.0,0.0,0.0,-75.0,0.0,-22.86,0.00230154196664,0.0,-0.00537029107169,-75.0,-0.0,0.0,-0.0,-75.0,570664.8,0.0,0.0,0.0,0.0,0.0,0.0
1402754018050470868,3,-13.6250561975,-0.00591572024346,-9.26014965056,-0.122189614607,41.985407699,0.10862951003,0.207081401671,0.0,-0.32702096446,0.0,0.205680248897,0.0,1.93946467192,0.0,-0.126793965032,0.0,-0.00222562742445,0.0,0.0140347327286,0.0,0.0698835526172,0.0,-0.0101151528613,0.0,0.0,0.0,0.0,-75.0,0.0,-22.86,0.00230154196664,0.0,-0.00537029107169,-75.0,-0.0,0.0,-0.0,-75.0,570664.8,0.0,0.0,0.0,0.0,0.0,0.0
1402754018070532168,3,-13.6237049778,-0.00591572024346,-9.26326870131,-0.122189614607,41.9569224668,0.10862951003,0.212260475651,0.0,-0.345350709792,0.0,0.199324679339,0.0,1.9351598127,0.0,-0.137667324482,0.0,-0.00280527880069,0.0,0.0113748944203,0.0,0.0685383793397,0.0,0.00657704973952,0.0,0.0,0.0,0.0,-75.0,0.0,-22.86,0.00230154196664,0.0,-0.00537029107169,-75.0,-0.0,0.0,-0.0,-75.0,570664.8,0.0,0.0,0.0,0.0,0.0,0.0
1402754018090473165,3,-13.6194932074,-0.00591572024346,-9.27027477569,-0.122189614607,41.9610360346,0.10862951003,0.215959287312,0.0,-0.351617764283,0.0,0.19784497104,0.0,1.93239733737,0.0,-0.138270572909,0.0,-0.00236036755056,0.0,0.00558251793246,0.0,0.068498284439,0.0,-0.000424932668794,0.0,0.0,0.0,0.0,-75.0,0.0,-22.86,0.00230154196664,0.0,-0.00537029107169,-75.0,-0.0,0.0,-0.0,-75.0,570664.8,0.0,0.0,0.0,0.0,0.0,0.0
1402754018110795166,3,-13.6194932074,-0.00591572024346,-9.27027477569,-0.122189614607,41.9610360346,0.10862951003,0.215959287312,0.0,-0.351617764283,0.0,0.19784497104,0.0,1.93239733737,0.0,-0.138270572909,0.0,-0.00236036755056,0.0,0.00558251793246,0.0,0.068498284439,0.0,-0.000424932668794,0.0,0.0,0.0,0.0,-75.0,0.0,-22.86,0.00230154196664,0.0,-0.00537029107169,-75.0,-0.0,0.0,-0.0,-75.0,570664.8,0.0,0.0,0.0,0.0,0.0,0.0
1402754018130280250,3,-13.6179088239,-0.00591572024346,-9.26361024661,-0.122189614607,41.9382103613,0.10862951003,0.220676231723,0.0,-0.342543775161,0.0,0.195832544639,0.0,1.93017678911,0.0,-0.138398435997,0.0,-0.00176739908203,0.0,-0.00128634809358,0.0,0.0700720249551,0.0,-0.00657126239005,0.0,0.0,0.0,0.0,-75.0,0.0,-22.86,0.00230154196664,0.0,-0.00537029107169,-75.0,-0.0,0.0,-0.0,-75.0,570664.8,0.0,0.0,0.0,0.0,0.0,0.0
1402754018150365239,3,-13.6179088239,-0.00591572024346,-9.26361024661,-0.122189614607,41.9382103613,0.10862951003,0.220676231723,0.0,-0.342543775161,0.0,0.195832544639,0.0,1.93017678911,0.0,-0.138398435997,0.0,-0.00176739908203,0.0,-0.00128634809358,0.0,0.0700720249551,0.0,-0.00657126239005,0.0,0.0,0.0,0.0,-75.0,0.0,-22.86,0.00230154196664,0.0,-0.00537029107169,-75.0,-0.0,0.0,-0.0,-75.0,570664.8,0.0,0.0,0.0,0.0,0.0,0.0
1402754018170717587,3,-13.6090097937,-0.00591572024346,-9.27749328741,-0.122189614607,41.9460683293,0.10862951003,0.226978485335,0.0,-0.353655684382,0.0,0.195105890484,0.0,1.92440825064,0.0,-0.144593611477,0.0,-0.00161717234962,0.0,-0.0170074467275,0.0,0.0704836150193,0.0,-0.0078048786146,0.0,0.0,0.0,0.0,-75.0,0.0,-22.86,0.00230154196664,0.0,-0.00537029107169,-75.0,-0.0,0.0,-0.0,-75.0,570664.8,0.0,0.0,0.0,0.0,0.0,0.0
1402754018190427578,3,-13.6090097937,-0.00591572024346,-9.27749328741,-0.122189614607,41.9460683293,0.10862951003,0.226978485335,0.0,-0.353655684382,0.0,0.195105890484,0.0,1.92440825064,0.0,-0.144593611477,0.0,-0.00161717234962,0.0,-0.0170074467275,0.0,0.0704836150193,0.0,-0.0078048786146,0.0,0.0,0.0,0.0,-75.0,0.0,-22.86,0.00230154196664,0.0,-0.00537029107169,-75.0,-0.0,0.0,-0.0,-75.0,570664.8,0.0,0.0,0.0,0.0,0.0,0.0
1402754018211659730,3,-13.5998783178,-0.00591572024346,-9.28741209385,-0.122189614607,41.9343139924,0.10862951003,0.233919747417,0.0,-0.370383643313,0.0,0.196976744861,0.0,1.91870422249,0.0,-0.140430936499,0.0,-0.00140668062805,0.0,-0.00810295507503,0.0,0.0705237004763,0.0,-0.0253559929142,0.0,0.0,0.0,0.0,-75.0,0.0,-22.86,0.00230154196664,0.0,-0.00537029107169,-75.0,-0.0,0.0,-0.0,-75.0,570664.8,0.0,0.0,0.0,0.0,0.0,0.0
1402754018231212158,3,-13.5998783178,-0.00591572024346,-9.28741209385,-0.122189614607,41.9343139924,0.10862951003,0.233919747417,0.0,-0.370383643313,0.0,0.196976744861,0.0,1.91870422249,0.0,-0.140430936499,0.0,-0.00140668062805,0.0,-0.00810295507503,0.0,0.0705237004763,0.0,-0.0253559929142,0.0,0.0,0.0,0.0,-75.0,0.0,-22.86,0.00230154196664,0.0,-0.00537029107169,-75.0,-0.0,0.0,-0.0,-75.0,570664.8,0.0,0.0,0.0,0.0,0.0,0.0
1402754018250514944,3,-13.5955632803,-0.00591572024346,-9.29080459334,-0.122189614607,41.9232886072,0.10862951003,0.229225350259,0.0,-0.370614044992,0.0,0.200005198097,0.0,1.91242137961,0.0,-0.144572671508,0.0,-0.00179044166301,0.0,0.000944781941028,0.0,0.0728383336576,0.0,-0.032220729924,0.0,0.0,0.0,0.0,-75.0,0.0,-22.86,0.00230154196664,0.0,-0.00537029107169,-75.0,-0.0,0.0,-0.0,-75.0,570664.8,0.0,0.0,0.0,0.0,0.0,0.0
1402754018270373628,3,-13.5955632803,-0.00591572024346,-9.29080459334,-0.122189614607,41.9232886072,0.10862951003,0.229225350259,0.0,-0.370614044992,0.0,0.200005198097,0.0,1.91242137961,0.0,-0.144572671508,0.0,-0.00179044166301,0.0,0.000944781941028,0.0,0.0728383336576,0.0,-0.032220729924,0.0,0.0,0.0,0.0,-75.0,0.0,-22.86,0.00230154196664,0.0,-0.00537029107169,-75.0,-0.0,0.0,-0.0,-75.0,570664.8,0.0,0.0,0.0,0.0,0.0,0.0
1402754018290898747,3,-13.5904307426,-0.00591572024346,-9.30971716414,-0.122189614607,41.9214240578,0.10862951003,0.227178145771,0.0,-0.401785881379,0.0,0.197876734745,0.0,1.90468828929,0.0,-0.155883175549,0.0,-0.00373920691269,0.0,-0.0252601633405,0.0,0.0718199234223,0.0,0.0149104051899,0.0,0.0,0.0,0.0,-75.0,0.0,-22.86,0.00230154196664,0.0,-0.00537029107169,-75.0,-0.0,0.0,-0.0,-75.0,570664.8,0.0,0.0,0.0,0.0,0.0,0.0
1402754018310630606,3,-13.5904307426,-0.00591572024346,-9.30971716414,-0.122189614607,41.9214240578,0.10862951003,0.227178145771,0.0,-0.401785881379,0.0,0.197876734745,0.0,1.90468828929,0.0,-0.155883175549,0.0,-0.00373920691269,0.0,-0.0252601633405,0.0,0.0718199234223,0.0,0.0149104051899,0.0,0.0,0.0,0.0,-75.0,0.0,-22.86,0.00230154196664,0.0,-0.00537029107169,-75.0,-0.0,0.0,-0.0,-75.0,570664.8,0.0,0.0,0.0,0.0,0.0,0.0
1402754018331003719,3,-13.5821015746,-0.00591572024346,-9.31264491159,-0.122189614607,41.8883042161,0.10862951003,0.248337571482,0.0,-0.409994841129,0.0,0.192369351943,0.0,1.90000946396,0.0,-0.1568256674,0.0,-0.00195461578189,0.0,-0.0315345747428,0.0,0.0723122740811,0.0,0.0170390155386,0.0,0.0,0.0,0.0,-75.0,0.0,-22.86,0.00230154196664,0.0,-0.00537029107169,-75.0,-0.0,0.0,-0.0,-75.0,570664.8,0.0,0.0,0.0,0.0,0.0,0.0
1402754018350691028,3,-13.5821015746,-0.00591572024346,-9.31264491159,-0.122189614607,41.8883042161,0.10862951003,0.248337571482,0.0,-0.409994841129,0.0,0.192369351943,0.0,1.90000946396,0.0,-0.1568256674,0.0,-0.00195461578189,0.0,-0.0315345747428,0.0,0.0723122740811,0.0,0.0170390155386,0.0,0.0,0.0,0.0,-75.0,0.0,-22.86,0.00230154196664,0.0,-0.00537029107169,-75.0,-0.0,0.0,-0.0,-75.0,570664.8,0.0,0.0,0.0,0.0,0.0,0.0
1402754018370711512,3,-13.5720099716,-0.00591572024346,-9.32978069855,-0.122189614607,41.8962570461,0.10862951003,0.251257820219,0.0,-0.425068516617,0.0,0.196735039874,0.0,1.89351459507,0.0,-0.161374147734,0.0,-0.00250353419333,0.0,-0.011983266014,0.0,0.0729144213691,0.0,-0.000175093287624,0.0,0.0,0.0,0.0,-75.0,0.0,-22.86,0.00230154196664,0.0,-0.00537029107169,-75.0,-0.0,0.0,-0.0,-75.0,570664.8,0.0,0.0,0.0,0.0,0.0,0.0
1402754018390475850,3,-13.5720099716,-0.00591572024346,-9.32978069855,-0.122189614607,41.8962570461,0.10862951003,0.251257820219,0.0,-0.425068516617,0.0,0.196735039874,0.0,1.89351459507,0.0,-0.161374147734,0.0,-0.00250353419333,0.0,-0.011983266014,0.0,0.0729144213691,0.0,-0.000175093287624,0.0,0.0,0.0,0.0,-75.0,0.0,-22.86,0.00230154196664,0.0,-0.00537029107169,-75.0,-0.0,0.0,-0.0,-75.0,570664.8,0.0,0.0,0.0,0.0,0.0,0.0
1402754018410588078,3,-13.5630092303,-0.00591572024346,-9.33298787291,-0.122189614607,41.8989760874,0.10862951003,0.251789266117,0.0,-0.411960082302,0.0,0.205358389456,0.0,1.88715607964,0.0,-0.163078085775,0.0,-0.00258671512568,0.0,-0.0058985685124,0.0,0.0762665543125,0.0,-0.00265803299889,0.0,0.0,0.0,0.0,-75.0,0.0,-22.86,0.00230154196664,0.0,-0.00537029107169,-75.0,-0.0,0.0,-0.0,-75.0,570664.8,0.0,0.0,0.0,0.0,0.0,0.0
1402754018430490122,3,-13.5630092303,-0.00591572024346,-9.33298787291,-0.122189614607,41.8989760874,0.10862951003,0.251789266117,0.0,-0.411960082302,0.0,0.205358389456,0.0,1.88715607964,0.0,-0.163078085775,0.0,-0.00258671512568,0.0,-0.0058985685124,0.0,0.0762665543125,0.0,-0.00265803299889,0.0,0.0,0.0,0.0,-75.0,0.0,-22.86,0.00230154196664,0.0,-0.00537029107169,-75.0,-0.0,0.0,-0.0,-75.0,570664.8,0.0,0.0,0.0,0.0,0.0,0.0
1402754018451135838,3,-13.5606943543,-0.00591572024346,-9.33670619049,-0.122189614607,41.8493167468,0.10862951003,0.262461839465,0.0,-0.433648726023,0.0,0.199776453662,0.0,1.88078457201,0.0,-0.166703013646,0.0,-0.00242183801174,0.0,0.00237156722527,0.0,0.0750138104994,0.0,-0.0155056051665,0.0,0.0,0.0,0.0,-75.0,0.0,-22.86,0.00230154196664,0.0,-0.00537029107169,-75.0,-0.0,0.0,-0.0,-75.0,570664.8,0.0,0.0,0.0,0.0,0.0,0.0
1402754018470518854,3,-13.5606943543,-0.00591572024346,-9.33670619049,-0.122189614607,41.8493167468,0.10862951003,0.262461839465,0.0,-0.433648726023,0.0,0.199776453662,0.0,1.88078457201,0.0,-0.166703013646,0.0,-0.00242183801174,0.0,0.00237156722527,0.0,0.0750138104994,0.0,-0.0155056051665,0.0,0.0,0.0,0.0,-75.0,0.0,-22.86,0.00230154196664,0.0,-0.00537029107169,-75.0,-0.0,0.0,-0.0,-75.0,570664.8,0.0,0.0,0.0,0.0,0.0,0.0
1402754018490475956,3,-13.5519767121,-0.00591572024346,-9.35071800741,-0.122189614607,41.8433496737,0.10862951003,0.265427483284,0.0,-0.450586898918,0.0,0.203543427842,0.0,1.87365714236,0.0,-0.171559776812,0.0,-0.00317773200057,0.0,0.0109279878769,0.0,0.0745171596844,0.0,-0.0142669971841,0.0,0.0,0.0,0.0,-75.0,0.0,-22.86,0.00230154196664,0.0,-0.00537029107169,-75.0,-0.0,0.0,-0.0,-75.0,570664.8,0.0,0.0,0.0,0.0,0.0,0.0
1402754018510583212,3,-13.5519767121,-0.00591572024346,-9.35071800741,-0.122189614607,41.8433496737,0.10862951003,0.265427483284,0.0,-0.450586898918,0.0,0.203543427842,0.0,1.87365714236,0.0,-0.171559776812,0.0,-0.00317773200057,0.0,0.0109279878769,0.0,0.0745171596844,0.0,-0.0142669971841,0.0,0.0,0.0,0.0,-75.0,0.0,-22.86,0.00230154196664,0.0,-0.00537029107169,-75.0,-0.0,0.0,-0.0,-75.0,570664.8,0.0,0.0,0.0,0.0,0.0,0.0
1402754018530530707,3,-13.5383134855,-0.00591572024346,-9.37394224961,-0.122189614607,41.8537214882,0.10862951003,0.271450449431,0.0,-0.465722865579,0.0,0.206905990754,0.0,1.86477829594,0.0,-0.179112017324,0.0,-0.00333974204574,0.0,0.0150722566179,0.0,0.0740613804386,0.0,-0.004663340964,0.0,0.0,0.0,0.0,-75.0,0.0,-22.86,0.00230154196664,0.0,-0.00537029107169,-75.0,-0.0,0.0,-0.0,-75.0,570664.8,0.0,0.0,0.0,0.0,0.0,0.0
1402754018550441730,3,-13.5383134855,-0.00591572024346,-9.37394224961,-0.122189614607,41.8537214882,0.10862951003,0.271450449431,0.0,-0.465722865579,0.0,0.206905990754,0.0,1.86477829594,0.0,-0.179112017324,0.0,-0.00333974204574,0.0,0.0150722566179,0.0,0.0740613804386,0.0,-0.004663340964,0.0,0.0,0.0,0.0,-75.0,0.0,-22.86,0.00230154196664,0.0,-0.00537029107169,-75.0,-0.0,0.0,-0.0,-75.0,570664.8,0.0,0.0,0.0,0.0,0.0,0.0
1402754018571155910,3,-13.5306660517,-0.00591572024346,-9.3802136962,-0.122189614607,41.8311239589,0.10862951003,0.273119667743,0.0,-0.463077965067,0.0,0.205402331551,0.0,1.85552069091,0.0,-0.187764258461,0.0,-0.00316268952446,0.0,0.0172219162175,0.0,0.0751491191865,0.0,0.00222759610672,0.0,0.0,0.0,0.0,-75.0,0.0,-22.86,0.00230154196664,0.0,-0.00690451462821,-75.0,-0.0,0.0,-0.0,-75.0,570664.8,0.0,0.0,0.0,0.0,0.0,0.0
1402754018590886747,3,-13.5306660517,-0.00591572024346,-9.3802136962,-0.122189614607,41.8311239589,0.10862951003,0.273119667743,0.0,-0.463077965067,0.0,0.205402331551,0.0,1.85552069091,0.0,-0.187764258461,0.0,-0.00316268952446,0.0,0.0172219162175,0.0,0.0751491191865,0.0,0.00222759610672,0.0,0.0,0.0,0.0,-75.0,0.0,-22.86,0.00230154196664,0.0,-0.00537029107169,-75.0,-0.0,0.0,-0.0,-75.0,570664.8,0.0,0.0,0.0,0.0,0.0,0.0
1402754018610581857,3,-13.5295431907,-0.00591572024346,-9.38389621081,-0.122189614607,41.8019534435,0.10862951003,0.277793802004,0.0,-0.480231628391,0.0,0.203110104904,0.0,1.85197633651,0.0,-0.176762410426,0.0,-0.0031567026226,0.0,0.0133850382159,0.0,0.0732830699785,0.0,0.00698781314523,0.0,0.0,0.0,0.0,-75.0,0.0,-22.86,0.00230154196664,0.0,-0.00537029107169,-75.0,-0.0,0.0,-0.0,-75.0,570664.8,0.0,0.0,0.0,0.0,0.0,0.0
1402754018630499859,3,-13.5295431907,-0.00591572024346,-9.38389621081,-0.122189614607,41.8019534435,0.10862951003,0.277793802004,0.0,-0.480231628391,0.0,0.203110104904,0.0,1.85197633651,0.0,-0.176762410426,0.0,-0.0031567026226,0.0,0.0133850382159,0.0,0.0732830699785,0.0,0.00698781314523,0.0,0.0,0.0,0.0,-75.0,0.0,-22.86,0.00230154196664,0.0,-0.00537029107169,-75.0,-0.0,0.0,-0.0,-75.0,570664.8,0.0,0.0,0.0,0.0,0.0,0.0
1402754018650368176,3,-13.5137258209,-0.00591572024346,-9.39693664109,-0.122189614607,41.7954762965,0.10862951003,0.295530658115,0.0,-0.490818837864,0.0,0.204583866657,0.0,1.84535969274,0.0,-0.185598860392,0.0,-0.00144353846894,0.0,0.0226840129572,0.0,0.0723613553488,0.0,0.00923980012659,0.0,0.0,0.0,0.0,-75.0,0.0,-22.86,0.00230154196664,0.0,-0.00537029107169,-75.0,-0.0,0.0,-0.0,-75.0,570664.8,0.0,0.0,0.0,0.0,0.0,0.0
1402754018670719778,3,-13.5137258209,-0.00591572024346,-9.39693664109,-0.122189614607,41.7954762965,0.10862951003,0.295530658115,0.0,-0.490818837864,0.0,0.204583866657,0.0,1.84535969274,0.0,-0.185598860392,0.0,-0.00144353846894,0.0,0.0226840129572,0.0,0.0723613553488,0.0,0.00923980012659,0.0,0.0,0.0,0.0,-75.0,0.0,-22.86,0.00230154196664,0.0,-0.00537029107169,-75.0,-0.0,0.0,-0.0,-75.0,570664.8,0.0,0.0,0.0,0.0,0.0,0.0
1402754018690432081,3,-13.5073013917,-0.00591572024346,-9.41096481015,-0.122189614607,41.7817078144,0.10862951003,0.293965421432,0.0,-0.503921931395,0.0,0.206020352249,0.0,1.83750979394,0.0,-0.191498245922,0.0,-0.00237099246928,0.0,0.00809000774637,0.0,0.0713524781083,0.0,0.0282276280676,0.0,0.0,0.0,0.0,-75.0,0.0,-22.86,0.00230154196664,0.0,-0.00537029107169,-75.0,-0.0,0.0,-0.0,-75.0,570664.8,0.0,0.0,0.0,0.0,0.0,0.0
1402754018711185970,3,-13.5073013917,-0.00591572024346,-9.41096481015,-0.122189614607,41.7817078144,0.10862951003,0.293965421432,0.0,-0.503921931395,0.0,0.206020352249,0.0,1.83750979394,0.0,-0.191498245922,0.0,-0.00237099246928,0.0,0.00809000774637,0.0,0.0713524781083,0.0,0.0282276280676,0.0,0.0,0.0,0.0,-75.0,0.0,-22.86,0.00230154196664,0.0,-0.00537029107169,-75.0,-0.0,0.0,-0.0,-75.0,570664.8,0.0,0.0,0.0,0.0,0.0,0.0
1402754018730464937,3,-13.4955821052,-0.00591572024346,-9.43129512911,-0.122189614607,41.7898130063,0.10862951003,0.294162907434,0.0,-0.516678897412,0.0,0.203622032,0.0,1.82967114925,0.0,-0.195589895335,0.0,-0.00270039251969,0.0,0.0214965948447,0.0,0.0706281443968,0.0,-0.00664415610333,0.0,0.0,0.0,0.0,-75.0,0.0,-22.86,0.00230154196664,0.0,-0.00537029107169,-75.0,-0.0,0.0,-0.0,-75.0,570664.8,0.0,0.0,0.0,0.0,0.0,0.0
1402754018750920584,3,-13.4955821052,-0.00591572024346,-9.43129512911,-0.122189614607,41.7898130063,0.10862951003,0.294162907434,0.0,-0.516678897412,0.0,0.203622032,0.0,1.82967114925,0.0,-0.195589895335,0.0,-0.00270039251969,0.0,0.0214965948447,0.0,0.0706281443968,0.0,-0.00664415610333,0.0,0.0,0.0,0.0,-75.0,0.0,-22.86,0.00230154196664,0.0,-0.00690451462821,-75.0,-0.0,0.0,-0.0,-75.0,570664.8,0.0,0.0,0.0,0.0,0.0,0.0
1402754018770920113,3,-13.4885344064,-0.00591572024346,-9.44400393997,-0.122189614607,41.7776297145,0.10862951003,0.292797289666,0.0,-0.523897962713,0.0,0.206822902556,0.0,1.82167288682,0.0,-0.20104198714,0.0,-0.00337194970938,0.0,0.018085185132,0.0,0.0702508028823,0.0,-0.000680882622706,0.0,0.0,0.0,0.0,-75.0,0.0,-22.86,0.00230154196664,0.0,-0.00537029107169,-75.0,-0.0,0.0,-0.0,-75.0,570664.8,0.0,0.0,0.0,0.0,0.0,0.0
1402754018790376220,3,-13.4885344064,-0.00591572024346,-9.44400393997,-0.122189614607,41.7776297145,0.10862951003,0.292797289666,0.0,-0.523897962713,0.0,0.206822902556,0.0,1.82167288682,0.0,-0.20104198714,0.0,-0.00337194970938,0.0,0.018085185132,0.0,0.0702508028823,0.0,-0.000680882622706,0.0,0.0,0.0,0.0,-75.0,0.0,-22.86,0.00230154196664,0.0,-0.00537029107169,-75.0,-0.0,0.0,-0.0,-75.0,570664.8,0.0,0.0,0.0,0.0,0.0,0.0
1402754018810888990,3,-13.475196655,-0.00591572024346,-9.45743262469,-0.122189614607,41.7677400217,0.10862951003,0.305487867505,0.0,-0.53296938753,0.0,0.209168186113,0.0,1.81407535626,0.0,-0.20243161862,0.0,-0.00231847502533,0.0,0.0215367025977,0.0,0.0696744232995,0.0,-0.00735500282398,0.0,0.0,0.0,0.0,-75.0,0.0,-22.86,0.00230154196664,0.0,-0.00537029107169,-75.0,-0.0,0.0,-0.0,-75.0,570664.8,0.0,0.0,0.0,0.0,0.0,0.0
1402754018830606200,3,-13.475196655,-0.00591572024346,-9.45743262469,-0.122189614607,41.7677400217,0.10862951003,0.305487867505,0.0,-0.53296938753,0.0,0.209168186113,0.0,1.81407535626,0.0,-0.20243161862,0.0,-0.00231847502533,0.0,0.0215367025977,0.0,0.0696744232995,0.0,-0.00735500282398,0.0,0.0,0.0,0.0,-75.0,0.0,-22.86,0.00230154196664,0.0,-0.00537029107169,-75.0,-0.0,0.0,-0.0,-75.0,570664.8,0.0,0.0,0.0,0.0,0.0,0.0
1402754018850221287,3,-13.4717568406,-0.00591572024346,-9.45972879879,-0.122189614607,41.7263507691,0.10862951003,0.309774650396,0.0,-0.533012601067,0.0,0.207260408514,0.0,1.80601668582,0.0,-0.200450534947,0.0,-0.00203345324296,0.0,0.0130440389349,0.0,0.0701251203023,0.0,-0.0195193611421,0.0,0.0,0.0,0.0,-75.0,0.0,-22.86,0.00230154196664,0.0,-0.00537029107169,-75.0,-0.0,0.0,-0.0,-75.0,570664.8,0.0,0.0,0.0,0.0,0.0,0.0
1402754018870596151,3,-13.4717568406,-0.00591572024346,-9.45972879879,-0.122189614607,41.7263507691,0.10862951003,0.309774650396,0.0,-0.533012601067,0.0,0.207260408514,0.0,1.80601668582,0.0,-0.200450534947,0.0,-0.00203345324296,0.0,0.0130440389349,0.0,0.0701251203023,0.0,-0.0195193611421,0.0,0.0,0.0,0.0,-75.0,0.0,-22.86,0.00230154196664,0.0,-0.00537029107169,-75.0,-0.0,0.0,-0.0,-75.0,570664.8,0.0,0.0,0.0,0.0,0.0,0.0
1402754018890776225,3,-13.4687122405,-0.00591572024346,-9.46997379775,-0.122189614607,41.7066764374,0.10862951003,0.30297326242,0.0,-0.538752840339,0.0,0.207499744803,0.0,1.79749029115,0.0,-0.20645485536,0.0,-0.0027421093533,0.0,-0.00173453226388,0.0,0.0706289133387,0.0,-0.0101324502348,0.0,0.0,0.0,0.0,-75.0,0.0,-22.86,0.00230154196664,0.0,-0.00537029107169,-75.0,-0.0,0.0,-0.0,-75.0,570664.8,0.0,0.0,0.0,0.0,0.0,0.0
1402754018911131902,3,-13.4687122405,-0.00591572024346,-9.46997379775,-0.122189614607,41.7066764374,0.10862951003,0.30297326242,0.0,-0.538752840339,0.0,0.207499744803,0.0,1.79749029115,0.0,-0.20645485536,0.0,-0.0027421093533,0.0,-0.00173453226388,0.0,0.0706289133387,0.0,-0.0101324502348,0.0,0.0,0.0,0.0,-75.0,0.0,-22.86,0.00230154196664,0.0,-0.00537029107169,-75.0,-0.0,0.0,-0.0,-75.0,570664.8,0.0,0.0,0.0,0.0,0.0,0.0
1402754018930432073,3,-13.4565772664,-0.00591572024346,-9.49168926107,-0.122189614607,41.7148731309,0.10862951003,0.303949046436,0.0,-0.547075953449,0.0,0.20952689231,0.0,1.78910299355,0.0,-0.210370551376,0.0,-0.00266631679302,0.0,-0.0131531050793,0.0,0.0709939517523,0.0,-0.0141286896639,0.0,0.0,0.0,0.0,-75.0,0.0,-22.86,0.00230154196664,0.0,-0.00537029107169,-75.0,-0.0,0.0,-0.0,-75.0,570664.8,0.0,0.0,0.0,0.0,0.0,0.0
1402754018950774092,3,-13.4565772664,-0.00591572024346,-9.49168926107,-0.122189614607,41.7148731309,0.10862951003,0.303949046436,0.0,-0.547075953449,0.0,0.20952689231,0.0,1.78910299355,0.0,-0.210370551376,0.0,-0.00266631679302,0.0,-0.0131531050793,0.0,0.0709939517523,0.0,-0.0141286896639,0.0,0.0,0.0,0.0,-75.0,0.0,-22.86,0.00230154196664,0.0,-0.00537029107169,-75.0,-0.0,0.0,-0.0,-75.0,570664.8,0.0,0.0,0.0,0.0,0.0,0.0
1402754018970647650,3,-13.4435310618,-0.00591572024346,-9.51547626979,-0.122189614607,41.7221320911,0.10862951003,0.30713732172,0.0,-0.56610940651,0.0,0.207074165096,0.0,1.78080303685,0.0,-0.204917744487,0.0,-0.00255941137297,0.0,-0.0176888275816,0.0,0.0705387880062,0.0,0.0022862385393,0.0,0.0,0.0,0.0,-75.0,0.0,-22.86,0.00230154196664,0.0,-0.00537029107169,-75.0,-0.0,0.0,-0.0,-75.0,570664.8,0.0,0.0,0.0,0.0,0.0,0.0
1402754018990978650,3,-13.4435310618,-0.00591572024346,-9.51547626979,-0.122189614607,41.7221320911,0.10862951003,0.30713732172,0.0,-0.56610940651,0.0,0.207074165096,0.0,1.78080303685,0.0,-0.204917744487,0.0,-0.00255941137297,0.0,-0.0176888275816,0.0,0.0705387880062,0.0,0.0022862385393,0.0,0.0,0.0,0.0,-75.0,0.0,-22.86,0.00230154196664,0.0,-0.00537029107169,-75.0,-0.0,0.0,-0.0,-75.0,570664.8,0.0,0.0,0.0,0.0,0.0,0.0
1402754019010464563,3,-13.4370380403,-0.00591572024346,-9.52691316172,-0.122189614607,41.6877859902,0.10862951003,0.313139394545,0.0,-0.580377520598,0.0,0.204627724286,0.0,1.77238327856,0.0,-0.215996141754,0.0,-0.00183945455342,0.0,-0.0225799070656,0.0,0.0702751836546,0.0,0.0274739332392,0.0,0.0,0.0,0.0,-75.0,0.0,-22.86,0.00230154196664,0.0,-0.00537029107169,-75.0,-0.0,0.0,-0.0,-75.0,570664.8,0.0,0.0,0.0,0.0,0.0,0.0
1402754019031612674,3,-13.4370380403,-0.00591572024346,-9.52691316172,-0.122189614607,41.6877859902,0.10862951003,0.313139394545,0.0,-0.580377520598,0.0,0.204627724286,0.0,1.77238327856,0.0,-0.215996141754,0.0,-0.00183945455342,0.0,-0.0225799070656,0.0,0.0702751836546,0.0,0.0274739332392,0.0,0.0,0.0,0.0,-75.0,0.0,-22.86,0.00230154196664,0.0,-0.00537029107169,-75.0,-0.0,0.0,-0.0,-75.0,570664.8,0.0,0.0,0.0,0.0,0.0,0.0
1402754019050682863,3,-13.4362922851,-0.00591572024346,-9.53348865603,-0.122189614607,41.6436022132,0.10862951003,0.309475730284,0.0,-0.589318891665,0.0,0.193759059966,0.0,1.7637667839,0.0,-0.214197026441,0.0,-0.00150015005784,0.0,-0.021791901853,0.0,0.0709960764839,0.0,0.0365482875582,0.0,0.0,0.0,0.0,-75.0,0.0,-22.86,0.00230154196664,0.0,-0.00537029107169,-75.0,-0.0,0.0,-0.0,-75.0,570664.8,0.0,0.0,0.0,0.0,0.0,0.0
1402754019070638908,3,-13.4362922851,-0.00591572024346,-9.53348865603,-0.122189614607,41.6436022132,0.10862951003,0.309475730284,0.0,-0.589318891665,0.0,0.193759059966,0.0,1.7637667839,0.0,-0.214197026441,0.0,-0.00150015005784,0.0,-0.021791901853,0.0,0.0709960764839,0.0,0.0365482875582,0.0,0.0,0.0,0.0,-75.0,0.0,-22.86,0.00230154196664,0.0,-0.00537029107169,-75.0,-0.0,0.0,-0.0,-75.0,570664.8,0.0,0.0,0.0,0.0,0.0,0.0
