rosbagTimestamp,control_method,x_current,x_desired,y_current,y_desired,z_current,z_desired,x_velocity_current,x_velocity_desired,y_velocity_current,y_velocity_desired,z_velocity_current,z_velocity_desired,yaw_current,yaw_desired,yaw_velocity_current,yaw_velocity_desired,roll_current,roll_desired,roll_velocity_current,roll_velocity_desired,pitch_current,pitch_desired,pitch_velocity_current,pitch_velocity_desired,required_force_x,required_force_y,required_moment_z,resultant_force_x,resultant_force_y,resultant_moment_z,current_port_servo_angle,current_port_thruster_force,current_starboard_servo_angle,current_starboard_thruster_force,estimated_port_servo_angle,estimated_port_thruster_force,estimated_starboard_servo_angle,estimated_starboard_thruster_force,cost_value,step,user_defined_1,user_defined_2,user_defined_3,user_defined_4,user_defined_5
1402752527665891157,3,-7.8936064661,-0.00591572024346,8.91486805853,-0.122189614607,0.0587915346143,0.10862951003,0.00397284219995,0.0,-0.0145604076264,0.0,0.0803011030673,0.0,-1.49955299167,0.0,-0.0031844624853,0.0,-0.00135649043331,0.0,-0.0167495651032,0.0,0.0722483684235,0.0,-0.0109823218929,0.0,0.0,0.0,0.0,25.0,-0.0,-7.62,0.00230154196664,0.0,0.000767318410122,0.0,-0.0,25.0,-0.0,0.0,63407.2,0.0,0.0,0.0,0.0,0.0,0.0
1402752527685234498,3,-7.8936064661,-0.00591572024346,8.91486805853,-0.122189614607,0.0587915346143,0.10862951003,0.00397284219995,0.0,-0.0145604076264,0.0,0.0803011030673,0.0,-1.49955299167,0.0,-0.0031844624853,0.0,-0.00135649043331,0.0,-0.0167495651032,0.0,0.0722483684235,0.0,-0.0109823218929,0.0,0.0,0.0,0.0,25.0,-0.0,-7.62,0.00230154196664,0.0,0.000767318410122,0.0,-0.0,25.0,-0.0,0.0,63407.2,0.0,0.0,0.0,0.0,0.0,0.0
1402752527705413275,3,-7.89658342118,-0.00591572024346,8.91212401972,-0.122189614607,0.0618711805416,0.10862951003,-0.00739610403643,0.0,-0.0217238804488,0.0,0.079319173123,0.0,-1.49957926888,0.0,0.00137802685085,0.0,0.000215478836349,0.0,-0.01414979945,0.0,0.0723040261418,0.0,-0.00857547275144,0.0,0.0,0.0,0.0,25.0,-0.0,-7.62,0.00230154196664,0.0,0.000767318410122,0.0,-0.0,25.0,-0.0,0.0,63407.2,0.0,0.0,0.0,0.0,0.0,0.0
1402752527725836038,3,-7.89658342118,-0.00591572024346,8.91212401972,-0.122189614607,0.0618711805416,0.10862951003,-0.00739610403643,0.0,-0.0217238804488,0.0,0.079319173123,0.0,-1.49957926888,0.0,0.00137802685085,0.0,0.000215478836349,0.0,-0.01414979945,0.0,0.0723040261418,0.0,-0.00857547275144,0.0,0.0,0.0,0.0,25.0,-0.0,-7.62,0.00230154196664,0.0,0.000767318410122,0.0,-0.0,25.0,-0.0,0.0,63407.2,0.0,0.0,0.0,0.0,0.0,0.0
1402752527746256864,3,-7.89740132533,-0.00591572024346,8.91636592993,-0.122189614607,0.0606346318087,0.10862951003,-0.0134642801605,0.0,-0.0139927055375,0.0,0.0758549042062,0.0,-1.49971582598,0.0,-0.00384926395694,0.0,0.000965072213784,0.0,-0.00993406878979,0.0,0.0708779536578,0.0,-0.0133384799341,0.0,0.0,0.0,0.0,25.0,-0.0,-7.62,0.00230154196664,0.0,0.000767318410122,0.0,-0.0,25.0,-0.0,0.0,63407.2,0.0,0.0,0.0,0.0,0.0,0.0
1402752527765425509,3,-7.89740132533,-0.00591572024346,8.91636592993,-0.122189614607,0.0606346318087,0.10862951003,-0.0134642801605,0.0,-0.0139927055375,0.0,0.0758549042062,0.0,-1.49971582598,0.0,-0.00384926395694,0.0,0.000965072213784,0.0,-0.00993406878979,0.0,0.0708779536578,0.0,-0.0133384799341,0.0,0.0,0.0,0.0,25.0,-0.0,-7.62,0.00230154196664,0.0,0.000767318410122,0.0,-0.0,25.0,-0.0,0.0,63407.2,0.0,0.0,0.0,0.0,0.0,0.0
1402752527785291937,3,-7.89451760655,-0.00591572024346,8.91923927354,-0.122189614607,0.0539188120567,0.10862951003,-0.00779328099413,0.0,-0.0122554651285,0.0,0.0697565625716,0.0,-1.50005582038,0.0,-0.00525688935151,0.0,0.000527942637989,0.0,-0.010075077246,0.0,0.070330884102,0.0,-0.00203553843018,0.0,0.0,0.0,0.0,25.0,-0.0,-7.62,0.00230154196664,0.0,0.000767318410122,0.0,-0.0,25.0,-0.0,0.0,63407.2,0.0,0.0,0.0,0.0,0.0,0.0
1402752527805305683,3,-7.89451760655,-0.00591572024346,8.91923927354,-0.122189614607,0.0539188120567,0.10862951003,-0.00779328099413,0.0,-0.0122554651285,0.0,0.0697565625716,0.0,-1.50005582038,0.0,-0.00525688935151,0.0,0.000527942637989,0.0,-0.010075077246,0.0,0.070330884102,0.0,-0.00203553843018,0.0,0.0,0.0,0.0,25.0,-0.0,-7.62,0.00230154196664,0.0,0.000767318410122,0.0,-0.0,25.0,-0.0,0.0,63407.2,0.0,0.0,0.0,0.0,0.0,0.0
1402752527826051296,3,-7.89259309727,-0.00591572024346,8.91405100014,-0.122189614607,0.0594205626171,0.10862951003,-0.005241417535,0.0,-0.0235347342913,0.0,0.0681316940657,0.0,-1.50043952148,0.0,-0.00683134202325,0.0,0.000472111834119,0.0,-0.00982955948646,0.0,0.0712607630736,0.0,-0.000786657466079,0.0,0.0,0.0,0.0,25.0,-0.0,-7.62,0.00230154196664,0.0,0.000767318410122,0.0,-0.0,25.0,-0.0,0.0,63407.2,0.0,0.0,0.0,0.0,0.0,0.0
1402752527845237147,3,-7.89259309727,-0.00591572024346,8.91405100014,-0.122189614607,0.0594205626171,0.10862951003,-0.005241417535,0.0,-0.0235347342913,0.0,0.0681316940657,0.0,-1.50043952148,0.0,-0.00683134202325,0.0,0.000472111834119,0.0,-0.00982955948646,0.0,0.0712607630736,0.0,-0.000786657466079,0.0,0.0,0.0,0.0,25.0,-0.0,-7.62,0.00230154196664,0.0,0.000767318410122,0.0,-0.0,25.0,-0.0,0.0,63407.2,0.0,0.0,0.0,0.0,0.0,0.0
1402752527865374439,3,-7.89280340999,-0.00591572024346,8.91310091703,-0.122189614607,0.0621503025792,0.10862951003,-0.00380180929512,0.0,-0.0240866937089,0.0,0.0679190324306,0.0,-1.50071064725,0.0,-0.00464268882585,0.0,0.000332689380146,0.0,-0.00285385320337,0.0,0.0709876134101,0.0,0.00864976835121,0.0,0.0,0.0,0.0,25.0,-0.0,-7.62,0.00230154196664,0.0,0.000767318410122,0.0,-0.0,25.0,-0.0,0.0,63407.2,0.0,0.0,0.0,0.0,0.0,0.0
1402752527886214709,3,-7.89280340999,-0.00591572024346,8.91310091703,-0.122189614607,0.0621503025792,0.10862951003,-0.00380180929512,0.0,-0.0240866937089,0.0,0.0679190324306,0.0,-1.50071064725,0.0,-0.00464268882585,0.0,0.000332689380146,0.0,-0.00285385320337,0.0,0.0709876134101,0.0,0.00864976835121,0.0,0.0,0.0,0.0,25.0,-0.0,-7.62,0.00230154196664,0.0,0.000767318410122,0.0,-0.0,25.0,-0.0,0.0,63407.2,0.0,0.0,0.0,0.0,0.0,0.0
1402752527905422107,3,-7.89039900534,-0.00591572024346,8.91515284979,-0.122189614607,0.0768873159377,0.10862951003,-0.00495773508092,0.0,-0.0130677927748,0.0,0.0697007323951,0.0,-1.50087675362,0.0,0.000502636602565,0.0,0.000158427379436,0.0,-0.00600378354844,0.0,0.0695447757644,0.0,0.00617575028491,0.0,0.0,0.0,0.0,25.0,-0.0,-7.62,0.00230154196664,0.0,0.000767318410122,0.0,-0.0,25.0,-0.0,0.0,63407.2,0.0,0.0,0.0,0.0,0.0,0.0
1402752527925177776,3,-7.89039900534,-0.00591572024346,8.91515284979,-0.122189614607,0.0768873159377,0.10862951003,-0.00495773508092,0.0,-0.0130677927748,0.0,0.0697007323951,0.0,-1.50087675362,0.0,0.000502636602565,0.0,0.000158427379436,0.0,-0.00600378354844,0.0,0.0695447757644,0.0,0.00617575028491,0.0,0.0,0.0,0.0,25.0,-0.0,-7.62,0.00230154196664,0.0,0.000767318410122,0.0,-0.0,25.0,-0.0,0.0,63407.2,0.0,0.0,0.0,0.0,0.0,0.0
1402752527945807180,3,-7.88236371633,-0.00591572024346,8.91304079899,-0.122189614607,0.075924548967,0.10862951003,0.0135301108598,0.0,-0.0210664639408,0.0,0.0667069351021,0.0,-1.50144278662,0.0,-0.0106310821439,0.0,-0.0021239465578,0.0,-0.00428637663282,0.0,0.0706149322122,0.0,0.0146366884836,0.0,0.0,0.0,0.0,25.0,-0.0,-7.62,0.00230154196664,0.0,0.000767318410122,0.0,-0.0,25.0,-0.0,0.0,63407.2,0.0,0.0,0.0,0.0,0.0,0.0
1402752527965398915,3,-7.88236371633,-0.00591572024346,8.91304079899,-0.122189614607,0.075924548967,0.10862951003,0.0135301108598,0.0,-0.0210664639408,0.0,0.0667069351021,0.0,-1.50144278662,0.0,-0.0106310821439,0.0,-0.0021239465578,0.0,-0.00428637663282,0.0,0.0706149322122,0.0,0.0146366884836,0.0,0.0,0.0,0.0,25.0,-0.0,-7.62,0.00230154196664,0.0,0.000767318410122,0.0,-0.0,25.0,-0.0,0.0,63407.2,0.0,0.0,0.0,0.0,0.0,0.0
1402752527985178476,3,-7.88663210331,-0.00591572024346,8.91229768957,-0.122189614607,0.0779631785536,0.10862951003,-0.00228598643426,0.0,-0.0237795268357,0.0,0.0665604010146,0.0,-1.50151495888,0.0,-0.00225159008668,0.0,-0.000761724355738,0.0,0.00534574299169,0.0,0.0707172188514,0.0,0.0133776525925,0.0,0.0,0.0,0.0,25.0,-0.0,-7.62,0.00230154196664,0.0,0.000767318410122,0.0,-0.0,25.0,-0.0,0.0,63407.2,0.0,0.0,0.0,0.0,0.0,0.0
1402752528006067704,3,-7.88663210331,-0.00591572024346,8.91229768957,-0.122189614607,0.0779631785536,0.10862951003,-0.00228598643426,0.0,-0.0237795268357,0.0,0.0665604010146,0.0,-1.50151495888,0.0,-0.00225159008668,0.0,-0.000761724355738,0.0,0.00534574299169,0.0,0.0707172188514,0.0,0.0133776525925,0.0,0.0,0.0,0.0,25.0,-0.0,-7.62,0.00230154196664,0.0,0.000767318410122,0.0,-0.0,25.0,-0.0,0.0,63407.2,0.0,0.0,0.0,0.0,0.0,0.0
1402752528025405106,3,-7.88664214015,-0.00591572024346,8.91138006178,-0.122189614607,0.0806852009536,0.10862951003,0.000165735006992,0.0,-0.0242415504614,0.0,0.0678078965916,0.0,-1.5017009948,0.0,-0.00267325570446,0.0,-0.00153943232409,0.0,0.00929994093112,0.0,0.0709799246611,0.0,0.0250021466839,0.0,0.0,0.0,0.0,25.0,-0.0,-7.62,0.00230154196664,0.0,0.000767318410122,0.0,-0.0,25.0,-0.0,0.0,63407.2,0.0,0.0,0.0,0.0,0.0,0.0
1402752528045211309,3,-7.88664214015,-0.00591572024346,8.91138006178,-0.122189614607,0.0806852009536,0.10862951003,0.000165735006992,0.0,-0.0242415504614,0.0,0.0678078965916,0.0,-1.5017009948,0.0,-0.00267325570446,0.0,-0.00153943232409,0.0,0.00929994093112,0.0,0.0709799246611,0.0,0.0250021466839,0.0,0.0,0.0,0.0,25.0,-0.0,-7.62,0.00230154196664,0.0,0.000767318410122,0.0,-0.0,25.0,-0.0,0.0,63407.2,0.0,0.0,0.0,0.0,0.0,0.0
1402752528066237053,3,-7.88434232005,-0.00591572024346,8.91703584698,-0.122189614607,0.0722975651352,0.10862951003,-3.45802340724e-05,0.0,-0.0160181400118,0.0,0.0624175035499,0.0,-1.50181492773,0.0,0.00056742869033,0.0,-0.0022645648713,0.0,0.000555998424552,0.0,0.0704371882233,0.0,0.00907118284118,0.0,0.0,0.0,0.0,25.0,-0.0,-7.62,0.00230154196664,0.0,-0.000767381983555,0.0,-0.0,25.0,-0.0,0.0,63407.2,0.0,0.0,0.0,0.0,0.0,0.0
1402752528085313429,3,-7.88434232005,-0.00591572024346,8.91703584698,-0.122189614607,0.0722975651352,0.10862951003,-3.45802340724e-05,0.0,-0.0160181400118,0.0,0.0624175035499,0.0,-1.50181492773,0.0,0.00056742869033,0.0,-0.0022645648713,0.0,0.000555998424552,0.0,0.0704371882233,0.0,0.00907118284118,0.0,0.0,0.0,0.0,25.0,-0.0,-7.62,0.00230154196664,0.0,-0.000767381983555,0.0,-0.0,25.0,-0.0,0.0,63407.2,0.0,0.0,0.0,0.0,0.0,0.0
1402752528105402951,3,-7.88053091481,-0.00591572024346,8.91100346901,-0.122189614607,0.091937497741,0.10862951003,0.00405890256729,0.0,-0.0228641081273,0.0,0.0695405368132,0.0,-1.50190867577,0.0,-0.000314948207571,0.0,-0.00320986381528,0.0,0.0030907590852,0.0,0.0713982882195,0.0,0.0124174289524,0.0,0.0,0.0,0.0,25.0,-0.0,-7.62,0.00230154196664,0.0,0.000767318410122,0.0,-0.0,25.0,-0.0,0.0,63407.2,0.0,0.0,0.0,0.0,0.0,0.0
1402752528125267507,3,-7.88053091481,-0.00591572024346,8.91100346901,-0.122189614607,0.091937497741,0.10862951003,0.00405890256729,0.0,-0.0228641081273,0.0,0.0695405368132,0.0,-1.50190867577,0.0,-0.000314948207571,0.0,-0.00320986381528,0.0,0.0030907590852,0.0,0.0713982882195,0.0,0.0124174289524,0.0,0.0,0.0,0.0,25.0,-0.0,-7.62,0.00230154196664,0.0,0.000767318410122,0.0,-0.0,25.0,-0.0,0.0,63407.2,0.0,0.0,0.0,0.0,0.0,0.0
1402752528145201811,3,-7.88151090793,-0.00591572024346,8.91749891709,-0.122189614607,0.0872849423498,0.10862951003,-0.00478569419464,0.0,-0.0116032361424,0.0,0.0669257816633,0.0,-1.50189696591,0.0,-0.00186526395056,0.0,-0.00263830015608,0.0,0.000209850026844,0.0,0.0703368375961,0.0,0.00278120643589,0.0,0.0,0.0,0.0,25.0,-0.0,-7.62,0.00230154196664,0.0,0.000767318410122,0.0,-0.0,25.0,-0.0,0.0,63407.2,0.0,0.0,0.0,0.0,0.0,0.0
1402752528165458879,3,-7.88151090793,-0.00591572024346,8.91749891709,-0.122189614607,0.0872849423498,0.10862951003,-0.00478569419464,0.0,-0.0116032361424,0.0,0.0669257816633,0.0,-1.50189696591,0.0,-0.00186526395056,0.0,-0.00263830015608,0.0,0.000209850026844,0.0,0.0703368375961,0.0,0.00278120643589,0.0,0.0,0.0,0.0,25.0,-0.0,-7.62,0.00230154196664,0.0,0.000767318410122,0.0,-0.0,25.0,-0.0,0.0,63407.2,0.0,0.0,0.0,0.0,0.0,0.0
1402752528185371143,3,-7.8769676592,-0.00591572024346,8.9156343814,-0.122189614607,0.0918354221838,0.10862951003,0.00134223240227,0.0,-0.0172769080822,0.0,0.069208046697,0.0,-1.50199099609,0.0,-0.000291058926247,0.0,-0.00346468171286,0.0,0.00722704648388,0.0,0.0712577890729,0.0,0.00703947803315,0.0,0.0,0.0,0.0,25.0,-0.0,-7.62,0.00230154196664,0.0,0.000767318410122,0.0,-0.0,25.0,-0.0,0.0,63407.2,0.0,0.0,0.0,0.0,0.0,0.0
1402752528205415207,3,-7.8769676592,-0.00591572024346,8.9156343814,-0.122189614607,0.0918354221838,0.10862951003,0.00134223240227,0.0,-0.0172769080822,0.0,0.069208046697,0.0,-1.50199099609,0.0,-0.000291058926247,0.0,-0.00346468171286,0.0,0.00722704648388,0.0,0.0712577890729,0.0,0.00703947803315,0.0,0.0,0.0,0.0,25.0,-0.0,-7.62,0.00230154196664,0.0,0.000767318410122,0.0,-0.0,25.0,-0.0,0.0,63407.2,0.0,0.0,0.0,0.0,0.0,0.0
1402752528225169138,3,-7.87697609629,-0.00591572024346,8.91489203364,-0.122189614607,0.0946447411635,0.10862951003,-0.000997611450074,0.0,-0.0170416253051,0.0,0.0708126667679,0.0,-1.50204471904,0.0,0.00196260461127,0.0,-0.00317106606423,0.0,0.00508406691366,0.0,0.0714976728971,0.0,-0.00670025039015,0.0,0.0,0.0,0.0,25.0,-0.0,-7.62,0.00230154196664,0.0,0.000767318410122,0.0,-0.0,25.0,-0.0,0.0,63407.2,0.0,0.0,0.0,0.0,0.0,0.0
1402752528245195598,3,-7.87697609629,-0.00591572024346,8.91489203364,-0.122189614607,0.0946447411635,0.10862951003,-0.000997611450074,0.0,-0.0170416253051,0.0,0.0708126667679,0.0,-1.50204471904,0.0,0.00196260461127,0.0,-0.00317106606423,0.0,0.00508406691366,0.0,0.0714976728971,0.0,-0.00670025039015,0.0,0.0,0.0,0.0,25.0,-0.0,-7.62,0.00230154196664,0.0,0.000767318410122,0.0,-0.0,25.0,-0.0,0.0,63407.2,0.0,0.0,0.0,0.0,0.0,0.0
1402752528265275041,3,-7.87361358725,-0.00591572024346,8.91660115889,-0.122189614607,0.102720653146,0.10862951003,-0.00166629464041,0.0,-0.0119460349784,0.0,0.0731594785353,0.0,-1.50216221606,0.0,0.0001863435952,0.0,-0.00294507578148,0.0,0.00430190197397,0.0,0.0710563203463,0.0,-0.0147288218742,0.0,0.0,0.0,0.0,25.0,-0.0,-7.62,0.00230154196664,0.0,0.000767318410122,0.0,-0.0,25.0,-0.0,0.0,63407.2,0.0,0.0,0.0,0.0,0.0,0.0
1402752528286104956,3,-7.87361358725,-0.00591572024346,8.91660115889,-0.122189614607,0.102720653146,0.10862951003,-0.00166629464041,0.0,-0.0119460349784,0.0,0.0731594785353,0.0,-1.50216221606,0.0,0.0001863435952,0.0,-0.00294507578148,0.0,0.00430190197397,0.0,0.0710563203463,0.0,-0.0147288218742,0.0,0.0,0.0,0.0,25.0,-0.0,-7.62,0.000767318410122,0.0,0.000767318410122,0.0,-0.0,25.0,-0.0,0.0,63407.2,0.0,0.0,0.0,0.0,0.0,0.0
1402752528305489303,3,-7.87364685001,-0.00591572024346,8.9172888817,-0.122189614607,0.0981466190316,0.10862951003,-0.00640440594835,0.0,-0.0150221484154,0.0,0.0704004369411,0.0,-1.50233562079,0.0,-0.00928921934046,0.0,-0.0018251918134,0.0,0.0031485142456,0.0,0.07159589845,0.0,-0.00791312675733,0.0,0.0,0.0,0.0,25.0,-0.0,-7.62,0.00230154196664,0.0,0.000767318410122,0.0,-0.0,25.0,-0.0,0.0,63407.2,0.0,0.0,0.0,0.0,0.0,0.0
1402752528325218558,3,-7.87364685001,-0.00591572024346,8.9172888817,-0.122189614607,0.0981466190316,0.10862951003,-0.00640440594835,0.0,-0.0150221484154,0.0,0.0704004369411,0.0,-1.50233562079,0.0,-0.00928921934046,0.0,-0.0018251918134,0.0,0.0031485142456,0.0,0.07159589845,0.0,-0.00791312675733,0.0,0.0,0.0,0.0,25.0,-0.0,-7.62,0.00230154196664,0.0,0.000767318410122,0.0,-0.0,25.0,-0.0,0.0,63407.2,0.0,0.0,0.0,0.0,0.0,0.0
1402752528345762287,3,-7.867882113,-0.00591572024346,8.91490520118,-0.122189614607,0.0988909989458,0.10862951003,0.00142876733443,0.0,-0.0239446227192,0.0,0.0702162876319,0.0,-1.50266387798,0.0,-0.00921543727346,0.0,-0.00235484191944,0.0,0.00698897211043,0.0,0.072789481723,0.0,-0.013972714896,0.0,0.0,0.0,0.0,25.0,-0.0,-7.62,0.00230154196664,0.0,0.000767318410122,0.0,-0.0,25.0,-0.0,0.0,63407.2,0.0,0.0,0.0,0.0,0.0,0.0
1402752528365195348,3,-7.867882113,-0.00591572024346,8.91490520118,-0.122189614607,0.0988909989458,0.10862951003,0.00142876733443,0.0,-0.0239446227192,0.0,0.0702162876319,0.0,-1.50266387798,0.0,-0.00921543727346,0.0,-0.00235484191944,0.0,0.00698897211043,0.0,0.072789481723,0.0,-0.013972714896,0.0,0.0,0.0,0.0,25.0,-0.0,-7.62,0.00230154196664,0.0,0.000767318410122,0.0,-0.0,25.0,-0.0,0.0,63407.2,0.0,0.0,0.0,0.0,0.0,0.0
1402752528385305744,3,-7.86414955711,-0.00591572024346,8.92160073676,-0.122189614607,0.108987458567,0.10862951003,0.00159070752703,0.0,-0.00599640460253,0.0,0.0728380708953,0.0,-1.5027789371,0.0,-0.00165990606822,0.0,-0.00194377713854,0.0,0.00394364790539,0.0,0.0708645603724,0.0,-0.00807513959865,0.0,0.0,0.0,0.0,25.0,-0.0,-7.62,0.00230154196664,0.0,0.000767318410122,0.0,-0.0,25.0,-0.0,0.0,63407.2,0.0,0.0,0.0,0.0,0.0,0.0
1402752528406078498,3,-7.86414955711,-0.00591572024346,8.92160073676,-0.122189614607,0.108987458567,0.10862951003,0.00159070752703,0.0,-0.00599640460253,0.0,0.0728380708953,0.0,-1.5027789371,0.0,-0.00165990606822,0.0,-0.00194377713854,0.0,0.00394364790539,0.0,0.0708645603724,0.0,-0.00807513959865,0.0,0.0,0.0,0.0,25.0,-0.0,-7.62,0.00230154196664,0.0,0.000767318410122,0.0,-0.0,25.0,-0.0,0.0,63407.2,0.0,0.0,0.0,0.0,0.0,0.0
1402752528425387571,3,-7.86406354283,-0.00591572024346,8.92152035142,-0.122189614607,0.111834227845,0.10862951003,0.00104112595815,0.0,-0.00511416123463,0.0,0.0734708943166,0.0,-1.50288920109,0.0,-0.00162910953295,0.0,-0.00147856831908,0.0,0.00125199261604,0.0,0.0710144389451,0.0,-0.0156964530423,0.0,0.0,0.0,0.0,25.0,-0.0,-7.62,0.00230154196664,0.0,0.000767318410122,0.0,-0.0,25.0,-0.0,0.0,63407.2,0.0,0.0,0.0,0.0,0.0,0.0
1402752528445170938,3,-7.86406354283,-0.00591572024346,8.92152035142,-0.122189614607,0.111834227845,0.10862951003,0.00104112595815,0.0,-0.00511416123463,0.0,0.0734708943166,0.0,-1.50288920109,0.0,-0.00162910953295,0.0,-0.00147856831908,0.0,0.00125199261604,0.0,0.0710144389451,0.0,-0.0156964530423,0.0,0.0,0.0,0.0,25.0,-0.0,-7.62,0.00230154196664,0.0,0.000767318410122,0.0,-0.0,25.0,-0.0,0.0,63407.2,0.0,0.0,0.0,0.0,0.0,0.0
1402752528465369552,3,-7.86607624516,-0.00591572024346,8.91551301029,-0.122189614607,0.109756560146,0.10862951003,-0.00583831827322,0.0,-0.0222056631364,0.0,0.0712088350645,0.0,-1.50301626205,0.0,-0.00782881243735,0.0,-0.000119003980018,0.0,-0.000583022136244,0.0,0.0728390226774,0.0,-0.00171535599906,0.0,0.0,0.0,0.0,25.0,-0.0,-7.62,0.00230154196664,0.0,0.000767318410122,0.0,-0.0,25.0,-0.0,0.0,63407.2,0.0,0.0,0.0,0.0,0.0,0.0
1402752528485538601,3,-7.86607624516,-0.00591572024346,8.91551301029,-0.122189614607,0.109756560146,0.10862951003,-0.00583831827322,0.0,-0.0222056631364,0.0,0.0712088350645,0.0,-1.50301626205,0.0,-0.00782881243735,0.0,-0.000119003980018,0.0,-0.000583022136244,0.0,0.0728390226774,0.0,-0.00171535599906,0.0,0.0,0.0,0.0,25.0,-0.0,-7.62,0.00230154196664,0.0,0.000767318410122,0.0,-0.0,25.0,-0.0,0.0,63407.2,0.0,0.0,0.0,0.0,0.0,0.0
1402752528505444581,3,-7.86307472672,-0.00591572024346,8.91964711867,-0.122189614607,0.111461596079,0.10862951003,-0.00532724322973,0.0,-0.0151508753976,0.0,0.07068400034,0.0,-1.50311257052,0.0,-0.00271781797328,0.0,-9.62856937012e-05,0.0,0.00036741747722,0.0,0.0721562062958,0.0,-0.00757577687536,0.0,0.0,0.0,0.0,25.0,-0.0,-7.62,0.00230154196664,0.0,0.000767318410122,0.0,-0.0,25.0,-0.0,0.0,63407.2,0.0,0.0,0.0,0.0,0.0,0.0
1402752528525091734,3,-7.86307472672,-0.00591572024346,8.91964711867,-0.122189614607,0.111461596079,0.10862951003,-0.00532724322973,0.0,-0.0151508753976,0.0,0.07068400034,0.0,-1.50311257052,0.0,-0.00271781797328,0.0,-9.62856937012e-05,0.0,0.00036741747722,0.0,0.0721562062958,0.0,-0.00757577687536,0.0,0.0,0.0,0.0,25.0,-0.0,-7.62,0.00230154196664,0.0,0.000767318410122,0.0,-0.0,25.0,-0.0,0.0,63407.2,0.0,0.0,0.0,0.0,0.0,0.0
1402752528545248603,3,-7.86326186828,-0.00591572024346,8.91905769119,-0.122189614607,0.114295719878,0.10862951003,-0.00355959431816,0.0,-0.0157627404942,0.0,0.0718242239028,0.0,-1.50322993922,0.0,-0.00159677070499,0.0,-0.000108778105427,0.0,0.00202660628305,0.0,0.0722237976235,0.0,-0.00266108500965,0.0,0.0,0.0,0.0,25.0,-0.0,-7.62,0.00230154196664,0.0,-0.000767381983555,0.0,-0.0,25.0,-0.0,0.0,63407.2,0.0,0.0,0.0,0.0,0.0,0.0
1402752528565349219,3,-7.86326186828,-0.00591572024346,8.91905769119,-0.122189614607,0.114295719878,0.10862951003,-0.00355959431816,0.0,-0.0157627404942,0.0,0.0718242239028,0.0,-1.50322993922,0.0,-0.00159677070499,0.0,-0.000108778105427,0.0,0.00202660628305,0.0,0.0722237976235,0.0,-0.00266108500965,0.0,0.0,0.0,0.0,25.0,-0.0,-7.62,0.00230154196664,0.0,0.000767318410122,0.0,-0.0,25.0,-0.0,0.0,63407.2,0.0,0.0,0.0,0.0,0.0,0.0
1402752528585398480,3,-7.85710809793,-0.00591572024346,8.91906570996,-0.122189614607,0.119205528642,0.10862951003,0.00703114958186,0.0,-0.0176620161512,0.0,0.0723333867303,0.0,-1.50367603571,0.0,-0.00247463632709,0.0,-0.000958988277359,0.0,-0.000392860676551,0.0,0.0725263664468,0.0,0.000348432512928,0.0,0.0,0.0,0.0,25.0,-0.0,-7.62,0.00230154196664,0.0,0.000767318410122,0.0,-0.0,25.0,-0.0,0.0,63407.2,0.0,0.0,0.0,0.0,0.0,0.0
1402752528605888536,3,-7.85710809793,-0.00591572024346,8.91906570996,-0.122189614607,0.119205528642,0.10862951003,0.00703114958186,0.0,-0.0176620161512,0.0,0.0723333867303,0.0,-1.50367603571,0.0,-0.00247463632709,0.0,-0.000958988277359,0.0,-0.000392860676551,0.0,0.0725263664468,0.0,0.000348432512928,0.0,0.0,0.0,0.0,25.0,-0.0,-7.62,0.00230154196664,0.0,0.000767318410122,0.0,-0.0,25.0,-0.0,0.0,63407.2,0.0,0.0,0.0,0.0,0.0,0.0
1402752528626070991,3,-7.86022171458,-0.00591572024346,8.92342938752,-0.122189614607,0.118736205925,0.10862951003,-0.00550143576144,0.0,-0.0110886859771,0.0,0.0718338632084,0.0,-1.50361036683,0.0,-0.00136849956363,0.0,0.000555917956084,0.0,0.00667983860106,0.0,0.0717161957941,0.0,0.00384837897744,0.0,0.0,0.0,0.0,25.0,-0.0,-7.62,0.00230154196664,0.0,0.000767318410122,0.0,-0.0,25.0,-0.0,0.0,63407.2,0.0,0.0,0.0,0.0,0.0,0.0
1402752528645201272,3,-7.86022171458,-0.00591572024346,8.92342938752,-0.122189614607,0.118736205925,0.10862951003,-0.00550143576144,0.0,-0.0110886859771,0.0,0.0718338632084,0.0,-1.50361036683,0.0,-0.00136849956363,0.0,0.000555917956084,0.0,0.00667983860106,0.0,0.0717161957941,0.0,0.00384837897744,0.0,0.0,0.0,0.0,25.0,-0.0,-7.62,0.00230154196664,0.0,0.000767318410122,0.0,-0.0,25.0,-0.0,0.0,63407.2,0.0,0.0,0.0,0.0,0.0,0.0
1402752528665903250,3,-7.85622686275,-0.00591572024346,8.92272542596,-0.122189614607,0.127881911981,0.10862951003,-0.000632826806519,0.0,-0.0124259335402,0.0,0.0745665420944,0.0,-1.50374134922,0.0,-0.000691442043322,0.0,-9.42862424556e-07,0.0,0.00447662120508,0.0,0.0721435741737,0.0,0.00698106118519,0.0,0.0,0.0,0.0,25.0,-0.0,-7.62,0.00230154196664,0.0,0.000767318410122,0.0,-0.0,25.0,-0.0,0.0,63407.2,0.0,0.0,0.0,0.0,0.0,0.0
1402752528685428407,3,-7.85622686275,-0.00591572024346,8.92272542596,-0.122189614607,0.127881911981,0.10862951003,-0.000632826806519,0.0,-0.0124259335402,0.0,0.0745665420944,0.0,-1.50374134922,0.0,-0.000691442043322,0.0,-9.42862424556e-07,0.0,0.00447662120508,0.0,0.0721435741737,0.0,0.00698106118519,0.0,0.0,0.0,0.0,25.0,-0.0,-7.62,0.00230154196664,0.0,0.000767318410122,0.0,-0.0,25.0,-0.0,0.0,63407.2,0.0,0.0,0.0,0.0,0.0,0.0
1402752528705223789,3,-7.85161041665,-0.00591572024346,8.92540409216,-0.122189614607,0.117285728962,0.10862951003,0.00766413872315,0.0,-0.0148863113984,0.0,0.0693827210102,0.0,-1.50412351265,0.0,-0.00240340464484,0.0,-0.00116123513899,0.0,0.00170314201891,0.0,0.0727860436036,0.0,0.0136907443123,0.0,0.0,0.0,0.0,25.0,-0.0,-7.62,0.00230154196664,0.0,0.000767318410122,0.0,-0.0,25.0,-0.0,0.0,63407.2,0.0,0.0,0.0,0.0,0.0,0.0
1402752528725173484,3,-7.85161041665,-0.00591572024346,8.92540409216,-0.122189614607,0.117285728962,0.10862951003,0.00766413872315,0.0,-0.0148863113984,0.0,0.0693827210102,0.0,-1.50412351265,0.0,-0.00240340464484,0.0,-0.00116123513899,0.0,0.00170314201891,0.0,0.0727860436036,0.0,0.0136907443123,0.0,0.0,0.0,0.0,25.0,-0.0,-7.62,0.00230154196664,0.0,0.000767318410122,0.0,-0.0,25.0,-0.0,0.0,63407.2,0.0,0.0,0.0,0.0,0.0,0.0
1402752528745358447,3,-7.84608634988,-0.00591572024346,8.92664142807,-0.122189614607,0.124023124674,0.10862951003,0.0131221391758,0.0,-0.0116391069757,0.0,0.0706143145908,0.0,-1.50431349185,0.0,-0.00663744377869,0.0,-0.00189391289257,0.0,0.000105215222854,0.0,0.0724257383669,0.0,0.00101712546766,0.0,0.0,0.0,0.0,25.0,-0.0,-7.62,0.00230154196664,0.0,-0.000767381983555,0.0,-0.0,25.0,-0.0,0.0,63407.2,0.0,0.0,0.0,0.0,0.0,0.0
1402752528765375106,3,-7.84608634988,-0.00591572024346,8.92664142807,-0.122189614607,0.124023124674,0.10862951003,0.0131221391758,0.0,-0.0116391069757,0.0,0.0706143145908,0.0,-1.50431349185,0.0,-0.00663744377869,0.0,-0.00189391289257,0.0,0.000105215222854,0.0,0.0724257383669,0.0,0.00101712546766,0.0,0.0,0.0,0.0,25.0,-0.0,-7.62,0.00230154196664,0.0,0.000767318410122,0.0,-0.0,25.0,-0.0,0.0,63407.2,0.0,0.0,0.0,0.0,0.0,0.0
1402752528785193809,3,-7.8492904146,-0.00591572024346,8.92503605911,-0.122189614607,0.126802248979,0.10862951003,-0.0021843298779,0.0,-0.0160070816238,0.0,0.0719146298783,0.0,-1.50426908024,0.0,0.00136361182146,0.0,-0.000507012300151,0.0,0.00342586752276,0.0,0.0727738838372,0.0,0.00620354752798,0.0,0.0,0.0,0.0,25.0,-0.0,-7.62,0.00230154196664,0.0,0.000767318410122,0.0,-0.0,25.0,-0.0,0.0,63407.2,0.0,0.0,0.0,0.0,0.0,0.0
1402752528805240108,3,-7.8492904146,-0.00591572024346,8.92503605911,-0.122189614607,0.126802248979,0.10862951003,-0.0021843298779,0.0,-0.0160070816238,0.0,0.0719146298783,0.0,-1.50426908024,0.0,0.00136361182146,0.0,-0.000507012300151,0.0,0.00342586752276,0.0,0.0727738838372,0.0,0.00620354752798,0.0,0.0,0.0,0.0,25.0,-0.0,-7.62,0.000767318410122,0.0,0.000767318410122,0.0,-0.0,25.0,-0.0,0.0,63407.2,0.0,0.0,0.0,0.0,0.0,0.0
1402752528825367776,3,-7.84501611079,-0.00591572024346,8.9264495198,-0.122189614607,0.122136183858,0.10862951003,0.00171113803075,0.0,-0.0177231315324,0.0,0.0694356308811,0.0,-1.50434717228,0.0,0.00262891303938,0.0,-0.00135830122952,0.0,0.000834884819308,0.0,0.0731858917364,0.0,0.00360723972508,0.0,0.0,0.0,0.0,25.0,-0.0,-7.62,0.00230154196664,0.0,0.000767318410122,0.0,-0.0,25.0,-0.0,0.0,63407.2,0.0,0.0,0.0,0.0,0.0,0.0
1402752528845371345,3,-7.84501611079,-0.00591572024346,8.9264495198,-0.122189614607,0.122136183858,0.10862951003,0.00171113803075,0.0,-0.0177231315324,0.0,0.0694356308811,0.0,-1.50434717228,0.0,0.00262891303938,0.0,-0.00135830122952,0.0,0.000834884819308,0.0,0.0731858917364,0.0,0.00360723972508,0.0,0.0,0.0,0.0,25.0,-0.0,-7.62,0.00230154196664,0.0,0.000767318410122,0.0,-0.0,25.0,-0.0,0.0,63407.2,0.0,0.0,0.0,0.0,0.0,0.0
1402752528865338664,3,-7.83815592428,-0.00591572024346,8.92665699658,-0.122189614607,0.12861467649,0.10862951003,0.012214822232,0.0,-0.0175691335698,0.0,0.0716560923809,0.0,-1.50468650808,0.0,-0.00349020600403,0.0,-0.00278347030543,0.0,0.00300490738961,0.0,0.073261392795,0.0,0.0140794154478,0.0,0.0,0.0,0.0,25.0,-0.0,-7.62,0.00230154196664,25.0,0.000767318410122,0.0,-0.0,25.0,-0.0,0.0,63407.2,0.0,0.0,0.0,0.0,0.0,0.0
1402752528885891209,3,-7.83815592428,-0.00591572024346,8.92665699658,-0.122189614607,0.12861467649,0.10862951003,0.012214822232,0.0,-0.0175691335698,0.0,0.0716560923809,0.0,-1.50468650808,0.0,-0.00349020600403,0.0,-0.00278347030543,0.0,0.00300490738961,0.0,0.073261392795,0.0,0.0140794154478,0.0,0.0,0.0,0.0,25.0,-0.0,-7.62,0.00230154196664,25.0,0.000767318410122,0.0,-0.0,25.0,-0.0,0.0,63407.2,0.0,0.0,0.0,0.0,0.0,0.0
1402752528905156313,3,-7.83772523319,-0.00591572024346,8.92593324151,-0.122189614607,0.131560629932,0.10862951003,0.01081226062,0.0,-0.0180210119642,0.0,0.0730468514987,0.0,-1.50481701806,0.0,-0.00777782417265,0.0,-0.00293657699291,0.0,0.000795515406145,0.0,0.0733336006569,0.0,0.00215134458194,0.0,0.0,0.0,0.0,25.0,-0.0,-7.62,0.00230154196664,25.0,0.000767318410122,0.0,-0.0,25.0,-0.0,0.0,63407.2,0.0,0.0,0.0,0.0,0.0,0.0
1402752528925119356,3,-7.83772523319,-0.00591572024346,8.92593324151,-0.122189614607,0.131560629932,0.10862951003,0.01081226062,0.0,-0.0180210119642,0.0,0.0730468514987,0.0,-1.50481701806,0.0,-0.00777782417265,0.0,-0.00293657699291,0.0,0.000795515406145,0.0,0.0733336006569,0.0,0.00215134458194,0.0,0.0,0.0,0.0,25.0,-0.0,-7.62,0.00230154196664,25.0,0.000767318410122,0.0,-0.0,25.0,-0.0,0.0,63407.2,0.0,0.0,0.0,0.0,0.0,0.0
1402752528945215353,3,-7.83872939217,-0.00591572024346,8.9247812712,-0.122189614607,0.129963473532,0.10862951003,-0.0011843518916,0.0,-0.0227626613069,0.0,0.0713900934547,0.0,-1.50494457554,0.0,0.00240123260804,0.0,-0.00201232787269,0.0,-0.00247743307754,0.0,0.073712717456,0.0,0.000185010106452,0.0,0.0,0.0,0.0,25.0,-0.0,-7.62,0.00230154196664,25.0,-0.000767381983555,0.0,-0.0,25.0,-0.0,0.0,63407.2,0.0,0.0,0.0,0.0,0.0,0.0
1402752528965310764,3,-7.83872939217,-0.00591572024346,8.9247812712,-0.122189614607,0.129963473532,0.10862951003,-0.0011843518916,0.0,-0.0227626613069,0.0,0.0713900934547,0.0,-1.50494457554,0.0,0.00240123260804,0.0,-0.00201232787269,0.0,-0.00247743307754,0.0,0.073712717456,0.0,0.000185010106452,0.0,0.0,0.0,0.0,25.0,-0.0,-7.62,0.00230154196664,25.0,-0.000767381983555,0.0,-0.0,25.0,-0.0,0.0,63407.2,0.0,0.0,0.0,0.0,0.0,0.0
1402752528985307224,3,-7.83831598135,-0.00591572024346,8.9243324258,-0.122189614607,0.131037698289,0.10862951003,-0.00590012918541,0.0,-0.0247125855862,0.0,0.0710322781475,0.0,-1.50511558209,0.0,-0.000405723435568,0.0,-0.00167921911981,0.0,-0.0022473463701,0.0,0.0737738554118,0.0,0.0117284949235,0.0,0.0,0.0,0.0,25.0,-0.0,-7.62,0.00230154196664,25.0,-0.000767381983555,0.0,-0.0,25.0,-0.0,0.0,63407.2,0.0,0.0,0.0,0.0,0.0,0.0
1402752529005639060,3,-7.83831598135,-0.00591572024346,8.9243324258,-0.122189614607,0.131037698289,0.10862951003,-0.00590012918541,0.0,-0.0247125855862,0.0,0.0710322781475,0.0,-1.50511558209,0.0,-0.000405723435568,0.0,-0.00167921911981,0.0,-0.0022473463701,0.0,0.0737738554118,0.0,0.0117284949235,0.0,0.0,0.0,0.0,25.0,-0.0,-7.62,0.00230154196664,25.0,-0.000767381983555,0.0,-0.0,25.0,-0.0,0.0,63407.2,0.0,0.0,0.0,0.0,0.0,0.0
1402752529025322058,3,-7.83467156918,-0.00591572024346,8.92640021079,-0.122189614607,0.137604747331,0.10862951003,-0.00452863010891,0.0,-0.0192197981155,0.0,0.0734717031299,0.0,-1.50539253401,0.0,-0.00576172689506,0.0,-0.0021997369008,0.0,-0.00139222805088,0.0,0.0729221987443,0.0,0.00529555317926,0.0,0.0,0.0,0.0,25.0,-0.0,-7.62,0.00230154196664,25.0,-0.000767381983555,0.0,-0.0,25.0,-0.0,0.0,63407.2,0.0,0.0,0.0,0.0,0.0,0.0
1402752529045294925,3,-7.83467156918,-0.00591572024346,8.92640021079,-0.122189614607,0.137604747331,0.10862951003,-0.00452863010891,0.0,-0.0192197981155,0.0,0.0734717031299,0.0,-1.50539253401,0.0,-0.00576172689506,0.0,-0.0021997369008,0.0,-0.00139222805088,0.0,0.0729221987443,0.0,0.00529555317926,0.0,0.0,0.0,0.0,25.0,-0.0,-7.62,0.00230154196664,25.0,-0.000767381983555,0.0,-0.0,25.0,-0.0,0.0,63407.2,0.0,0.0,0.0,0.0,0.0,0.0
1402752529065146990,3,-7.83215925527,-0.00591572024346,8.92580532653,-0.122189614607,0.137379632505,0.10862951003,-0.00456661499278,0.0,-0.0251307722459,0.0,0.0720081463949,0.0,-1.50581056843,0.0,-0.0131837640215,0.0,-0.00233900335881,0.0,-0.00148667778227,0.0,0.073303803831,0.0,-0.00537032109094,0.0,0.0,0.0,0.0,25.0,-0.0,-7.62,0.00230154196664,25.0,-0.000767381983555,0.0,-0.0,25.0,-0.0,0.0,63407.2,0.0,0.0,0.0,0.0,0.0,0.0
1402752529085272146,3,-7.83215925527,-0.00591572024346,8.92580532653,-0.122189614607,0.137379632505,0.10862951003,-0.00456661499278,0.0,-0.0251307722459,0.0,0.0720081463949,0.0,-1.50581056843,0.0,-0.0131837640215,0.0,-0.00233900335881,0.0,-0.00148667778227,0.0,0.073303803831,0.0,-0.00537032109094,0.0,0.0,0.0,0.0,25.0,-0.0,-7.62,0.00230154196664,25.0,-0.000767381983555,0.0,-0.0,25.0,-0.0,0.0,63407.2,0.0,0.0,0.0,0.0,0.0,0.0
1402752529105335222,3,-7.8323922945,-0.00591572024346,8.92473925123,-0.122189614607,0.140204487758,0.10862951003,-0.00442416548188,0.0,-0.0291967791729,0.0,0.0740398811154,0.0,-1.50620170546,0.0,-0.01125884972,0.0,-0.0021612267363,0.0,-0.00191029764877,0.0,0.0732142950468,0.0,0.00122989437723,0.0,0.0,0.0,0.0,25.0,-0.0,-7.62,0.000767318410122,25.0,-0.000767381983555,0.0,-0.0,25.0,-0.0,0.0,63407.2,0.0,0.0,0.0,0.0,0.0,0.0
1402752529125560663,3,-7.8323922945,-0.00591572024346,8.92473925123,-0.122189614607,0.140204487758,0.10862951003,-0.00442416548188,0.0,-0.0291967791729,0.0,0.0740398811154,0.0,-1.50620170546,0.0,-0.01125884972,0.0,-0.0021612267363,0.0,-0.00191029764877,0.0,0.0732142950468,0.0,0.00122989437723,0.0,0.0,0.0,0.0,25.0,-0.0,-7.62,0.00230154196664,25.0,-0.000767381983555,0.0,-0.0,25.0,-0.0,0.0,63407.2,0.0,0.0,0.0,0.0,0.0,0.0
1402752529145322323,3,-7.82718774096,-0.00591572024346,8.92575623468,-0.122189614607,0.148427200351,0.10862951003,0.000748112301256,0.0,-0.0260414698296,0.0,0.075903512469,0.0,-1.50653846923,0.0,-0.00667448773441,0.0,-0.00261912209044,0.0,-0.000410713372471,0.0,0.0725065233376,0.0,-0.0133287371155,0.0,0.0,0.0,0.0,25.0,-0.0,-7.62,0.00230154196664,25.0,-0.000767381983555,0.0,-0.0,25.0,-0.0,0.0,63407.2,0.0,0.0,0.0,0.0,0.0,0.0
1402752529165650959,3,-7.82718774096,-0.00591572024346,8.92575623468,-0.122189614607,0.148427200351,0.10862951003,0.000748112301256,0.0,-0.0260414698296,0.0,0.075903512469,0.0,-1.50653846923,0.0,-0.00667448773441,0.0,-0.00261912209044,0.0,-0.000410713372471,0.0,0.0725065233376,0.0,-0.0133287371155,0.0,0.0,0.0,0.0,25.0,-0.0,-7.62,0.00230154196664,25.0,0.000767318410122,0.0,-0.0,25.0,-0.0,0.0,63407.2,0.0,0.0,0.0,0.0,0.0,0.0
1402752529185459128,3,-7.82512686449,-0.00591572024346,8.92891177265,-0.122189614607,0.140554215339,0.10862951003,0.00258252985619,0.0,-0.0241689089157,0.0,0.068450758398,0.0,-1.50709347248,0.0,-0.00690774623403,0.0,-0.00241164235248,0.0,-0.013308010308,0.0,0.0719965320005,0.0,-0.00559282014041,0.0,0.0,0.0,0.0,25.0,-0.0,-7.62,0.00230154196664,25.0,0.000767318410122,0.0,-0.0,25.0,-0.0,0.0,63407.2,0.0,0.0,0.0,0.0,0.0,0.0
1402752529205141187,3,-7.82512686449,-0.00591572024346,8.92891177265,-0.122189614607,0.140554215339,0.10862951003,0.00258252985619,0.0,-0.0241689089157,0.0,0.068450758398,0.0,-1.50709347248,0.0,-0.00690774623403,0.0,-0.00241164235248,0.0,-0.013308010308,0.0,0.0719965320005,0.0,-0.00559282014041,0.0,0.0,0.0,0.0,25.0,-0.0,-7.62,0.00230154196664,25.0,0.000767318410122,0.0,-0.0,25.0,-0.0,0.0,63407.2,0.0,0.0,0.0,0.0,0.0,0.0
1402752529225342286,3,-7.8238090507,-0.00591572024346,8.92406266435,-0.122189614607,0.158542955921,0.10862951003,0.0001454590139,0.0,-0.0306860058623,0.0,0.07328865107,0.0,-1.50771265511,0.0,-0.012163433839,0.0,-0.00158450326386,0.0,-0.0084882509527,0.0,0.0719884134102,0.0,-0.0118907955293,0.0,0.0,0.0,0.0,25.0,-0.0,-7.62,0.00230154196664,25.0,0.000767318410122,0.0,-0.0,25.0,-0.0,0.0,63407.2,0.0,0.0,0.0,0.0,0.0,0.0
1402752529246401799,3,-7.8238090507,-0.00591572024346,8.92406266435,-0.122189614607,0.158542955921,0.10862951003,0.0001454590139,0.0,-0.0306860058623,0.0,0.07328865107,0.0,-1.50771265511,0.0,-0.012163433839,0.0,-0.00158450326386,0.0,-0.0084882509527,0.0,0.0719884134102,0.0,-0.0118907955293,0.0,0.0,0.0,0.0,25.0,-0.0,-7.62,0.00230154196664,25.0,-0.000767381983555,0.0,-0.0,25.0,-0.0,0.0,63407.2,0.0,0.0,0.0,0.0,0.0,0.0
1402752529265182628,3,-7.82500709833,-0.00591572024346,8.92616585009,-0.122189614607,0.148766634995,0.10862951003,-0.00579262376659,0.0,-0.0346595291279,0.0,0.0690547967846,0.0,-1.50827654627,0.0,-0.0169459644044,0.0,-0.000332563871325,0.0,-0.000759829112015,0.0,0.0719538513176,0.0,-0.0115015081676,0.0,0.0,0.0,0.0,25.0,-0.0,-7.62,0.00230154196664,25.0,-0.000767381983555,0.0,-0.0,25.0,-0.0,0.0,63407.2,0.0,0.0,0.0,0.0,0.0,0.0
1402752529285434847,3,-7.82500709833,-0.00591572024346,8.92616585009,-0.122189614607,0.148766634995,0.10862951003,-0.00579262376659,0.0,-0.0346595291279,0.0,0.0690547967846,0.0,-1.50827654627,0.0,-0.0169459644044,0.0,-0.000332563871325,0.0,-0.000759829112015,0.0,0.0719538513176,0.0,-0.0115015081676,0.0,0.0,0.0,0.0,25.0,-0.0,-7.62,0.00230154196664,25.0,-0.000767381983555,0.0,-0.0,25.0,-0.0,0.0,63407.2,0.0,0.0,0.0,0.0,0.0,0.0
1402752529305287065,3,-7.82530512064,-0.00591572024346,8.92467571044,-0.122189614607,0.151591203692,0.10862951003,-0.00614270040794,0.0,-0.0364143781905,0.0,0.0681317135567,0.0,-1.50885757816,0.0,-0.0126101270664,0.0,2.17967276496e-05,0.0,-0.00367042042343,0.0,0.0717831657791,0.0,-0.0145480450781,0.0,0.0,0.0,0.0,25.0,-0.0,-7.62,0.00230154196664,25.0,0.000767318410122,0.0,-0.0,25.0,-0.0,0.0,63407.2,0.0,0.0,0.0,0.0,0.0,0.0
1402752529325861616,3,-7.82530512064,-0.00591572024346,8.92467571044,-0.122189614607,0.151591203692,0.10862951003,-0.00614270040794,0.0,-0.0364143781905,0.0,0.0681317135567,0.0,-1.50885757816,0.0,-0.0126101270664,0.0,2.17967276496e-05,0.0,-0.00367042042343,0.0,0.0717831657791,0.0,-0.0145480450781,0.0,0.0,0.0,0.0,25.0,-0.0,-7.62,0.00230154196664,25.0,0.000767318410122,0.0,-0.0,25.0,-0.0,0.0,63407.2,0.0,0.0,0.0,0.0,0.0,0.0
1402752529345193304,3,-7.8204291957,-0.00591572024346,8.92470367214,-0.122189614607,0.158219152299,0.10862951003,0.00205952411948,0.0,-0.0363546278693,0.0,0.0678595812345,0.0,-1.50971759237,0.0,-0.0173472137336,0.0,-0.000193175120476,0.0,-0.00521354053195,0.0,0.0713489150306,0.0,-0.000436594963276,0.0,0.0,0.0,0.0,25.0,-0.0,-7.62,0.00230154196664,25.0,0.000767318410122,0.0,-0.0,25.0,-0.0,0.0,63407.2,0.0,0.0,0.0,0.0,0.0,0.0
1402752529365160101,3,-7.8204291957,-0.00591572024346,8.92470367214,-0.122189614607,0.158219152299,0.10862951003,0.00205952411948,0.0,-0.0363546278693,0.0,0.0678595812345,0.0,-1.50971759237,0.0,-0.0173472137336,0.0,-0.000193175120476,0.0,-0.00521354053195,0.0,0.0713489150306,0.0,-0.000436594963276,0.0,0.0,0.0,0.0,25.0,-0.0,-7.62,0.00230154196664,25.0,-0.000767381983555,0.0,-0.0,25.0,-0.0,0.0,63407.2,0.0,0.0,0.0,0.0,0.0,0.0
1402752529385496034,3,-7.81712434108,-0.00591572024346,8.92412290541,-0.122189614607,0.165352544506,0.10862951003,0.00291025676905,0.0,-0.0375654912743,0.0,0.0696395277514,0.0,-1.51028443258,0.0,-0.0177410491429,0.0,-0.000187696164036,0.0,-0.00176074103508,0.0,0.0712096927856,0.0,-0.00263907746707,0.0,0.0,0.0,0.0,25.0,-0.0,-7.62,0.00230154196664,25.0,0.000767318410122,0.0,-0.0,25.0,-0.0,0.0,63407.2,0.0,0.0,0.0,0.0,0.0,0.0
1402752529405272338,3,-7.81702594442,-0.00591572024346,8.92337515757,-0.122189614607,0.166802434234,0.10862951003,0.00411011401833,0.0,-0.0385391659428,0.0,0.0702749088323,0.0,-1.5106439689,0.0,-0.0224398204818,0.0,-0.000191320680254,0.0,0.000974143591837,0.0,0.0712326210796,0.0,0.00152326730192,0.0,0.0,0.0,0.0,25.0,-0.0,-7.62,0.00230154196664,25.0,0.000767318410122,0.0,-0.0,25.0,-0.0,0.0,63407.2,0.0,0.0,0.0,0.0,0.0,0.0
1402752529425311124,3,-7.81702594442,-0.00591572024346,8.92337515757,-0.122189614607,0.166802434234,0.10862951003,0.00411011401833,0.0,-0.0385391659428,0.0,0.0702749088323,0.0,-1.5106439689,0.0,-0.0224398204818,0.0,-0.000191320680254,0.0,0.000974143591837,0.0,0.0712326210796,0.0,0.00152326730192,0.0,0.0,0.0,0.0,25.0,-0.0,-7.62,0.00230154196664,25.0,0.000767318410122,0.0,-0.0,25.0,-0.0,0.0,63407.2,0.0,0.0,0.0,0.0,0.0,0.0
1402752529445768089,3,-7.81477107269,-0.00591572024346,8.92625242176,-0.122189614607,0.160624551262,0.10862951003,0.00460283885594,0.0,-0.0371873322847,0.0,0.0664520523803,0.0,-1.51117016445,0.0,-0.027484778003,0.0,-0.000239122120969,0.0,0.000618600641906,0.0,0.0710354328877,0.0,0.00374232633891,0.0,0.0,0.0,0.0,25.0,-0.0,-7.62,0.00230154196664,25.0,0.000767318410122,0.0,-0.0,25.0,-0.0,0.0,63407.2,0.0,0.0,0.0,0.0,0.0,0.0
1402752529465164469,3,-7.81477107269,-0.00591572024346,8.92625242176,-0.122189614607,0.160624551262,0.10862951003,0.00460283885594,0.0,-0.0371873322847,0.0,0.0664520523803,0.0,-1.51117016445,0.0,-0.027484778003,0.0,-0.000239122120969,0.0,0.000618600641906,0.0,0.0710354328877,0.0,0.00374232633891,0.0,0.0,0.0,0.0,25.0,-0.0,-7.62,0.00230154196664,25.0,-0.000767381983555,0.0,-0.0,25.0,-0.0,0.0,63407.2,0.0,0.0,0.0,0.0,0.0,0.0
1402752529485473234,3,-7.8124150494,-0.00591572024346,8.9226058637,-0.122189614607,0.168673017019,0.10862951003,0.00314425748235,0.0,-0.0448069650266,0.0,0.0691965503347,0.0,-1.51215129537,0.0,-0.0178849976132,0.0,-0.000505926857432,0.0,0.00573795485016,0.0,0.0716003275998,0.0,0.00514278911327,0.0,0.0,0.0,0.0,25.0,-0.0,-7.62,0.000767318410122,25.0,0.000767318410122,0.0,-0.0,25.0,-0.0,0.0,63407.2,0.0,0.0,0.0,0.0,0.0,0.0
1402752529505372417,3,-7.8124150494,-0.00591572024346,8.9226058637,-0.122189614607,0.168673017019,0.10862951003,0.00314425748235,0.0,-0.0448069650266,0.0,0.0691965503347,0.0,-1.51215129537,0.0,-0.0178849976132,0.0,-0.000505926857432,0.0,0.00573795485016,0.0,0.0716003275998,0.0,0.00514278911327,0.0,0.0,0.0,0.0,25.0,-0.0,-7.62,0.00230154196664,25.0,0.000767318410122,0.0,-0.0,25.0,-0.0,0.0,63407.2,0.0,0.0,0.0,0.0,0.0,0.0
1402752529526101110,3,-7.81231822507,-0.00591572024346,8.92066164187,-0.122189614607,0.1715674627,0.10862951003,0.00501086278915,0.0,-0.0462971268109,0.0,0.070290665328,0.0,-1.51324222889,0.0,-0.0254712685264,0.0,-0.000987884815479,0.0,-0.000648225417207,0.0,0.0716526787828,0.0,0.0178480679071,0.0,0.0,0.0,0.0,25.0,-0.0,-7.62,0.00230154196664,25.0,-0.000767381983555,0.0,-0.0,25.0,-0.0,0.0,63407.2,0.0,0.0,0.0,0.0,0.0,0.0
1402752529545321954,3,-7.81231822507,-0.00591572024346,8.92066164187,-0.122189614607,0.1715674627,0.10862951003,0.00501086278915,0.0,-0.0462971268109,0.0,0.070290665328,0.0,-1.51324222889,0.0,-0.0254712685264,0.0,-0.000987884815479,0.0,-0.000648225417207,0.0,0.0716526787828,0.0,0.0178480679071,0.0,0.0,0.0,0.0,25.0,-0.0,-7.62,0.00230154196664,25.0,0.000767318410122,0.0,-0.0,25.0,-0.0,0.0,63407.2,0.0,0.0,0.0,0.0,0.0,0.0
1402752529565231348,3,-7.81207869718,-0.00591572024346,8.9188790514,-0.122189614607,0.174233862091,0.10862951003,0.0049704197787,0.0,-0.048648356083,0.0,0.0726155340839,0.0,-1.51443868432,0.0,-0.0267442311024,0.0,-0.00151799320005,0.0,0.00341106232044,0.0,0.0716381092142,0.0,0.020496806293,0.0,0.0,0.0,0.0,25.0,-0.0,-7.62,0.00230154196664,25.0,-0.000767381983555,0.0,-0.0,25.0,-0.0,0.0,63407.2,0.0,0.0,0.0,0.0,0.0,0.0
1402752529585220392,3,-7.81207869718,-0.00591572024346,8.9188790514,-0.122189614607,0.174233862091,0.10862951003,0.0049704197787,0.0,-0.048648356083,0.0,0.0726155340839,0.0,-1.51443868432,0.0,-0.0267442311024,0.0,-0.00151799320005,0.0,0.00341106232044,0.0,0.0716381092142,0.0,0.020496806293,0.0,0.0,0.0,0.0,25.0,-0.0,-7.62,0.00230154196664,25.0,0.000767318410122,0.0,-0.0,25.0,-0.0,0.0,63407.2,0.0,0.0,0.0,0.0,0.0,0.0
1402752529605419391,3,-7.81184091705,-0.00591572024346,8.91960554692,-0.122189614607,0.167473904087,0.10862951003,-4.49799963173e-05,0.0,-0.0503396345409,0.0,0.069262570782,0.0,-1.51561570213,0.0,-0.027255685359,0.0,-0.0017503654492,0.0,-0.000348384284905,0.0,0.0717499112342,0.0,0.0207668797264,0.0,0.0,0.0,0.0,25.0,-0.0,-7.62,0.00230154196664,25.0,0.000767318410122,0.0,-0.0,25.0,-0.0,0.0,63407.2,0.0,0.0,0.0,0.0,0.0,0.0
1402752529625313314,3,-7.81184091705,-0.00591572024346,8.91960554692,-0.122189614607,0.167473904087,0.10862951003,-4.49799963173e-05,0.0,-0.0503396345409,0.0,0.069262570782,0.0,-1.51561570213,0.0,-0.027255685359,0.0,-0.0017503654492,0.0,-0.000348384284905,0.0,0.0717499112342,0.0,0.0207668797264,0.0,0.0,0.0,0.0,25.0,-0.0,-7.62,0.00230154196664,25.0,-0.000767381983555,0.0,-0.0,25.0,-0.0,0.0,63407.2,0.0,0.0,0.0,0.0,0.0,0.0
1402752529645836440,3,-7.81192551927,-0.00591572024346,8.923940991,-0.122189614607,0.168330467254,0.10862951003,-0.00677963490437,0.0,-0.0395486536438,0.0,0.0695237506253,0.0,-1.51697124747,0.0,-0.0301891173071,0.0,-0.00177747404576,0.0,-0.00148375094448,0.0,0.070331734358,0.0,0.0155478376206,0.0,0.0,0.0,0.0,25.0,-0.0,-7.62,0.00230154196664,25.0,-0.000767381983555,0.0,-0.0,25.0,-0.0,0.0,63407.2,0.0,0.0,0.0,0.0,0.0,0.0
1402752529665143898,3,-7.81192551927,-0.00591572024346,8.923940991,-0.122189614607,0.168330467254,0.10862951003,-0.00677963490437,0.0,-0.0395486536438,0.0,0.0695237506253,0.0,-1.51697124747,0.0,-0.0301891173071,0.0,-0.00177747404576,0.0,-0.00148375094448,0.0,0.070331734358,0.0,0.0155478376206,0.0,0.0,0.0,0.0,25.0,-0.0,-7.62,0.00230154196664,25.0,-0.000767381983555,0.0,-0.0,25.0,-0.0,0.0,63407.2,0.0,0.0,0.0,0.0,0.0,0.0
1402752529685418081,3,-7.80419008924,-0.00591572024346,8.92257788404,-0.122189614607,0.170549541507,0.10862951003,0.00650667198528,0.0,-0.043240425006,0.0,0.0702186811849,0.0,-1.51832335217,0.0,-0.0329524487389,0.0,-0.00391842630014,0.0,-0.00255475499302,0.0,0.0708277652559,0.0,0.0138209965573,0.0,0.0,0.0,0.0,25.0,-0.0,-7.62,0.00230154196664,25.0,-0.000767381983555,0.0,-0.0,25.0,-0.0,0.0,63407.2,0.0,0.0,0.0,0.0,0.0,0.0
1402752529705331144,3,-7.80419008924,-0.00591572024346,8.92257788404,-0.122189614607,0.170549541507,0.10862951003,0.00650667198528,0.0,-0.043240425006,0.0,0.0702186811849,0.0,-1.51832335217,0.0,-0.0329524487389,0.0,-0.00391842630014,0.0,-0.00255475499302,0.0,0.0708277652559,0.0,0.0138209965573,0.0,0.0,0.0,0.0,25.0,-0.0,-7.62,0.00230154196664,25.0,-0.000767381983555,0.0,-0.0,25.0,-0.0,0.0,63407.2,0.0,0.0,0.0,0.0,0.0,0.0
1402752529725580496,3,-7.80680778476,-0.00591572024346,8.9148234753,-0.122189614607,0.181062035143,0.10862951003,-0.00646133557296,0.0,-0.0554252484403,0.0,0.0737516507528,0.0,-1.51973905883,0.0,-0.0307326433369,0.0,-0.00313927624569,0.0,-0.00471338208304,0.0,0.0717643420666,0.0,0.00737478708065,0.0,0.0,0.0,0.0,25.0,-0.0,-7.62,0.00230154196664,25.0,-0.000767381983555,0.0,-0.0,25.0,-0.0,0.0,63407.2,0.0,0.0,0.0,0.0,0.0,0.0
1402752529746148344,3,-7.80680778476,-0.00591572024346,8.9148234753,-0.122189614607,0.181062035143,0.10862951003,-0.00646133557296,0.0,-0.0554252484403,0.0,0.0737516507528,0.0,-1.51973905883,0.0,-0.0307326433369,0.0,-0.00313927624569,0.0,-0.00471338208304,0.0,0.0717643420666,0.0,0.00737478708065,0.0,0.0,0.0,0.0,25.0,-0.0,-7.62,0.00230154196664,25.0,-0.000767381983555,0.0,-0.0,25.0,-0.0,0.0,63407.2,0.0,0.0,0.0,0.0,0.0,0.0
1402752529765709510,3,-7.80233070696,-0.00591572024346,8.91648946495,-0.122189614607,0.179198694757,0.10862951003,-0.00142734995569,0.0,-0.0530925611547,0.0,0.0726319831839,0.0,-1.52116624106,0.0,-0.0321878229266,0.0,-0.00406468500116,0.0,-0.00464855573754,0.0,0.0713046312138,0.0,0.0055897994838,0.0,0.0,0.0,0.0,25.0,-0.0,-7.62,0.00230154196664,25.0,-0.000767381983555,0.0,-0.0,25.0,-0.0,0.0,63407.2,0.0,0.0,0.0,0.0,0.0,0.0
1402752529785346961,3,-7.80233070696,-0.00591572024346,8.91648946495,-0.122189614607,0.179198694757,0.10862951003,-0.00142734995569,0.0,-0.0530925611547,0.0,0.0726319831839,0.0,-1.52116624106,0.0,-0.0321878229266,0.0,-0.00406468500116,0.0,-0.00464855573754,0.0,0.0713046312138,0.0,0.0055897994838,0.0,0.0,0.0,0.0,25.0,-0.0,-7.62,0.00230154196664,25.0,0.000767318410122,0.0,-0.0,25.0,-0.0,0.0,63407.2,0.0,0.0,0.0,0.0,0.0,0.0
1402752529805404100,3,-7.79660272861,-0.00591572024346,8.91343914829,-0.122189614607,0.18477926283,0.10862951003,0.00666606719698,0.0,-0.058697134859,0.0,0.0739315978769,0.0,-1.52262209556,0.0,-0.0400480159276,0.0,-0.00479829101056,0.0,-0.00241640529932,0.0,0.0716631097872,0.0,-0.00502647627915,0.0,0.0,0.0,0.0,25.0,-0.0,-7.62,0.00230154196664,25.0,-0.000767381983555,0.0,-0.0,25.0,-0.0,0.0,63407.2,0.0,0.0,0.0,0.0,0.0,0.0
1402752529825090790,3,-7.79660272861,-0.00591572024346,8.91343914829,-0.122189614607,0.18477926283,0.10862951003,0.00666606719698,0.0,-0.058697134859,0.0,0.0739315978769,0.0,-1.52262209556,0.0,-0.0400480159276,0.0,-0.00479829101056,0.0,-0.00241640529932,0.0,0.0716631097872,0.0,-0.00502647627915,0.0,0.0,0.0,0.0,25.0,-0.0,-7.62,0.00230154196664,25.0,-0.000767381983555,0.0,-0.0,25.0,-0.0,0.0,63407.2,0.0,0.0,0.0,0.0,0.0,0.0
1402752529845290534,3,-7.80399345925,-0.00591572024346,8.90655224107,-0.122189614607,0.197002433914,0.10862951003,-0.0178045704301,0.0,-0.0688463388969,0.0,0.0776828980052,0.0,-1.52401151745,0.0,-0.0312810762507,0.0,-0.00173176436737,0.0,-0.000140418104665,0.0,0.0721172358728,0.0,-0.00597851443151,0.0,0.0,0.0,0.0,25.0,-0.0,-7.62,0.00230154196664,25.0,0.000767318410122,0.0,-0.0,25.0,-0.0,0.0,63407.2,0.0,0.0,0.0,0.0,0.0,0.0
1402752529865220055,3,-7.80399345925,-0.00591572024346,8.90655224107,-0.122189614607,0.197002433914,0.10862951003,-0.0178045704301,0.0,-0.0688463388969,0.0,0.0776828980052,0.0,-1.52401151745,0.0,-0.0312810762507,0.0,-0.00173176436737,0.0,-0.000140418104665,0.0,0.0721172358728,0.0,-0.00597851443151,0.0,0.0,0.0,0.0,25.0,-0.0,-7.62,0.00230154196664,25.0,0.000767318410122,0.0,-0.0,25.0,-0.0,0.0,63407.2,0.0,0.0,0.0,0.0,0.0,0.0
1402752529885290404,3,-7.79523127379,-0.00591572024346,8.91291792272,-0.122189614607,0.185598472459,0.10862951003,-0.0016526120663,0.0,-0.0589783157935,0.0,0.0712260146168,0.0,-1.52548358184,0.0,-0.0407457532973,0.0,-0.00312205903691,0.0,-0.00563898864764,0.0,0.0709412090278,0.0,-0.0229900362926,0.0,0.0,0.0,0.0,25.0,-0.0,-7.62,0.00230154196664,25.0,-0.000767381983555,0.0,-0.0,25.0,-0.0,0.0,63407.2,0.0,0.0,0.0,0.0,0.0,0.0
1402752529906022379,3,-7.79523127379,-0.00591572024346,8.91291792272,-0.122189614607,0.185598472459,0.10862951003,-0.0016526120663,0.0,-0.0589783157935,0.0,0.0712260146168,0.0,-1.52548358184,0.0,-0.0407457532973,0.0,-0.00312205903691,0.0,-0.00563898864764,0.0,0.0709412090278,0.0,-0.0229900362926,0.0,0.0,0.0,0.0,25.0,-0.0,-7.62,0.00230154196664,25.0,-0.000767381983555,0.0,-0.0,25.0,-0.0,0.0,63407.2,0.0,0.0,0.0,0.0,0.0,0.0
1402752529925879374,3,-7.79534593105,-0.00591572024346,8.91042963421,-0.122189614607,0.188505024735,0.10862951003,-0.000799824363778,0.0,-0.0618182252583,0.0,0.0724880107122,0.0,-1.52687544088,0.0,-0.0388395596853,0.0,-0.00242784027597,0.0,0.00329687791252,0.0,0.0708259605386,0.0,-0.0125313506825,0.0,0.0,0.0,0.0,25.0,-0.0,-7.62,0.00230154196664,25.0,0.000767318410122,0.0,-0.0,25.0,-0.0,0.0,63407.2,0.0,0.0,0.0,0.0,0.0,0.0
1402752529945311723,3,-7.79534593105,-0.00591572024346,8.91042963421,-0.122189614607,0.188505024735,0.10862951003,-0.000799824363778,0.0,-0.0618182252583,0.0,0.0724880107122,0.0,-1.52687544088,0.0,-0.0388395596853,0.0,-0.00242784027597,0.0,0.00329687791252,0.0,0.0708259605386,0.0,-0.0125313506825,0.0,0.0,0.0,0.0,25.0,-0.0,-7.62,0.00230154196664,25.0,0.000767318410122,0.0,-0.0,25.0,-0.0,0.0,63407.2,0.0,0.0,0.0,0.0,0.0,0.0
1402752529965016086,3,-7.79320564515,-0.00591572024346,8.90945337517,-0.122189614607,0.190908252276,0.10862951003,-0.00716230428127,0.0,-0.0643101804218,0.0,0.0706260840722,0.0,-1.5288908269,0.0,-0.0413859944894,0.0,-0.00103853938749,0.0,-0.000449521450932,0.0,0.0707807861004,0.0,-0.0175027385608,0.0,0.0,0.0,0.0,25.0,-0.0,-7.62,0.00230154196664,25.0,0.000767318410122,0.0,-0.0,25.0,-0.0,0.0,63407.2,0.0,0.0,0.0,0.0,0.0,0.0
1402752529986006202,3,-7.79320564515,-0.00591572024346,8.90945337517,-0.122189614607,0.190908252276,0.10862951003,-0.00716230428127,0.0,-0.0643101804218,0.0,0.0706260840722,0.0,-1.5288908269,0.0,-0.0413859944894,0.0,-0.00103853938749,0.0,-0.000449521450932,0.0,0.0707807861004,0.0,-0.0175027385608,0.0,0.0,0.0,0.0,25.0,-0.0,-7.62,0.00230154196664,25.0,0.000767318410122,0.0,-0.0,25.0,-0.0,0.0,63407.2,0.0,0.0,0.0,0.0,0.0,0.0
1402752530005332765,3,-7.79352996004,-0.00591572024346,8.90614971959,-0.122189614607,0.194442627386,0.10862951003,-0.00762054180697,0.0,-0.06746879393,0.0,0.0706860315299,0.0,-1.53087315921,0.0,-0.0341864475255,0.0,-0.000470652671356,0.0,0.00390956124482,0.0,0.0708584406558,0.0,-0.00786134868529,0.0,0.0,0.0,0.0,25.0,-0.0,-7.62,0.00230154196664,25.0,0.000767318410122,0.0,-0.0,25.0,-0.0,0.0,63407.2,0.0,0.0,0.0,0.0,0.0,0.0
1402752530025381571,3,-7.79352996004,-0.00591572024346,8.90614971959,-0.122189614607,0.194442627386,0.10862951003,-0.00762054180697,0.0,-0.06746879393,0.0,0.0706860315299,0.0,-1.53087315921,0.0,-0.0341864475255,0.0,-0.000470652671356,0.0,0.00390956124482,0.0,0.0708584406558,0.0,-0.00786134868529,0.0,0.0,0.0,0.0,25.0,-0.0,-7.62,0.000767318410122,25.0,0.000767318410122,0.0,-0.0,25.0,-0.0,0.0,63407.2,0.0,0.0,0.0,0.0,0.0,0.0
1402752530045387836,3,-7.78892864503,-0.00591572024346,8.90959274069,-0.122189614607,0.181775373172,0.10862951003,-0.00035526513408,0.0,-0.0667561260496,0.0,0.0649234430305,0.0,-1.53171550592,0.0,-0.042875634015,0.0,-0.00108643917642,0.0,0.00306749068498,0.0,0.0708682363591,0.0,-0.00705727236416,0.0,0.0,0.0,0.0,25.0,-0.0,-7.62,0.00230154196664,25.0,-0.000767381983555,0.0,-0.0,25.0,-0.0,0.0,63407.2,0.0,0.0,0.0,0.0,0.0,0.0
1402752530065266742,3,-7.78892864503,-0.00591572024346,8.90959274069,-0.122189614607,0.181775373172,0.10862951003,-0.00035526513408,0.0,-0.0667561260496,0.0,0.0649234430305,0.0,-1.53171550592,0.0,-0.042875634015,0.0,-0.00108643917642,0.0,0.00306749068498,0.0,0.0708682363591,0.0,-0.00705727236416,0.0,0.0,0.0,0.0,25.0,-0.0,-7.62,0.00230154196664,25.0,0.000767318410122,0.0,-0.0,25.0,-0.0,0.0,63407.2,0.0,0.0,0.0,0.0,0.0,0.0
1402752530085330650,3,-7.78994427251,-0.00591572024346,8.91284193294,-0.122189614607,0.186491249094,0.10862951003,-0.00754590497148,0.0,-0.0538116316717,0.0,0.0656158940535,0.0,-1.5334125059,0.0,-0.0468202775478,0.0,8.80468737171e-05,0.0,0.00268358553114,0.0,0.0692172252815,0.0,0.00121393098215,0.0,0.0,0.0,0.0,25.0,-0.0,-7.62,0.00230154196664,25.0,0.000767318410122,0.0,-0.0,25.0,-0.0,0.0,63407.2,0.0,0.0,0.0,0.0,0.0,0.0
1402752530105530937,3,-7.78994427251,-0.00591572024346,8.91284193294,-0.122189614607,0.186491249094,0.10862951003,-0.00754590497148,0.0,-0.0538116316717,0.0,0.0656158940535,0.0,-1.5334125059,0.0,-0.0468202775478,0.0,8.80468737171e-05,0.0,0.00268358553114,0.0,0.0692172252815,0.0,0.00121393098215,0.0,0.0,0.0,0.0,25.0,-0.0,-7.62,0.00230154196664,25.0,0.000767318410122,0.0,-0.0,25.0,-0.0,0.0,63407.2,0.0,0.0,0.0,0.0,0.0,0.0
1402752530125943341,3,-7.79031565185,-0.00591572024346,8.91068756215,-0.122189614607,0.189126432684,0.10862951003,-0.00867845276812,0.0,-0.0548658290079,0.0,0.0658823403016,0.0,-1.53502241878,0.0,-0.0337125542809,0.0,-8.00477524005e-05,0.0,0.00105027672109,0.0,0.0694631793298,0.0,0.00656485033619,0.0,0.0,0.0,0.0,25.0,-0.0,-7.62,0.00230154196664,25.0,-0.000767381983555,0.0,-0.0,25.0,-0.0,0.0,63407.2,0.0,0.0,0.0,0.0,0.0,0.0
1402752530145385967,3,-7.79031565185,-0.00591572024346,8.91068756215,-0.122189614607,0.189126432684,0.10862951003,-0.00867845276812,0.0,-0.0548658290079,0.0,0.0658823403016,0.0,-1.53502241878,0.0,-0.0337125542809,0.0,-8.00477524005e-05,0.0,0.00105027672109,0.0,0.0694631793298,0.0,0.00656485033619,0.0,0.0,0.0,0.0,25.0,-0.0,-7.62,0.00230154196664,25.0,-0.000767381983555,0.0,-0.0,25.0,-0.0,0.0,63407.2,0.0,0.0,0.0,0.0,0.0,0.0
1402752530165352262,3,-7.79288252085,-0.00591572024346,8.90339626149,-0.122189614607,0.192192894223,0.10862951003,-0.0157823362859,0.0,-0.070616206876,0.0,0.068059726272,0.0,-1.53675011503,0.0,-0.0454213420176,0.0,0.000579074415729,0.0,0.0116914368112,0.0,0.0710688524352,0.0,0.0133524539225,0.0,0.0,0.0,0.0,25.0,-0.0,-7.62,0.00230154196664,25.0,0.000767318410122,0.0,-0.0,25.0,-0.0,0.0,63407.2,0.0,0.0,0.0,0.0,0.0,0.0
1402752530185580145,3,-7.79288252085,-0.00591572024346,8.90339626149,-0.122189614607,0.192192894223,0.10862951003,-0.0157823362859,0.0,-0.070616206876,0.0,0.068059726272,0.0,-1.53675011503,0.0,-0.0454213420176,0.0,0.000579074415729,0.0,0.0116914368112,0.0,0.0710688524352,0.0,0.0133524539225,0.0,0.0,0.0,0.0,25.0,-0.0,-7.62,0.00230154196664,25.0,-0.000767381983555,0.0,-0.0,25.0,-0.0,0.0,63407.2,0.0,0.0,0.0,0.0,0.0,0.0
1402752530205356816,3,-7.78543044637,-0.00591572024346,8.90352646864,-0.122189614607,0.189864640311,0.10862951003,-0.00230362981978,0.0,-0.0705868629874,0.0,0.0665814865839,0.0,-1.53885035415,0.0,-0.0460509582585,0.0,-0.00142814203421,0.0,0.00841777227951,0.0,0.0713695616989,0.0,0.00309073008442,0.0,0.0,0.0,0.0,25.0,-0.0,-7.62,0.00230154196664,25.0,-0.000767381983555,0.0,-0.0,25.0,-0.0,0.0,63407.2,0.0,0.0,0.0,0.0,0.0,0.0
1402752530226176440,3,-7.78543044637,-0.00591572024346,8.90352646864,-0.122189614607,0.189864640311,0.10862951003,-0.00230362981978,0.0,-0.0705868629874,0.0,0.0665814865839,0.0,-1.53885035415,0.0,-0.0460509582585,0.0,-0.00142814203421,0.0,0.00841777227951,0.0,0.0713695616989,0.0,0.00309073008442,0.0,0.0,0.0,0.0,25.0,-0.0,-7.62,0.00230154196664,25.0,-0.000767381983555,0.0,-0.0,25.0,-0.0,0.0,63407.2,0.0,0.0,0.0,0.0,0.0,0.0
1402752530245864192,3,-7.78823231716,-0.00591572024346,8.89961872864,-0.122189614607,0.197106825158,0.10862951003,-0.0100607193608,0.0,-0.0737453155716,0.0,0.0699604463529,0.0,-1.54096127634,0.0,-0.0476015161578,0.0,-0.000697901169476,0.0,0.0115321430278,0.0,0.0719629672859,0.0,0.0184811083299,0.0,0.0,0.0,0.0,25.0,-0.0,-7.62,0.00230154196664,25.0,-0.000767381983555,0.0,-0.0,25.0,-0.0,0.0,63407.2,0.0,0.0,0.0,0.0,0.0,0.0
1402752530265460158,3,-7.78823231716,-0.00591572024346,8.89961872864,-0.122189614607,0.197106825158,0.10862951003,-0.0100607193608,0.0,-0.0737453155716,0.0,0.0699604463529,0.0,-1.54096127634,0.0,-0.0476015161578,0.0,-0.000697901169476,0.0,0.0115321430278,0.0,0.0719629672859,0.0,0.0184811083299,0.0,0.0,0.0,0.0,25.0,-0.0,-7.62,0.00230154196664,25.0,-0.000767381983555,0.0,-0.0,25.0,-0.0,0.0,63407.2,0.0,0.0,0.0,0.0,0.0,0.0
1402752530285423376,3,-7.78124522325,-0.00591572024346,8.8983843781,-0.122189614607,0.194332705079,0.10862951003,0.00529034375229,0.0,-0.0770659520456,0.0,0.0694585750268,0.0,-1.54315514807,0.0,-0.0544521664529,0.0,-0.0029283026645,0.0,0.0101938775079,0.0,0.0727508374855,0.0,0.0157446567409,0.0,0.0,0.0,0.0,25.0,-0.0,-7.62,0.00230154196664,25.0,-0.000767381983555,0.0,-0.0,25.0,-0.0,0.0,63407.2,0.0,0.0,0.0,0.0,0.0,0.0
1402752530305305285,3,-7.78124522325,-0.00591572024346,8.8983843781,-0.122189614607,0.194332705079,0.10862951003,0.00529034375229,0.0,-0.0770659520456,0.0,0.0694585750268,0.0,-1.54315514807,0.0,-0.0544521664529,0.0,-0.0029283026645,0.0,0.0101938775079,0.0,0.0727508374855,0.0,0.0157446567409,0.0,0.0,0.0,0.0,25.0,-0.0,-7.62,0.00230154196664,25.0,-0.000767381983555,0.0,-0.0,25.0,-0.0,0.0,63407.2,0.0,0.0,0.0,0.0,0.0,0.0
1402752530325092160,3,-7.78288375921,-0.00591572024346,8.89324023325,-0.122189614607,0.204219060919,0.10862951003,-0.00396788961094,0.0,-0.0811797702605,0.0,0.07526377759,0.0,-1.54538732815,0.0,-0.0523026715727,0.0,-0.00238333269162,0.0,0.00647413941992,0.0,0.0732853188109,0.0,0.00840727410868,0.0,0.0,0.0,0.0,25.0,-0.0,-7.62,0.00230154196664,25.0,-0.000767381983555,0.0,-0.0,25.0,-0.0,0.0,63407.2,0.0,0.0,0.0,0.0,0.0,0.0
1402752530345936770,3,-7.78288375921,-0.00591572024346,8.89324023325,-0.122189614607,0.204219060919,0.10862951003,-0.00396788961094,0.0,-0.0811797702605,0.0,0.07526377759,0.0,-1.54538732815,0.0,-0.0523026715727,0.0,-0.00238333269162,0.0,0.00647413941992,0.0,0.0732853188109,0.0,0.00840727410868,0.0,0.0,0.0,0.0,25.0,-0.0,-7.62,0.00230154196664,25.0,-0.000767381983555,0.0,-0.0,25.0,-0.0,0.0,63407.2,0.0,0.0,0.0,0.0,0.0,0.0
1402752530365861515,3,-7.78307113696,-0.00591572024346,8.88990761661,-0.122189614607,0.207394209705,0.10862951003,-0.00422653588434,0.0,-0.0833775637756,0.0,0.0779938185613,0.0,-1.54750291359,0.0,-0.0490930140993,0.0,-0.00278378870676,0.0,0.00563268499462,0.0,0.073646279499,0.0,0.00682643370328,0.0,0.0,0.0,0.0,25.0,-0.0,-7.62,0.00230154196664,25.0,-0.000767381983555,0.0,-0.0,25.0,-0.0,0.0,63407.2,0.0,0.0,0.0,0.0,0.0,0.0
1402752530385273695,3,-7.78307113696,-0.00591572024346,8.88990761661,-0.122189614607,0.207394209705,0.10862951003,-0.00422653588434,0.0,-0.0833775637756,0.0,0.0779938185613,0.0,-1.54750291359,0.0,-0.0490930140993,0.0,-0.00278378870676,0.0,0.00563268499462,0.0,0.073646279499,0.0,0.00682643370328,0.0,0.0,0.0,0.0,25.0,-0.0,-7.62,0.00230154196664,25.0,-0.000767381983555,0.0,-0.0,25.0,-0.0,0.0,63407.2,0.0,0.0,0.0,0.0,0.0,0.0
1402752530405342088,3,-7.78495429302,-0.00591572024346,8.89879133007,-0.122189614607,0.189288486882,0.10862951003,-0.0095768839572,0.0,-0.0679344089821,0.0,0.0727632584967,0.0,-1.549508155,0.0,-0.0484030791687,0.0,-0.00238356294773,0.0,0.00594408464959,0.0,0.0721332629806,0.0,0.00414852508347,0.0,0.0,0.0,0.0,25.0,-0.0,-7.62,0.00230154196664,25.0,-0.000767381983555,0.0,-0.0,25.0,-0.0,0.0,63407.2,0.0,0.0,0.0,0.0,0.0,0.0
1402752530425058210,3,-7.78495429302,-0.00591572024346,8.89879133007,-0.122189614607,0.189288486882,0.10862951003,-0.0095768839572,0.0,-0.0679344089821,0.0,0.0727632584967,0.0,-1.549508155,0.0,-0.0484030791687,0.0,-0.00238356294773,0.0,0.00594408464959,0.0,0.0721332629806,0.0,0.00414852508347,0.0,0.0,0.0,0.0,25.0,-0.0,-7.62,0.00230154196664,25.0,-0.000767381983555,0.0,-0.0,25.0,-0.0,0.0,63407.2,0.0,0.0,0.0,0.0,0.0,0.0
