rosbagTimestamp,transforms,-,header,seq,stamp,secs,nsecs,frame_id,child_frame_id,transform,translation,x,y,z,rotation,x,y,z,w
1402415830677743025,,errorv,,0,,1402415830,677498069,base_link,/z_drive,,,0.0,0.0,0.0,,0.0,0.0,0.0,1.0
1402415830677774851,,errorv,,0,,1402415830,677525980,/z_drive,port,,,-0.3,0.3048,0.0,,0.0,0.0,0.0,1.0
1402415830677797726,,errorv,,0,,1402415830,677532161,/z_drive,starboard,,,-0.3,-0.3048,0.0,,0.0,0.0,0.0,1.0
1402415830697670684,,errorv,,0,,1402415830,697490244,base_link,/z_drive,,,0.0,0.0,0.0,,0.0,0.0,0.0,1.0
1402415830697689930,,errorv,,0,,1402415830,697514558,/z_drive,port,,,-0.3,0.3048,0.0,,0.0,0.0,0.0,1.0
1402415830697699622,,errorv,,0,,1402415830,697527952,/z_drive,starboard,,,-0.3,-0.3048,0.0,,0.0,0.0,0.0,1.0
1402415830703131256,,errorv,,0,,1402415830,649641036,/enu,/base_link,,,-1.36038158564,23.3754182868,-27.3335922882,,-0.00962310419674,-0.000588043863471,-0.223580132515,0.974637868346
1402415830703160175,,errorv,,0,,1402415830,659607887,/enu,/base_link,,,-1.35101032216,23.3723238279,-27.3333097788,,-0.00961673471782,-0.000464595414165,-0.223069007616,0.974755107915
1402415830707878071,,errorv,,0,,1402415830,807621713,base_link,imu,,,0.13,0.0,-0.1,,1.0,0.0,0.0,0.0
1402415830707909326,,errorv,,0,,1402415830,807627956,/base_link,/gps,,,-0.84,0.0,-0.14,,0.0,0.0,0.0,1.0
1402415830717771727,,errorv,,0,,1402415830,717643800,base_link,/z_drive,,,0.0,0.0,0.0,,0.0,0.0,0.0,1.0
1402415830717860610,,errorv,,0,,1402415830,717659628,/z_drive,port,,,-0.3,0.3048,0.0,,0.0,0.0,0.0,1.0
1402415830717889965,,errorv,,0,,1402415830,717693556,/z_drive,starboard,,,-0.3,-0.3048,0.0,,0.0,0.0,0.0,1.0
1402415830737658726,,errorv,,0,,1402415830,737502642,base_link,/z_drive,,,0.0,0.0,0.0,,0.0,0.0,0.0,1.0
1402415830737686843,,errorv,,0,,1402415830,737526161,/z_drive,port,,,-0.3,0.3048,0.0,,0.0,0.0,0.0,1.0
1402415830737879836,,errorv,,0,,1402415830,737536453,/z_drive,starboard,,,-0.3,-0.3048,0.0,,0.0,0.0,0.0,1.0
1402415830743126688,,errorv,,0,,1402415830,670636892,/enu,/base_link,,,-1.34085324912,23.3686540292,-27.3325853199,,-0.00953863377669,-0.000405385379348,-0.222496227427,0.974886803126
1402415830743154046,,errorv,,0,,1402415830,680609941,/enu,/base_link,,,-1.3312856359,23.365433328,-27.3321515319,,-0.00949112518416,-0.000287068327994,-0.221959967487,0.975009543014
1402415830743176560,,errorv,,0,,1402415830,691605091,/enu,/base_link,,,-1.3159844793,23.344299315,-27.3332463786,,-0.00834825553681,0.000481275959285,-0.222514302552,0.974893563505
1402415830743200781,,errorv,,0,,1402415830,701605081,/enu,/base_link,,,-1.3062613065,23.3406270637,-27.3324777974,,-0.00833182142152,0.000529877134378,-0.22199177344,0.975012796074
1402415830757680262,,errorv,,0,,1402415830,757468869,base_link,/z_drive,,,0.0,0.0,0.0,,0.0,0.0,0.0,1.0
1402415830757703840,,errorv,,0,,1402415830,757486215,/z_drive,port,,,-0.3,0.3048,0.0,,0.0,0.0,0.0,1.0
1402415830757730125,,errorv,,0,,1402415830,757496355,/z_drive,starboard,,,-0.3,-0.3048,0.0,,0.0,0.0,0.0,1.0
1402415830777735375,,errorv,,0,,1402415830,777456197,base_link,/z_drive,,,0.0,0.0,0.0,,0.0,0.0,0.0,1.0
1402415830777769960,,errorv,,0,,1402415830,777474079,/z_drive,port,,,-0.3,0.3048,0.0,,0.0,0.0,0.0,1.0
1402415830777787243,,errorv,,0,,1402415830,777482504,/z_drive,starboard,,,-0.3,-0.3048,0.0,,0.0,0.0,0.0,1.0
1402415830783347942,,errorv,,0,,1402415830,712604999,/enu,/base_link,,,-1.29559558673,23.3367894371,-27.3319022368,,-0.00825950424418,0.0005995188236,-0.221435564661,0.975139842212
1402415830783377881,,errorv,,0,,1402415830,722604036,/enu,/base_link,,,-1.28584663463,23.3332506028,-27.3312540755,,-0.00820169599759,0.000498617927983,-0.220936467733,0.975253587939
1402415830783402180,,errorv,,0,,1402415830,733601093,/enu,/base_link,,,-1.26289860281,23.2934907101,-27.330717501,,-0.00594249174458,0.00224772941205,-0.222781974381,0.974847591368
1402415830783428245,,errorv,,0,,1402415830,743604898,/enu,/base_link,,,-1.25267344066,23.2893401899,-27.3300170184,,-0.00586518243803,0.00214358743054,-0.22226637054,0.974965981558
1402415830783448234,,errorv,,0,,1402415830,754604101,/enu,/base_link,,,-1.24121803585,23.2847270784,-27.3293077777,,-0.00577468723928,0.00215381997559,-0.221683694229,0.975099150733
1402415830797836546,,errorv,,0,,1402415830,797528502,base_link,/z_drive,,,0.0,0.0,0.0,,0.0,0.0,0.0,1.0
1402415830797860902,,errorv,,0,,1402415830,797553462,/z_drive,port,,,-0.3,0.3048,0.0,,0.0,0.0,0.0,1.0
1402415830797876098,,errorv,,0,,1402415830,797560971,/z_drive,starboard,,,-0.3,-0.3048,0.0,,0.0,0.0,0.0,1.0
1402415830808008761,,errorv,,0,,1402415830,907722553,base_link,imu,,,0.13,0.0,-0.1,,1.0,0.0,0.0,0.0
1402415830808032948,,errorv,,0,,1402415830,907728867,/base_link,/gps,,,-0.84,0.0,-0.14,,0.0,0.0,0.0,1.0
1402415830817725914,,errorv,,0,,1402415830,817466125,base_link,/z_drive,,,0.0,0.0,0.0,,0.0,0.0,0.0,1.0
1402415830817873838,,errorv,,0,,1402415830,817486533,/z_drive,port,,,-0.3,0.3048,0.0,,0.0,0.0,0.0,1.0
1402415830817896499,,errorv,,0,,1402415830,817525065,/z_drive,starboard,,,-0.3,-0.3048,0.0,,0.0,0.0,0.0,1.0
1402415830823098853,,errorv,,0,,1402415830,764605045,/enu,/base_link,,,-1.23115136995,23.2805124032,-27.328594586,,-0.00575098904512,0.00201276650988,-0.221151127542,0.975220515413
1402415830823127348,,errorv,,0,,1402415830,775578022,/enu,/base_link,,,-1.21969528353,23.275886379,-27.3277578355,,-0.00569719607645,0.00183236399778,-0.220583576371,0.975349716888
1402415830823153162,,errorv,,0,,1402415830,786580085,/enu,/base_link,,,-1.20147009819,23.2705569499,-27.3313627569,,-0.00597682661804,0.00265194197496,-0.219880536568,0.975504892036
1402415830835283336,,errorv,,0,,1402415830,796576023,/enu,/base_link,,,-1.19075470665,23.2663854689,-27.3307547124,,-0.00592591591373,0.00247649089676,-0.219396338587,0.975614676565
1402415830835421319,,errorv,,0,,1402415830,806565999,/enu,/base_link,,,-1.18005161906,23.2621583394,-27.3299779246,,-0.00582737009663,0.00233978332454,-0.218883838026,0.975730717269
1402415830837620546,,errorv,,0,,1402415830,837496858,base_link,/z_drive,,,0.0,0.0,0.0,,0.0,0.0,0.0,1.0
1402415830837791523,,errorv,,0,,1402415830,837513739,/z_drive,port,,,-0.3,0.3048,0.0,,0.0,0.0,0.0,1.0
1402415830837821656,,errorv,,0,,1402415830,837555558,/z_drive,starboard,,,-0.3,-0.3048,0.0,,0.0,0.0,0.0,1.0
1402415830857737451,,errorv,,0,,1402415830,857487152,base_link,/z_drive,,,0.0,0.0,0.0,,0.0,0.0,0.0,1.0
1402415830857834031,,errorv,,0,,1402415830,857600498,/z_drive,port,,,-0.3,0.3048,0.0,,0.0,0.0,0.0,1.0
1402415830857915551,,errorv,,0,,1402415830,857615440,/z_drive,starboard,,,-0.3,-0.3048,0.0,,0.0,0.0,0.0,1.0
1402415830875113057,,errorv,,0,,1402415830,817600011,/enu,/base_link,,,-1.16817802612,23.2574815501,-27.3291450726,,-0.00589188783738,0.00213351881918,-0.218303657536,0.975860772273
1402415830875145258,,errorv,,0,,1402415830,827553033,/enu,/base_link,,,-1.15736752136,23.2532461989,-27.3283355481,,-0.0057915275362,0.00206272731352,-0.217806746008,0.975972553281
1402415830877830260,,errorv,,0,,1402415830,877577330,base_link,/z_drive,,,0.0,0.0,0.0,,0.0,0.0,0.0,1.0
1402415830877855579,,errorv,,0,,1402415830,877642515,/z_drive,port,,,-0.3,0.3048,0.0,,0.0,0.0,0.0,1.0
1402415830877874928,,errorv,,0,,1402415830,877651108,/z_drive,starboard,,,-0.3,-0.3048,0.0,,0.0,0.0,0.0,1.0
1402415830897688923,,errorv,,0,,1402415830,897472414,base_link,/z_drive,,,0.0,0.0,0.0,,0.0,0.0,0.0,1.0
1402415830897716332,,errorv,,0,,1402415830,897492554,/z_drive,port,,,-0.3,0.3048,0.0,,0.0,0.0,0.0,1.0
1402415830897735602,,errorv,,0,,1402415830,897499439,/z_drive,starboard,,,-0.3,-0.3048,0.0,,0.0,0.0,0.0,1.0
1402415830908064655,,errorv,,0,,1402415831,7835697,base_link,imu,,,0.13,0.0,-0.1,,1.0,0.0,0.0,0.0
1402415830908089159,,errorv,,0,,1402415831,7833296,/base_link,/gps,,,-0.84,0.0,-0.14,,0.0,0.0,0.0,1.0
1402415830915164350,,errorv,,0,,1402415830,838546037,/enu,/base_link,,,-1.14534185307,23.2486411653,-27.327655488,,-0.00581323002062,0.00191115993055,-0.217219105768,0.976103690145
1402415830915320831,,errorv,,0,,1402415830,848534107,/enu,/base_link,,,-1.13421188401,23.2443738462,-27.3270127949,,-0.00587539145311,0.00175836065706,-0.21671691029,0.976215226647
1402415830915355357,,errorv,,0,,1402415830,859539985,/enu,/base_link,,,-1.12212489252,23.2396527164,-27.3261084683,,-0.00582916185828,0.00164391083269,-0.216214835402,0.976327026862
1402415830915389821,,errorv,,0,,1402415830,869538068,/enu,/base_link,,,-1.11096509211,23.2354970919,-27.3256034093,,-0.00587212604081,0.00153700249227,-0.215708297388,0.976438982322
1402415830917713500,,errorv,,0,,1402415830,917507675,base_link,/z_drive,,,0.0,0.0,0.0,,0.0,0.0,0.0,1.0
1402415830917743225,,errorv,,0,,1402415830,917531115,/z_drive,port,,,-0.3,0.3048,0.0,,0.0,0.0,0.0,1.0
1402415830917808909,,errorv,,0,,1402415830,917538884,/z_drive,starboard,,,-0.3,-0.3048,0.0,,0.0,0.0,0.0,1.0
1402415830937634252,,errorv,,0,,1402415830,937460652,base_link,/z_drive,,,0.0,0.0,0.0,,0.0,0.0,0.0,1.0
1402415830937664295,,errorv,,0,,1402415830,937482556,/z_drive,port,,,-0.3,0.3048,0.0,,0.0,0.0,0.0,1.0
1402415830937784685,,errorv,,0,,1402415830,937507182,/z_drive,starboard,,,-0.3,-0.3048,0.0,,0.0,0.0,0.0,1.0
1402415830955285019,,errorv,,0,,1402415830,880537033,/enu,/base_link,,,-1.09874160101,23.2307529381,-27.3248300647,,-0.0058309629018,0.00137173090216,-0.215172693279,0.976557643098
1402415830955372408,,errorv,,0,,1402415830,890523910,/enu,/base_link,,,-1.04649887188,22.9926458925,-27.4724005906,,0.0120289024009,0.00832114011941,-0.229267065381,0.973253654946
1402415830955394945,,errorv,,0,,1402415830,901494026,/enu,/base_link,,,-1.03316428177,22.983269928,-27.47239398,,0.0120435362896,0.00817751854172,-0.2287407399,0.973378526234
1402415830955413006,,errorv,,0,,1402415830,911494970,/enu,/base_link,,,-1.02089295701,22.9747196225,-27.4724408301,,0.0121211877377,0.00802715584873,-0.228282930707,0.973486283994
1402415830957705439,,errorv,,0,,1402415830,957551543,base_link,/z_drive,,,0.0,0.0,0.0,,0.0,0.0,0.0,1.0
1402415830957725222,,errorv,,0,,1402415830,957573185,/z_drive,port,,,-0.3,0.3048,0.0,,0.0,0.0,0.0,1.0
1402415830957927172,,errorv,,0,,1402415830,957580507,/z_drive,starboard,,,-0.3,-0.3048,0.0,,0.0,0.0,0.0,1.0
1402415830977713143,,errorv,,0,,1402415830,977474690,base_link,/z_drive,,,0.0,0.0,0.0,,0.0,0.0,0.0,1.0
1402415830977851287,,errorv,,0,,1402415830,977501801,/z_drive,port,,,-0.3,0.3048,0.0,,0.0,0.0,0.0,1.0
1402415830977887179,,errorv,,0,,1402415830,977512077,/z_drive,starboard,,,-0.3,-0.3048,0.0,,0.0,0.0,0.0,1.0
1402415830995067357,,errorv,,0,,1402415830,922493934,/enu,/base_link,,,-1.00744259751,22.965325237,-27.4725376777,,0.012051839416,0.0079216403976,-0.227763847467,0.973609588371
1402415830995159238,,errorv,,0,,1402415830,932495117,/enu,/base_link,,,-1.01813746903,22.9519854139,-27.611209955,,0.0138245503577,0.00587947234511,-0.227683959961,0.973619190438
1402415830995178241,,errorv,,0,,1402415830,943497896,/enu,/base_link,,,-1.00496974796,22.9420804518,-27.6114986587,,0.0137786309835,0.00585413885123,-0.227173667515,0.973739186422
1402415830995216375,,errorv,,0,,1402415830,953497886,/enu,/base_link,,,-0.993075458184,22.9330204883,-27.6118919964,,0.0138130726679,0.00571807974104,-0.226712519833,0.973846977681
1402415830997693098,,errorv,,0,,1402415830,997513440,base_link,/z_drive,,,0.0,0.0,0.0,,0.0,0.0,0.0,1.0
1402415830997727258,,errorv,,0,,1402415830,997534410,/z_drive,port,,,-0.3,0.3048,0.0,,0.0,0.0,0.0,1.0
1402415830997759364,,errorv,,0,,1402415830,997543396,/z_drive,starboard,,,-0.3,-0.3048,0.0,,0.0,0.0,0.0,1.0
1402415831008118686,,errorv,,0,,1402415831,107936811,/base_link,/gps,,,-0.84,0.0,-0.14,,0.0,0.0,0.0,1.0
1402415831008178152,,errorv,,0,,1402415831,107947663,base_link,imu,,,0.13,0.0,-0.1,,1.0,0.0,0.0,0.0
1402415831017981932,,errorv,,0,,1402415831,17463828,base_link,/z_drive,,,0.0,0.0,0.0,,0.0,0.0,0.0,1.0
1402415831018009367,,errorv,,0,,1402415831,17480575,/z_drive,port,,,-0.3,0.3048,0.0,,0.0,0.0,0.0,1.0
1402415831018035799,,errorv,,0,,1402415831,17490601,/z_drive,starboard,,,-0.3,-0.3048,0.0,,0.0,0.0,0.0,1.0
1402415831035033532,,errorv,,0,,1402415830,964497089,/enu,/base_link,,,-0.979618853768,22.9232284045,-27.6125170463,,0.013759722034,0.00564367417767,-0.226233034334,0.973959667115
1402415831035056092,,errorv,,0,,1402415830,974495887,/enu,/base_link,,,-0.967516740493,22.9140696148,-27.6129879579,,0.0137862052977,0.00551974913351,-0.22577066129,0.974067287929
1402415831035139263,,errorv,,0,,1402415830,985496044,/enu,/base_link,,,-0.992924856118,22.9437740887,-27.6975498528,,0.0123717224769,0.0011143157039,-0.223106693851,0.974714882385
1402415831035209274,,errorv,,0,,1402415830,995495080,/enu,/base_link,,,-0.981334463979,22.9352421344,-27.698313169,,0.0123265188319,0.00111080888087,-0.222644275147,0.974821188619
1402415831035232630,,errorv,,0,,1402415831,6495952,/enu,/base_link,,,-0.968730903219,22.9258115663,-27.6991282948,,0.0123622468506,0.00100677945607,-0.222164730893,0.974930250631
1402415831037717190,,errorv,,0,,1402415831,37513955,base_link,/z_drive,,,0.0,0.0,0.0,,0.0,0.0,0.0,1.0
1402415831037812566,,errorv,,0,,1402415831,37547718,/z_drive,port,,,-0.3,0.3048,0.0,,0.0,0.0,0.0,1.0
1402415831037851699,,errorv,,0,,1402415831,37557639,/z_drive,starboard,,,-0.3,-0.3048,0.0,,0.0,0.0,0.0,1.0
1402415831057704196,,errorv,,0,,1402415831,57499756,base_link,/z_drive,,,0.0,0.0,0.0,,0.0,0.0,0.0,1.0
1402415831057741301,,errorv,,0,,1402415831,57534497,/z_drive,port,,,-0.3,0.3048,0.0,,0.0,0.0,0.0,1.0
1402415831057771560,,errorv,,0,,1402415831,57545850,/z_drive,starboard,,,-0.3,-0.3048,0.0,,0.0,0.0,0.0,1.0
1402415831075139855,,errorv,,0,,1402415831,17515897,/enu,/base_link,,,-0.955964557679,22.9160904261,-27.6995093865,,0.0123144662286,0.00108567855442,-0.221672540814,0.975042798995
1402415831075165649,,errorv,,0,,1402415831,27899980,/enu,/base_link,,,-0.943992015949,22.9071430436,-27.7003846648,,0.0123093518889,0.00102134081198,-0.221240802761,0.975140986685
1402415831075190284,,errorv,,0,,1402415831,38494110,/enu,/base_link,,,-1.0170800977,22.9950695584,-27.7585220349,,0.00800551276444,-0.00901280036937,-0.215479974308,0.976433849202
1402415831077805399,,errorv,,0,,1402415831,77522576,base_link,/z_drive,,,0.0,0.0,0.0,,0.0,0.0,0.0,1.0
1402415831077835404,,errorv,,0,,1402415831,77544911,/z_drive,port,,,-0.3,0.3048,0.0,,0.0,0.0,0.0,1.0
1402415831077901804,,errorv,,0,,1402415831,77584357,/z_drive,starboard,,,-0.3,-0.3048,0.0,,0.0,0.0,0.0,1.0
1402415831087371487,,errorv,,0,,1402415831,48497915,/enu,/base_link,,,-1.00732371013,22.9878616668,-27.7592270837,,0.00792896489753,-0.00892964083175,-0.21505728394,0.976528421324
1402415831087394707,,errorv,,0,,1402415831,59498071,/enu,/base_link,,,-0.996437544487,22.9800125127,-27.7601595187,,0.00796907025612,-0.00894854146426,-0.214558250472,0.976637688541
1402415831097854496,,errorv,,0,,1402415831,97663985,base_link,/z_drive,,,0.0,0.0,0.0,,0.0,0.0,0.0,1.0
1402415831097886827,,errorv,,0,,1402415831,97688053,/z_drive,port,,,-0.3,0.3048,0.0,,0.0,0.0,0.0,1.0
1402415831097962864,,errorv,,0,,1402415831,97700719,/z_drive,starboard,,,-0.3,-0.3048,0.0,,0.0,0.0,0.0,1.0
1402415831108217793,,errorv,,0,,1402415831,208046095,base_link,imu,,,0.13,0.0,-0.1,,1.0,0.0,0.0,0.0
1402415831108234264,,errorv,,0,,1402415831,208037051,/base_link,/gps,,,-0.84,0.0,-0.14,,0.0,0.0,0.0,1.0
1402415831117628139,,errorv,,0,,1402415831,117465743,base_link,/z_drive,,,0.0,0.0,0.0,,0.0,0.0,0.0,1.0
1402415831117653834,,errorv,,0,,1402415831,117481786,/z_drive,port,,,-0.3,0.3048,0.0,,0.0,0.0,0.0,1.0
1402415831117720177,,errorv,,0,,1402415831,117490999,/z_drive,starboard,,,-0.3,-0.3048,0.0,,0.0,0.0,0.0,1.0
1402415831127064110,,errorv,,0,,1402415831,69498062,/enu,/base_link,,,-0.98665701822,22.972755408,-27.7608844833,,0.00787969538867,-0.00884866365204,-0.214119027637,0.976735713259
1402415831127090124,,errorv,,0,,1402415831,80497980,/enu,/base_link,,,-0.975683829217,22.9647176408,-27.7617714204,,0.00788835444923,-0.00892839991955,-0.213624204809,0.97684326105
1402415831137724609,,errorv,,0,,1402415831,137461089,base_link,/z_drive,,,0.0,0.0,0.0,,0.0,0.0,0.0,1.0
1402415831137757108,,errorv,,0,,1402415831,137519448,/z_drive,port,,,-0.3,0.3048,0.0,,0.0,0.0,0.0,1.0
1402415831137780683,,errorv,,0,,1402415831,137528252,/z_drive,starboard,,,-0.3,-0.3048,0.0,,0.0,0.0,0.0,1.0
1402415831157697284,,errorv,,0,,1402415831,157474175,base_link,/z_drive,,,0.0,0.0,0.0,,0.0,0.0,0.0,1.0
1402415831157731283,,errorv,,0,,1402415831,157492357,/z_drive,port,,,-0.3,0.3048,0.0,,0.0,0.0,0.0,1.0
1402415831157784665,,errorv,,0,,1402415831,157500159,/z_drive,starboard,,,-0.3,-0.3048,0.0,,0.0,0.0,0.0,1.0
1402415831167207075,,errorv,,0,,1402415831,90497016,/enu,/base_link,,,-0.994913362696,22.9598326499,-27.901974914,,0.00931689831761,-0.0117777062621,-0.212855348045,0.976968311589
1402415831167286432,,errorv,,0,,1402415831,101494073,/enu,/base_link,,,-0.984678842468,22.9516829268,-27.9032589443,,0.00932925906346,-0.0117977835772,-0.212350859147,0.977077729686
1402415831167311743,,errorv,,0,,1402415831,111496925,/enu,/base_link,,,-0.975525612828,22.9442091739,-27.9043186889,,0.0092887676625,-0.0118232127693,-0.211913362119,0.977172787889
1402415831167379041,,errorv,,0,,1402415831,122416019,/enu,/base_link,,,-0.965147848132,22.9361895966,-27.9057680731,,0.0091497677846,-0.0116569819407,-0.211442920579,0.977277999271
1402415831177732051,,errorv,,0,,1402415831,177531354,base_link,/z_drive,,,0.0,0.0,0.0,,0.0,0.0,0.0,1.0
1402415831177761591,,errorv,,0,,1402415831,177549407,/z_drive,port,,,-0.3,0.3048,0.0,,0.0,0.0,0.0,1.0
1402415831177788869,,errorv,,0,,1402415831,177556456,/z_drive,starboard,,,-0.3,-0.3048,0.0,,0.0,0.0,0.0,1.0
1402415831197881007,,errorv,,0,,1402415831,197699460,base_link,/z_drive,,,0.0,0.0,0.0,,0.0,0.0,0.0,1.0
1402415831198004364,,errorv,,0,,1402415831,197730240,/z_drive,port,,,-0.3,0.3048,0.0,,0.0,0.0,0.0,1.0
1402415831198044712,,errorv,,0,,1402415831,197771600,/z_drive,starboard,,,-0.3,-0.3048,0.0,,0.0,0.0,0.0,1.0
1402415831207310517,,errorv,,0,,1402415831,133414983,/enu,/base_link,,,-0.976895845768,22.9550935885,-27.8862674294,,0.00751563677925,-0.0145542437872,-0.209569704138,0.977656498111
1402415831207407298,,errorv,,0,,1402415831,143415927,/enu,/base_link,,,-0.967804848463,22.9481799862,-27.8874564598,,0.0074477275746,-0.0144258123329,-0.209138664317,0.977751219064
1402415831207435630,,errorv,,0,,1402415831,154412031,/enu,/base_link,,,-0.958148270932,22.9403759758,-27.8883650149,,0.00743565224918,-0.0144077225215,-0.20862318756,0.977861694832
1402415831207542261,,errorv,,0,,1402415831,164436101,/enu,/base_link,,,-0.949215597518,22.9334797662,-27.8895259528,,0.00737980551938,-0.0142690822427,-0.208147533206,0.977965508688
1402415831208356171,,errorv,,0,,1402415831,308143890,base_link,imu,,,0.13,0.0,-0.1,,1.0,0.0,0.0,0.0
1402415831208390034,,errorv,,0,,1402415831,308141451,/base_link,/gps,,,-0.84,0.0,-0.14,,0.0,0.0,0.0,1.0
1402415831217709189,,errorv,,0,,1402415831,217549994,base_link,/z_drive,,,0.0,0.0,0.0,,0.0,0.0,0.0,1.0
1402415831217733067,,errorv,,0,,1402415831,217567783,/z_drive,port,,,-0.3,0.3048,0.0,,0.0,0.0,0.0,1.0
1402415831217749957,,errorv,,0,,1402415831,217577338,/z_drive,starboard,,,-0.3,-0.3048,0.0,,0.0,0.0,0.0,1.0
1402415831237627338,,errorv,,0,,1402415831,237464132,base_link,/z_drive,,,0.0,0.0,0.0,,0.0,0.0,0.0,1.0
1402415831237655687,,errorv,,0,,1402415831,237480916,/z_drive,port,,,-0.3,0.3048,0.0,,0.0,0.0,0.0,1.0
1402415831237722510,,errorv,,0,,1402415831,237489908,/z_drive,starboard,,,-0.3,-0.3048,0.0,,0.0,0.0,0.0,1.0
1402415831249487842,,errorv,,0,,1402415831,175390005,/enu,/base_link,,,-0.939525262585,22.9256496403,-27.8904092467,,0.0072964876935,-0.0141735266969,-0.207611418082,0.978081474873
1402415831249513092,,errorv,,0,,1402415831,185398101,/enu,/base_link,,,-0.892763237093,22.9097894156,-27.8364976815,,0.00553245129723,-0.00987648457915,-0.208438563497,0.977969944468
1402415831249538540,,errorv,,0,,1402415831,196392059,/enu,/base_link,,,-0.881936691884,22.9023974311,-27.8378587165,,0.00546744029473,-0.00974180719643,-0.207947739314,0.978076143254
1402415831249564635,,errorv,,0,,1402415831,207395076,/enu,/base_link,,,-0.871107126951,22.8946944701,-27.8388275569,,0.00547795630014,-0.00972641949564,-0.207426679736,0.978186874422
1402415831249586369,,errorv,,0,,1402415831,217391967,/enu,/base_link,,,-0.86163052459,22.8875872303,-27.8392922057,,0.00543913251963,-0.00964002988638,-0.206966873892,0.978285336071
1402415831257684558,,errorv,,0,,1402415831,257500961,base_link,/z_drive,,,0.0,0.0,0.0,,0.0,0.0,0.0,1.0
1402415831257712468,,errorv,,0,,1402415831,257538881,/z_drive,port,,,-0.3,0.3048,0.0,,0.0,0.0,0.0,1.0
1402415831257787013,,errorv,,0,,1402415831,257548505,/z_drive,starboard,,,-0.3,-0.3048,0.0,,0.0,0.0,0.0,1.0
1402415831277629490,,errorv,,0,,1402415831,277469995,base_link,/z_drive,,,0.0,0.0,0.0,,0.0,0.0,0.0,1.0
1402415831277701124,,errorv,,0,,1402415831,277489961,/z_drive,port,,,-0.3,0.3048,0.0,,0.0,0.0,0.0,1.0
1402415831277979020,,errorv,,0,,1402415831,277498827,/z_drive,starboard,,,-0.3,-0.3048,0.0,,0.0,0.0,0.0,1.0
1402415831287039179,,errorv,,0,,1402415831,228391885,/enu,/base_link,,,-0.850615895204,22.88009937,-27.8406680085,,0.00545273526771,-0.00963898963139,-0.2064369144,0.978397239331
1402415831287112323,,errorv,,0,,1402415831,239375114,/enu,/base_link,,,-0.839983411294,22.8723235696,-27.8414584721,,0.00544127164145,-0.0096122703507,-0.205899530534,0.978510797154
1402415831287134845,,errorv,,0,,1402415831,249373912,/enu,/base_link,,,-0.830220590146,22.8654078568,-27.8424908809,,0.00539068836018,-0.00955395721754,-0.205430020251,0.978610325492
1402415831295391824,,errorv,,0,,1402415831,260385990,/enu,/base_link,,,-0.8192139337,22.8577125032,-27.8434139144,,0.0053818918793,-0.00959416590652,-0.204892842141,0.978722591166
1402415831295468507,,errorv,,0,,1402415831,271373987,/enu,/base_link,,,-0.788749399001,22.8496244549,-27.8320789234,,0.00385573362119,-0.00722985846967,-0.205347752339,0.978654772161
1402415831297771269,,errorv,,0,,1402415831,297541759,base_link,/z_drive,,,0.0,0.0,0.0,,0.0,0.0,0.0,1.0
1402415831297809669,,errorv,,0,,1402415831,297556783,/z_drive,port,,,-0.3,0.3048,0.0,,0.0,0.0,0.0,1.0
1402415831297834404,,errorv,,0,,1402415831,297561359,/z_drive,starboard,,,-0.3,-0.3048,0.0,,0.0,0.0,0.0,1.0
1402415831308432983,,errorv,,0,,1402415831,408241336,base_link,imu,,,0.13,0.0,-0.1,,1.0,0.0,0.0,0.0
1402415831308462084,,errorv,,0,,1402415831,408253655,/base_link,/gps,,,-0.84,0.0,-0.14,,0.0,0.0,0.0,1.0
1402415831317794949,,errorv,,0,,1402415831,317490671,base_link,/z_drive,,,0.0,0.0,0.0,,0.0,0.0,0.0,1.0
1402415831317819747,,errorv,,0,,1402415831,317512724,/z_drive,port,,,-0.3,0.3048,0.0,,0.0,0.0,0.0,1.0
1402415831317896917,,errorv,,0,,1402415831,317522668,/z_drive,starboard,,,-0.3,-0.3048,0.0,,0.0,0.0,0.0,1.0
1402415831335125579,,errorv,,0,,1402415831,281356096,/enu,/base_link,,,-0.778475102794,22.8426262919,-27.8326877764,,0.00390556295696,-0.00726577561517,-0.204835758199,0.97876159878
1402415831335149288,,errorv,,0,,1402415831,292346954,/enu,/base_link,,,-0.767277445923,22.8350032056,-27.8333544645,,0.00391077400784,-0.00727934200692,-0.204287268825,0.97887610494
1402415831337682543,,errorv,,0,,1402415831,337469359,base_link,/z_drive,,,0.0,0.0,0.0,,0.0,0.0,0.0,1.0
1402415831337785222,,errorv,,0,,1402415831,337487658,/z_drive,port,,,-0.3,0.3048,0.0,,0.0,0.0,0.0,1.0
1402415831337814599,,errorv,,0,,1402415831,337496529,/z_drive,starboard,,,-0.3,-0.3048,0.0,,0.0,0.0,0.0,1.0
1402415831357714068,,errorv,,0,,1402415831,357433972,base_link,/z_drive,,,0.0,0.0,0.0,,0.0,0.0,0.0,1.0
1402415831357877357,,errorv,,0,,1402415831,357482656,/z_drive,port,,,-0.3,0.3048,0.0,,0.0,0.0,0.0,1.0
1402415831357905264,,errorv,,0,,1402415831,357492583,/z_drive,starboard,,,-0.3,-0.3048,0.0,,0.0,0.0,0.0,1.0
1402415831375114437,,errorv,,0,,1402415831,302356958,/enu,/base_link,,,-0.756744604659,22.8284031616,-27.8345666356,,0.0038483381579,-0.00728562511695,-0.203778939884,0.978982253986
1402415831375297327,,errorv,,0,,1402415831,312330007,/enu,/base_link,,,-0.746542690776,22.8215092724,-27.8351884535,,0.00387535566046,-0.0073228061454,-0.203281848715,0.979085209832
1402415831375350455,,errorv,,0,,1402415831,323328971,/enu,/base_link,,,-0.711050903941,22.8117583443,-27.8385833792,,0.00230496932115,-0.0044317712844,-0.204353775195,0.978884355316
1402415831375410068,,errorv,,0,,1402415831,333345890,/enu,/base_link,,,-0.700223381849,22.8050120532,-27.8392229739,,0.00235017979356,-0.00449772696705,-0.20388335192,0.978982035544
1402415831377677404,,errorv,,0,,1402415831,377500269,base_link,/z_drive,,,0.0,0.0,0.0,,0.0,0.0,0.0,1.0
1402415831377706935,,errorv,,0,,1402415831,377517680,/z_drive,port,,,-0.3,0.3048,0.0,,0.0,0.0,0.0,1.0
1402415831377786767,,errorv,,0,,1402415831,377530292,/z_drive,starboard,,,-0.3,-0.3048,0.0,,0.0,0.0,0.0,1.0
1402415831397663807,,errorv,,0,,1402415831,397485240,base_link,/z_drive,,,0.0,0.0,0.0,,0.0,0.0,0.0,1.0
1402415831397970527,,errorv,,0,,1402415831,397506290,/z_drive,port,,,-0.3,0.3048,0.0,,0.0,0.0,0.0,1.0
1402415831397994428,,errorv,,0,,1402415831,397653393,/z_drive,starboard,,,-0.3,-0.3048,0.0,,0.0,0.0,0.0,1.0
1402415831408551485,,errorv,,0,,1402415831,508337139,base_link,imu,,,0.13,0.0,-0.1,,1.0,0.0,0.0,0.0
1402415831408580436,,errorv,,0,,1402415831,508351909,/base_link,/gps,,,-0.84,0.0,-0.14,,0.0,0.0,0.0,1.0
1402415831415172234,,errorv,,0,,1402415831,344317913,/enu,/base_link,,,-0.68803525148,22.797705044,-27.8401597784,,0.00240472993173,-0.00457230052702,-0.203349633136,0.979092558467
1402415831415198345,,errorv,,0,,1402415831,354334115,/enu,/base_link,,,-0.650344553039,22.7729936912,-27.827023347,,0.0023976773363,-0.0014919807735,-0.204301606706,0.978903916957
1402415831415255953,,errorv,,0,,1402415831,365344047,/enu,/base_link,,,-0.637572428585,22.7652540862,-27.8275660096,,0.00240376645549,-0.00155144152533,-0.203763850585,0.979015887578
1402415831415279734,,errorv,,0,,1402415831,375363111,/enu,/base_link,,,-0.625963639184,22.7583395327,-27.8281888056,,0.00239716971543,-0.00161768404084,-0.203290314665,0.979114234724
1402415831415311231,,errorv,,0,,1402415831,385329961,/enu,/base_link,,,-0.614398798743,22.7515215504,-27.8288925381,,0.00243914019488,-0.00167968266245,-0.202784725294,0.979218864427
1402415831417629141,,errorv,,0,,1402415831,417498328,base_link,/z_drive,,,0.0,0.0,0.0,,0.0,0.0,0.0,1.0
1402415831417716403,,errorv,,0,,1402415831,417514513,/z_drive,port,,,-0.3,0.3048,0.0,,0.0,0.0,0.0,1.0
1402415831417739454,,errorv,,0,,1402415831,417524831,/z_drive,starboard,,,-0.3,-0.3048,0.0,,0.0,0.0,0.0,1.0
1402415831437661272,,errorv,,0,,1402415831,437431909,base_link,/z_drive,,,0.0,0.0,0.0,,0.0,0.0,0.0,1.0
1402415831437694135,,errorv,,0,,1402415831,437490156,/z_drive,port,,,-0.3,0.3048,0.0,,0.0,0.0,0.0,1.0
1402415831437711730,,errorv,,0,,1402415831,437503359,/z_drive,starboard,,,-0.3,-0.3048,0.0,,0.0,0.0,0.0,1.0
1402415831455135836,,errorv,,0,,1402415831,396308898,/enu,/base_link,,,-0.598188703507,22.7492147052,-27.8614243287,,0.00163426237079,-0.00125576539113,-0.202788554256,0.979220380968
1402415831455158637,,errorv,,0,,1402415831,406303882,/enu,/base_link,,,-0.586422964977,22.742337104,-27.8619070171,,0.00165976271952,-0.00133091031886,-0.202303265321,0.979320612826
1402415831455182637,,errorv,,0,,1402415831,417296886,/enu,/base_link,,,-0.573452751209,22.7350374468,-27.8629781311,,0.00171478731646,-0.00144513230524,-0.201791842926,0.979425864078
1402415831457701937,,errorv,,0,,1402415831,457481597,base_link,/z_drive,,,0.0,0.0,0.0,,0.0,0.0,0.0,1.0
1402415831457892768,,errorv,,0,,1402415831,457498524,/z_drive,port,,,-0.3,0.3048,0.0,,0.0,0.0,0.0,1.0
1402415831457908651,,errorv,,0,,1402415831,457505729,/z_drive,starboard,,,-0.3,-0.3048,0.0,,0.0,0.0,0.0,1.0
1402415831463333292,,errorv,,0,,1402415831,427303075,/enu,/base_link,,,-0.561711951365,22.7282659428,-27.8636620669,,0.00176447408445,-0.0014880324112,-0.201354756285,0.97951566323
1402415831463357072,,errorv,,0,,1402415831,438296079,/enu,/base_link,,,-0.526878456953,22.7044826249,-27.826918157,,0.00175271217797,0.000873674906209,-0.202120351597,0.979358733132
1402415831477804011,,errorv,,0,,1402415831,477472199,base_link,/z_drive,,,0.0,0.0,0.0,,0.0,0.0,0.0,1.0
1402415831477832149,,errorv,,0,,1402415831,477492959,/z_drive,port,,,-0.3,0.3048,0.0,,0.0,0.0,0.0,1.0
1402415831477855825,,errorv,,0,,1402415831,477502161,/z_drive,starboard,,,-0.3,-0.3048,0.0,,0.0,0.0,0.0,1.0
1402415831497754759,,errorv,,0,,1402415831,497586285,base_link,/z_drive,,,0.0,0.0,0.0,,0.0,0.0,0.0,1.0
1402415831497819663,,errorv,,0,,1402415831,497609908,/z_drive,port,,,-0.3,0.3048,0.0,,0.0,0.0,0.0,1.0
1402415831497891963,,errorv,,0,,1402415831,497619471,/z_drive,starboard,,,-0.3,-0.3048,0.0,,0.0,0.0,0.0,1.0
1402415831503074968,,errorv,,0,,1402415831,448288917,/enu,/base_link,,,-0.514544434759,22.697585246,-27.8276541797,,0.0018018204999,0.000744235853766,-0.201636255215,0.97945853416
1402415831503099787,,errorv,,0,,1402415831,459305047,/enu,/base_link,,,-0.500958629327,22.689834242,-27.8281955843,,0.00183137958245,0.000735185180056,-0.201096133302,0.979569523169
1402415831508630987,,errorv,,0,,1402415831,608444209,base_link,imu,,,0.13,0.0,-0.1,,1.0,0.0,0.0,0.0
1402415831508673027,,errorv,,0,,1402415831,608463051,/base_link,/gps,,,-0.84,0.0,-0.14,,0.0,0.0,0.0,1.0
1402415831517737767,,errorv,,0,,1402415831,517440087,base_link,/z_drive,,,0.0,0.0,0.0,,0.0,0.0,0.0,1.0
1402415831517779622,,errorv,,0,,1402415831,517489710,/z_drive,port,,,-0.3,0.3048,0.0,,0.0,0.0,0.0,1.0
1402415831517803570,,errorv,,0,,1402415831,517499159,/z_drive,starboard,,,-0.3,-0.3048,0.0,,0.0,0.0,0.0,1.0
1402415831537737473,,errorv,,0,,1402415831,537422189,base_link,/z_drive,,,0.0,0.0,0.0,,0.0,0.0,0.0,1.0
1402415831537829425,,errorv,,0,,1402415831,537470473,/z_drive,port,,,-0.3,0.3048,0.0,,0.0,0.0,0.0,1.0
1402415831537854444,,errorv,,0,,1402415831,537479863,/z_drive,starboard,,,-0.3,-0.3048,0.0,,0.0,0.0,0.0,1.0
1402415831543107872,,errorv,,0,,1402415831,469297885,/enu,/base_link,,,-0.488696189327,22.6829481285,-27.8289568663,,0.00203942153958,0.000564684676031,-0.200612940577,0.979668295886
1402415831543242529,,errorv,,0,,1402415831,480303049,/enu,/base_link,,,-0.475130603354,22.6752771644,-27.8296995514,,0.00204218155566,0.000516290828013,-0.200052419397,0.979782931282
1402415831543277721,,errorv,,0,,1402415831,490308046,/enu,/base_link,,,-0.451228071886,22.6728720078,-27.8306753808,,0.000656066378504,0.00179686452569,-0.200891432868,0.979611643997
1402415831543298431,,errorv,,0,,1402415831,500262975,/enu,/base_link,,,-0.438711633998,22.6661225273,-27.8313809704,,0.000702268595291,0.00178087497768,-0.200387630528,0.979714822198
1402415831557789374,,errorv,,0,,1402415831,557445324,base_link,/z_drive,,,0.0,0.0,0.0,,0.0,0.0,0.0,1.0
1402415831557820111,,errorv,,0,,1402415831,557491981,/z_drive,port,,,-0.3,0.3048,0.0,,0.0,0.0,0.0,1.0
1402415831557841607,,errorv,,0,,1402415831,557500741,/z_drive,starboard,,,-0.3,-0.3048,0.0,,0.0,0.0,0.0,1.0
1402415831577705013,,errorv,,0,,1402415831,577417183,base_link,/z_drive,,,0.0,0.0,0.0,,0.0,0.0,0.0,1.0
1402415831577732359,,errorv,,0,,1402415831,577463434,/z_drive,port,,,-0.3,0.3048,0.0,,0.0,0.0,0.0,1.0
1402415831577751804,,errorv,,0,,1402415831,577472561,/z_drive,starboard,,,-0.3,-0.3048,0.0,,0.0,0.0,0.0,1.0
1402415831583230938,,errorv,,0,,1402415831,511265039,/enu,/base_link,,,-0.42444005211,22.6588041355,-27.8323610278,,0.000745720566536,0.00177409290427,-0.199855613758,0.979823468868
1402415831583258890,,errorv,,0,,1402415831,521264076,/enu,/base_link,,,-0.411988622384,22.6518813633,-27.8330435246,,0.000902007767918,0.00163084116385,-0.199369902133,0.979922532072
1402415831583304987,,errorv,,0,,1402415831,531263113,/enu,/base_link,,,-0.399139760504,22.6450756572,-27.8337939083,,0.000955583649707,0.00162509071841,-0.198846716135,0.980028790099
1402415831583330848,,errorv,,0,,1402415831,542248010,/enu,/base_link,,,-0.385065282569,22.6376611735,-27.8348370094,,0.00120553222482,0.00149273178329,-0.198276756482,0.980144196679
1402415831583351085,,errorv,,0,,1402415831,552247047,/enu,/base_link,,,-0.372234109977,22.630830003,-27.8355106277,,0.00121899621379,0.00150907321825,-0.19778229355,0.980244051808
1402415831597768115,,errorv,,0,,1402415831,597507688,base_link,/z_drive,,,0.0,0.0,0.0,,0.0,0.0,0.0,1.0
1402415831597793550,,errorv,,0,,1402415831,597527989,/z_drive,port,,,-0.3,0.3048,0.0,,0.0,0.0,0.0,1.0
1402415831597859901,,errorv,,0,,1402415831,597533158,/z_drive,starboard,,,-0.3,-0.3048,0.0,,0.0,0.0,0.0,1.0
1402415831608730522,,errorv,,0,,1402415831,708549065,base_link,imu,,,0.13,0.0,-0.1,,1.0,0.0,0.0,0.0
1402415831608759734,,errorv,,0,,1402415831,708560077,/base_link,/gps,,,-0.84,0.0,-0.14,,0.0,0.0,0.0,1.0
1402415831617637255,,errorv,,0,,1402415831,617461334,base_link,/z_drive,,,0.0,0.0,0.0,,0.0,0.0,0.0,1.0
1402415831617701196,,errorv,,0,,1402415831,617478048,/z_drive,port,,,-0.3,0.3048,0.0,,0.0,0.0,0.0,1.0
1402415831617771377,,errorv,,0,,1402415831,617487078,/z_drive,starboard,,,-0.3,-0.3048,0.0,,0.0,0.0,0.0,1.0
1402415831623052746,,errorv,,0,,1402415831,562264919,/enu,/base_link,,,-0.359544109271,22.6242412753,-27.8367152631,,0.00141648767284,0.00135286482102,-0.197301250636,0.980340950801
1402415831623121572,,errorv,,0,,1402415831,572262048,/enu,/base_link,,,-0.3466330977,22.6173904088,-27.8374901984,,0.00166551044418,0.00121974272573,-0.196792801893,0.980442926144
1402415831623149893,,errorv,,0,,1402415831,583250045,/enu,/base_link,,,-0.322407192238,22.6112446698,-27.7851113198,,0.000589260974411,0.00231191351603,-0.197380818953,0.980323987331
1402415831631292226,,errorv,,0,,1402415831,593250036,/enu,/base_link,,,-0.309266356205,22.6045551415,-27.7858565197,,0.00087333866251,0.00216321426721,-0.196906790178,0.980419437672
1402415831631320156,,errorv,,0,,1402415831,604228973,/enu,/base_link,,,-0.294991573942,22.5973787735,-27.7868338004,,0.000943024131175,0.00222174877834,-0.196344709549,0.980531962544
1402415831637803547,,errorv,,0,,1402415831,637632594,base_link,/z_drive,,,0.0,0.0,0.0,,0.0,0.0,0.0,1.0
1402415831637830561,,errorv,,0,,1402415831,637652666,/z_drive,port,,,-0.3,0.3048,0.0,,0.0,0.0,0.0,1.0
1402415831637851375,,errorv,,0,,1402415831,637662925,/z_drive,starboard,,,-0.3,-0.3048,0.0,,0.0,0.0,0.0,1.0
1402415831657806020,,errorv,,0,,1402415831,657561674,base_link,/z_drive,,,0.0,0.0,0.0,,0.0,0.0,0.0,1.0
1402415831657842824,,errorv,,0,,1402415831,657577517,/z_drive,port,,,-0.3,0.3048,0.0,,0.0,0.0,0.0,1.0
1402415831657861439,,errorv,,0,,1402415831,657585886,/z_drive,starboard,,,-0.3,-0.3048,0.0,,0.0,0.0,0.0,1.0
1402415831671094328,,errorv,,0,,1402415831,614221096,/enu,/base_link,,,-0.281711949893,22.590893611,-27.7878128311,,0.00119807770384,0.00213140538699,-0.195862728892,0.980628274705
1402415831671189760,,errorv,,0,,1402415831,625231981,/enu,/base_link,,,-0.267202996195,22.5836216866,-27.7887896514,,0.00123990107779,0.00218382955308,-0.195323799489,0.980735594789
1402415831677920468,,errorv,,0,,1402415831,677603936,base_link,/z_drive,,,0.0,0.0,0.0,,0.0,0.0,0.0,1.0
1402415831677949087,,errorv,,0,,1402415831,677695719,/z_drive,port,,,-0.3,0.3048,0.0,,0.0,0.0,0.0,1.0
1402415831677972962,,errorv,,0,,1402415831,677708783,/z_drive,starboard,,,-0.3,-0.3048,0.0,,0.0,0.0,0.0,1.0
1402415831697721859,,errorv,,0,,1402415831,697493573,base_link,/z_drive,,,0.0,0.0,0.0,,0.0,0.0,0.0,1.0
1402415831697785071,,errorv,,0,,1402415831,697513758,/z_drive,port,,,-0.3,0.3048,0.0,,0.0,0.0,0.0,1.0
1402415831697850389,,errorv,,0,,1402415831,697520113,/z_drive,starboard,,,-0.3,-0.3048,0.0,,0.0,0.0,0.0,1.0
1402415831708824457,,errorv,,0,,1402415831,808641764,base_link,imu,,,0.13,0.0,-0.1,,1.0,0.0,0.0,0.0
1402415831708920191,,errorv,,0,,1402415831,808664413,/base_link,/gps,,,-0.84,0.0,-0.14,,0.0,0.0,0.0,1.0
1402415831711349833,,errorv,,0,,1402415831,635219097,/enu,/base_link,,,-0.243552032813,22.5695878364,-27.7891073346,,0.0015175954218,0.00337695832203,-0.195501615313,0.980696391074
1402415831711377863,,errorv,,0,,1402415831,646219968,/enu,/base_link,,,-0.228780250405,22.5622171988,-27.7901443446,,0.00184020506605,0.0033305741203,-0.194968175291,0.980802187775
1402415831711434858,,errorv,,0,,1402415831,656223058,/enu,/base_link,,,-0.215318901004,22.5554604341,-27.7910276945,,0.00188751278459,0.00338068516735,-0.194506767267,0.980893534361
1402415831711456719,,errorv,,0,,1402415831,667191982,/enu,/base_link,,,-0.200330556314,22.54825838,-27.7924740803,,0.00210635085915,0.00335562329322,-0.194015795993,0.980990404634
1402415831717664968,,errorv,,0,,1402415831,717489204,base_link,/z_drive,,,0.0,0.0,0.0,,0.0,0.0,0.0,1.0
1402415831717770946,,errorv,,0,,1402415831,717508196,/z_drive,port,,,-0.3,0.3048,0.0,,0.0,0.0,0.0,1.0
1402415831717806927,,errorv,,0,,1402415831,717517834,/z_drive,starboard,,,-0.3,-0.3048,0.0,,0.0,0.0,0.0,1.0
1402415831737826784,,errorv,,0,,1402415831,737503556,base_link,/z_drive,,,0.0,0.0,0.0,,0.0,0.0,0.0,1.0
1402415831737860598,,errorv,,0,,1402415831,737520622,/z_drive,port,,,-0.3,0.3048,0.0,,0.0,0.0,0.0,1.0
1402415831737881153,,errorv,,0,,1402415831,737524843,/z_drive,starboard,,,-0.3,-0.3048,0.0,,0.0,0.0,0.0,1.0
1402415831751162949,,errorv,,0,,1402415831,677202939,/enu,/base_link,,,-0.186683981222,22.5416394274,-27.7935707336,,0.0021259862654,0.00343654076843,-0.193544921674,0.98108309213
1402415831751226507,,errorv,,0,,1402415831,687206983,/enu,/base_link,,,-0.150934908439,22.5279368923,-27.7975399584,,0.00152819870142,0.00607257647785,-0.195044308094,0.980774442114
1402415831751352730,,errorv,,0,,1402415831,698209047,/enu,/base_link,,,-0.135547538303,22.5207148959,-27.7988985915,,0.00153469477044,0.00616945830144,-0.194566167446,0.980868792949
1402415831751384858,,errorv,,0,,1402415831,709199905,/enu,/base_link,,,-0.119788336627,22.5133479791,-27.8001124325,,0.00169324318707,0.00615686225651,-0.194107288296,0.980959523429
1402415831757696678,,errorv,,0,,1402415831,757509972,base_link,/z_drive,,,0.0,0.0,0.0,,0.0,0.0,0.0,1.0
1402415831757722734,,errorv,,0,,1402415831,757536893,/z_drive,port,,,-0.3,0.3048,0.0,,0.0,0.0,0.0,1.0
1402415831757791035,,errorv,,0,,1402415831,757547975,/z_drive,starboard,,,-0.3,-0.3048,0.0,,0.0,0.0,0.0,1.0
1402415831777721680,,errorv,,0,,1402415831,777542670,base_link,/z_drive,,,0.0,0.0,0.0,,0.0,0.0,0.0,1.0
1402415831777745060,,errorv,,0,,1402415831,777560683,/z_drive,port,,,-0.3,0.3048,0.0,,0.0,0.0,0.0,1.0
1402415831777811293,,errorv,,0,,1402415831,777569708,/z_drive,starboard,,,-0.3,-0.3048,0.0,,0.0,0.0,0.0,1.0
1402415831791381060,,errorv,,0,,1402415831,719188928,/enu,/base_link,,,-0.105478657615,22.506786038,-27.8013975311,,0.00184266860264,0.00618088344247,-0.193671660488,0.981045202412
1402415831791427020,,errorv,,0,,1402415831,730201005,/enu,/base_link,,,-0.0900409062704,22.4995584888,-27.8028391386,,0.00175507128926,0.00627643260806,-0.193207861531,0.981136202757
1402415831791440058,,errorv,,0,,1402415831,741194009,/enu,/base_link,,,-0.06464247544,22.4888305061,-27.7817015197,,0.00145511307455,0.00735495719036,-0.193601146882,0.981051672022
1402415831791460887,,errorv,,0,,1402415831,751243114,/enu,/base_link,,,-0.0499635959791,22.4822273271,-27.7828119646,,0.00143813912257,0.0074458019919,-0.193152892387,0.981139364184
1402415831791486231,,errorv,,0,,1402415831,762161970,/enu,/base_link,,,-0.0341631856926,22.4751293513,-27.7842875097,,0.00154047244771,0.00747157291418,-0.192688406291,0.981230340248
1402415831797746460,,errorv,,0,,1402415831,797540631,base_link,/z_drive,,,0.0,0.0,0.0,,0.0,0.0,0.0,1.0
1402415831797835034,,errorv,,0,,1402415831,797561304,/z_drive,port,,,-0.3,0.3048,0.0,,0.0,0.0,0.0,1.0
1402415831797915499,,errorv,,0,,1402415831,797676362,/z_drive,starboard,,,-0.3,-0.3048,0.0,,0.0,0.0,0.0,1.0
1402415831808943675,,errorv,,0,,1402415831,908748915,base_link,imu,,,0.13,0.0,-0.1,,1.0,0.0,0.0,0.0
1402415831808975873,,errorv,,0,,1402415831,908759536,/base_link,/gps,,,-0.84,0.0,-0.14,,0.0,0.0,0.0,1.0
1402415831817788424,,errorv,,0,,1402415831,817575219,base_link,/z_drive,,,0.0,0.0,0.0,,0.0,0.0,0.0,1.0
1402415831817927914,,errorv,,0,,1402415831,817612811,/z_drive,port,,,-0.3,0.3048,0.0,,0.0,0.0,0.0,1.0
1402415831817952402,,errorv,,0,,1402415831,817621085,/z_drive,starboard,,,-0.3,-0.3048,0.0,,0.0,0.0,0.0,1.0
1402415831831237408,,errorv,,0,,1402415831,772181987,/enu,/base_link,,,-0.0195051094093,22.4684528859,-27.7851626933,,0.00144062409073,0.00751971604855,-0.192251225035,0.981315874194
1402415831831277915,,errorv,,0,,1402415831,783181905,/enu,/base_link,,,0.00327984433313,22.459157403,-27.788868129,,0.00114447622006,0.00840010206926,-0.192373216987,0.98128521534
1402415831831350570,,errorv,,0,,1402415831,793170928,/enu,/base_link,,,0.0179666957089,22.4527604631,-27.7901196618,,0.00117695616787,0.00846235940407,-0.191930445064,0.981371340271
1402415831837848638,,errorv,,0,,1402415831,837523618,base_link,/z_drive,,,0.0,0.0,0.0,,0.0,0.0,0.0,1.0
1402415831837880487,,errorv,,0,,1402415831,837576900,/z_drive,port,,,-0.3,0.3048,0.0,,0.0,0.0,0.0,1.0
1402415831837918131,,errorv,,0,,1402415831,837582742,/z_drive,starboard,,,-0.3,-0.3048,0.0,,0.0,0.0,0.0,1.0
1402415831843332051,,errorv,,0,,1402415831,804137945,/enu,/base_link,,,0.0341420822792,22.4456993787,-27.7914440949,,0.00107264147556,0.00848650387149,-0.191437294934,0.981467569918
1402415831843358140,,errorv,,0,,1402415831,815143108,/enu,/base_link,,,0.0507460810694,22.43868326,-27.7928651531,,0.000995599564411,0.00854932779793,-0.190908421467,0.98157011588
1402415831857705104,,errorv,,0,,1402415831,857533461,base_link,/z_drive,,,0.0,0.0,0.0,,0.0,0.0,0.0,1.0
1402415831857912213,,errorv,,0,,1402415831,857745135,/z_drive,port,,,-0.3,0.3048,0.0,,0.0,0.0,0.0,1.0
1402415831857973116,,errorv,,0,,1402415831,857765082,/z_drive,starboard,,,-0.3,-0.3048,0.0,,0.0,0.0,0.0,1.0
1402415831877951364,,errorv,,0,,1402415831,877731014,base_link,/z_drive,,,0.0,0.0,0.0,,0.0,0.0,0.0,1.0
1402415831877981763,,errorv,,0,,1402415831,877763618,/z_drive,port,,,-0.3,0.3048,0.0,,0.0,0.0,0.0,1.0
1402415831878063326,,errorv,,0,,1402415831,877774095,/z_drive,starboard,,,-0.3,-0.3048,0.0,,0.0,0.0,0.0,1.0
1402415831883208365,,errorv,,0,,1402415831,825139045,/enu,/base_link,,,0.0656944628745,22.4324927848,-27.794435985,,0.000891368050889,0.00857083489546,-0.190461961448,0.981656756455
1402415831883236695,,errorv,,0,,1402415831,835140943,/enu,/base_link,,,0.119554418505,22.3994265025,-27.8291424674,,0.00125080885365,0.0132406944233,-0.192744032801,0.981158935804
1402415831897825702,,errorv,,0,,1402415831,897522552,base_link,/z_drive,,,0.0,0.0,0.0,,0.0,0.0,0.0,1.0
1402415831897860590,,errorv,,0,,1402415831,897538534,/z_drive,port,,,-0.3,0.3048,0.0,,0.0,0.0,0.0,1.0
1402415831897883829,,errorv,,0,,1402415831,897545875,/z_drive,starboard,,,-0.3,-0.3048,0.0,,0.0,0.0,0.0,1.0
1402415831909071512,,errorv,,0,,1402415832,8848557,base_link,imu,,,0.13,0.0,-0.1,,1.0,0.0,0.0,0.0
1402415831909100714,,errorv,,0,,1402415832,8857284,/base_link,/gps,,,-0.84,0.0,-0.14,,0.0,0.0,0.0,1.0
1402415831917686887,,errorv,,0,,1402415831,917507208,base_link,/z_drive,,,0.0,0.0,0.0,,0.0,0.0,0.0,1.0
1402415831917803207,,errorv,,0,,1402415831,917526590,/z_drive,port,,,-0.3,0.3048,0.0,,0.0,0.0,0.0,1.0
1402415831917835335,,errorv,,0,,1402415831,917533121,/z_drive,starboard,,,-0.3,-0.3048,0.0,,0.0,0.0,0.0,1.0
1402415831923159534,,errorv,,0,,1402415831,846141099,/enu,/base_link,,,0.136766865664,22.3919342114,-27.8305672497,,0.00112618914404,0.0133269377087,-0.192241399308,0.981256525492
1402415831923184346,,errorv,,0,,1402415831,857120990,/enu,/base_link,,,0.154328919923,22.3844937915,-27.8320361881,,0.00097569584676,0.0132673900557,-0.191742045113,0.981355191821
1402415831923197531,,errorv,,0,,1402415831,867125034,/enu,/base_link,,,0.170204758174,22.3776381683,-27.8331789127,,0.000840131769954,0.013356325924,-0.191272660799,0.981445705053
1402415831923222637,,errorv,,0,,1402415831,877094030,/enu,/base_link,,,0.186219257566,22.3708242059,-27.8343892256,,0.000716834979658,0.0132957292734,-0.190811200484,0.981536446343
1402415831937770195,,errorv,,0,,1402415831,937618231,base_link,/z_drive,,,0.0,0.0,0.0,,0.0,0.0,0.0,1.0
1402415831937859673,,errorv,,0,,1402415831,937644127,/z_drive,port,,,-0.3,0.3048,0.0,,0.0,0.0,0.0,1.0
1402415831937890704,,errorv,,0,,1402415831,937682544,/z_drive,starboard,,,-0.3,-0.3048,0.0,,0.0,0.0,0.0,1.0
1402415831957774713,,errorv,,0,,1402415831,957566406,base_link,/z_drive,,,0.0,0.0,0.0,,0.0,0.0,0.0,1.0
1402415831957916277,,errorv,,0,,1402415831,957590702,/z_drive,port,,,-0.3,0.3048,0.0,,0.0,0.0,0.0,1.0
1402415831957944681,,errorv,,0,,1402415831,957600165,/z_drive,starboard,,,-0.3,-0.3048,0.0,,0.0,0.0,0.0,1.0
1402415831963169108,,errorv,,0,,1402415831,888096094,/enu,/base_link,,,0.244169971497,22.3502290474,-27.9577391825,,-0.000160785047658,0.0182599668739,-0.193555451295,0.980919382535
1402415831963307405,,errorv,,0,,1402415831,898123025,/enu,/base_link,,,0.261169352208,22.3433857341,-27.9594188937,,-0.000244605652547,0.0181899892337,-0.193099611197,0.981010501786
1402415831963327368,,errorv,,0,,1402415831,909106969,/enu,/base_link,,,0.279915503012,22.3357865493,-27.9609425529,,-0.000300684776575,0.0180982213314,-0.192613317307,0.981107778977
1402415831963343832,,errorv,,0,,1402415831,919115066,/enu,/base_link,,,0.297096404051,22.3289877791,-27.9625111405,,-0.000476721192627,0.0181214444322,-0.192137232239,0.981200626771
1402415831977698592,,errorv,,0,,1402415831,977512043,base_link,/z_drive,,,0.0,0.0,0.0,,0.0,0.0,0.0,1.0
1402415831977777722,,errorv,,0,,1402415831,977536718,/z_drive,port,,,-0.3,0.3048,0.0,,0.0,0.0,0.0,1.0
1402415831977801686,,errorv,,0,,1402415831,977546962,/z_drive,starboard,,,-0.3,-0.3048,0.0,,0.0,0.0,0.0,1.0
1402415831997817312,,errorv,,0,,1402415831,997506105,base_link,/z_drive,,,0.0,0.0,0.0,,0.0,0.0,0.0,1.0
1402415831997849967,,errorv,,0,,1402415831,997533645,/z_drive,port,,,-0.3,0.3048,0.0,,0.0,0.0,0.0,1.0
1402415831997870688,,errorv,,0,,1402415831,997664288,/z_drive,starboard,,,-0.3,-0.3048,0.0,,0.0,0.0,0.0,1.0
1402415832003151374,,errorv,,0,,1402415831,931013107,/enu,/base_link,,,0.31762834039,22.3210139286,-27.9645930734,,-0.000533106894097,0.018004602033,-0.191597466611,0.981308290442
1402415832003168367,,errorv,,0,,1402415831,940109014,/enu,/base_link,,,0.314300220853,22.3093017517,-27.9529932446,,0.00106433380746,0.015651918179,-0.188745045945,0.981900805724
1402415832003208967,,errorv,,0,,1402415831,951076984,/enu,/base_link,,,0.332933959036,22.3018230618,-27.9549188727,,0.000985114845367,0.0155223504949,-0.188250668808,0.981997847186
1402415832003248893,,errorv,,0,,1402415831,961076974,/enu,/base_link,,,0.349645312456,22.2948618727,-27.9563314638,,0.000784668358213,0.015536225929,-0.187760519632,0.982091644017
1402415832009157836,,errorv,,0,,1402415832,108968046,base_link,imu,,,0.13,0.0,-0.1,,1.0,0.0,0.0,0.0
1402415832009262018,,errorv,,0,,1402415832,108974542,/base_link,/gps,,,-0.84,0.0,-0.14,,0.0,0.0,0.0,1.0
1402415832017757726,,errorv,,0,,1402415832,17550787,base_link,/z_drive,,,0.0,0.0,0.0,,0.0,0.0,0.0,1.0
1402415832017808103,,errorv,,0,,1402415832,17572973,/z_drive,port,,,-0.3,0.3048,0.0,,0.0,0.0,0.0,1.0
1402415832017882484,,errorv,,0,,1402415832,17581637,/z_drive,starboard,,,-0.3,-0.3048,0.0,,0.0,0.0,0.0,1.0
1402415832037712031,,errorv,,0,,1402415832,37460069,base_link,/z_drive,,,0.0,0.0,0.0,,0.0,0.0,0.0,1.0
1402415832037739604,,errorv,,0,,1402415832,37481860,/z_drive,port,,,-0.3,0.3048,0.0,,0.0,0.0,0.0,1.0
1402415832037785821,,errorv,,0,,1402415832,37489653,/z_drive,starboard,,,-0.3,-0.3048,0.0,,0.0,0.0,0.0,1.0
1402415832043230354,,errorv,,0,,1402415831,972070932,/enu,/base_link,,,0.368103051541,22.2871867975,-27.9579339541,,0.000764822226511,0.0153969594421,-0.187217730274,0.982197470043
1402415832043259660,,errorv,,0,,1402415831,982059001,/enu,/base_link,,,0.385058067198,22.2803368961,-27.9594850495,,0.000733649467553,0.0152454336726,-0.186718258324,0.982294930517
1402415832043309503,,errorv,,0,,1402415831,992057085,/enu,/base_link,,,0.405467885555,22.2629204623,-27.8927021298,,0.00112810340589,0.0154653437545,-0.186024314212,0.98242277307
1402415832043333940,,errorv,,0,,1402415832,3408908,/enu,/base_link,,,0.424763097031,22.2549676372,-27.8942274326,,0.00108862205756,0.0153000834446,-0.185458635427,0.982532349032
1402415832043355058,,errorv,,0,,1402415832,13068914,/enu,/base_link,,,0.441383856051,22.2481715618,-27.895345015,,0.000912275056184,0.0152905690635,-0.184983901923,0.982622166594
1402415832057728720,,errorv,,0,,1402415832,57498131,base_link,/z_drive,,,0.0,0.0,0.0,,0.0,0.0,0.0,1.0
1402415832057759326,,errorv,,0,,1402415832,57516489,/z_drive,port,,,-0.3,0.3048,0.0,,0.0,0.0,0.0,1.0
1402415832057816386,,errorv,,0,,1402415832,57524287,/z_drive,starboard,,,-0.3,-0.3048,0.0,,0.0,0.0,0.0,1.0
1402415832077732119,,errorv,,0,,1402415832,77562042,base_link,/z_drive,,,0.0,0.0,0.0,,0.0,0.0,0.0,1.0
1402415832077756215,,errorv,,0,,1402415832,77580227,/z_drive,port,,,-0.3,0.3048,0.0,,0.0,0.0,0.0,1.0
1402415832077823072,,errorv,,0,,1402415832,77590495,/z_drive,starboard,,,-0.3,-0.3048,0.0,,0.0,0.0,0.0,1.0
1402415832083168166,,errorv,,0,,1402415832,23041009,/enu,/base_link,,,0.458270507985,22.2410347593,-27.8963004103,,0.000818732596321,0.0151284218411,-0.184528966177,0.982710293612
1402415832083195883,,errorv,,0,,1402415832,34040927,/enu,/base_link,,,0.468818853108,22.2400564364,-27.9169602673,,0.000503745000373,0.0141600816762,-0.183421949463,0.982932157772
1402415832083220459,,errorv,,0,,1402415832,44055938,/enu,/base_link,,,0.485883032641,22.2329250092,-27.9178900893,,0.000504412690068,0.0140251560208,-0.182954858728,0.983021139261
1402415832091239298,,errorv,,0,,1402415832,54080009,/enu,/base_link,,,0.502872972784,22.2261707325,-27.9194987887,,0.000512449395261,0.0138763114443,-0.182495356431,0.983108656384
1402415832091266963,,errorv,,0,,1402415832,65022945,/enu,/base_link,,,0.521704296698,22.2186002421,-27.920683446,,0.000284123644676,0.0138243121913,-0.181964929699,0.983207796972
1402415832097820743,,errorv,,0,,1402415832,97676528,base_link,/z_drive,,,0.0,0.0,0.0,,0.0,0.0,0.0,1.0
1402415832097881953,,errorv,,0,,1402415832,97691004,/z_drive,port,,,-0.3,0.3048,0.0,,0.0,0.0,0.0,1.0
1402415832097907953,,errorv,,0,,1402415832,97695088,/z_drive,starboard,,,-0.3,-0.3048,0.0,,0.0,0.0,0.0,1.0
1402415832109283171,,errorv,,0,,1402415832,209084373,base_link,imu,,,0.13,0.0,-0.1,,1.0,0.0,0.0,0.0
1402415832109308912,,errorv,,0,,1402415832,209090796,/base_link,/gps,,,-0.84,0.0,-0.14,,0.0,0.0,0.0,1.0
1402415832117891106,,errorv,,0,,1402415832,117705943,base_link,/z_drive,,,0.0,0.0,0.0,,0.0,0.0,0.0,1.0
1402415832118132881,,errorv,,0,,1402415832,117741743,/z_drive,port,,,-0.3,0.3048,0.0,,0.0,0.0,0.0,1.0
1402415832118156398,,errorv,,0,,1402415832,117753655,/z_drive,starboard,,,-0.3,-0.3048,0.0,,0.0,0.0,0.0,1.0
1402415832131085629,,errorv,,0,,1402415832,75051069,/enu,/base_link,,,0.53878903805,22.2115965789,-27.9218331685,,0.00024691419151,0.0136889685534,-0.181499802104,0.983295669171
1402415832131112618,,errorv,,0,,1402415832,86014986,/enu,/base_link,,,0.527981681673,22.2297827418,-27.9275213789,,-0.000685749326127,0.0102608004925,-0.17944657734,0.983713968388
1402415832137914799,,errorv,,0,,1402415832,137662798,base_link,/z_drive,,,0.0,0.0,0.0,,0.0,0.0,0.0,1.0
1402415832137942987,,errorv,,0,,1402415832,137683638,/z_drive,port,,,-0.3,0.3048,0.0,,0.0,0.0,0.0,1.0
1402415832138075825,,errorv,,0,,1402415832,137807221,/z_drive,starboard,,,-0.3,-0.3048,0.0,,0.0,0.0,0.0,1.0
1402415832157641637,,errorv,,0,,1402415832,157495701,base_link,/z_drive,,,0.0,0.0,0.0,,0.0,0.0,0.0,1.0
1402415832157800473,,errorv,,0,,1402415832,157512345,/z_drive,port,,,-0.3,0.3048,0.0,,0.0,0.0,0.0,1.0
1402415832157923573,,errorv,,0,,1402415832,157655095,/z_drive,starboard,,,-0.3,-0.3048,0.0,,0.0,0.0,0.0,1.0
1402415832171153631,,errorv,,0,,1402415832,96035003,/enu,/base_link,,,0.544504877712,22.2230565973,-27.9284442327,,-0.000657070240789,0.010107559954,-0.17897400817,0.983801661866
1402415832171178895,,errorv,,0,,1402415832,106023073,/enu,/base_link,,,0.560975911151,22.2164063841,-27.9294900026,,-0.000781951967053,0.0100437463137,-0.178528732639,0.983883124834
1402415832171201027,,errorv,,0,,1402415832,117026090,/enu,/base_link,,,0.579282698088,22.2093734336,-27.9311559,,-0.00070630453636,0.00988109500722,-0.178027788827,0.983975594972
1402415832171263767,,errorv,,0,,1402415832,127000093,/enu,/base_link,,,0.595947330583,22.2028349307,-27.9324150139,,-0.000751164417415,0.00974918756885,-0.17754009976,0.984064988744
1402415832177744901,,errorv,,0,,1402415832,177485836,base_link,/z_drive,,,0.0,0.0,0.0,,0.0,0.0,0.0,1.0
1402415832177780023,,errorv,,0,,1402415832,177506389,/z_drive,port,,,-0.3,0.3048,0.0,,0.0,0.0,0.0,1.0
1402415832177804036,,errorv,,0,,1402415832,177515669,/z_drive,starboard,,,-0.3,-0.3048,0.0,,0.0,0.0,0.0,1.0
1402415832197745584,,errorv,,0,,1402415832,197475795,base_link,/z_drive,,,0.0,0.0,0.0,,0.0,0.0,0.0,1.0
1402415832197775803,,errorv,,0,,1402415832,197497518,/z_drive,port,,,-0.3,0.3048,0.0,,0.0,0.0,0.0,1.0
1402415832197800985,,errorv,,0,,1402415832,197505816,/z_drive,starboard,,,-0.3,-0.3048,0.0,,0.0,0.0,0.0,1.0
1402415832209375666,,errorv,,0,,1402415832,309190607,base_link,imu,,,0.13,0.0,-0.1,,1.0,0.0,0.0,0.0
1402415832209432062,,errorv,,0,,1402415832,309199029,/base_link,/gps,,,-0.84,0.0,-0.14,,0.0,0.0,0.0,1.0
1402415832211152361,,errorv,,0,,1402415832,136996984,/enu,/base_link,,,0.532363148407,22.2545562755,-27.99352053,,-0.00194768081833,0.000524753891913,-0.172899630148,0.984937383323
1402415832211180500,,errorv,,0,,1402415832,147998094,/enu,/base_link,,,0.5489609301,22.2481275861,-27.9949284225,,-0.00188253509344,0.000405614734343,-0.172416355031,0.98502227998
1402415832211202815,,errorv,,0,,1402415832,157985925,/enu,/base_link,,,0.563802872412,22.2421758704,-27.9960149065,,-0.00192459405256,0.000349944191285,-0.171943410215,0.985104886375
1402415832211276785,,errorv,,0,,1402415832,167972087,/enu,/base_link,,,0.578609835292,22.2364943934,-27.9975668766,,-0.00184101933804,0.000251069041537,-0.171470333683,0.985187531528
1402415832217668474,,errorv,,0,,1402415832,217495681,base_link,/z_drive,,,0.0,0.0,0.0,,0.0,0.0,0.0,1.0
1402415832217695506,,errorv,,0,,1402415832,217513364,/z_drive,port,,,-0.3,0.3048,0.0,,0.0,0.0,0.0,1.0
1402415832217768636,,errorv,,0,,1402415832,217522853,/z_drive,starboard,,,-0.3,-0.3048,0.0,,0.0,0.0,0.0,1.0
1402415832237650570,,errorv,,0,,1402415832,237482258,base_link,/z_drive,,,0.0,0.0,0.0,,0.0,0.0,0.0,1.0
1402415832237713003,,errorv,,0,,1402415832,237498208,/z_drive,port,,,-0.3,0.3048,0.0,,0.0,0.0,0.0,1.0
1402415832237741153,,errorv,,0,,1402415832,237512359,/z_drive,starboard,,,-0.3,-0.3048,0.0,,0.0,0.0,0.0,1.0
1402415832251091430,,errorv,,0,,1402415832,179002046,/enu,/base_link,,,0.595104264813,22.2300259764,-27.9990139971,,-0.00181784544201,0.000198415452218,-0.170961743857,0.985275970582
1402415832251214815,,errorv,,0,,1402415832,188956022,/enu,/base_link,,,0.61491287097,22.2474357567,-28.0244697344,,-0.00423806054716,0.000958792601948,-0.172007885595,0.985085989573
1402415832251243308,,errorv,,0,,1402415832,198995113,/enu,/base_link,,,0.6301475539,22.2420713573,-28.0260157048,,-0.00416650164289,0.00090597531613,-0.171557854894,0.985164819661
1402415832251267381,,errorv,,0,,1402415832,209973096,/enu,/base_link,,,0.646729216611,22.2359783857,-28.0272874224,,-0.00414874149618,0.00085751389911,-0.171071726295,0.985249469463
1402415832251291140,,errorv,,0,,1402415832,219954013,/enu,/base_link,,,0.661827303791,22.2306296069,-28.0286857195,,-0.00409128763293,0.000829742844507,-0.170630093768,0.985326313458
1402415832257708297,,errorv,,0,,1402415832,257529219,base_link,/z_drive,,,0.0,0.0,0.0,,0.0,0.0,0.0,1.0
1402415832257735540,,errorv,,0,,1402415832,257545198,/z_drive,port,,,-0.3,0.3048,0.0,,0.0,0.0,0.0,1.0
1402415832257757370,,errorv,,0,,1402415832,257549700,/z_drive,starboard,,,-0.3,-0.3048,0.0,,0.0,0.0,0.0,1.0
1402415832277712356,,errorv,,0,,1402415832,277524513,base_link,/z_drive,,,0.0,0.0,0.0,,0.0,0.0,0.0,1.0
1402415832277937250,,errorv,,0,,1402415832,277547015,/z_drive,port,,,-0.3,0.3048,0.0,,0.0,0.0,0.0,1.0
1402415832277958854,,errorv,,0,,1402415832,277688004,/z_drive,starboard,,,-0.3,-0.3048,0.0,,0.0,0.0,0.0,1.0
1402415832291115172,,errorv,,0,,1402415832,230972051,/enu,/base_link,,,0.678762467366,22.2246820706,-28.0301965657,,-0.00398654260428,0.000784045865136,-0.170111875552,0.985416380291
1402415832291151283,,errorv,,0,,1402415832,240942955,/enu,/base_link,,,0.693573450234,22.2191500583,-28.0313971338,,-0.00391729902617,0.00074422280663,-0.169663311005,0.98549401916
1402415832291176083,,errorv,,0,,1402415832,250955104,/enu,/base_link,,,0.708943487784,22.2137539898,-28.0328106577,,-0.00373723230646,0.000697535191387,-0.169218683947,0.985571196587
1402415832297761673,,errorv,,0,,1402415832,297497984,base_link,/z_drive,,,0.0,0.0,0.0,,0.0,0.0,0.0,1.0
1402415832297787175,,errorv,,0,,1402415832,297511162,/z_drive,port,,,-0.3,0.3048,0.0,,0.0,0.0,0.0,1.0
1402415832297902935,,errorv,,0,,1402415832,297515328,/z_drive,starboard,,,-0.3,-0.3048,0.0,,0.0,0.0,0.0,1.0
1402415832299273848,,errorv,,0,,1402415832,261955976,/enu,/base_link,,,0.725752242531,22.207956202,-28.034534122,,-0.00361405084527,0.000688662228053,-0.168725111273,0.985656279444
1402415832299371536,,errorv,,0,,1402415832,271927118,/enu,/base_link,,,0.75627701029,22.1762411868,-27.9726156006,,-0.00185102001325,0.00230285097485,-0.168232669707,0.985742887089
1402415832309530667,,errorv,,0,,1402415832,409296533,base_link,imu,,,0.13,0.0,-0.1,,1.0,0.0,0.0,0.0
1402415832309562600,,errorv,,0,,1402415832,409307322,/base_link,/gps,,,-0.84,0.0,-0.14,,0.0,0.0,0.0,1.0
1402415832317773279,,errorv,,0,,1402415832,317496246,base_link,/z_drive,,,0.0,0.0,0.0,,0.0,0.0,0.0,1.0
1402415832317920510,,errorv,,0,,1402415832,317519359,/z_drive,port,,,-0.3,0.3048,0.0,,0.0,0.0,0.0,1.0
1402415832317945712,,errorv,,0,,1402415832,317529123,/z_drive,starboard,,,-0.3,-0.3048,0.0,,0.0,0.0,0.0,1.0
1402415832337654736,,errorv,,0,,1402415832,337475451,base_link,/z_drive,,,0.0,0.0,0.0,,0.0,0.0,0.0,1.0
1402415832337681031,,errorv,,0,,1402415832,337494101,/z_drive,port,,,-0.3,0.3048,0.0,,0.0,0.0,0.0,1.0
1402415832337797047,,errorv,,0,,1402415832,337503403,/z_drive,starboard,,,-0.3,-0.3048,0.0,,0.0,0.0,0.0,1.0
1402415832339132839,,errorv,,0,,1402415832,281929016,/enu,/base_link,,,0.771789437176,22.1703621444,-27.9737442815,,-0.00174017662751,0.00232290000771,-0.167801286996,0.985816567117
1402415832339158801,,errorv,,0,,1402415832,292927026,/enu,/base_link,,,0.788689656968,22.163974896,-27.9750719967,,-0.00166145746081,0.00232157763441,-0.16730718368,0.985900682688
1402415832357750883,,errorv,,0,,1402415832,357540109,base_link,/z_drive,,,0.0,0.0,0.0,,0.0,0.0,0.0,1.0
1402415832357777958,,errorv,,0,,1402415832,357580205,/z_drive,port,,,-0.3,0.3048,0.0,,0.0,0.0,0.0,1.0
1402415832357800533,,errorv,,0,,1402415832,357589959,/z_drive,starboard,,,-0.3,-0.3048,0.0,,0.0,0.0,0.0,1.0
1402415832377750548,,errorv,,0,,1402415832,377572662,base_link,/z_drive,,,0.0,0.0,0.0,,0.0,0.0,0.0,1.0
1402415832377881165,,errorv,,0,,1402415832,377589239,/z_drive,port,,,-0.3,0.3048,0.0,,0.0,0.0,0.0,1.0
1402415832377909537,,errorv,,0,,1402415832,377596815,/z_drive,starboard,,,-0.3,-0.3048,0.0,,0.0,0.0,0.0,1.0
1402415832379043429,,errorv,,0,,1402415832,302923917,/enu,/base_link,,,0.804186462043,22.1580331931,-27.9762648278,,-0.00147115952964,0.00230524001899,-0.166844595925,0.985979412751
1402415832379118761,,errorv,,0,,1402415832,312922954,/enu,/base_link,,,0.833651064926,22.1494800908,-27.9849773676,,-0.0017382336527,0.00392406175095,-0.167257125546,0.98590396806
