rosbagTimestamp,control_method,x_current,x_desired,y_current,y_desired,x_velocity_current,x_velocity_desired,y_velocity_current,y_velocity_desired,yaw_current,yaw_desired,required_force_x,required_force_y,required_moment_z,resultant_force_x,resultant_force_y,resultant_moment_z,current_port_servo_angle,current_port_thruster_force,current_starboard_servo_angle,current_starboard_thruster_force,estimated_port_servo_angle,estimated_port_thruster_force,estimated_starboard_servo_angle,estimated_starboard_thruster_force,cost_value,step,user_defined_1,user_defined_2,user_defined_3,user_defined_4,user_defined_5
1402597979542414152,0,20.9192972338,-0.114322152727,-26.912896455,0.043815185726,-0.641600904923,0.0,-0.859795265945,0.0,-2.30449319292,0.0,0.0,0.0,0.0,199.271866451,9.02374906538,-6.33281588718,0.112774936361,100.0,-0.0253168662365,100.0,0.117651113762,100.0,-0.0271457277775,100.0,2146230.14008,0.0,0.0,0.0,0.0,0.0,0.0
1402597979564472292,0,20.8927291604,-0.114322152727,-26.9387965835,0.043815185726,-0.676794588338,0.0,-0.869934779448,0.0,-2.30997006226,0.0,0.0,0.0,0.0,199.271866451,9.02374906538,-6.33281588718,0.112774936361,100.0,-0.0253168662365,100.0,0.117651113762,100.0,-0.0271457277775,100.0,2146230.14008,0.0,0.0,0.0,0.0,0.0,0.0
1402597979582083533,0,20.8927291604,-0.114322152727,-26.9387965835,0.043815185726,-0.676794588338,0.0,-0.869934779448,0.0,-2.30997006226,0.0,0.0,0.0,0.0,199.271866451,9.02374906538,-6.33281588718,0.112774936361,100.0,-0.0253168662365,100.0,0.117651113762,100.0,-0.0271457277775,100.0,2146230.14008,0.0,0.0,0.0,0.0,0.0,0.0
1402597979602952217,0,20.8716554753,-0.114322152727,-26.9859549541,0.043815185726,-0.68088008724,0.0,-0.907664573224,0.0,-2.30776434262,0.0,0.0,0.0,0.0,199.271866451,9.02374906538,-6.33281588718,0.111240712804,100.0,-0.0253168662365,100.0,0.117651113762,100.0,-0.0271457277775,100.0,2146230.14008,0.0,0.0,0.0,0.0,0.0,0.0
1402597979622301504,0,20.8716554753,-0.114322152727,-26.9859549541,0.043815185726,-0.68088008724,0.0,-0.907664573224,0.0,-2.30776434262,0.0,0.0,0.0,0.0,199.271866451,9.02374906538,-6.33281588718,0.112774936361,100.0,-0.0253168662365,100.0,0.117651113762,100.0,-0.0271457277775,100.0,2146230.14008,0.0,0.0,0.0,0.0,0.0,0.0
1402597979642651707,0,20.8504503326,-0.114322152727,-27.0141925231,0.043815185726,-0.70349436198,0.0,-0.929786011561,0.0,-2.30838579072,0.0,0.0,0.0,0.0,199.271866451,9.02374906538,-6.33281588718,0.112774936361,100.0,-0.0253168662365,100.0,0.117651113762,100.0,-0.0271457277775,100.0,2146230.14008,0.0,0.0,0.0,0.0,0.0,0.0
1402597979662156737,0,20.8355134725,-0.114322152727,-27.0340017756,0.043815185726,-0.715987277838,0.0,-0.944569449554,0.0,-2.30868976096,0.0,0.0,0.0,0.0,199.271866451,9.02374906538,-6.33281588718,0.112774936361,100.0,-0.0253168662365,100.0,0.117651113762,100.0,-0.0271457277775,100.0,2146230.14008,0.0,0.0,0.0,0.0,0.0,0.0
1402597979682632908,0,20.8355134725,-0.114322152727,-27.0340017756,0.043815185726,-0.715987277838,0.0,-0.944569449554,0.0,-2.30868976096,0.0,0.0,0.0,0.0,199.271866451,9.02374906538,-6.33281588718,0.112774936361,100.0,-0.0253168662365,100.0,0.117651113762,100.0,-0.0271457277775,100.0,2146230.14008,0.0,0.0,0.0,0.0,0.0,0.0
1402597979702141513,0,20.8282235325,-0.114322152727,-27.0433656363,0.043815185726,-0.722846758369,0.0,-0.950055726264,0.0,-2.30882999049,0.0,0.0,0.0,0.0,199.271866451,9.02374906538,-6.33281588718,0.112774936361,100.0,-0.0253168662365,100.0,0.117651113762,100.0,-0.0271457277775,100.0,2146230.14008,0.0,0.0,0.0,0.0,0.0,0.0
1402597979722715269,0,20.8282235325,-0.114322152727,-27.0433656363,0.043815185726,-0.722846758369,0.0,-0.950055726264,0.0,-2.30882999049,0.0,0.0,0.0,0.0,199.271866451,9.02374906538,-6.33281588718,0.112774936361,100.0,-0.0253168662365,100.0,0.117651113762,100.0,-0.0271457277775,100.0,2146230.14008,0.0,0.0,0.0,0.0,0.0,0.0
1402597979742234736,0,20.7793102284,-0.114322152727,-27.0817260605,0.043815185726,-0.785206259485,0.0,-0.959394988377,0.0,-2.31665474855,0.0,0.0,0.0,0.0,199.271866451,9.02374906538,-6.33281588718,0.112774936361,100.0,-0.0253168662365,100.0,0.117651113762,100.0,-0.0271457277775,100.0,2146230.14008,0.0,0.0,0.0,0.0,0.0,0.0
1402597979762398285,0,20.7793102284,-0.114322152727,-27.0817260605,0.043815185726,-0.785206259485,0.0,-0.959394988377,0.0,-2.31665474855,0.0,0.0,0.0,0.0,199.271866451,9.02374906538,-6.33281588718,0.112774936361,100.0,-0.0253168662365,100.0,0.117651113762,100.0,-0.0271457277775,100.0,2146230.14008,0.0,0.0,0.0,0.0,0.0,0.0
1402597979782367588,0,20.742483407,-0.114322152727,-27.150076739,0.043815185726,-0.796923165244,0.0,-1.01199074806,0.0,-2.31252631683,0.0,0.0,0.0,0.0,199.271866451,9.02374906538,-6.33281588718,0.112774936361,100.0,-0.0253168662365,100.0,0.117651113762,100.0,-0.0271457277775,100.0,2146230.14008,0.0,0.0,0.0,0.0,0.0,0.0
1402597979803191678,0,20.742483407,-0.114322152727,-27.150076739,0.043815185726,-0.796923165244,0.0,-1.01199074806,0.0,-2.31252631683,0.0,0.0,0.0,0.0,199.271866451,9.02374906538,-6.33281588718,0.112774936361,100.0,-0.0253168662365,100.0,0.117651113762,100.0,-0.0271457277775,100.0,2146230.14008,0.0,0.0,0.0,0.0,0.0,0.0
1402597979822408458,0,20.7266975255,-0.114322152727,-27.1857100637,0.043815185726,-0.79959480498,0.0,-1.03791927835,0.0,-2.31016292881,0.0,0.0,0.0,0.0,199.271866451,9.02374906538,-6.33281588718,0.112774936361,100.0,-0.0253168662365,100.0,0.117651113762,100.0,-0.0271457277775,100.0,2146230.14008,0.0,0.0,0.0,0.0,0.0,0.0
1402597979842901153,0,20.7104939935,-0.114322152727,-27.2065038442,0.043815185726,-0.810314711475,0.0,-1.04842592837,0.0,-2.31002184672,0.0,0.0,0.0,0.0,199.271866451,9.02374906538,-6.33281588718,0.112774936361,100.0,-0.0253168662365,100.0,0.117651113762,100.0,-0.0271457277775,100.0,2146230.14008,0.0,0.0,0.0,0.0,0.0,0.0
1402597979861919602,0,20.7104939935,-0.114322152727,-27.2065038442,0.043815185726,-0.810314711475,0.0,-1.04842592837,0.0,-2.31002184672,0.0,0.0,0.0,0.0,199.271866451,9.02374906538,-6.33281588718,0.112774936361,100.0,-0.0253168662365,100.0,0.117651113762,100.0,-0.0271457277775,100.0,2146230.14008,0.0,0.0,0.0,0.0,0.0,0.0
1402597979882803198,0,20.6935473005,-0.114322152727,-27.2287381945,0.043815185726,-0.820551911981,0.0,-1.06121723201,0.0,-2.30999378805,0.0,0.0,0.0,0.0,199.271866451,9.02374906538,-6.33281588718,0.112774936361,100.0,-0.0253168662365,100.0,0.117651113762,100.0,-0.0271457277775,100.0,2146230.14008,0.0,0.0,0.0,0.0,0.0,0.0
1402597979902104963,0,20.6935473005,-0.114322152727,-27.2287381945,0.043815185726,-0.820551911981,0.0,-1.06121723201,0.0,-2.30999378805,0.0,0.0,0.0,0.0,199.271866451,9.02374906538,-6.33281588718,0.112774936361,100.0,-0.0253168662365,100.0,0.117651113762,100.0,-0.0271457277775,100.0,2146230.14008,0.0,0.0,0.0,0.0,0.0,0.0
1402597979922640570,0,20.6594088261,-0.114322152727,-27.2727705886,0.043815185726,-0.838709814694,0.0,-1.08290671684,0.0,-2.30976180973,0.0,0.0,0.0,0.0,199.271866451,9.02374906538,-6.33281588718,0.112774936361,100.0,-0.0253168662365,100.0,0.117651113762,100.0,-0.0271457277775,100.0,2146230.14008,0.0,0.0,0.0,0.0,0.0,0.0
1402597979942339969,0,20.6594088261,-0.114322152727,-27.2727705886,0.043815185726,-0.838709814694,0.0,-1.08290671684,0.0,-2.30976180973,0.0,0.0,0.0,0.0,199.271866451,9.02374906538,-6.33281588718,0.112774936361,100.0,-0.0253168662365,100.0,0.117651113762,100.0,-0.0271457277775,100.0,2146230.14008,0.0,0.0,0.0,0.0,0.0,0.0
1402597979962899309,0,20.6332818124,-0.114322152727,-27.3137692499,0.043815185726,-0.842273666766,0.0,-1.09134027405,0.0,-2.30911021203,0.0,0.0,0.0,0.0,199.271866451,9.02374906538,-6.33281588718,0.112774936361,100.0,-0.0253168662365,100.0,0.117651113762,100.0,-0.0271457277775,100.0,2146230.14008,0.0,0.0,0.0,0.0,0.0,0.0
1402597979982045381,0,20.6332818124,-0.114322152727,-27.3137692499,0.043815185726,-0.842273666766,0.0,-1.09134027405,0.0,-2.30911021203,0.0,0.0,0.0,0.0,199.271866451,9.02374906538,-6.33281588718,0.112774936361,100.0,-0.0253168662365,100.0,0.117651113762,100.0,-0.0271457277775,100.0,2146230.14008,0.0,0.0,0.0,0.0,0.0,0.0
1402597980002841133,0,20.5974223303,-0.114322152727,-27.3424450273,0.043815185726,-0.866758375875,0.0,-1.07079795919,0.0,-2.31244121419,0.0,0.0,0.0,0.0,199.271866451,9.02374906538,-6.33281588718,0.112774936361,100.0,-0.0253168662365,100.0,0.117651113762,100.0,-0.0271457277775,100.0,2146230.14008,0.0,0.0,0.0,0.0,0.0,0.0
1402597980026446113,0,20.5974223303,-0.114322152727,-27.3424450273,0.043815185726,-0.866758375875,0.0,-1.07079795919,0.0,-2.31244121419,0.0,0.0,0.0,0.0,199.271866451,9.02374906538,-6.33281588718,0.112774936361,100.0,-0.0253168662365,100.0,0.117651113762,100.0,-0.0271457277775,100.0,2146230.14008,0.0,0.0,0.0,0.0,0.0,0.0
1402597980042972329,0,20.5717327736,-0.114322152727,-27.3950544067,0.043815185726,-0.860335300203,0.0,-1.10290730353,0.0,-2.30934355622,0.0,0.0,0.0,0.0,199.271866451,9.02374906538,-6.33281588718,0.112774936361,100.0,-0.0253168662365,100.0,0.117651113762,100.0,-0.0271457277775,100.0,2146230.14008,0.0,0.0,0.0,0.0,0.0,0.0
1402597980062572648,0,20.5717327736,-0.114322152727,-27.3950544067,0.043815185726,-0.860335300203,0.0,-1.10290730353,0.0,-2.30934355622,0.0,0.0,0.0,0.0,199.271866451,9.02374906538,-6.33281588718,0.112774936361,100.0,-0.0253168662365,100.0,0.117651113762,100.0,-0.0271457277775,100.0,2146230.14008,0.0,0.0,0.0,0.0,0.0,0.0
1402597980083061944,0,20.5100978863,-0.114322152727,-27.4581880526,0.043815185726,-0.916610801759,0.0,-1.13216899043,0.0,-2.3107950193,0.0,0.0,0.0,0.0,199.271866451,9.02374906538,-6.33281588718,0.112774936361,100.0,-0.0253168662365,100.0,0.117651113762,100.0,-0.0271457277775,100.0,2146230.14008,0.0,0.0,0.0,0.0,0.0,0.0
1402597980102868551,0,20.5100978863,-0.114322152727,-27.4581880526,0.043815185726,-0.916610801759,0.0,-1.13216899043,0.0,-2.3107950193,0.0,0.0,0.0,0.0,199.271866451,9.02374906538,-6.33281588718,0.114309398336,100.0,-0.02378264268,100.0,0.117651113762,100.0,-0.0271457277775,100.0,2146230.14008,0.0,0.0,0.0,0.0,0.0,0.0
1402597980122464448,0,20.4605602464,-0.114322152727,-27.5296030339,0.043815185726,-0.940281807589,0.0,-1.18049007436,0.0,-2.30934664029,0.0,0.0,0.0,0.0,199.271866451,9.02374906538,-6.33281588718,0.112774936361,100.0,-0.0253168662365,100.0,0.117651113762,100.0,-0.0271457277775,100.0,2146230.14008,0.0,0.0,0.0,0.0,0.0,0.0
1402597980142352900,0,20.4605602464,-0.114322152727,-27.5296030339,0.043815185726,-0.940281807589,0.0,-1.18049007436,0.0,-2.30934664029,0.0,0.0,0.0,0.0,199.271866451,9.02374906538,-6.33281588718,0.112774936361,100.0,-0.02378264268,100.0,0.117651113762,100.0,-0.0271457277775,100.0,2146230.14008,0.0,0.0,0.0,0.0,0.0,0.0
1402597980162739912,0,20.4403999155,-0.114322152727,-27.5547363185,0.043815185726,-0.946292390646,0.0,-1.18832072505,0.0,-2.30891572543,0.0,0.0,0.0,0.0,199.271866451,9.02374906538,-6.33281588718,0.112774936361,100.0,-0.02378264268,100.0,0.117651113762,100.0,-0.0271457277775,100.0,2146230.14008,0.0,0.0,0.0,0.0,0.0,0.0
1402597980182638878,0,20.4403999155,-0.114322152727,-27.5547363185,0.043815185726,-0.946292390646,0.0,-1.18832072505,0.0,-2.30891572543,0.0,0.0,0.0,0.0,199.271866451,9.02374906538,-6.33281588718,0.112774936361,100.0,-0.02378264268,100.0,0.117651113762,100.0,-0.0271457277775,100.0,2146230.14008,0.0,0.0,0.0,0.0,0.0,0.0
1402597980202702369,0,20.4120538466,-0.114322152727,-27.6082833987,0.043815185726,-0.94390300598,0.0,-1.21302714668,0.0,-2.30688246042,0.0,0.0,0.0,0.0,199.271866451,9.02374906538,-6.33281588718,0.114309398336,100.0,-0.0253168662365,100.0,0.117651113762,100.0,-0.0271457277775,100.0,2146230.14008,0.0,0.0,0.0,0.0,0.0,0.0
1402597980222066781,0,20.4120538466,-0.114322152727,-27.6082833987,0.043815185726,-0.94390300598,0.0,-1.21302714668,0.0,-2.30688246042,0.0,0.0,0.0,0.0,199.271866451,9.02374906538,-6.33281588718,0.112774936361,100.0,-0.02378264268,100.0,0.117651113762,100.0,-0.0271457277775,100.0,2146230.14008,0.0,0.0,0.0,0.0,0.0,0.0
1402597980242167068,0,20.3762530252,-0.114322152727,-27.6528038289,0.043815185726,-0.957014073283,0.0,-1.21509896828,0.0,-2.30655800091,0.0,0.0,0.0,0.0,199.271866451,9.02374906538,-6.33281588718,0.112774936361,100.0,-0.02378264268,100.0,0.117651113762,100.0,-0.0271457277775,100.0,2146230.14008,0.0,0.0,0.0,0.0,0.0,0.0
1402597980262795287,0,20.3762530252,-0.114322152727,-27.6528038289,0.043815185726,-0.957014073283,0.0,-1.21509896828,0.0,-2.30655800091,0.0,0.0,0.0,0.0,199.271866451,9.02374906538,-6.33281588718,0.112774936361,100.0,-0.02378264268,100.0,0.117651113762,100.0,-0.0271457277775,100.0,2146230.14008,0.0,0.0,0.0,0.0,0.0,0.0
1402597980282244153,0,20.3357830569,-0.114322152727,-27.7043093413,0.043815185726,-0.964307339428,0.0,-1.23043464277,0.0,-2.30565094401,0.0,0.0,0.0,0.0,199.271866451,9.02374906538,-6.33281588718,0.112774936361,100.0,-0.0253168662365,100.0,0.117651113762,100.0,-0.0271457277775,100.0,2146230.14008,0.0,0.0,0.0,0.0,0.0,0.0
1402597980302765897,0,20.3357830569,-0.114322152727,-27.7043093413,0.043815185726,-0.964307339428,0.0,-1.23043464277,0.0,-2.30565094401,0.0,0.0,0.0,0.0,199.271866451,9.02374906538,-6.33281588718,0.112774936361,100.0,-0.02378264268,100.0,0.117651113762,100.0,-0.0271457277775,100.0,2146230.14008,0.0,0.0,0.0,0.0,0.0,0.0
1402597980322244381,0,20.2958445909,-0.114322152727,-27.7550016302,0.043815185726,-0.975723628352,0.0,-1.24174514655,0.0,-2.30485531449,0.0,0.0,0.0,0.0,199.271866451,9.02374906538,-6.33281588718,0.114309398336,100.0,-0.02378264268,100.0,0.117651113762,100.0,-0.0271457277775,100.0,2146230.14008,0.0,0.0,0.0,0.0,0.0,0.0
1402597980342786305,0,20.2958445909,-0.114322152727,-27.7550016302,0.043815185726,-0.975723628352,0.0,-1.24174514655,0.0,-2.30485531449,0.0,0.0,0.0,0.0,199.271866451,9.02374906538,-6.33281588718,0.114309398336,100.0,-0.0253168662365,100.0,0.117651113762,100.0,-0.0271457277775,100.0,2146230.14008,0.0,0.0,0.0,0.0,0.0,0.0
1402597980362242641,0,20.2563498829,-0.114322152727,-27.8112172425,0.043815185726,-0.987663711207,0.0,-1.26610405878,0.0,-2.30429826362,0.0,0.0,0.0,0.0,199.271866451,9.02374906538,-6.33281588718,0.114309398336,100.0,-0.02378264268,100.0,0.117651113762,100.0,-0.0271457277775,100.0,2146230.14008,0.0,0.0,0.0,0.0,0.0,0.0
1402597980382840208,0,20.2563498829,-0.114322152727,-27.8112172425,0.043815185726,-0.987663711207,0.0,-1.26610405878,0.0,-2.30429826362,0.0,0.0,0.0,0.0,199.271866451,9.02374906538,-6.33281588718,0.114309398336,100.0,-0.02378264268,100.0,0.117651113762,100.0,-0.0271457277775,100.0,2146230.14008,0.0,0.0,0.0,0.0,0.0,0.0
1402597980402102904,0,20.2115555788,-0.114322152727,-27.8763514692,0.043815185726,-0.990999131012,0.0,-1.27737718077,0.0,-2.3029782595,0.0,0.0,0.0,0.0,199.271866451,9.02374906538,-6.33281588718,0.114309398336,100.0,-0.02378264268,100.0,0.117651113762,100.0,-0.0271457277775,100.0,2146230.14008,0.0,0.0,0.0,0.0,0.0,0.0
1402597980422722673,0,20.2115555788,-0.114322152727,-27.8763514692,0.043815185726,-0.990999131012,0.0,-1.27737718077,0.0,-2.3029782595,0.0,0.0,0.0,0.0,199.271866451,9.02374906538,-6.33281588718,0.114309398336,100.0,-0.0253168662365,100.0,0.117651113762,100.0,-0.0271457277775,100.0,2146230.14008,0.0,0.0,0.0,0.0,0.0,0.0
1402597980442210658,0,20.1421376522,-0.114322152727,-27.9655025729,0.043815185726,-1.00799524271,0.0,-1.28077052477,0.0,-2.30111245164,0.0,0.0,0.0,0.0,199.271866451,9.02374906538,-6.33281588718,0.114309398336,100.0,-0.0253168662365,100.0,0.117651113762,100.0,-0.0271457277775,100.0,2146230.14008,0.0,0.0,0.0,0.0,0.0,0.0
1402597980462839373,0,20.1421376522,-0.114322152727,-27.9655025729,0.043815185726,-1.00799524271,0.0,-1.28077052477,0.0,-2.30111245164,0.0,0.0,0.0,0.0,199.271866451,9.02374906538,-6.33281588718,0.114309398336,100.0,-0.02378264268,100.0,0.117651113762,100.0,-0.0271457277775,100.0,2146230.14008,0.0,0.0,0.0,0.0,0.0,0.0
1402597980482166624,0,20.1211918669,-0.114322152727,-27.9924119504,0.043815185726,-1.01129643319,0.0,-1.28573905658,0.0,-2.30068728332,0.0,0.0,0.0,0.0,199.271866451,9.02374906538,-6.33281588718,0.114309398336,100.0,-0.0253168662365,100.0,0.117651113762,100.0,-0.0271457277775,100.0,2146230.14008,0.0,0.0,0.0,0.0,0.0,0.0
1402597980502836304,0,20.1211918669,-0.114322152727,-27.9924119504,0.043815185726,-1.01129643319,0.0,-1.28573905658,0.0,-2.30068728332,0.0,0.0,0.0,0.0,199.271866451,9.02374906538,-6.33281588718,0.114309398336,100.0,-0.02378264268,100.0,0.117651113762,100.0,-0.0271457277775,100.0,2146230.14008,0.0,0.0,0.0,0.0,0.0,0.0
1402597980522214871,0,20.0998396346,-0.114322152727,-28.0196199364,0.043815185726,-1.01114624799,0.0,-1.29207647137,0.0,-2.30021073144,0.0,0.0,0.0,0.0,199.271866451,9.02374906538,-6.33281588718,0.114309398336,100.0,-0.02378264268,100.0,0.117651113762,100.0,-0.0271457277775,100.0,2146230.14008,0.0,0.0,0.0,0.0,0.0,0.0
1402597980542743110,0,20.0998396346,-0.114322152727,-28.0196199364,0.043815185726,-1.01114624799,0.0,-1.29207647137,0.0,-2.30021073144,0.0,0.0,0.0,0.0,199.271866451,9.02374906538,-6.33281588718,0.114309398336,100.0,-0.02378264268,100.0,0.117651113762,100.0,-0.0271457277775,100.0,2146230.14008,0.0,0.0,0.0,0.0,0.0,0.0
1402597980562290682,0,20.0448329095,-0.114322152727,-28.1022958748,0.043815185726,-1.04784576173,0.0,-1.37675881927,0.0,-2.30256873824,0.0,0.0,0.0,0.0,199.271866451,9.02374906538,-6.33281588718,0.114309398336,100.0,-0.0253168662365,100.0,0.117651113762,100.0,-0.0271457277775,100.0,2146230.14008,0.0,0.0,0.0,0.0,0.0,0.0
1402597980582761381,0,20.0448329095,-0.114322152727,-28.1022958748,0.043815185726,-1.04784576173,0.0,-1.37675881927,0.0,-2.30256873824,0.0,0.0,0.0,0.0,199.271866451,9.02374906538,-6.33281588718,0.114309398336,100.0,-0.02378264268,100.0,0.117651113762,100.0,-0.0271457277775,100.0,2146230.14008,0.0,0.0,0.0,0.0,0.0,0.0
1402597980602329981,0,19.9836702622,-0.114322152727,-28.1969082311,0.043815185726,-1.07621153745,0.0,-1.44766827679,0.0,-2.30386585247,0.0,0.0,0.0,0.0,199.271866451,9.02374906538,-6.33281588718,0.114309398336,100.0,-0.0253168662365,100.0,0.117651113762,100.0,-0.0271457277775,100.0,2146230.14008,0.0,0.0,0.0,0.0,0.0,0.0
1402597980622900493,0,19.9836702622,-0.114322152727,-28.1969082311,0.043815185726,-1.07621153745,0.0,-1.44766827679,0.0,-2.30386585247,0.0,0.0,0.0,0.0,199.271866451,9.02374906538,-6.33281588718,0.114309398336,100.0,-0.02378264268,100.0,0.117651113762,100.0,-0.0271457277775,100.0,2146230.14008,0.0,0.0,0.0,0.0,0.0,0.0
1402597980642354770,0,19.9491019519,-0.114322152727,-28.2433729049,0.043815185726,-1.08559350577,0.0,-1.45220024398,0.0,-2.30314755529,0.0,0.0,0.0,0.0,199.271866451,9.02374906538,-6.33281588718,0.114309398336,100.0,-0.02378264268,100.0,0.117651113762,100.0,-0.0271457277775,100.0,2146230.14008,0.0,0.0,0.0,0.0,0.0,0.0
1402597980662721382,0,19.9019250675,-0.114322152727,-28.2880824857,0.043815185726,-1.09396092329,0.0,-1.4283852634,0.0,-2.30005679693,0.0,0.0,0.0,0.0,199.271866451,9.02374906538,-6.33281588718,0.114309398336,100.0,-0.0253168662365,100.0,0.117651113762,100.0,-0.0271457277775,100.0,2146230.14008,0.0,0.0,0.0,0.0,0.0,0.0
1402597980682515773,0,19.9019250675,-0.114322152727,-28.2880824857,0.043815185726,-1.09396092329,0.0,-1.4283852634,0.0,-2.30005679693,0.0,0.0,0.0,0.0,199.271866451,9.02374906538,-6.33281588718,0.114309398336,100.0,-0.0253168662365,100.0,0.117651113762,100.0,-0.0271457277775,100.0,2146230.14008,0.0,0.0,0.0,0.0,0.0,0.0
1402597980702095976,0,19.8822188763,-0.114322152727,-28.3070353752,0.043815185726,-1.1004614876,0.0,-1.40643324996,0.0,-2.29822133882,0.0,0.0,0.0,0.0,199.271866451,9.02374906538,-6.33281588718,0.114309398336,100.0,-0.02378264268,100.0,0.117651113762,100.0,-0.0271457277775,100.0,2146230.14008,0.0,0.0,0.0,0.0,0.0,0.0
1402597980723700332,0,19.8822188763,-0.114322152727,-28.3070353752,0.043815185726,-1.1004614876,0.0,-1.40643324996,0.0,-2.29822133882,0.0,0.0,0.0,0.0,199.271866451,9.02374906538,-6.33281588718,0.114309398336,100.0,-0.0253168662365,100.0,0.117651113762,100.0,-0.0271457277775,100.0,2146230.14008,0.0,0.0,0.0,0.0,0.0,0.0
1402597980742435574,0,19.8590361489,-0.114322152727,-28.3366076749,0.043815185726,-1.10408410484,0.0,-1.41182483982,0.0,-2.29763754269,0.0,0.0,0.0,0.0,199.271866451,9.02374906538,-6.33281588718,0.114309398336,100.0,-0.02378264268,100.0,0.117651113762,100.0,-0.0271457277775,100.0,2146230.14008,0.0,0.0,0.0,0.0,0.0,0.0
1402597980762990329,0,19.8590361489,-0.114322152727,-28.3366076749,0.043815185726,-1.10408410484,0.0,-1.41182483982,0.0,-2.29763754269,0.0,0.0,0.0,0.0,199.271866451,9.02374906538,-6.33281588718,0.114309398336,100.0,-0.0253168662365,100.0,0.117651113762,100.0,-0.0271457277775,100.0,2146230.14008,0.0,0.0,0.0,0.0,0.0,0.0
1402597980782114162,0,19.8110291735,-0.114322152727,-28.4093819427,0.043815185726,-1.10303129531,0.0,-1.41317723847,0.0,-2.29573927354,0.0,0.0,0.0,0.0,199.271866451,9.02374906538,-6.33281588718,0.115843860311,100.0,-0.02378264268,100.0,0.117651113762,100.0,-0.0271457277775,100.0,2146230.14008,0.0,0.0,0.0,0.0,0.0,0.0
1402597980802929838,0,19.8110291735,-0.114322152727,-28.4093819427,0.043815185726,-1.10303129531,0.0,-1.41317723847,0.0,-2.29573927354,0.0,0.0,0.0,0.0,199.271866451,9.02374906538,-6.33281588718,0.114309398336,100.0,-0.02378264268,100.0,0.117651113762,100.0,-0.0271457277775,100.0,2146230.14008,0.0,0.0,0.0,0.0,0.0,0.0
1402597980822908451,0,19.7533854487,-0.114322152727,-28.4845746614,0.043815185726,-1.11552374542,0.0,-1.42498800353,0.0,-2.29461426826,0.0,0.0,0.0,0.0,199.271866451,9.02374906538,-6.33281588718,0.114309398336,100.0,-0.02378264268,100.0,0.117651113762,100.0,-0.0271457277775,100.0,2146230.14008,0.0,0.0,0.0,0.0,0.0,0.0
1402597980842872046,0,19.7533854487,-0.114322152727,-28.4845746614,0.043815185726,-1.11552374542,0.0,-1.42498800353,0.0,-2.29461426826,0.0,0.0,0.0,0.0,199.271866451,9.02374906538,-6.33281588718,0.114309398336,100.0,-0.0253168662365,100.0,0.117651113762,100.0,-0.0271457277775,100.0,2146230.14008,0.0,0.0,0.0,0.0,0.0,0.0
1402597980863873427,0,19.729690701,-0.114322152727,-28.514786227,0.043815185726,-1.1199093184,0.0,-1.42835205238,0.0,-2.29414194141,0.0,0.0,0.0,0.0,199.271866451,9.02374906538,-6.33281588718,0.114309398336,100.0,-0.02378264268,100.0,0.117651113762,100.0,-0.0271457277775,100.0,2146230.14008,0.0,0.0,0.0,0.0,0.0,0.0
1402597980883213413,0,19.729690701,-0.114322152727,-28.514786227,0.043815185726,-1.1199093184,0.0,-1.42835205238,0.0,-2.29414194141,0.0,0.0,0.0,0.0,199.271866451,9.02374906538,-6.33281588718,0.114309398336,100.0,-0.02378264268,100.0,0.117651113762,100.0,-0.0271457277775,100.0,2146230.14008,0.0,0.0,0.0,0.0,0.0,0.0
1402597980902389933,0,19.6840953706,-0.114322152727,-28.5735526311,0.043815185726,-1.12655601159,0.0,-1.43527706264,0.0,-2.29312756243,0.0,0.0,0.0,0.0,199.271866451,9.02374906538,-6.33281588718,0.115843860311,100.0,-0.02378264268,100.0,0.117651113762,100.0,-0.0271457277775,100.0,2146230.14008,0.0,0.0,0.0,0.0,0.0,0.0
1402597980922616963,0,19.6840953706,-0.114322152727,-28.5735526311,0.043815185726,-1.12655601159,0.0,-1.43527706264,0.0,-2.29312756243,0.0,0.0,0.0,0.0,199.271866451,9.02374906538,-6.33281588718,0.114309398336,100.0,-0.02378264268,100.0,0.117651113762,100.0,-0.0271457277775,100.0,2146230.14008,0.0,0.0,0.0,0.0,0.0,0.0
1402597980942181440,0,19.6186102801,-0.114322152727,-28.6634551202,0.043815185726,-1.16582949759,0.0,-1.51734127807,0.0,-2.29620131384,0.0,0.0,0.0,0.0,199.271866451,9.02374906538,-6.33281588718,0.114309398336,100.0,-0.02378264268,100.0,0.117651113762,100.0,-0.0271457277775,100.0,2146230.14008,0.0,0.0,0.0,0.0,0.0,0.0
1402597980962284594,0,19.6186102801,-0.114322152727,-28.6634551202,0.043815185726,-1.16582949759,0.0,-1.51734127807,0.0,-2.29620131384,0.0,0.0,0.0,0.0,199.271866451,9.02374906538,-6.33281588718,0.114309398336,100.0,-0.02378264268,100.0,0.117651113762,100.0,-0.0271457277775,100.0,2146230.14008,0.0,0.0,0.0,0.0,0.0,0.0
1402597980982773264,0,19.5674120343,-0.114322152727,-28.7079389028,0.043815185726,-1.17945173266,0.0,-1.47867304822,0.0,-2.29157311843,0.0,0.0,0.0,0.0,199.271866451,9.02374906538,-6.33281588718,0.114309398336,100.0,-0.02378264268,100.0,0.117651113762,100.0,-0.0271457277775,100.0,2146230.14008,0.0,0.0,0.0,0.0,0.0,0.0
1402597981002585740,0,19.5674120343,-0.114322152727,-28.7079389028,0.043815185726,-1.17945173266,0.0,-1.47867304822,0.0,-2.29157311843,0.0,0.0,0.0,0.0,199.271866451,9.02374906538,-6.33281588718,0.115843860311,100.0,-0.02378264268,100.0,0.117651113762,100.0,-0.0271457277775,100.0,2146230.14008,0.0,0.0,0.0,0.0,0.0,0.0
1402597981022865448,0,19.5309235503,-0.114322152727,-28.7547371256,0.043815185726,-1.16203213488,0.0,-1.4486676979,0.0,-2.28830932562,0.0,0.0,0.0,0.0,199.271866451,9.02374906538,-6.33281588718,0.114309398336,100.0,-0.02378264268,100.0,0.117651113762,100.0,-0.0271457277775,100.0,2146230.14008,0.0,0.0,0.0,0.0,0.0,0.0
1402597981042112028,0,19.5309235503,-0.114322152727,-28.7547371256,0.043815185726,-1.16203213488,0.0,-1.4486676979,0.0,-2.28830932562,0.0,0.0,0.0,0.0,199.271866451,9.02374906538,-6.33281588718,0.115843860311,100.0,-0.0253168662365,100.0,0.117651113762,100.0,-0.0271457277775,100.0,2146230.14008,0.0,0.0,0.0,0.0,0.0,0.0
1402597981062738365,0,19.4836199952,-0.114322152727,-28.8142131864,0.043815185726,-1.15851278802,0.0,-1.46114881215,0.0,-2.28761382874,0.0,0.0,0.0,0.0,199.271866451,9.02374906538,-6.33281588718,0.114309398336,100.0,-0.02378264268,100.0,0.117651113762,100.0,-0.0271457277775,100.0,2146230.14008,0.0,0.0,0.0,0.0,0.0,0.0
1402597981081963135,0,19.4836199952,-0.114322152727,-28.8142131864,0.043815185726,-1.15851278802,0.0,-1.46114881215,0.0,-2.28761382874,0.0,0.0,0.0,0.0,199.271866451,9.02374906538,-6.33281588718,0.114309398336,100.0,-0.02378264268,100.0,0.117651113762,100.0,-0.0271457277775,100.0,2146230.14008,0.0,0.0,0.0,0.0,0.0,0.0
1402597981102667153,0,19.4228806533,-0.114322152727,-28.8907475991,0.043815185726,-1.16812425425,0.0,-1.47228451977,0.0,-2.28708848368,0.0,0.0,0.0,0.0,199.271866451,9.02374906538,-6.33281588718,0.114309398336,100.0,-0.02378264268,100.0,0.117651113762,100.0,-0.0271457277775,100.0,2146230.14008,0.0,0.0,0.0,0.0,0.0,0.0
1402597981122103718,0,19.4228806533,-0.114322152727,-28.8907475991,0.043815185726,-1.16812425425,0.0,-1.47228451977,0.0,-2.28708848368,0.0,0.0,0.0,0.0,199.271866451,9.02374906538,-6.33281588718,0.115843860311,100.0,-0.02378264268,100.0,0.117651113762,100.0,-0.0271457277775,100.0,2146230.14008,0.0,0.0,0.0,0.0,0.0,0.0
1402597981142653143,0,19.387148874,-0.114322152727,-28.9407163467,0.043815185726,-1.16622520143,0.0,-1.49154023888,0.0,-2.28729988475,0.0,0.0,0.0,0.0,199.271866451,9.02374906538,-6.33281588718,0.115843860311,100.0,-0.02378264268,100.0,0.117651113762,100.0,-0.0271457277775,100.0,2146230.14008,0.0,0.0,0.0,0.0,0.0,0.0
1402597981162094714,0,19.362488131,-0.114322152727,-28.9719953565,0.043815185726,-1.16954414954,0.0,-1.49642485427,0.0,-2.2870723393,0.0,0.0,0.0,0.0,199.271866451,9.02374906538,-6.33281588718,0.114309398336,100.0,-0.02378264268,100.0,0.117651113762,100.0,-0.0271457277775,100.0,2146230.14008,0.0,0.0,0.0,0.0,0.0,0.0
1402597981182667317,0,19.362488131,-0.114322152727,-28.9719953565,0.043815185726,-1.16954414954,0.0,-1.49642485427,0.0,-2.2870723393,0.0,0.0,0.0,0.0,199.271866451,9.02374906538,-6.33281588718,0.114309398336,100.0,-0.0253168662365,100.0,0.117651113762,100.0,-0.0271457277775,100.0,2146230.14008,0.0,0.0,0.0,0.0,0.0,0.0
1402597981202112066,0,19.3456337532,-0.114322152727,-29.0043347859,0.043815185726,-1.16923008501,0.0,-1.49384054612,0.0,-2.28705859338,0.0,0.0,0.0,0.0,199.271866451,9.02374906538,-6.33281588718,0.115843860311,100.0,-0.02378264268,100.0,0.117651113762,100.0,-0.0271457277775,100.0,2146230.14008,0.0,0.0,0.0,0.0,0.0,0.0
1402597981222712803,0,19.3456337532,-0.114322152727,-29.0043347859,0.043815185726,-1.16923008501,0.0,-1.49384054612,0.0,-2.28705859338,0.0,0.0,0.0,0.0,199.271866451,9.02374906538,-6.33281588718,0.114309398336,100.0,-0.02378264268,100.0,0.117651113762,100.0,-0.0271457277775,100.0,2146230.14008,0.0,0.0,0.0,0.0,0.0,0.0
1402597981242115338,0,19.2965102796,-0.114322152727,-29.0675732022,0.043815185726,-1.1689395855,0.0,-1.50793264546,0.0,-2.28657378975,0.0,0.0,0.0,0.0,199.271866451,9.02374906538,-6.33281588718,0.115843860311,100.0,-0.02378264268,100.0,0.117651113762,100.0,-0.0271457277775,100.0,2146230.14008,0.0,0.0,0.0,0.0,0.0,0.0
1402597981262840625,0,19.2965102796,-0.114322152727,-29.0675732022,0.043815185726,-1.1689395855,0.0,-1.50793264546,0.0,-2.28657378975,0.0,0.0,0.0,0.0,199.271866451,9.02374906538,-6.33281588718,0.115843860311,100.0,-0.02378264268,100.0,0.117651113762,100.0,-0.0271457277775,100.0,2146230.14008,0.0,0.0,0.0,0.0,0.0,0.0
1402597981287410033,0,19.2456883768,-0.114322152727,-29.1325877843,0.043815185726,-1.17613033373,0.0,-1.52337369445,0.0,-2.28623657268,0.0,0.0,0.0,0.0,199.271866451,9.02374906538,-6.33281588718,0.114309398336,100.0,-0.02378264268,100.0,0.117651113762,100.0,-0.0271457277775,100.0,2146230.14008,0.0,0.0,0.0,0.0,0.0,0.0
1402597981302068815,0,19.2456883768,-0.114322152727,-29.1325877843,0.043815185726,-1.17613033373,0.0,-1.52337369445,0.0,-2.28623657268,0.0,0.0,0.0,0.0,199.271866451,9.02374906538,-6.33281588718,0.115843860311,100.0,-0.02378264268,100.0,0.117651113762,100.0,-0.0271457277775,100.0,2146230.14008,0.0,0.0,0.0,0.0,0.0,0.0
1402597981324018277,0,19.1961393895,-0.114322152727,-29.1968472441,0.043815185726,-1.1819647591,0.0,-1.53240503145,0.0,-2.28557721422,0.0,0.0,0.0,0.0,199.271866451,9.02374906538,-6.33281588718,0.114309398336,100.0,-0.02378264268,100.0,0.117651113762,100.0,-0.0271457277775,100.0,2146230.14008,0.0,0.0,0.0,0.0,0.0,0.0
1402597981342075130,0,19.1961393895,-0.114322152727,-29.1968472441,0.043815185726,-1.1819647591,0.0,-1.53240503145,0.0,-2.28557721422,0.0,0.0,0.0,0.0,199.271866451,9.02374906538,-6.33281588718,0.115843860311,100.0,-0.0253168662365,100.0,0.117651113762,100.0,-0.0271457277775,100.0,2146230.14008,0.0,0.0,0.0,0.0,0.0,0.0
1402597981364668965,0,19.1463555027,-0.114322152727,-29.2614893253,0.043815185726,-1.18041419158,0.0,-1.54596635216,0.0,-2.28488206847,0.0,0.0,0.0,0.0,199.271866451,9.02374906538,-6.33281588718,0.114309398336,100.0,-0.02378264268,100.0,0.117651113762,100.0,-0.0271457277775,100.0,2146230.14008,0.0,0.0,0.0,0.0,0.0,0.0
1402597981382055837,0,19.1463555027,-0.114322152727,-29.2614893253,0.043815185726,-1.18041419158,0.0,-1.54596635216,0.0,-2.28488206847,0.0,0.0,0.0,0.0,199.271866451,9.02374906538,-6.33281588718,0.114309398336,100.0,-0.0253168662365,100.0,0.117651113762,100.0,-0.0271457277775,100.0,2146230.14008,0.0,0.0,0.0,0.0,0.0,0.0
1402597981403717801,0,19.0915325391,-0.114322152727,-29.3400323108,0.043815185726,-1.17900364056,0.0,-1.54556832549,0.0,-2.28353479677,0.0,0.0,0.0,0.0,199.271866451,9.02374906538,-6.33281588718,0.115843860311,100.0,-0.02378264268,100.0,0.117651113762,100.0,-0.0271457277775,100.0,2146230.14008,0.0,0.0,0.0,0.0,0.0,0.0
1402597981422276030,0,19.0915325391,-0.114322152727,-29.3400323108,0.043815185726,-1.17900364056,0.0,-1.54556832549,0.0,-2.28353479677,0.0,0.0,0.0,0.0,199.271866451,9.02374906538,-6.33281588718,0.114309398336,100.0,-0.02378264268,100.0,0.117651113762,100.0,-0.0271457277775,100.0,2146230.14008,0.0,0.0,0.0,0.0,0.0,0.0
1402597981443011420,0,19.0452777381,-0.114322152727,-29.3983389719,0.043815185726,-1.15804590994,0.0,-1.49547286791,0.0,-2.27948632141,0.0,0.0,0.0,0.0,199.271866451,9.02374906538,-6.33281588718,0.117378322286,100.0,-0.02378264268,100.0,0.117651113762,100.0,-0.0271457277775,100.0,2146230.14008,0.0,0.0,0.0,0.0,0.0,0.0
1402597981462501027,0,19.0452777381,-0.114322152727,-29.3983389719,0.043815185726,-1.15804590994,0.0,-1.49547286791,0.0,-2.27948632141,0.0,0.0,0.0,0.0,199.271866451,9.02374906538,-6.33281588718,0.115843860311,100.0,-0.02378264268,100.0,0.117651113762,100.0,-0.0271457277775,100.0,2146230.14008,0.0,0.0,0.0,0.0,0.0,0.0
1402597981482608234,0,19.0238001356,-0.114322152727,-29.4127176189,0.043815185726,-1.15695484976,0.0,-1.45300725605,0.0,-2.27635466959,0.0,0.0,0.0,0.0,199.271866451,9.02374906538,-6.33281588718,0.114309398336,100.0,-0.02378264268,100.0,0.117651113762,100.0,-0.0271457277775,100.0,2146230.14008,0.0,0.0,0.0,0.0,0.0,0.0
1402597981502136587,0,19.0238001356,-0.114322152727,-29.4127176189,0.043815185726,-1.15695484976,0.0,-1.45300725605,0.0,-2.27635466959,0.0,0.0,0.0,0.0,199.271866451,9.02374906538,-6.33281588718,0.115843860311,100.0,-0.0253168662365,100.0,0.117651113762,100.0,-0.0271457277775,100.0,2146230.14008,0.0,0.0,0.0,0.0,0.0,0.0
1402597981522477489,0,18.9755755486,-0.114322152727,-29.4738997981,0.043815185726,-1.15604071694,0.0,-1.45482173185,0.0,-2.27483417601,0.0,0.0,0.0,0.0,199.271866451,9.02374906538,-6.33281588718,0.115843860311,100.0,-0.02378264268,100.0,0.117651113762,100.0,-0.0271457277775,100.0,2146230.14008,0.0,0.0,0.0,0.0,0.0,0.0
1402597981542315394,0,18.9755755486,-0.114322152727,-29.4738997981,0.043815185726,-1.15604071694,0.0,-1.45482173185,0.0,-2.27483417601,0.0,0.0,0.0,0.0,199.271866451,9.02374906538,-6.33281588718,0.114309398336,100.0,-0.0253168662365,100.0,0.117651113762,100.0,-0.0271457277775,100.0,2146230.14008,0.0,0.0,0.0,0.0,0.0,0.0
1402597981562728570,0,18.9459860008,-0.114322152727,-29.5047673753,0.043815185726,-1.12695091416,0.0,-1.3835898231,0.0,-2.27064745301,0.0,0.0,0.0,0.0,199.271866451,9.02374906538,-6.33281588718,0.115843860311,100.0,-0.02378264268,100.0,0.117651113762,100.0,-0.0271457277775,100.0,2146230.14008,0.0,0.0,0.0,0.0,0.0,0.0
1402597981582022554,0,18.9459860008,-0.114322152727,-29.5047673753,0.043815185726,-1.12695091416,0.0,-1.3835898231,0.0,-2.27064745301,0.0,0.0,0.0,0.0,199.271866451,9.02374906538,-6.33281588718,0.115843860311,100.0,-0.02378264268,100.0,0.117651113762,100.0,-0.0271457277775,100.0,2146230.14008,0.0,0.0,0.0,0.0,0.0,0.0
1402597981602507496,0,18.9000076857,-0.114322152727,-29.5615269928,0.043815185726,-1.11811117649,0.0,-1.38503086714,0.0,-2.26919656503,0.0,0.0,0.0,0.0,199.271866451,9.02374906538,-6.33281588718,0.114309398336,100.0,-0.02378264268,100.0,0.117651113762,100.0,-0.0271457277775,100.0,2146230.14008,0.0,0.0,0.0,0.0,0.0,0.0
1402597981623711586,0,18.9000076857,-0.114322152727,-29.5615269928,0.043815185726,-1.11811117649,0.0,-1.38503086714,0.0,-2.26919656503,0.0,0.0,0.0,0.0,199.271866451,9.02374906538,-6.33281588718,0.114309398336,100.0,-0.02378264268,100.0,0.117651113762,100.0,-0.0271457277775,100.0,2146230.14008,0.0,0.0,0.0,0.0,0.0,0.0
1402597981642569826,0,18.8587518543,-0.114322152727,-29.5978540168,0.043815185726,-1.10945070931,0.0,-1.33427115663,0.0,-2.2653769535,0.0,0.0,0.0,0.0,199.271866451,9.02374906538,-6.33281588718,0.115843860311,100.0,-0.02378264268,100.0,0.117651113762,100.0,-0.0271457277775,100.0,2146230.14008,0.0,0.0,0.0,0.0,0.0,0.0
1402597981665035303,0,18.8587518543,-0.114322152727,-29.5978540168,0.043815185726,-1.10945070931,0.0,-1.33427115663,0.0,-2.2653769535,0.0,0.0,0.0,0.0,199.271866451,9.02374906538,-6.33281588718,0.115843860311,100.0,-0.0253168662365,100.0,0.117651113762,100.0,-0.0271457277775,100.0,2146230.14008,0.0,0.0,0.0,0.0,0.0,0.0
1402597981682633921,0,18.8135892762,-0.114322152727,-29.6556129189,0.043815185726,-1.10970225688,0.0,-1.34183755699,0.0,-2.2648341652,0.0,0.0,0.0,0.0,199.271866451,9.02374906538,-6.33281588718,0.115843860311,100.0,-0.02378264268,100.0,0.117651113762,100.0,-0.0271457277775,100.0,2146230.14008,0.0,0.0,0.0,0.0,0.0,0.0
1402597981701817653,0,18.8135892762,-0.114322152727,-29.6556129189,0.043815185726,-1.10970225688,0.0,-1.34183755699,0.0,-2.2648341652,0.0,0.0,0.0,0.0,199.271866451,9.02374906538,-6.33281588718,0.120446769399,100.0,-0.02378264268,100.0,0.117651113762,100.0,-0.0271457277775,100.0,2146230.14008,0.0,0.0,0.0,0.0,0.0,0.0
1402597981722516564,0,18.7802259173,-0.114322152727,-29.7137221594,0.043815185726,-1.08983477598,0.0,-1.34644472016,0.0,-2.26501878752,0.0,0.0,0.0,0.0,199.271866451,9.02374906538,-6.33281588718,0.118912545842,100.0,-0.0253168662365,100.0,0.117651113762,100.0,-0.0271457277775,100.0,2146230.14008,0.0,0.0,0.0,0.0,0.0,0.0
1402597981742789153,0,18.7802259173,-0.114322152727,-29.7137221594,0.043815185726,-1.08983477598,0.0,-1.34644472016,0.0,-2.26501878752,0.0,0.0,0.0,0.0,199.271866451,9.02374906538,-6.33281588718,0.120446769399,100.0,-0.02378264268,100.0,0.117651113762,100.0,-0.0271457277775,100.0,2146230.14008,0.0,0.0,0.0,0.0,0.0,0.0
1402597981762281215,0,18.7119774756,-0.114322152727,-29.808954505,0.043815185726,-1.10096357889,0.0,-1.4014537955,0.0,-2.26647804817,0.0,0.0,0.0,0.0,199.271866451,9.02374906538,-6.33281588718,0.121981231374,100.0,-0.02378264268,100.0,0.117651113762,100.0,-0.0271457277775,100.0,2146230.14008,0.0,0.0,0.0,0.0,0.0,0.0
1402597981782625297,0,18.7119774756,-0.114322152727,-29.808954505,0.043815185726,-1.10096357889,0.0,-1.4014537955,0.0,-2.26647804817,0.0,0.0,0.0,0.0,199.271866451,9.02374906538,-6.33281588718,0.121981231374,100.0,-0.0253168662365,100.0,0.117651113762,100.0,-0.0271457277775,100.0,2146230.14008,0.0,0.0,0.0,0.0,0.0,0.0
1402597981802526011,0,18.6780214425,-0.114322152727,-29.8525466963,0.043815185726,-1.09511975589,0.0,-1.40249514334,0.0,-2.26532397388,0.0,0.0,0.0,0.0,199.271866451,9.02374906538,-6.33281588718,0.121981231374,100.0,-0.02378264268,100.0,0.117651113762,100.0,-0.0271457277775,100.0,2146230.14008,0.0,0.0,0.0,0.0,0.0,0.0
1402597981822785458,0,18.6609411877,-0.114322152727,-29.8910481379,0.043815185726,-1.0832251293,0.0,-1.42199667116,0.0,-2.26640759802,0.0,0.0,0.0,0.0,199.271866451,9.02374906538,-6.33281588718,0.121981231374,100.0,-0.02378264268,100.0,0.117651113762,100.0,-0.0271457277775,100.0,2146230.14008,0.0,0.0,0.0,0.0,0.0,0.0
1402597981841945742,0,18.6609411877,-0.114322152727,-29.8910481379,0.043815185726,-1.0832251293,0.0,-1.42199667116,0.0,-2.26640759802,0.0,0.0,0.0,0.0,199.271866451,9.02374906538,-6.33281588718,0.121981231374,100.0,-0.02378264268,100.0,0.117651113762,100.0,-0.0271457277775,100.0,2146230.14008,0.0,0.0,0.0,0.0,0.0,0.0
1402597981862521953,0,18.6393167921,-0.114322152727,-29.9196187785,0.043815185726,-1.08011358853,0.0,-1.4257590244,0.0,-2.26556068225,0.0,0.0,0.0,0.0,199.271866451,9.02374906538,-6.33281588718,0.121981231374,100.0,-0.02378264268,100.0,0.117651113762,100.0,-0.0271457277775,100.0,2146230.14008,0.0,0.0,0.0,0.0,0.0,0.0
1402597981882661628,0,18.6393167921,-0.114322152727,-29.9196187785,0.043815185726,-1.08011358853,0.0,-1.4257590244,0.0,-2.26556068225,0.0,0.0,0.0,0.0,199.271866451,9.02374906538,-6.33281588718,0.123515454931,100.0,-0.02378264268,100.0,0.117651113762,100.0,-0.0271457277775,100.0,2146230.14008,0.0,0.0,0.0,0.0,0.0,0.0
1402597981902729781,0,18.5845915163,-0.114322152727,-29.9777993533,0.043815185726,-1.09385438729,0.0,-1.42846167437,0.0,-2.26247643243,0.0,0.0,0.0,0.0,199.271866451,9.02374906538,-6.33281588718,0.123515454931,100.0,-0.02378264268,100.0,0.117651113762,100.0,-0.0271457277775,100.0,2146230.14008,0.0,0.0,0.0,0.0,0.0,0.0
1402597981924282156,0,18.5845915163,-0.114322152727,-29.9777993533,0.043815185726,-1.09385438729,0.0,-1.42846167437,0.0,-2.26247643243,0.0,0.0,0.0,0.0,199.271866451,9.02374906538,-6.33281588718,0.123515454931,100.0,-0.0253168662365,100.0,0.117651113762,100.0,-0.0271457277775,100.0,2146230.14008,0.0,0.0,0.0,0.0,0.0,0.0
1402597981942674985,0,18.539188795,-0.114322152727,-30.0264016744,0.043815185726,-1.08988578309,0.0,-1.39754682084,0.0,-2.2584731429,0.0,0.0,0.0,0.0,199.271866451,9.02374906538,-6.33281588718,0.121981231374,100.0,-0.02378264268,100.0,0.117651113762,100.0,-0.0271457277775,100.0,2146230.14008,0.0,0.0,0.0,0.0,0.0,0.0
1402597981962353912,0,18.539188795,-0.114322152727,-30.0264016744,0.043815185726,-1.08988578309,0.0,-1.39754682084,0.0,-2.2584731429,0.0,0.0,0.0,0.0,199.271866451,9.02374906538,-6.33281588718,0.121981231374,100.0,-0.02378264268,100.0,0.117651113762,100.0,-0.0271457277775,100.0,2146230.14008,0.0,0.0,0.0,0.0,0.0,0.0
1402597981982953946,0,18.4943697816,-0.114322152727,-30.0839520088,0.043815185726,-1.08754677852,0.0,-1.40172440955,0.0,-2.25684428229,0.0,0.0,0.0,0.0,199.271866451,9.02374906538,-6.33281588718,0.121981231374,100.0,-0.02378264268,100.0,0.117651113762,100.0,-0.0271457277775,100.0,2146230.14008,0.0,0.0,0.0,0.0,0.0,0.0
1402597982002091149,0,18.4943697816,-0.114322152727,-30.0839520088,0.043815185726,-1.08754677852,0.0,-1.40172440955,0.0,-2.25684428229,0.0,0.0,0.0,0.0,199.271866451,9.02374906538,-6.33281588718,0.121981231374,100.0,-0.02378264268,100.0,0.117651113762,100.0,-0.0271457277775,100.0,2146230.14008,0.0,0.0,0.0,0.0,0.0,0.0
1402597982022020738,0,18.4408484755,-0.114322152727,-30.1613719906,0.043815185726,-1.07408190221,0.0,-1.41258809975,0.0,-2.25563703329,0.0,0.0,0.0,0.0,199.271866451,9.02374906538,-6.33281588718,0.121981231374,100.0,-0.02378264268,100.0,0.117651113762,100.0,-0.0271457277775,100.0,2146230.14008,0.0,0.0,0.0,0.0,0.0,0.0
1402597982042857903,0,18.4408484755,-0.114322152727,-30.1613719906,0.043815185726,-1.07408190221,0.0,-1.41258809975,0.0,-2.25563703329,0.0,0.0,0.0,0.0,199.271866451,9.02374906538,-6.33281588718,0.121981231374,100.0,-0.02378264268,100.0,0.117651113762,100.0,-0.0271457277775,100.0,2146230.14008,0.0,0.0,0.0,0.0,0.0,0.0
1402597982062196017,0,18.3853218583,-0.114322152727,-30.2345550515,0.043815185726,-1.07271790632,0.0,-1.4081499781,0.0,-2.25285829368,0.0,0.0,0.0,0.0,199.271866451,9.02374906538,-6.33281588718,0.121981231374,100.0,-0.0253168662365,100.0,0.117651113762,100.0,-0.0271457277775,100.0,2146230.14008,0.0,0.0,0.0,0.0,0.0,0.0
1402597982082455084,0,18.3853218583,-0.114322152727,-30.2345550515,0.043815185726,-1.07271790632,0.0,-1.4081499781,0.0,-2.25285829368,0.0,0.0,0.0,0.0,199.271866451,9.02374906538,-6.33281588718,0.121981231374,100.0,-0.02378264268,100.0,0.117651113762,100.0,-0.0271457277775,100.0,2146230.14008,0.0,0.0,0.0,0.0,0.0,0.0
1402597982102267817,0,18.3629237105,-0.114322152727,-30.2639687898,0.043815185726,-1.0709755749,0.0,-1.40785686111,0.0,-2.2518878884,0.0,0.0,0.0,0.0,199.271866451,9.02374906538,-6.33281588718,0.121981231374,100.0,-0.02378264268,100.0,0.117651113762,100.0,-0.0271457277775,100.0,2146230.14008,0.0,0.0,0.0,0.0,0.0,0.0
1402597982122712787,0,18.3629237105,-0.114322152727,-30.2639687898,0.043815185726,-1.0709755749,0.0,-1.40785686111,0.0,-2.2518878884,0.0,0.0,0.0,0.0,199.271866451,9.02374906538,-6.33281588718,0.121981231374,100.0,-0.02378264268,100.0,0.117651113762,100.0,-0.0271457277775,100.0,2146230.14008,0.0,0.0,0.0,0.0,0.0,0.0
1402597982142113744,0,18.3197785806,-0.114322152727,-30.3265767078,0.043815185726,-1.06702465161,0.0,-1.41850777297,0.0,-2.25034773713,0.0,0.0,0.0,0.0,199.271866451,9.02374906538,-6.33281588718,0.121981231374,100.0,-0.02378264268,100.0,0.117651113762,100.0,-0.0271457277775,100.0,2146230.14008,0.0,0.0,0.0,0.0,0.0,0.0
1402597982162819571,0,18.3197785806,-0.114322152727,-30.3265767078,0.043815185726,-1.06702465161,0.0,-1.41850777297,0.0,-2.25034773713,0.0,0.0,0.0,0.0,199.271866451,9.02374906538,-6.33281588718,0.121981231374,100.0,-0.02378264268,100.0,0.117651113762,100.0,-0.0271457277775,100.0,2146230.14008,0.0,0.0,0.0,0.0,0.0,0.0
1402597982184769140,0,18.2729925556,-0.114322152727,-30.3960828309,0.043815185726,-1.07625943821,0.0,-1.44160757079,0.0,-2.24891728378,0.0,0.0,0.0,0.0,199.271866451,9.02374906538,-6.33281588718,0.121981231374,100.0,-0.02378264268,100.0,0.117651113762,100.0,-0.0271457277775,100.0,2146230.14008,0.0,0.0,0.0,0.0,0.0,0.0
1402597982202745316,0,18.2729925556,-0.114322152727,-30.3960828309,0.043815185726,-1.07625943821,0.0,-1.44160757079,0.0,-2.24891728378,0.0,0.0,0.0,0.0,199.271866451,9.02374906538,-6.33281588718,0.121981231374,100.0,-0.0253168662365,100.0,0.117651113762,100.0,-0.0271457277775,100.0,2146230.14008,0.0,0.0,0.0,0.0,0.0,0.0
1402597982222336549,0,18.2263100472,-0.114322152727,-30.4834267952,0.043815185726,-1.06036703416,0.0,-1.46843758876,0.0,-2.24837994034,0.0,0.0,0.0,0.0,199.271866451,9.02374906538,-6.33281588718,0.123515454931,100.0,-0.02378264268,100.0,0.117651113762,100.0,-0.0271457277775,100.0,2146230.14008,0.0,0.0,0.0,0.0,0.0,0.0
1402597982242743970,0,18.2263100472,-0.114322152727,-30.4834267952,0.043815185726,-1.06036703416,0.0,-1.46843758876,0.0,-2.24837994034,0.0,0.0,0.0,0.0,199.271866451,9.02374906538,-6.33281588718,0.121981231374,100.0,-0.02378264268,100.0,0.117651113762,100.0,-0.0271457277775,100.0,2146230.14008,0.0,0.0,0.0,0.0,0.0,0.0
1402597982262098998,0,18.1924448141,-0.114322152727,-30.5303345952,0.043815185726,-1.05718774751,0.0,-1.47009619794,0.0,-2.24656283501,0.0,0.0,0.0,0.0,199.271866451,9.02374906538,-6.33281588718,0.121981231374,100.0,-0.02378264268,100.0,0.117651113762,100.0,-0.0271457277775,100.0,2146230.14008,0.0,0.0,0.0,0.0,0.0,0.0
1402597982282968211,0,18.1587185934,-0.114322152727,-30.5579583919,0.043815185726,-1.08456955747,0.0,-1.46394025463,0.0,-2.24334734107,0.0,0.0,0.0,0.0,199.271866451,9.02374906538,-6.33281588718,0.121981231374,100.0,-0.02378264268,100.0,0.117651113762,100.0,-0.0271457277775,100.0,2146230.14008,0.0,0.0,0.0,0.0,0.0,0.0
1402597982302275087,0,18.1587185934,-0.114322152727,-30.5579583919,0.043815185726,-1.08456955747,0.0,-1.46394025463,0.0,-2.24334734107,0.0,0.0,0.0,0.0,199.271866451,9.02374906538,-6.33281588718,0.121981231374,100.0,-0.02378264268,100.0,0.117651113762,100.0,-0.0271457277775,100.0,2146230.14008,0.0,0.0,0.0,0.0,0.0,0.0
1402597982322713752,0,18.1362246641,-0.114322152727,-30.5885578884,0.043815185726,-1.08157582221,0.0,-1.46495307188,0.0,-2.24206881114,0.0,0.0,0.0,0.0,199.271866451,9.02374906538,-6.33281588718,0.121981231374,100.0,-0.02378264268,100.0,0.117651113762,100.0,-0.0271457277775,100.0,2146230.14008,0.0,0.0,0.0,0.0,0.0,0.0
1402597982342893677,0,18.1362246641,-0.114322152727,-30.5885578884,0.043815185726,-1.08157582221,0.0,-1.46495307188,0.0,-2.24206881114,0.0,0.0,0.0,0.0,199.271866451,9.02374906538,-6.33281588718,0.121981231374,100.0,-0.02378264268,100.0,0.117651113762,100.0,-0.0271457277775,100.0,2146230.14008,0.0,0.0,0.0,0.0,0.0,0.0
1402597982362953664,0,18.0961109223,-0.114322152727,-30.6438821238,0.043815185726,-1.07126010708,0.0,-1.4520473145,0.0,-2.23915222631,0.0,0.0,0.0,0.0,199.271866451,9.02374906538,-6.33281588718,0.121981231374,100.0,-0.02378264268,100.0,0.117651113762,100.0,-0.0271457277775,100.0,2146230.14008,0.0,0.0,0.0,0.0,0.0,0.0
1402597982382511121,0,18.0961109223,-0.114322152727,-30.6438821238,0.043815185726,-1.07126010708,0.0,-1.4520473145,0.0,-2.23915222631,0.0,0.0,0.0,0.0,199.271866451,9.02374906538,-6.33281588718,0.121981231374,100.0,-0.02378264268,100.0,0.117651113762,100.0,-0.0271457277775,100.0,2146230.14008,0.0,0.0,0.0,0.0,0.0,0.0
1402597982402381738,0,18.0508842461,-0.114322152727,-30.7065124262,0.043815185726,-1.06774272161,0.0,-1.45425768174,0.0,-2.23645090851,0.0,0.0,0.0,0.0,199.271866451,9.02374906538,-6.33281588718,0.121981231374,100.0,-0.02378264268,100.0,0.117651113762,100.0,-0.0271457277775,100.0,2146230.14008,0.0,0.0,0.0,0.0,0.0,0.0
1402597982422520065,0,18.0508842461,-0.114322152727,-30.7065124262,0.043815185726,-1.06774272161,0.0,-1.45425768174,0.0,-2.23645090851,0.0,0.0,0.0,0.0,199.271866451,9.02374906538,-6.33281588718,0.121981231374,100.0,-0.02378264268,100.0,0.117651113762,100.0,-0.0271457277775,100.0,2146230.14008,0.0,0.0,0.0,0.0,0.0,0.0
1402597982443636929,0,18.0062946656,-0.114322152727,-30.7685808542,0.043815185726,-1.06428860865,0.0,-1.45663034377,0.0,-2.2341494524,0.0,0.0,0.0,0.0,199.271866451,9.02374906538,-6.33281588718,0.121981231374,100.0,-0.02378264268,100.0,0.117651113762,100.0,-0.0271457277775,100.0,2146230.14008,0.0,0.0,0.0,0.0,0.0,0.0
1402597982463152026,0,18.0062946656,-0.114322152727,-30.7685808542,0.043815185726,-1.06428860865,0.0,-1.45663034377,0.0,-2.2341494524,0.0,0.0,0.0,0.0,199.271866451,9.02374906538,-6.33281588718,0.121981231374,100.0,-0.02378264268,100.0,0.117651113762,100.0,-0.0271457277775,100.0,2146230.14008,0.0,0.0,0.0,0.0,0.0,0.0
1402597982484744689,0,17.9521583757,-0.114322152727,-30.842998543,0.043815185726,-1.05776403533,0.0,-1.46256112374,0.0,-2.23082746442,0.0,0.0,0.0,0.0,199.271866451,9.02374906538,-6.33281588718,0.121981231374,100.0,-0.02378264268,100.0,0.117651113762,100.0,-0.0271457277775,100.0,2146230.14008,0.0,0.0,0.0,0.0,0.0,0.0
1402597982502612508,0,17.9521583757,-0.114322152727,-30.842998543,0.043815185726,-1.05776403533,0.0,-1.46256112374,0.0,-2.23082746442,0.0,0.0,0.0,0.0,199.271866451,9.02374906538,-6.33281588718,0.121981231374,100.0,-0.02378264268,100.0,0.117651113762,100.0,-0.0271457277775,100.0,2146230.14008,0.0,0.0,0.0,0.0,0.0,0.0
1402597982522289451,0,17.8970431666,-0.114322152727,-30.9193431982,0.043815185726,-1.05864840256,0.0,-1.46488385857,0.0,-2.22744117581,0.0,0.0,0.0,0.0,199.271866451,9.02374906538,-6.33281588718,0.121981231374,100.0,-0.02378264268,100.0,0.117651113762,100.0,-0.0271457277775,100.0,2146230.14008,0.0,0.0,0.0,0.0,0.0,0.0
1402597982542699484,0,17.8970431666,-0.114322152727,-30.9193431982,0.043815185726,-1.05864840256,0.0,-1.46488385857,0.0,-2.22744117581,0.0,0.0,0.0,0.0,199.271866451,9.02374906538,-6.33281588718,0.121981231374,100.0,-0.02378264268,100.0,0.117651113762,100.0,-0.0271457277775,100.0,2146230.14008,0.0,0.0,0.0,0.0,0.0,0.0
1402597982562762855,0,17.8751378963,-0.114322152727,-30.9501636728,0.043815185726,-1.05948471445,0.0,-1.46813357443,0.0,-2.2261259126,0.0,0.0,0.0,0.0,199.271866451,9.02374906538,-6.33281588718,0.121981231374,100.0,-0.02378264268,100.0,0.117651113762,100.0,-0.0271457277775,100.0,2146230.14008,0.0,0.0,0.0,0.0,0.0,0.0
1402597982582626049,0,17.8751378963,-0.114322152727,-30.9501636728,0.043815185726,-1.05948471445,0.0,-1.46813357443,0.0,-2.2261259126,0.0,0.0,0.0,0.0,199.271866451,9.02374906538,-6.33281588718,0.123515454931,100.0,-0.02378264268,100.0,0.117651113762,100.0,-0.0271457277775,100.0,2146230.14008,0.0,0.0,0.0,0.0,0.0,0.0
1402597982603460291,0,17.8316583023,-0.114322152727,-31.0102869877,0.043815185726,-1.06300568855,0.0,-1.46641568339,0.0,-2.22348649796,0.0,0.0,0.0,0.0,199.271866451,9.02374906538,-6.33281588718,0.121981231374,100.0,-0.02378264268,100.0,0.117651113762,100.0,-0.0271457277775,100.0,2146230.14008,0.0,0.0,0.0,0.0,0.0,0.0
1402597982622800889,0,17.8316583023,-0.114322152727,-31.0102869877,0.043815185726,-1.06300568855,0.0,-1.46641568339,0.0,-2.22348649796,0.0,0.0,0.0,0.0,199.271866451,9.02374906538,-6.33281588718,0.121981231374,100.0,-0.02378264268,100.0,0.117651113762,100.0,-0.0271457277775,100.0,2146230.14008,0.0,0.0,0.0,0.0,0.0,0.0
1402597982643687765,0,17.7870515289,-0.114322152727,-31.0718449353,0.043815185726,-1.06131694878,0.0,-1.46626945317,0.0,-2.2207967463,0.0,0.0,0.0,0.0,199.271866451,9.02374906538,-6.33281588718,0.121981231374,100.0,-0.02378264268,100.0,0.117651113762,100.0,-0.0271457277775,100.0,2146230.14008,0.0,0.0,0.0,0.0,0.0,0.0
1402597982662094689,0,17.7870515289,-0.114322152727,-31.0718449353,0.043815185726,-1.06131694878,0.0,-1.46626945317,0.0,-2.2207967463,0.0,0.0,0.0,0.0,199.271866451,9.02374906538,-6.33281588718,0.121981231374,100.0,-0.02378264268,100.0,0.117651113762,100.0,-0.0271457277775,100.0,2146230.14008,0.0,0.0,0.0,0.0,0.0,0.0
1402597982683427127,0,17.7392712154,-0.114322152727,-31.1394177293,0.043815185726,-1.06657847363,0.0,-1.49293437147,0.0,-2.21830044309,0.0,0.0,0.0,0.0,199.271866451,9.02374906538,-6.33281588718,0.121981231374,100.0,-0.02378264268,100.0,0.117651113762,100.0,-0.0271457277775,100.0,2146230.14008,0.0,0.0,0.0,0.0,0.0,0.0
1402597982703873160,0,17.7392712154,-0.114322152727,-31.1394177293,0.043815185726,-1.06657847363,0.0,-1.49293437147,0.0,-2.21830044309,0.0,0.0,0.0,0.0,199.271866451,9.02374906538,-6.33281588718,0.121981231374,100.0,-0.02378264268,100.0,0.117651113762,100.0,-0.0271457277775,100.0,2146230.14008,0.0,0.0,0.0,0.0,0.0,0.0
1402597982722685271,0,17.6908679782,-0.114322152727,-31.1952843789,0.043815185726,-1.07691248812,0.0,-1.4915281998,0.0,-2.21489055033,0.0,0.0,0.0,0.0,199.271866451,9.02374906538,-6.33281588718,0.121981231374,100.0,-0.02378264268,100.0,0.117651113762,100.0,-0.0271457277775,100.0,2146230.14008,0.0,0.0,0.0,0.0,0.0,0.0
1402597982744832148,0,17.6908679782,-0.114322152727,-31.1952843789,0.043815185726,-1.07691248812,0.0,-1.4915281998,0.0,-2.21489055033,0.0,0.0,0.0,0.0,199.271866451,9.02374906538,-6.33281588718,0.121981231374,100.0,-0.02378264268,100.0,0.117651113762,100.0,-0.0271457277775,100.0,2146230.14008,0.0,0.0,0.0,0.0,0.0,0.0
1402597982763125849,0,17.6415748536,-0.114322152727,-31.2612146755,0.043815185726,-1.05799876876,0.0,-1.47585590073,0.0,-2.21120815986,0.0,0.0,0.0,0.0,199.271866451,9.02374906538,-6.33281588718,0.121981231374,100.0,-0.0253168662365,100.0,0.117651113762,100.0,-0.0271457277775,100.0,2146230.14008,0.0,0.0,0.0,0.0,0.0,0.0
1402597982782232941,0,17.6415748536,-0.114322152727,-31.2612146755,0.043815185726,-1.05799876876,0.0,-1.47585590073,0.0,-2.21120815986,0.0,0.0,0.0,0.0,199.271866451,9.02374906538,-6.33281588718,0.121981231374,100.0,-0.02378264268,100.0,0.117651113762,100.0,-0.0271457277775,100.0,2146230.14008,0.0,0.0,0.0,0.0,0.0,0.0
1402597982802173565,0,17.610082328,-0.114322152727,-31.305653584,0.043815185726,-1.05707766667,0.0,-1.47396816539,0.0,-2.2089785825,0.0,0.0,0.0,0.0,199.271866451,9.02374906538,-6.33281588718,0.121981231374,100.0,-0.02378264268,100.0,0.117651113762,100.0,-0.0271457277775,100.0,2146230.14008,0.0,0.0,0.0,0.0,0.0,0.0
1402597982822795186,0,17.5913065415,-0.114322152727,-31.3435711542,0.043815185726,-1.0524141576,0.0,-1.49227616429,0.0,-2.20800510128,0.0,0.0,0.0,0.0,199.271866451,9.02374906538,-6.33281588718,0.121981231374,100.0,-0.02378264268,100.0,0.117651113762,100.0,-0.0271457277775,100.0,2146230.14008,0.0,0.0,0.0,0.0,0.0,0.0
1402597982842172724,0,17.5913065415,-0.114322152727,-31.3435711542,0.043815185726,-1.0524141576,0.0,-1.49227616429,0.0,-2.20800510128,0.0,0.0,0.0,0.0,199.271866451,9.02374906538,-6.33281588718,0.121981231374,100.0,-0.02378264268,100.0,0.117651113762,100.0,-0.0271457277775,100.0,2146230.14008,0.0,0.0,0.0,0.0,0.0,0.0
1402597982862470544,0,17.5690809211,-0.114322152727,-31.3749027696,0.043815185726,-1.04706063941,0.0,-1.49582505033,0.0,-2.20650350352,0.0,0.0,0.0,0.0,199.271866451,9.02374906538,-6.33281588718,0.121981231374,100.0,-0.02378264268,100.0,0.117651113762,100.0,-0.0271457277775,100.0,2146230.14008,0.0,0.0,0.0,0.0,0.0,0.0
1402597982883077524,0,17.5690809211,-0.114322152727,-31.3749027696,0.043815185726,-1.04706063941,0.0,-1.49582505033,0.0,-2.20650350352,0.0,0.0,0.0,0.0,199.271866451,9.02374906538,-6.33281588718,0.121981231374,100.0,-0.02378264268,100.0,0.117651113762,100.0,-0.0271457277775,100.0,2146230.14008,0.0,0.0,0.0,0.0,0.0,0.0
1402597982902949001,0,17.5188685183,-0.114322152727,-31.4323899815,0.043815185726,-1.0639658406,0.0,-1.49335531463,0.0,-2.20306897098,0.0,0.0,0.0,0.0,199.271866451,9.02374906538,-6.33281588718,0.121981231374,100.0,-0.02378264268,100.0,0.117651113762,100.0,-0.0271457277775,100.0,2146230.14008,0.0,0.0,0.0,0.0,0.0,0.0
1402597982925324338,0,17.5188685183,-0.114322152727,-31.4323899815,0.043815185726,-1.0639658406,0.0,-1.49335531463,0.0,-2.20306897098,0.0,0.0,0.0,0.0,199.271866451,9.02374906538,-6.33281588718,0.121981231374,100.0,-0.02378264268,100.0,0.117651113762,100.0,-0.0271457277775,100.0,2146230.14008,0.0,0.0,0.0,0.0,0.0,0.0
1402597982942798302,0,17.4810847833,-0.114322152727,-31.4904200693,0.043815185726,-1.05392166896,0.0,-1.48257696612,0.0,-2.20028572669,0.0,0.0,0.0,0.0,199.271866451,9.02374906538,-6.33281588718,0.121981231374,100.0,-0.02378264268,100.0,0.117651113762,100.0,-0.0271457277775,100.0,2146230.14008,0.0,0.0,0.0,0.0,0.0,0.0
1402597982962308295,0,17.4810847833,-0.114322152727,-31.4904200693,0.043815185726,-1.05392166896,0.0,-1.48257696612,0.0,-2.20028572669,0.0,0.0,0.0,0.0,199.271866451,9.02374906538,-6.33281588718,0.121981231374,100.0,-0.02378264268,100.0,0.117651113762,100.0,-0.0271457277775,100.0,2146230.14008,0.0,0.0,0.0,0.0,0.0,0.0
1402597982982687518,0,17.4320083433,-0.114322152727,-31.5788972658,0.043815185726,-1.04146298983,0.0,-1.50991282995,0.0,-2.19773856646,0.0,0.0,0.0,0.0,199.271866451,9.02374906538,-6.33281588718,0.121981231374,100.0,-0.02378264268,100.0,0.117651113762,100.0,-0.0271457277775,100.0,2146230.14008,0.0,0.0,0.0,0.0,0.0,0.0
1402597983002188957,0,17.4320083433,-0.114322152727,-31.5788972658,0.043815185726,-1.04146298983,0.0,-1.50991282995,0.0,-2.19773856646,0.0,0.0,0.0,0.0,199.271866451,9.02374906538,-6.33281588718,0.121981231374,100.0,-0.02378264268,100.0,0.117651113762,100.0,-0.0271457277775,100.0,2146230.14008,0.0,0.0,0.0,0.0,0.0,0.0
1402597983022333187,0,17.3778111948,-0.114322152727,-31.6575045026,0.043815185726,-1.0450487308,0.0,-1.51229566836,0.0,-2.19409553645,0.0,0.0,0.0,0.0,199.271866451,9.02374906538,-6.33281588718,0.121981231374,100.0,-0.02378264268,100.0,0.117651113762,100.0,-0.0271457277775,100.0,2146230.14008,0.0,0.0,0.0,0.0,0.0,0.0
1402597983042549891,0,17.3778111948,-0.114322152727,-31.6575045026,0.043815185726,-1.0450487308,0.0,-1.51229566836,0.0,-2.19409553645,0.0,0.0,0.0,0.0,199.271866451,9.02374906538,-6.33281588718,0.121981231374,100.0,-0.02378264268,100.0,0.117651113762,100.0,-0.0271457277775,100.0,2146230.14008,0.0,0.0,0.0,0.0,0.0,0.0
1402597983062225971,0,17.3571197209,-0.114322152727,-31.6878963627,0.043815185726,-1.04472196118,0.0,-1.51484947932,0.0,-2.19271622668,0.0,0.0,0.0,0.0,199.271866451,9.02374906538,-6.33281588718,0.121981231374,100.0,-0.02378264268,100.0,0.117651113762,100.0,-0.0271457277775,100.0,2146230.14008,0.0,0.0,0.0,0.0,0.0,0.0
1402597983082526205,0,17.3571197209,-0.114322152727,-31.6878963627,0.043815185726,-1.04472196118,0.0,-1.51484947932,0.0,-2.19271622668,0.0,0.0,0.0,0.0,199.271866451,9.02374906538,-6.33281588718,0.121981231374,100.0,-0.02378264268,100.0,0.117651113762,100.0,-0.0271457277775,100.0,2146230.14008,0.0,0.0,0.0,0.0,0.0,0.0
1402597983102157776,0,17.3163861828,-0.114322152727,-31.7477285864,0.043815185726,-1.02391620604,0.0,-1.51784982668,0.0,-2.18988808126,0.0,0.0,0.0,0.0,199.271866451,9.02374906538,-6.33281588718,0.121981231374,100.0,-0.0253168662365,100.0,0.117651113762,100.0,-0.0271457277775,100.0,2146230.14008,0.0,0.0,0.0,0.0,0.0,0.0
1402597983122588365,0,17.3163861828,-0.114322152727,-31.7477285864,0.043815185726,-1.02391620604,0.0,-1.51784982668,0.0,-2.18988808126,0.0,0.0,0.0,0.0,199.271866451,9.02374906538,-6.33281588718,0.121981231374,100.0,-0.02378264268,100.0,0.117651113762,100.0,-0.0271457277775,100.0,2146230.14008,0.0,0.0,0.0,0.0,0.0,0.0
1402597983142023131,0,17.2743511619,-0.114322152727,-31.8100294641,0.043815185726,-1.02440162147,0.0,-1.5184369782,0.0,-2.18701658561,0.0,0.0,0.0,0.0,199.271866451,9.02374906538,-6.33281588718,0.121981231374,100.0,-0.02378264268,100.0,0.117651113762,100.0,-0.0271457277775,100.0,2146230.14008,0.0,0.0,0.0,0.0,0.0,0.0
1402597983163012643,0,17.2743511619,-0.114322152727,-31.8100294641,0.043815185726,-1.02440162147,0.0,-1.5184369782,0.0,-2.18701658561,0.0,0.0,0.0,0.0,199.271866451,9.02374906538,-6.33281588718,0.123515454931,100.0,-0.02378264268,100.0,0.117651113762,100.0,-0.0271457277775,100.0,2146230.14008,0.0,0.0,0.0,0.0,0.0,0.0
1402597983182417646,0,17.2211274082,-0.114322152727,-31.8895040718,0.043815185726,-1.02308592434,0.0,-1.52413179232,0.0,-2.18348575812,0.0,0.0,0.0,0.0,199.271866451,9.02374906538,-6.33281588718,0.121981231374,100.0,-0.02378264268,100.0,0.117651113762,100.0,-0.0271457277775,100.0,2146230.14008,0.0,0.0,0.0,0.0,0.0,0.0
1402597983202167550,0,17.2211274082,-0.114322152727,-31.8895040718,0.043815185726,-1.02308592434,0.0,-1.52413179232,0.0,-2.18348575812,0.0,0.0,0.0,0.0,199.271866451,9.02374906538,-6.33281588718,0.121981231374,100.0,-0.02378264268,100.0,0.117651113762,100.0,-0.0271457277775,100.0,2146230.14008,0.0,0.0,0.0,0.0,0.0,0.0
1402597983222667671,0,17.1683558727,-0.114322152727,-31.9687979138,0.043815185726,-1.02128859472,0.0,-1.52914296444,0.0,-2.17974176265,0.0,0.0,0.0,0.0,199.271866451,9.02374906538,-6.33281588718,0.121981231374,100.0,-0.02378264268,100.0,0.117651113762,100.0,-0.0271457277775,100.0,2146230.14008,0.0,0.0,0.0,0.0,0.0,0.0
