rosbagTimestamp,control_method,x_current,x_desired,y_current,y_desired,z_current,z_desired,x_velocity_current,x_velocity_desired,y_velocity_current,y_velocity_desired,z_velocity_current,z_velocity_desired,yaw_current,yaw_desired,yaw_velocity_current,yaw_velocity_desired,roll_current,roll_desired,roll_velocity_current,roll_velocity_desired,pitch_current,pitch_desired,pitch_velocity_current,pitch_velocity_desired,required_force_x,required_force_y,required_moment_z,resultant_force_x,resultant_force_y,resultant_moment_z,current_port_servo_angle,current_port_thruster_force,current_starboard_servo_angle,current_starboard_thruster_force,estimated_port_servo_angle,estimated_port_thruster_force,estimated_starboard_servo_angle,estimated_starboard_thruster_force,cost_value,step,user_defined_1,user_defined_2,user_defined_3,user_defined_4,user_defined_5
1402752438166211371,3,-9.81550017651,-0.00591572024346,5.10034092771,-0.122189614607,2.52130699041,0.10862951003,0.00119436252864,0.0,-0.0470482641683,0.0,0.0676068775365,0.0,-1.03004360072,0.0,0.00649327846241,0.0,0.000495009303679,0.0,0.00612512289162,0.0,0.0680408260757,0.0,0.000641195822399,0.0,0.0,0.0,0.0,50.0,-0.0,-15.24,0.00230154196664,0.0,0.00230154196664,0.0,-0.0,50.0,-0.0,0.0,253628.8,0.0,0.0,0.0,0.0,0.0,0.0
1402752438184774585,3,-9.81550017651,-0.00591572024346,5.10034092771,-0.122189614607,2.52130699041,0.10862951003,0.00119436252864,0.0,-0.0470482641683,0.0,0.0676068775365,0.0,-1.03004360072,0.0,0.00649327846241,0.0,0.000495009303679,0.0,0.00612512289162,0.0,0.0680408260757,0.0,0.000641195822399,0.0,0.0,0.0,0.0,50.0,-0.0,-15.24,0.00230154196664,0.0,0.00230154196664,0.0,-0.0,50.0,-0.0,0.0,253628.8,0.0,0.0,0.0,0.0,0.0,0.0
1402752438204921135,3,-9.81542421032,-0.00591572024346,5.0989762121,-0.122189614607,2.52326290364,0.10862951003,0.000816925949881,0.0,-0.047066355023,0.0,0.0685119903688,0.0,-1.02977272153,0.0,0.00837664453386,0.0,0.000710692284217,0.0,0.00664903181189,0.0,0.0680828887274,0.0,-0.0028085876685,0.0,0.0,0.0,0.0,50.0,-0.0,-15.24,0.00230154196664,0.0,0.00230154196664,0.0,-0.0,50.0,-0.0,0.0,253628.8,0.0,0.0,0.0,0.0,0.0,0.0
1402752438225680010,3,-9.81920105713,-0.00591572024346,5.09503493895,-0.122189614607,2.51391075689,0.10862951003,-0.00338588978248,0.0,-0.0580697270234,0.0,0.0652796022542,0.0,-1.02974005259,0.0,0.00188335890156,0.0,0.00202696741921,0.0,0.00431291030169,0.0,0.0690295307151,0.0,-0.0089950925199,0.0,0.0,0.0,0.0,50.0,-0.0,-15.24,0.00230154196664,0.0,0.00230154196664,0.0,-0.0,50.0,-0.0,0.0,253628.8,0.0,0.0,0.0,0.0,0.0,0.0
1402752438245068354,3,-9.81920105713,-0.00591572024346,5.09503493895,-0.122189614607,2.51391075689,0.10862951003,-0.00338588978248,0.0,-0.0580697270234,0.0,0.0652796022542,0.0,-1.02974005259,0.0,0.00188335890156,0.0,0.00202696741921,0.0,0.00431291030169,0.0,0.0690295307151,0.0,-0.0089950925199,0.0,0.0,0.0,0.0,50.0,-0.0,-15.24,0.00230154196664,0.0,0.00230154196664,0.0,-0.0,50.0,-0.0,0.0,253628.8,0.0,0.0,0.0,0.0,0.0,0.0
1402752438264928920,3,-9.81930122469,-0.00591572024346,5.0938263784,-0.122189614607,2.51537406592,0.10862951003,-0.00273713687254,0.0,-0.0589476862125,0.0,0.0667080720295,0.0,-1.02959442932,0.0,0.00711146716159,0.0,0.00204546496181,0.0,0.00597006103563,0.0,0.0691223291522,0.0,0.00152446898194,0.0,0.0,0.0,0.0,50.0,-0.0,-15.24,0.00230154196664,0.0,0.00230154196664,0.0,-0.0,50.0,-0.0,0.0,253628.8,0.0,0.0,0.0,0.0,0.0,0.0
1402752438285280719,3,-9.81930122469,-0.00591572024346,5.0938263784,-0.122189614607,2.51537406592,0.10862951003,-0.00273713687254,0.0,-0.0589476862125,0.0,0.0667080720295,0.0,-1.02959442932,0.0,0.00711146716159,0.0,0.00204546496181,0.0,0.00597006103563,0.0,0.0691223291522,0.0,0.00152446898194,0.0,0.0,0.0,0.0,50.0,-0.0,-15.24,0.00230154196664,0.0,0.00230154196664,0.0,-0.0,50.0,-0.0,0.0,253628.8,0.0,0.0,0.0,0.0,0.0,0.0
1402752438304815584,3,-9.81857198198,-0.00591572024346,5.0867481395,-0.122189614607,2.52807242804,0.10862951003,0.0010633541326,0.0,-0.0641167522119,0.0,0.0707826556614,0.0,-1.02935260137,0.0,0.00298530003866,0.0,0.00210404657385,0.0,0.00170923836212,0.0,0.0697336756449,0.0,-0.00315977603953,0.0,0.0,0.0,0.0,50.0,-0.0,-15.24,0.00230154196664,0.0,0.00230154196664,0.0,-0.0,50.0,-0.0,0.0,253628.8,0.0,0.0,0.0,0.0,0.0,0.0
1402752438324974933,3,-9.81857198198,-0.00591572024346,5.0867481395,-0.122189614607,2.52807242804,0.10862951003,0.0010633541326,0.0,-0.0641167522119,0.0,0.0707826556614,0.0,-1.02935260137,0.0,0.00298530003866,0.0,0.00210404657385,0.0,0.00170923836212,0.0,0.0697336756449,0.0,-0.00315977603953,0.0,0.0,0.0,0.0,50.0,-0.0,-15.24,0.00230154196664,0.0,0.00230154196664,0.0,-0.0,50.0,-0.0,0.0,253628.8,0.0,0.0,0.0,0.0,0.0,0.0
1402752438345058057,3,-9.82133526083,-0.00591572024346,5.08728534297,-0.122189614607,2.5221623413,0.10862951003,-0.000881360985655,0.0,-0.0603087967676,0.0,0.0691498244821,0.0,-1.02905125909,0.0,0.0120279805241,0.0,0.00206373365317,0.0,-0.000400373442171,0.0,0.0692395843933,0.0,0.000526098200008,0.0,0.0,0.0,0.0,50.0,-0.0,-15.24,0.00230154196664,0.0,0.00230154196664,0.0,-0.0,50.0,-0.0,0.0,253628.8,0.0,0.0,0.0,0.0,0.0,0.0
1402752438364867729,3,-9.82133526083,-0.00591572024346,5.08728534297,-0.122189614607,2.5221623413,0.10862951003,-0.000881360985655,0.0,-0.0603087967676,0.0,0.0691498244821,0.0,-1.02905125909,0.0,0.0120279805241,0.0,0.00206373365317,0.0,-0.000400373442171,0.0,0.0692395843933,0.0,0.000526098200008,0.0,0.0,0.0,0.0,50.0,-0.0,-15.24,0.00230154196664,0.0,0.00230154196664,0.0,-0.0,50.0,-0.0,0.0,253628.8,0.0,0.0,0.0,0.0,0.0,0.0
1402752438385694367,3,-9.82173730494,-0.00591572024346,5.08494493113,-0.122189614607,2.51306001934,0.10862951003,0.00404730941426,0.0,-0.0655002557879,0.0,0.0662990907848,0.0,-1.02885146503,0.0,0.00765988702686,0.0,0.00188548216293,0.0,0.00997308100088,0.0,0.0703000425791,0.0,0.00194653127401,0.0,0.0,0.0,0.0,50.0,-0.0,-15.24,0.00230154196664,0.0,0.00230154196664,0.0,-0.0,50.0,-0.0,0.0,253628.8,0.0,0.0,0.0,0.0,0.0,0.0
1402752438404907108,3,-9.82173730494,-0.00591572024346,5.08494493113,-0.122189614607,2.51306001934,0.10862951003,0.00404730941426,0.0,-0.0655002557879,0.0,0.0662990907848,0.0,-1.02885146503,0.0,0.00765988702686,0.0,0.00188548216293,0.0,0.00997308100088,0.0,0.0703000425791,0.0,0.00194653127401,0.0,0.0,0.0,0.0,50.0,-0.0,-15.24,0.00230154196664,0.0,0.00230154196664,0.0,-0.0,50.0,-0.0,0.0,253628.8,0.0,0.0,0.0,0.0,0.0,0.0
1402752438425853184,3,-9.82296681676,-0.00591572024346,5.08460803949,-0.122189614607,2.5176241623,0.10862951003,0.00105668706784,0.0,-0.0557247827765,0.0,0.066450164136,0.0,-1.02831395827,0.0,0.0129972568983,0.0,0.00152685005597,0.0,0.00739043048545,0.0,0.0695593208684,0.0,0.000873622867711,0.0,0.0,0.0,0.0,50.0,-0.0,-15.24,0.00230154196664,0.0,0.00230154196664,0.0,-0.0,50.0,-0.0,0.0,253628.8,0.0,0.0,0.0,0.0,0.0,0.0
1402752438445299596,3,-9.82296681676,-0.00591572024346,5.08460803949,-0.122189614607,2.5176241623,0.10862951003,0.00105668706784,0.0,-0.0557247827765,0.0,0.066450164136,0.0,-1.02831395827,0.0,0.0129972568983,0.0,0.00152685005597,0.0,0.00739043048545,0.0,0.0695593208684,0.0,0.000873622867711,0.0,0.0,0.0,0.0,50.0,-0.0,-15.24,0.00230154196664,0.0,0.00230154196664,0.0,-0.0,50.0,-0.0,0.0,253628.8,0.0,0.0,0.0,0.0,0.0,0.0
1402752438464912302,3,-9.82650219578,-0.00591572024346,5.08611500595,-0.122189614607,2.50906186543,0.10862951003,-0.00386242017784,0.0,-0.047071858448,0.0,0.0625472351973,0.0,-1.02766609532,0.0,0.0122723558153,0.0,0.00164103289179,0.0,0.0092466673007,0.0,0.0690532668254,0.0,0.00827290944329,0.0,0.0,0.0,0.0,50.0,-0.0,-15.24,0.00230154196664,0.0,0.00230154196664,0.0,-0.0,50.0,-0.0,0.0,253628.8,0.0,0.0,0.0,0.0,0.0,0.0
1402752438484986648,3,-9.82650219578,-0.00591572024346,5.08611500595,-0.122189614607,2.50906186543,0.10862951003,-0.00386242017784,0.0,-0.047071858448,0.0,0.0625472351973,0.0,-1.02766609532,0.0,0.0122723558153,0.0,0.00164103289179,0.0,0.0092466673007,0.0,0.0690532668254,0.0,0.00827290944329,0.0,0.0,0.0,0.0,50.0,-0.0,-15.24,0.00230154196664,0.0,0.00230154196664,0.0,-0.0,50.0,-0.0,0.0,253628.8,0.0,0.0,0.0,0.0,0.0,0.0
1402752438504836987,3,-9.82657583581,-0.00591572024346,5.08500816102,-0.122189614607,2.51048262564,0.10862951003,-0.00504488981565,0.0,-0.0468716178739,0.0,0.0626371472086,0.0,-1.02738414368,0.0,0.015330678414,0.0,0.00159575260768,0.0,0.0107600622917,0.0,0.0692698384219,0.0,0.00661194816843,0.0,0.0,0.0,0.0,50.0,-0.0,-15.24,0.00230154196664,0.0,0.00230154196664,0.0,-0.0,50.0,-0.0,0.0,253628.8,0.0,0.0,0.0,0.0,0.0,0.0
1402752438525019898,3,-9.82657583581,-0.00591572024346,5.08500816102,-0.122189614607,2.51048262564,0.10862951003,-0.00504488981565,0.0,-0.0468716178739,0.0,0.0626371472086,0.0,-1.02738414368,0.0,0.015330678414,0.0,0.00159575260768,0.0,0.0107600622917,0.0,0.0692698384219,0.0,0.00661194816843,0.0,0.0,0.0,0.0,50.0,-0.0,-15.24,0.00230154196664,0.0,0.00230154196664,0.0,-0.0,50.0,-0.0,0.0,253628.8,0.0,0.0,0.0,0.0,0.0,0.0
1402752438544998213,3,-9.82680800307,-0.00591572024346,5.08318699409,-0.122189614607,2.51295885322,0.10862951003,-0.00672826423506,0.0,-0.0456208911229,0.0,0.0627607083118,0.0,-1.02672852559,0.0,0.0210282950148,0.0,0.00157611568587,0.0,0.00114416882934,0.0,0.0696275079035,0.0,0.00926206168204,0.0,0.0,0.0,0.0,50.0,-0.0,-15.24,0.000767318410122,0.0,0.00230154196664,0.0,-0.0,50.0,-0.0,0.0,253628.8,0.0,0.0,0.0,0.0,0.0,0.0
1402752438564804667,3,-9.82680800307,-0.00591572024346,5.08318699409,-0.122189614607,2.51295885322,0.10862951003,-0.00672826423506,0.0,-0.0456208911229,0.0,0.0627607083118,0.0,-1.02672852559,0.0,0.0210282950148,0.0,0.00157611568587,0.0,0.00114416882934,0.0,0.0696275079035,0.0,0.00926206168204,0.0,0.0,0.0,0.0,50.0,-0.0,-15.24,0.00230154196664,0.0,0.00230154196664,0.0,-0.0,50.0,-0.0,0.0,253628.8,0.0,0.0,0.0,0.0,0.0,0.0
1402752438585603004,3,-9.82747959922,-0.00591572024346,5.07669344157,-0.122189614607,2.52154202441,0.10862951003,-0.00813387203093,0.0,-0.0529159149725,0.0,0.0655980503464,0.0,-1.02609701647,0.0,0.010341647258,0.0,0.00185047689297,0.0,0.00641121182225,0.0,0.0704818278186,0.0,-0.00325214283195,0.0,0.0,0.0,0.0,50.0,-0.0,-15.24,0.00230154196664,0.0,0.00230154196664,0.0,-0.0,50.0,-0.0,0.0,253628.8,0.0,0.0,0.0,0.0,0.0,0.0
1402752438604785029,3,-9.82747959922,-0.00591572024346,5.07669344157,-0.122189614607,2.52154202441,0.10862951003,-0.00813387203093,0.0,-0.0529159149725,0.0,0.0655980503464,0.0,-1.02609701647,0.0,0.010341647258,0.0,0.00185047689297,0.0,0.00641121182225,0.0,0.0704818278186,0.0,-0.00325214283195,0.0,0.0,0.0,0.0,50.0,-0.0,-15.24,0.00230154196664,0.0,0.00230154196664,0.0,-0.0,50.0,-0.0,0.0,253628.8,0.0,0.0,0.0,0.0,0.0,0.0
1402752438625588800,3,-9.82717426234,-0.00591572024346,5.07630080996,-0.122189614607,2.52434565013,0.10862951003,-0.00540273421578,0.0,-0.0473545883769,0.0,0.0681522928014,0.0,-1.0255289967,0.0,0.0115810424723,0.0,0.00124844031759,0.0,0.00561320705443,0.0,0.0705931447484,0.0,0.00574655133428,0.0,0.0,0.0,0.0,50.0,-0.0,-15.24,0.00230154196664,0.0,0.00230154196664,0.0,-0.0,50.0,-0.0,0.0,253628.8,0.0,0.0,0.0,0.0,0.0,0.0
1402752438646078007,3,-9.82717426234,-0.00591572024346,5.07630080996,-0.122189614607,2.52434565013,0.10862951003,-0.00540273421578,0.0,-0.0473545883769,0.0,0.0681522928014,0.0,-1.0255289967,0.0,0.0115810424723,0.0,0.00124844031759,0.0,0.00561320705443,0.0,0.0705931447484,0.0,0.00574655133428,0.0,0.0,0.0,0.0,50.0,-0.0,-15.24,0.00230154196664,0.0,0.00230154196664,0.0,-0.0,50.0,-0.0,0.0,253628.8,0.0,0.0,0.0,0.0,0.0,0.0
1402752438664915867,3,-9.83144209179,-0.00591572024346,5.0785688167,-0.122189614607,2.50994844165,0.10862951003,-0.0119183062343,0.0,-0.0424274555153,0.0,0.0632115354166,0.0,-1.02492218232,0.0,0.0139567332106,0.0,0.00159001993743,0.0,-0.000253806950199,0.0,0.0704296171496,0.0,0.00134609265436,0.0,0.0,0.0,0.0,50.0,-0.0,-15.24,0.00230154196664,0.0,0.00230154196664,0.0,-0.0,50.0,-0.0,0.0,253628.8,0.0,0.0,0.0,0.0,0.0,0.0
1402752438684988139,3,-9.83144209179,-0.00591572024346,5.0785688167,-0.122189614607,2.50994844165,0.10862951003,-0.0119183062343,0.0,-0.0424274555153,0.0,0.0632115354166,0.0,-1.02492218232,0.0,0.0139567332106,0.0,0.00159001993743,0.0,-0.000253806950199,0.0,0.0704296171496,0.0,0.00134609265436,0.0,0.0,0.0,0.0,50.0,-0.0,-15.24,0.00230154196664,0.0,0.00230154196664,0.0,-0.0,50.0,-0.0,0.0,253628.8,0.0,0.0,0.0,0.0,0.0,0.0
1402752438705283654,3,-9.83169881805,-0.00591572024346,5.0778413331,-0.122189614607,2.51104932299,0.10862951003,-0.0130642096488,0.0,-0.0416330648493,0.0,0.0635174988415,0.0,-1.02465906688,0.0,0.0138502651823,0.0,0.0015874632048,0.0,-0.00238663307939,0.0,0.0703905109271,0.0,-0.00343905584605,0.0,0.0,0.0,0.0,50.0,-0.0,-15.24,0.00230154196664,0.0,0.00230154196664,0.0,-0.0,50.0,-0.0,0.0,253628.8,0.0,0.0,0.0,0.0,0.0,0.0
1402752438725054168,3,-9.83169881805,-0.00591572024346,5.0778413331,-0.122189614607,2.51104932299,0.10862951003,-0.0130642096488,0.0,-0.0416330648493,0.0,0.0635174988415,0.0,-1.02465906688,0.0,0.0138502651823,0.0,0.0015874632048,0.0,-0.00238663307939,0.0,0.0703905109271,0.0,-0.00343905584605,0.0,0.0,0.0,0.0,50.0,-0.0,-15.24,0.00230154196664,0.0,0.00230154196664,0.0,-0.0,50.0,-0.0,0.0,253628.8,0.0,0.0,0.0,0.0,0.0,0.0
1402752438744964225,3,-9.83037303699,-0.00591572024346,5.0796765928,-0.122189614607,2.51655306078,0.10862951003,-0.0078556062089,0.0,-0.0312772782622,0.0,0.0676071593091,0.0,-1.02423555798,0.0,0.0169196815572,0.0,0.000403288111788,0.0,0.00302398221707,0.0,0.0697706642619,0.0,0.00660951982731,0.0,0.0,0.0,0.0,50.0,-0.0,-15.24,0.00230154196664,0.0,0.00230154196664,0.0,-0.0,50.0,-0.0,0.0,253628.8,0.0,0.0,0.0,0.0,0.0,0.0
1402752438764947706,3,-9.83037303699,-0.00591572024346,5.0796765928,-0.122189614607,2.51655306078,0.10862951003,-0.0078556062089,0.0,-0.0312772782622,0.0,0.0676071593091,0.0,-1.02423555798,0.0,0.0169196815572,0.0,0.000403288111788,0.0,0.00302398221707,0.0,0.0697706642619,0.0,0.00660951982731,0.0,0.0,0.0,0.0,50.0,-0.0,-15.24,0.00230154196664,0.0,0.00230154196664,0.0,-0.0,50.0,-0.0,0.0,253628.8,0.0,0.0,0.0,0.0,0.0,0.0
1402752438785022510,3,-9.83261397966,-0.00591572024346,5.07561792171,-0.122189614607,2.52528126561,0.10862951003,-0.0126453658436,0.0,-0.0333192495266,0.0,0.0705955548417,0.0,-1.02351395807,0.0,0.00915215657128,0.0,0.00104395849691,0.0,0.00193658985831,0.0,0.0696888749915,0.0,0.000104824784479,0.0,0.0,0.0,0.0,50.0,-0.0,-15.24,0.00230154196664,0.0,0.00230154196664,0.0,-0.0,50.0,-0.0,0.0,253628.8,0.0,0.0,0.0,0.0,0.0,0.0
1402752438805256937,3,-9.83261397966,-0.00591572024346,5.07561792171,-0.122189614607,2.52528126561,0.10862951003,-0.0126453658436,0.0,-0.0333192495266,0.0,0.0705955548417,0.0,-1.02351395807,0.0,0.00915215657128,0.0,0.00104395849691,0.0,0.00193658985831,0.0,0.0696888749915,0.0,0.000104824784479,0.0,0.0,0.0,0.0,50.0,-0.0,-15.24,0.00230154196664,0.0,0.00230154196664,0.0,-0.0,50.0,-0.0,0.0,253628.8,0.0,0.0,0.0,0.0,0.0,0.0
1402752438825035835,3,-9.83052259219,-0.00591572024346,5.07251775489,-0.122189614607,2.52698420922,0.10862951003,-0.00620510595861,0.0,-0.037120333383,0.0,0.0727603188315,0.0,-1.02284140291,0.0,0.0175539374725,0.0,0.000396767373349,0.0,0.00244215056459,0.0,0.0707595973177,0.0,0.00204105260516,0.0,0.0,0.0,0.0,50.0,-0.0,-15.24,0.00230154196664,0.0,0.000767318410122,0.0,-0.0,50.0,-0.0,0.0,253628.8,0.0,0.0,0.0,0.0,0.0,0.0
1402752438845673763,3,-9.83052259219,-0.00591572024346,5.07251775489,-0.122189614607,2.52698420922,0.10862951003,-0.00620510595861,0.0,-0.037120333383,0.0,0.0727603188315,0.0,-1.02284140291,0.0,0.0175539374725,0.0,0.000396767373349,0.0,0.00244215056459,0.0,0.0707595973177,0.0,0.00204105260516,0.0,0.0,0.0,0.0,50.0,-0.0,-15.24,0.00230154196664,0.0,0.00230154196664,0.0,-0.0,50.0,-0.0,0.0,253628.8,0.0,0.0,0.0,0.0,0.0,0.0
1402752438864864028,3,-9.83193741595,-0.00591572024346,5.07040897803,-0.122189614607,2.52681369582,0.10862951003,-0.0101821463952,0.0,-0.0407288313673,0.0,0.0728331044696,0.0,-1.02222437917,0.0,0.0165029893551,0.0,0.000960291776282,0.0,0.00528390234369,0.0,0.0710156337292,0.0,-0.00262668123641,0.0,0.0,0.0,0.0,50.0,-0.0,-15.24,0.00230154196664,0.0,0.000767318410122,0.0,-0.0,50.0,-0.0,0.0,253628.8,0.0,0.0,0.0,0.0,0.0,0.0
1402752438885241131,3,-9.8321830324,-0.00591572024346,5.06962220232,-0.122189614607,2.52825729586,0.10862951003,-0.0100579161653,0.0,-0.0402693987786,0.0,0.0738962693199,0.0,-1.02200696143,0.0,0.00952182232794,0.0,0.00106367259277,0.0,0.00428285587681,0.0,0.0710790795691,0.0,-0.00330554053331,0.0,0.0,0.0,0.0,50.0,-0.0,-15.24,0.00230154196664,0.0,0.000767318410122,0.0,-0.0,50.0,-0.0,0.0,253628.8,0.0,0.0,0.0,0.0,0.0,0.0
1402752438905068951,3,-9.8321830324,-0.00591572024346,5.06962220232,-0.122189614607,2.52825729586,0.10862951003,-0.0100579161653,0.0,-0.0402693987786,0.0,0.0738962693199,0.0,-1.02200696143,0.0,0.00952182232794,0.0,0.00106367259277,0.0,0.00428285587681,0.0,0.0710790795691,0.0,-0.00330554053331,0.0,0.0,0.0,0.0,50.0,-0.0,-15.24,0.00230154196664,0.0,0.000767318410122,0.0,-0.0,50.0,-0.0,0.0,253628.8,0.0,0.0,0.0,0.0,0.0,0.0
1402752438925404817,3,-9.83681890324,-0.00591572024346,5.07188467937,-0.122189614607,2.52716047773,0.10862951003,-0.0229842531257,0.0,-0.034371210423,0.0,0.0728362313778,0.0,-1.02152230299,0.0,0.0144050741015,0.0,0.00198569435419,0.0,-0.00696599344868,0.0,0.0696249759508,0.0,-0.00421285323783,0.0,0.0,0.0,0.0,50.0,-0.0,-15.24,0.00230154196664,0.0,0.00230154196664,0.0,-0.0,50.0,-0.0,0.0,253628.8,0.0,0.0,0.0,0.0,0.0,0.0
1402752438945034218,3,-9.83681890324,-0.00591572024346,5.07188467937,-0.122189614607,2.52716047773,0.10862951003,-0.0229842531257,0.0,-0.034371210423,0.0,0.0728362313778,0.0,-1.02152230299,0.0,0.0144050741015,0.0,0.00198569435419,0.0,-0.00696599344868,0.0,0.0696249759508,0.0,-0.00421285323783,0.0,0.0,0.0,0.0,50.0,-0.0,-15.24,0.00230154196664,0.0,0.00230154196664,0.0,-0.0,50.0,-0.0,0.0,253628.8,0.0,0.0,0.0,0.0,0.0,0.0
1402752438964893310,3,-9.83775529267,-0.00591572024346,5.07045875002,-0.122189614607,2.53016863573,0.10862951003,-0.0246926646839,0.0,-0.0359167408619,0.0,0.0751370710658,0.0,-1.02129253955,0.0,0.00115103578221,0.0,0.00229118394115,0.0,-0.00207478535668,0.0,0.0692816552138,0.0,-0.0210372153153,0.0,0.0,0.0,0.0,50.0,-0.0,-15.24,0.00230154196664,0.0,0.00230154196664,0.0,-0.0,50.0,-0.0,0.0,253628.8,0.0,0.0,0.0,0.0,0.0,0.0
1402752438985006204,3,-9.83775529267,-0.00591572024346,5.07045875002,-0.122189614607,2.53016863573,0.10862951003,-0.0246926646839,0.0,-0.0359167408619,0.0,0.0751370710658,0.0,-1.02129253955,0.0,0.00115103578221,0.0,0.00229118394115,0.0,-0.00207478535668,0.0,0.0692816552138,0.0,-0.0210372153153,0.0,0.0,0.0,0.0,50.0,-0.0,-15.24,0.000767318410122,0.0,0.00230154196664,0.0,-0.0,50.0,-0.0,0.0,253628.8,0.0,0.0,0.0,0.0,0.0,0.0
1402752439005093945,3,-9.83148824877,-0.00591572024346,5.07123864928,-0.122189614607,2.53807019093,0.10862951003,-0.00531154660452,0.0,-0.0311966193866,0.0,0.0790600413623,0.0,-1.02188779573,0.0,-0.0063140927288,0.0,0.000257505213902,0.0,-0.00589163218053,0.0,0.0693616665481,0.0,-0.0152249119121,0.0,0.0,0.0,0.0,50.0,-0.0,-15.24,0.00230154196664,0.0,0.00230154196664,0.0,-0.0,50.0,-0.0,0.0,253628.8,0.0,0.0,0.0,0.0,0.0,0.0
1402752439024886003,3,-9.83148824877,-0.00591572024346,5.07123864928,-0.122189614607,2.53807019093,0.10862951003,-0.00531154660452,0.0,-0.0311966193866,0.0,0.0790600413623,0.0,-1.02188779573,0.0,-0.0063140927288,0.0,0.000257505213902,0.0,-0.00589163218053,0.0,0.0693616665481,0.0,-0.0152249119121,0.0,0.0,0.0,0.0,50.0,-0.0,-15.24,0.00230154196664,0.0,0.00230154196664,0.0,-0.0,50.0,-0.0,0.0,253628.8,0.0,0.0,0.0,0.0,0.0,0.0
1402752439045375302,3,-9.83331239819,-0.00591572024346,5.06989338097,-0.122189614607,2.53633618122,0.10862951003,-0.00512371383794,0.0,-0.0372665213183,0.0,0.0784534282363,0.0,-1.02213536013,0.0,-0.00736798484723,0.0,0.000754196546618,0.0,-0.0149695779771,0.0,0.0690602840377,0.0,-0.00291074479198,0.0,0.0,0.0,0.0,50.0,-0.0,-15.24,0.00230154196664,0.0,0.00230154196664,0.0,-0.0,50.0,-0.0,0.0,253628.8,0.0,0.0,0.0,0.0,0.0,0.0
1402752439065010884,3,-9.83331239819,-0.00591572024346,5.06989338097,-0.122189614607,2.53633618122,0.10862951003,-0.00512371383794,0.0,-0.0372665213183,0.0,0.0784534282363,0.0,-1.02213536013,0.0,-0.00736798484723,0.0,0.000754196546618,0.0,-0.0149695779771,0.0,0.0690602840377,0.0,-0.00291074479198,0.0,0.0,0.0,0.0,50.0,-0.0,-15.24,0.00230154196664,0.0,0.00230154196664,0.0,-0.0,50.0,-0.0,0.0,253628.8,0.0,0.0,0.0,0.0,0.0,0.0
1402752439084920347,3,-9.83495288959,-0.00591572024346,5.06844771187,-0.122189614607,2.53494115488,0.10862951003,-0.00631616538959,0.0,-0.0408212326917,0.0,0.0770913067804,0.0,-1.02257347883,0.0,-0.00449854650394,0.0,0.00120607197659,0.0,-0.010964625813,0.0,0.0686799609271,0.0,-0.000563375283801,0.0,0.0,0.0,0.0,50.0,-0.0,-15.24,0.00230154196664,0.0,0.00383600394174,0.0,-0.0,50.0,-0.0,0.0,253628.8,0.0,0.0,0.0,0.0,0.0,0.0
1402752439105075311,3,-9.83495288959,-0.00591572024346,5.06844771187,-0.122189614607,2.53494115488,0.10862951003,-0.00631616538959,0.0,-0.0408212326917,0.0,0.0770913067804,0.0,-1.02257347883,0.0,-0.00449854650394,0.0,0.00120607197659,0.0,-0.010964625813,0.0,0.0686799609271,0.0,-0.000563375283801,0.0,0.0,0.0,0.0,50.0,-0.0,-15.24,0.00230154196664,0.0,0.00230154196664,0.0,-0.0,50.0,-0.0,0.0,253628.8,0.0,0.0,0.0,0.0,0.0,0.0
1402752439125385959,3,-9.83413891956,-0.00591572024346,5.06831646816,-0.122189614607,2.53822162681,0.10862951003,-0.0037083684389,0.0,-0.0361593812587,0.0,0.0757670383785,0.0,-1.02296643499,0.0,-0.00382145101804,0.0,0.000740439207823,0.0,-0.0119058295443,0.0,0.0681650459927,0.0,-0.000930492539274,0.0,0.0,0.0,0.0,50.0,-0.0,-15.24,0.00230154196664,0.0,0.00230154196664,0.0,-0.0,50.0,-0.0,0.0,253628.8,0.0,0.0,0.0,0.0,0.0,0.0
1402752439144748071,3,-9.83413891956,-0.00591572024346,5.06831646816,-0.122189614607,2.53822162681,0.10862951003,-0.0037083684389,0.0,-0.0361593812587,0.0,0.0757670383785,0.0,-1.02296643499,0.0,-0.00382145101804,0.0,0.000740439207823,0.0,-0.0119058295443,0.0,0.0681650459927,0.0,-0.000930492539274,0.0,0.0,0.0,0.0,50.0,-0.0,-15.24,0.00230154196664,0.0,0.00230154196664,0.0,-0.0,50.0,-0.0,0.0,253628.8,0.0,0.0,0.0,0.0,0.0,0.0
1402752439164843200,3,-9.83421478794,-0.00591572024346,5.06762872737,-0.122189614607,2.53976586649,0.10862951003,-0.0031931876722,0.0,-0.0353022296136,0.0,0.0760542070085,0.0,-1.02301880302,0.0,-0.00364145080357,0.0,0.000706903009851,0.0,-0.00551916907969,0.0,0.0680475475352,0.0,0.00217333677836,0.0,0.0,0.0,0.0,50.0,-0.0,-15.24,0.00230154196664,0.0,0.00230154196664,0.0,-0.0,50.0,-0.0,0.0,253628.8,0.0,0.0,0.0,0.0,0.0,0.0
1402752439184996977,3,-9.83421478794,-0.00591572024346,5.06762872737,-0.122189614607,2.53976586649,0.10862951003,-0.0031931876722,0.0,-0.0353022296136,0.0,0.0760542070085,0.0,-1.02301880302,0.0,-0.00364145080357,0.0,0.000706903009851,0.0,-0.00551916907969,0.0,0.0680475475352,0.0,0.00217333677836,0.0,0.0,0.0,0.0,50.0,-0.0,-15.24,0.00230154196664,0.0,0.00230154196664,0.0,-0.0,50.0,-0.0,0.0,253628.8,0.0,0.0,0.0,0.0,0.0,0.0
1402752439204917988,3,-9.83157690185,-0.00591572024346,5.07194797105,-0.122189614607,2.54641825699,0.10862951003,0.00258740645859,0.0,-0.0212990333009,0.0,0.0753613797307,0.0,-1.02315773025,0.0,-0.00313204565795,0.0,-0.000599200395146,0.0,-0.0108958905685,0.0,0.0668823102809,0.0,0.00779727599825,0.0,0.0,0.0,0.0,50.0,-0.0,-15.24,0.00230154196664,0.0,0.000767318410122,0.0,-0.0,50.0,-0.0,0.0,253628.8,0.0,0.0,0.0,0.0,0.0,0.0
1402752439224894751,3,-9.83157690185,-0.00591572024346,5.07194797105,-0.122189614607,2.54641825699,0.10862951003,0.00258740645859,0.0,-0.0212990333009,0.0,0.0753613797307,0.0,-1.02315773025,0.0,-0.00313204565795,0.0,-0.000599200395146,0.0,-0.0108958905685,0.0,0.0668823102809,0.0,0.00779727599825,0.0,0.0,0.0,0.0,50.0,-0.0,-15.24,0.00230154196664,0.0,0.000767318410122,0.0,-0.0,50.0,-0.0,0.0,253628.8,0.0,0.0,0.0,0.0,0.0,0.0
1402752439245103856,3,-9.83447027393,-0.00591572024346,5.06847395373,-0.122189614607,2.54498556237,0.10862951003,-0.00561995204607,0.0,-0.0309422993988,0.0,0.0730945115323,0.0,-1.02311927256,0.0,-0.00191487512402,0.0,0.000556511410929,0.0,0.00267199266161,0.0,0.0674432368474,0.0,0.00443662728555,0.0,0.0,0.0,0.0,50.0,-0.0,-15.24,0.00230154196664,0.0,0.000767318410122,0.0,-0.0,50.0,-0.0,0.0,253628.8,0.0,0.0,0.0,0.0,0.0,0.0
1402752439265079134,3,-9.83447027393,-0.00591572024346,5.06847395373,-0.122189614607,2.54498556237,0.10862951003,-0.00561995204607,0.0,-0.0309422993988,0.0,0.0730945115323,0.0,-1.02311927256,0.0,-0.00191487512402,0.0,0.000556511410929,0.0,0.00267199266161,0.0,0.0674432368474,0.0,0.00443662728555,0.0,0.0,0.0,0.0,50.0,-0.0,-15.24,0.00230154196664,0.0,0.000767318410122,0.0,-0.0,50.0,-0.0,0.0,253628.8,0.0,0.0,0.0,0.0,0.0,0.0
1402752439285740826,3,-9.82967461425,-0.00591572024346,5.07155279496,-0.122189614607,2.54777665956,0.10862951003,0.00594286982293,0.0,-0.0211082727887,0.0,0.0711814860956,0.0,-1.02358345006,0.0,-0.00299307352846,0.0,-0.00126254720386,0.0,0.00244871891873,0.0,0.0677206318816,0.0,0.0107381831043,0.0,0.0,0.0,0.0,50.0,-0.0,-15.24,0.00230154196664,0.0,0.00230154196664,0.0,-0.0,50.0,-0.0,0.0,253628.8,0.0,0.0,0.0,0.0,0.0,0.0
1402752439305020614,3,-9.82967461425,-0.00591572024346,5.07155279496,-0.122189614607,2.54777665956,0.10862951003,0.00594286982293,0.0,-0.0211082727887,0.0,0.0711814860956,0.0,-1.02358345006,0.0,-0.00299307352846,0.0,-0.00126254720386,0.0,0.00244871891873,0.0,0.0677206318816,0.0,0.0107381831043,0.0,0.0,0.0,0.0,50.0,-0.0,-15.24,0.00230154196664,0.0,0.00230154196664,0.0,-0.0,50.0,-0.0,0.0,253628.8,0.0,0.0,0.0,0.0,0.0,0.0
1402752439325140156,3,-9.833615555,-0.00591572024346,5.07301786846,-0.122189614607,2.54240304329,0.10862951003,-0.0065874137658,0.0,-0.0201856870296,0.0,0.0676330368602,0.0,-1.02317292191,0.0,0.00333898687706,0.0,-0.000362147072839,0.0,0.00438535990614,0.0,0.0675530614613,0.0,0.0141415587145,0.0,0.0,0.0,0.0,50.0,-0.0,-15.24,0.00230154196664,0.0,0.00230154196664,0.0,-0.0,50.0,-0.0,0.0,253628.8,0.0,0.0,0.0,0.0,0.0,0.0
1402752439345274017,3,-9.833615555,-0.00591572024346,5.07301786846,-0.122189614607,2.54240304329,0.10862951003,-0.0065874137658,0.0,-0.0201856870296,0.0,0.0676330368602,0.0,-1.02317292191,0.0,0.00333898687706,0.0,-0.000362147072839,0.0,0.00438535990614,0.0,0.0675530614613,0.0,0.0141415587145,0.0,0.0,0.0,0.0,50.0,-0.0,-15.24,0.00230154196664,0.0,0.00230154196664,0.0,-0.0,50.0,-0.0,0.0,253628.8,0.0,0.0,0.0,0.0,0.0,0.0
1402752439364900142,3,-9.82928803496,-0.00591572024346,5.07435905355,-0.122189614607,2.54426912887,0.10862951003,0.0016685501679,0.0,-0.0143980090818,0.0,0.0662145601385,0.0,-1.02363427081,0.0,-0.00310137463816,0.0,-0.0015187175783,0.0,0.00404981978172,0.0,0.0685401485614,0.0,0.00407649737563,0.0,0.0,0.0,0.0,50.0,-0.0,-15.24,0.00230154196664,0.0,0.00230154196664,0.0,-0.0,50.0,-0.0,0.0,253628.8,0.0,0.0,0.0,0.0,0.0,0.0
1402752439384952689,3,-9.82928803496,-0.00591572024346,5.07435905355,-0.122189614607,2.54426912887,0.10862951003,0.0016685501679,0.0,-0.0143980090818,0.0,0.0662145601385,0.0,-1.02363427081,0.0,-0.00310137463816,0.0,-0.0015187175783,0.0,0.00404981978172,0.0,0.0685401485614,0.0,0.00407649737563,0.0,0.0,0.0,0.0,50.0,-0.0,-15.24,0.00230154196664,0.0,0.00230154196664,0.0,-0.0,50.0,-0.0,0.0,253628.8,0.0,0.0,0.0,0.0,0.0,0.0
1402752439405064158,3,-9.82921291311,-0.00591572024346,5.07391359805,-0.122189614607,2.54639626788,0.10862951003,0.00129660433687,0.0,-0.0116166378591,0.0,0.0668729929937,0.0,-1.02364314146,0.0,-0.00175280468177,0.0,-0.00174719348815,0.0,0.000637049944104,0.0,0.0687152885706,0.0,0.00798219192063,0.0,0.0,0.0,0.0,50.0,-0.0,-15.24,0.00230154196664,0.0,0.00230154196664,0.0,-0.0,50.0,-0.0,0.0,253628.8,0.0,0.0,0.0,0.0,0.0,0.0
1402752439424894694,3,-9.82997506272,-0.00591572024346,5.07560518242,-0.122189614607,2.53963172384,0.10862951003,-0.00131619049564,0.0,-0.0140549356466,0.0,0.064917775112,0.0,-1.02366003796,0.0,-0.00476034030177,0.0,-0.00142171050249,0.0,0.00127050151251,0.0,0.0690401435547,0.0,0.00990805827108,0.0,0.0,0.0,0.0,50.0,-0.0,-15.24,0.00230154196664,0.0,0.00230154196664,0.0,-0.0,50.0,-0.0,0.0,253628.8,0.0,0.0,0.0,0.0,0.0,0.0
1402752439445034789,3,-9.82997506272,-0.00591572024346,5.07560518242,-0.122189614607,2.53963172384,0.10862951003,-0.00131619049564,0.0,-0.0140549356466,0.0,0.064917775112,0.0,-1.02366003796,0.0,-0.00476034030177,0.0,-0.00142171050249,0.0,0.00127050151251,0.0,0.0690401435547,0.0,0.00990805827108,0.0,0.0,0.0,0.0,50.0,-0.0,-15.24,0.00230154196664,0.0,0.00230154196664,0.0,-0.0,50.0,-0.0,0.0,253628.8,0.0,0.0,0.0,0.0,0.0,0.0
1402752439464982618,3,-9.83005621518,-0.00591572024346,5.07532608412,-0.122189614607,2.5409808536,0.10862951003,-0.00286024394658,0.0,-0.0143347597734,0.0,0.0660223565219,0.0,-1.02369574886,0.0,-0.000510061332397,0.0,-0.00141429848727,0.0,0.00910163999611,0.0,0.0691483161603,0.0,0.00046305331483,0.0,0.0,0.0,0.0,50.0,-0.0,-15.24,0.00230154196664,0.0,0.00230154196664,0.0,-0.0,50.0,-0.0,0.0,253628.8,0.0,0.0,0.0,0.0,0.0,0.0
1402752439485058692,3,-9.83005621518,-0.00591572024346,5.07532608412,-0.122189614607,2.5409808536,0.10862951003,-0.00286024394658,0.0,-0.0143347597734,0.0,0.0660223565219,0.0,-1.02369574886,0.0,-0.000510061332397,0.0,-0.00141429848727,0.0,0.00910163999611,0.0,0.0691483161603,0.0,0.00046305331483,0.0,0.0,0.0,0.0,50.0,-0.0,-15.24,0.00230154196664,0.0,0.00230154196664,0.0,-0.0,50.0,-0.0,0.0,253628.8,0.0,0.0,0.0,0.0,0.0,0.0
1402752439504955961,3,-9.83194515808,-0.00591572024346,5.07267457328,-0.122189614607,2.5450630408,0.10862951003,-0.0101176163103,0.0,-0.0171760674899,0.0,0.0670702198079,0.0,-1.02348959759,0.0,0.00114807820254,0.0,-0.000385596509054,0.0,-0.000275567412992,0.0,0.0696191311959,0.0,0.0169143059553,0.0,0.0,0.0,0.0,50.0,-0.0,-15.24,0.00230154196664,0.0,0.00230154196664,0.0,-0.0,50.0,-0.0,0.0,253628.8,0.0,0.0,0.0,0.0,0.0,0.0
1402752439524908983,3,-9.83194515808,-0.00591572024346,5.07267457328,-0.122189614607,2.5450630408,0.10862951003,-0.0101176163103,0.0,-0.0171760674899,0.0,0.0670702198079,0.0,-1.02348959759,0.0,0.00114807820254,0.0,-0.000385596509054,0.0,-0.000275567412992,0.0,0.0696191311959,0.0,0.0169143059553,0.0,0.0,0.0,0.0,50.0,-0.0,-15.24,0.00230154196664,0.0,0.00230154196664,0.0,-0.0,50.0,-0.0,0.0,253628.8,0.0,0.0,0.0,0.0,0.0,0.0
1402752439545091398,3,-9.83244172051,-0.00591572024346,5.07194437131,-0.122189614607,2.54793073038,0.10862951003,-0.0116607502539,0.0,-0.0173011561997,0.0,0.0695061190512,0.0,-1.02341927689,0.0,0.00169929529365,0.0,-0.000683355441601,0.0,0.00767576396144,0.0,0.0701078473412,0.0,0.00874948496993,0.0,0.0,0.0,0.0,50.0,-0.0,-15.24,0.00230154196664,0.0,0.00230154196664,0.0,-0.0,50.0,-0.0,0.0,253628.8,0.0,0.0,0.0,0.0,0.0,0.0
1402752439564968127,3,-9.83244172051,-0.00591572024346,5.07194437131,-0.122189614607,2.54793073038,0.10862951003,-0.0116607502539,0.0,-0.0173011561997,0.0,0.0695061190512,0.0,-1.02341927689,0.0,0.00169929529365,0.0,-0.000683355441601,0.0,0.00767576396144,0.0,0.0701078473412,0.0,0.00874948496993,0.0,0.0,0.0,0.0,50.0,-0.0,-15.24,0.000767318410122,0.0,0.00230154196664,0.0,-0.0,50.0,-0.0,0.0,253628.8,0.0,0.0,0.0,0.0,0.0,0.0
1402752439585179433,3,-9.83047986827,-0.00591572024346,5.0759250791,-0.122189614607,2.55012915987,0.10862951003,-0.00880220404269,0.0,-0.0104392613579,0.0,0.0714395949369,0.0,-1.02359358843,0.0,0.000544885919902,0.0,-0.00140412150352,0.0,0.0134445438084,0.0,0.0701713201231,0.0,0.00989426874875,0.0,0.0,0.0,0.0,50.0,-0.0,-15.24,0.00230154196664,0.0,0.00230154196664,0.0,-0.0,50.0,-0.0,0.0,253628.8,0.0,0.0,0.0,0.0,0.0,0.0
1402752439604987406,3,-9.83047986827,-0.00591572024346,5.0759250791,-0.122189614607,2.55012915987,0.10862951003,-0.00880220404269,0.0,-0.0104392613579,0.0,0.0714395949369,0.0,-1.02359358843,0.0,0.000544885919902,0.0,-0.00140412150352,0.0,0.0134445438084,0.0,0.0701713201231,0.0,0.00989426874875,0.0,0.0,0.0,0.0,50.0,-0.0,-15.24,0.00230154196664,0.0,0.00230154196664,0.0,-0.0,50.0,-0.0,0.0,253628.8,0.0,0.0,0.0,0.0,0.0,0.0
1402752439624930535,3,-9.83069781334,-0.00591572024346,5.07342140017,-0.122189614607,2.55185246616,0.10862951003,-0.0108604423422,0.0,-0.0178845628634,0.0,0.0730616338479,0.0,-1.02353354197,0.0,-0.00147022819028,0.0,-0.000706197733147,0.0,0.0118077187778,0.0,0.0717284477307,0.0,0.0155493623591,0.0,0.0,0.0,0.0,50.0,-0.0,-15.24,0.00230154196664,0.0,0.00230154196664,0.0,-0.0,50.0,-0.0,0.0,253628.8,0.0,0.0,0.0,0.0,0.0,0.0
1402752439645026401,3,-9.83069781334,-0.00591572024346,5.07342140017,-0.122189614607,2.55185246616,0.10862951003,-0.0108604423422,0.0,-0.0178845628634,0.0,0.0730616338479,0.0,-1.02353354197,0.0,-0.00147022819028,0.0,-0.000706197733147,0.0,0.0118077187778,0.0,0.0717284477307,0.0,0.0155493623591,0.0,0.0,0.0,0.0,50.0,-0.0,-15.24,0.00230154196664,0.0,0.00230154196664,0.0,-0.0,50.0,-0.0,0.0,253628.8,0.0,0.0,0.0,0.0,0.0,0.0
1402752439665933251,3,-9.82915691077,-0.00591572024346,5.07654740398,-0.122189614607,2.55566303591,0.10862951003,-0.0163364509434,0.0,-0.017071349169,0.0,0.0742020886693,0.0,-1.02361432399,0.0,0.00170316706309,0.0,-0.000458682680202,0.0,0.0130226920165,0.0,0.0720854731081,0.0,0.00655427197228,0.0,0.0,0.0,0.0,50.0,-0.0,-15.24,0.00230154196664,0.0,0.00230154196664,0.0,-0.0,50.0,-0.0,0.0,253628.8,0.0,0.0,0.0,0.0,0.0,0.0
1402752439684895128,3,-9.82915691077,-0.00591572024346,5.07654740398,-0.122189614607,2.55566303591,0.10862951003,-0.0163364509434,0.0,-0.017071349169,0.0,0.0742020886693,0.0,-1.02361432399,0.0,0.00170316706309,0.0,-0.000458682680202,0.0,0.0130226920165,0.0,0.0720854731081,0.0,0.00655427197228,0.0,0.0,0.0,0.0,50.0,-0.0,-15.24,0.00230154196664,0.0,0.00230154196664,0.0,-0.0,50.0,-0.0,0.0,253628.8,0.0,0.0,0.0,0.0,0.0,0.0
1402752439705083313,3,-9.82952939333,-0.00591572024346,5.07619002601,-0.122189614607,2.55728770038,0.10862951003,-0.0160562624524,0.0,-0.0162913954436,0.0,0.0752078280562,0.0,-1.02365778947,0.0,0.000402892350008,0.0,-0.00051878569047,0.0,0.00704300739759,0.0,0.0723422741722,0.0,0.00872598398809,0.0,0.0,0.0,0.0,50.0,-0.0,-15.24,0.00230154196664,0.0,0.00230154196664,0.0,-0.0,50.0,-0.0,0.0,253628.8,0.0,0.0,0.0,0.0,0.0,0.0
1402752439725037405,3,-9.82952939333,-0.00591572024346,5.07619002601,-0.122189614607,2.55728770038,0.10862951003,-0.0160562624524,0.0,-0.0162913954436,0.0,0.0752078280562,0.0,-1.02365778947,0.0,0.000402892350008,0.0,-0.00051878569047,0.0,0.00704300739759,0.0,0.0723422741722,0.0,0.00872598398809,0.0,0.0,0.0,0.0,50.0,-0.0,-15.24,0.00230154196664,0.0,0.00230154196664,0.0,-0.0,50.0,-0.0,0.0,253628.8,0.0,0.0,0.0,0.0,0.0,0.0
1402752439745718811,3,-9.8271167864,-0.00591572024346,5.08082735673,-0.122189614607,2.55473555785,0.10862951003,-0.0128457417057,0.0,-0.0116055424116,0.0,0.0747687520579,0.0,-1.02391194914,0.0,-0.0037036162302,0.0,-0.0010350178295,0.0,0.00915462980995,0.0,0.0726327949406,0.0,-0.00260573936315,0.0,0.0,0.0,0.0,50.0,-0.0,-15.24,0.00230154196664,0.0,0.00230154196664,0.0,-0.0,50.0,-0.0,0.0,253628.8,0.0,0.0,0.0,0.0,0.0,0.0
1402752439765034026,3,-9.8271167864,-0.00591572024346,5.08082735673,-0.122189614607,2.55473555785,0.10862951003,-0.0128457417057,0.0,-0.0116055424116,0.0,0.0747687520579,0.0,-1.02391194914,0.0,-0.0037036162302,0.0,-0.0010350178295,0.0,0.00915462980995,0.0,0.0726327949406,0.0,-0.00260573936315,0.0,0.0,0.0,0.0,50.0,-0.0,-15.24,0.00230154196664,0.0,0.00230154196664,0.0,-0.0,50.0,-0.0,0.0,253628.8,0.0,0.0,0.0,0.0,0.0,0.0
1402752439784901445,3,-9.8253593767,-0.00591572024346,5.08149860073,-0.122189614607,2.55606104887,0.10862951003,-0.0104416424776,0.0,-0.0145919536245,0.0,0.0763564128649,0.0,-1.02425073475,0.0,-0.00998790616567,0.0,-0.000998431163902,0.0,0.00862387630564,0.0,0.07323588848,0.0,0.00292551450971,0.0,0.0,0.0,0.0,50.0,-0.0,-15.24,0.00230154196664,0.0,0.00230154196664,0.0,-0.0,50.0,-0.0,0.0,253628.8,0.0,0.0,0.0,0.0,0.0,0.0
1402752439805021796,3,-9.8253593767,-0.00591572024346,5.08149860073,-0.122189614607,2.55606104887,0.10862951003,-0.0104416424776,0.0,-0.0145919536245,0.0,0.0763564128649,0.0,-1.02425073475,0.0,-0.00998790616567,0.0,-0.000998431163902,0.0,0.00862387630564,0.0,0.07323588848,0.0,0.00292551450971,0.0,0.0,0.0,0.0,50.0,-0.0,-15.24,0.000767318410122,0.0,0.00230154196664,0.0,-0.0,50.0,-0.0,0.0,253628.8,0.0,0.0,0.0,0.0,0.0,0.0
1402752439825319469,3,-9.82381611305,-0.00591572024346,5.08461623574,-0.122189614607,2.55502194688,0.10862951003,-0.00996294725157,0.0,-0.0144702775577,0.0,0.0757916813908,0.0,-1.02451350675,0.0,0.00268356178352,0.0,-0.00116589013663,0.0,0.00619315782237,0.0,0.0733213727024,0.0,-0.00495697602544,0.0,0.0,0.0,0.0,50.0,-0.0,-15.24,0.00230154196664,0.0,0.00230154196664,0.0,-0.0,50.0,-0.0,0.0,253628.8,0.0,0.0,0.0,0.0,0.0,0.0
1402752439845607590,3,-9.82381611305,-0.00591572024346,5.08461623574,-0.122189614607,2.55502194688,0.10862951003,-0.00996294725157,0.0,-0.0144702775577,0.0,0.0757916813908,0.0,-1.02451350675,0.0,0.00268356178352,0.0,-0.00116589013663,0.0,0.00619315782237,0.0,0.0733213727024,0.0,-0.00495697602544,0.0,0.0,0.0,0.0,50.0,-0.0,-15.24,0.00230154196664,0.0,0.00230154196664,0.0,-0.0,50.0,-0.0,0.0,253628.8,0.0,0.0,0.0,0.0,0.0,0.0
1402752439865041818,3,-9.82129382961,-0.00591572024346,5.08886110457,-0.122189614607,2.56486498897,0.10862951003,-0.00805873904817,0.0,-0.0045625497972,0.0,0.0789014527409,0.0,-1.02469865785,0.0,0.0012807188219,0.0,-0.0016710015982,0.0,-0.00190612715027,0.0,0.0724179085272,0.0,-0.00418443018945,0.0,0.0,0.0,0.0,50.0,-0.0,-15.24,0.00230154196664,0.0,0.00230154196664,0.0,-0.0,50.0,-0.0,0.0,253628.8,0.0,0.0,0.0,0.0,0.0,0.0
1402752439885094537,3,-9.82129382961,-0.00591572024346,5.08886110457,-0.122189614607,2.56486498897,0.10862951003,-0.00805873904817,0.0,-0.0045625497972,0.0,0.0789014527409,0.0,-1.02469865785,0.0,0.0012807188219,0.0,-0.0016710015982,0.0,-0.00190612715027,0.0,0.0724179085272,0.0,-0.00418443018945,0.0,0.0,0.0,0.0,50.0,-0.0,-15.24,0.00230154196664,0.0,0.00230154196664,0.0,-0.0,50.0,-0.0,0.0,253628.8,0.0,0.0,0.0,0.0,0.0,0.0
1402752439905134665,3,-9.82143516122,-0.00591572024346,5.08874447063,-0.122189614607,2.5664408509,0.10862951003,-0.007272864043,0.0,-0.00383120984394,0.0,0.0792331789843,0.0,-1.0247193416,0.0,0.000883133053784,0.0,-0.00170323102673,0.0,-0.00773274386381,0.0,0.0722742381441,0.0,8.3568828501e-05,0.0,0.0,0.0,0.0,50.0,-0.0,-15.24,0.00230154196664,0.0,0.00230154196664,0.0,-0.0,50.0,-0.0,0.0,253628.8,0.0,0.0,0.0,0.0,0.0,0.0
1402752439925048230,3,-9.82143516122,-0.00591572024346,5.08874447063,-0.122189614607,2.5664408509,0.10862951003,-0.007272864043,0.0,-0.00383120984394,0.0,0.0792331789843,0.0,-1.0247193416,0.0,0.000883133053784,0.0,-0.00170323102673,0.0,-0.00773274386381,0.0,0.0722742381441,0.0,8.3568828501e-05,0.0,0.0,0.0,0.0,50.0,-0.0,-15.24,0.00230154196664,0.0,0.00230154196664,0.0,-0.0,50.0,-0.0,0.0,253628.8,0.0,0.0,0.0,0.0,0.0,0.0
1402752439944985207,3,-9.82161584464,-0.00591572024346,5.08350458234,-0.122189614607,2.57036705228,0.10862951003,-0.0105064569436,0.0,-0.0185454562164,0.0,0.0810056670437,0.0,-1.02487671385,0.0,-0.00330492171855,0.0,-0.000191083542761,0.0,-0.00270989959459,0.0,0.0731872426796,0.0,-0.00350395671526,0.0,0.0,0.0,0.0,50.0,-0.0,-15.24,0.00230154196664,0.0,0.00230154196664,0.0,-0.0,50.0,-0.0,0.0,253628.8,0.0,0.0,0.0,0.0,0.0,0.0
1402752439965064324,3,-9.82161584464,-0.00591572024346,5.08350458234,-0.122189614607,2.57036705228,0.10862951003,-0.0105064569436,0.0,-0.0185454562164,0.0,0.0810056670437,0.0,-1.02487671385,0.0,-0.00330492171855,0.0,-0.000191083542761,0.0,-0.00270989959459,0.0,0.0731872426796,0.0,-0.00350395671526,0.0,0.0,0.0,0.0,50.0,-0.0,-15.24,0.00230154196664,0.0,0.00230154196664,0.0,-0.0,50.0,-0.0,0.0,253628.8,0.0,0.0,0.0,0.0,0.0,0.0
1402752439985414473,3,-9.82252851122,-0.00591572024346,5.08953474344,-0.122189614607,2.56240972538,0.10862951003,-0.0140551054335,0.0,-0.0124535230331,0.0,0.0777583493895,0.0,-1.02510554206,0.0,-0.00484241515631,0.0,0.000146656662598,0.0,-0.00310290494925,0.0,0.0722475686075,0.0,-0.00711275246499,0.0,0.0,0.0,0.0,50.0,-0.0,-15.24,0.00230154196664,0.0,0.00230154196664,0.0,-0.0,50.0,-0.0,0.0,253628.8,0.0,0.0,0.0,0.0,0.0,0.0
1402752440004984190,3,-9.82252851122,-0.00591572024346,5.08953474344,-0.122189614607,2.56240972538,0.10862951003,-0.0140551054335,0.0,-0.0124535230331,0.0,0.0777583493895,0.0,-1.02510554206,0.0,-0.00484241515631,0.0,0.000146656662598,0.0,-0.00310290494925,0.0,0.0722475686075,0.0,-0.00711275246499,0.0,0.0,0.0,0.0,50.0,-0.0,-15.24,0.00230154196664,0.0,0.00230154196664,0.0,-0.0,50.0,-0.0,0.0,253628.8,0.0,0.0,0.0,0.0,0.0,0.0
1402752440024924686,3,-9.82101525665,-0.00591572024346,5.09228404583,-0.122189614607,2.56792323575,0.10862951003,-0.0164117028218,0.0,-0.00993038135794,0.0,0.0799815662618,0.0,-1.02525497534,0.0,-0.000327177640605,0.0,0.000463420815533,0.0,0.00538754794994,0.0,0.0715829240859,0.0,-0.0168479178079,0.0,0.0,0.0,0.0,50.0,-0.0,-15.24,0.00230154196664,0.0,0.00230154196664,0.0,-0.0,50.0,-0.0,0.0,253628.8,0.0,0.0,0.0,0.0,0.0,0.0
1402752440045071911,3,-9.82101525665,-0.00591572024346,5.09228404583,-0.122189614607,2.56792323575,0.10862951003,-0.0164117028218,0.0,-0.00993038135794,0.0,0.0799815662618,0.0,-1.02525497534,0.0,-0.000327177640605,0.0,0.000463420815533,0.0,0.00538754794994,0.0,0.0715829240859,0.0,-0.0168479178079,0.0,0.0,0.0,0.0,50.0,-0.0,-15.24,0.00230154196664,0.0,0.00230154196664,0.0,-0.0,50.0,-0.0,0.0,253628.8,0.0,0.0,0.0,0.0,0.0,0.0
1402752440065106421,3,-9.82162104064,-0.00591572024346,5.09192493357,-0.122189614607,2.57122453506,0.10862951003,-0.0152588336843,0.0,-0.00997595221947,0.0,0.0814476864104,0.0,-1.02543058725,0.0,0.00117232192205,0.0,0.000667391805021,0.0,0.000246720479584,0.0,0.0715032007367,0.0,-0.00454950734193,0.0,0.0,0.0,0.0,50.0,-0.0,-15.24,0.00230154196664,0.0,0.00230154196664,0.0,-0.0,50.0,-0.0,0.0,253628.8,0.0,0.0,0.0,0.0,0.0,0.0
1402752440085905544,3,-9.82162104064,-0.00591572024346,5.09192493357,-0.122189614607,2.57122453506,0.10862951003,-0.0152588336843,0.0,-0.00997595221947,0.0,0.0814476864104,0.0,-1.02543058725,0.0,0.00117232192205,0.0,0.000667391805021,0.0,0.000246720479584,0.0,0.0715032007367,0.0,-0.00454950734193,0.0,0.0,0.0,0.0,50.0,-0.0,-15.24,0.00230154196664,0.0,0.00230154196664,0.0,-0.0,50.0,-0.0,0.0,253628.8,0.0,0.0,0.0,0.0,0.0,0.0
1402752440105078088,3,-9.8150984979,-0.00591572024346,5.0946701441,-0.122189614607,2.57131482269,0.10862951003,-0.00193970202349,0.0,-0.00887343949708,0.0,0.0819230696824,0.0,-1.02561666733,0.0,-0.00455605523598,0.0,-0.000292729499325,0.0,0.00149385901738,0.0,0.0721505929646,0.0,-0.00149472638807,0.0,0.0,0.0,0.0,50.0,-0.0,-15.24,0.00230154196664,0.0,0.00230154196664,0.0,-0.0,50.0,-0.0,0.0,253628.8,0.0,0.0,0.0,0.0,0.0,0.0
1402752440125119601,3,-9.8150984979,-0.00591572024346,5.0946701441,-0.122189614607,2.57131482269,0.10862951003,-0.00193970202349,0.0,-0.00887343949708,0.0,0.0819230696824,0.0,-1.02561666733,0.0,-0.00455605523598,0.0,-0.000292729499325,0.0,0.00149385901738,0.0,0.0721505929646,0.0,-0.00149472638807,0.0,0.0,0.0,0.0,50.0,-0.0,-15.24,0.00230154196664,0.0,0.00230154196664,0.0,-0.0,50.0,-0.0,0.0,253628.8,0.0,0.0,0.0,0.0,0.0,0.0
1402752440145231825,3,-9.8121116341,-0.00591572024346,5.09419352213,-0.122189614607,2.56947101747,0.10862951003,0.00213069627523,0.0,-0.0169855942894,0.0,0.0830486595726,0.0,-1.02589318944,0.0,-0.00528930250999,0.0,2.40247833417e-06,0.0,0.00967119307111,0.0,0.0731571216131,0.0,-0.0011324748771,0.0,0.0,0.0,0.0,50.0,-0.0,-15.24,0.00230154196664,0.0,0.00230154196664,0.0,-0.0,50.0,-0.0,0.0,253628.8,0.0,0.0,0.0,0.0,0.0,0.0
1402752440164772448,3,-9.8121116341,-0.00591572024346,5.09419352213,-0.122189614607,2.56947101747,0.10862951003,0.00213069627523,0.0,-0.0169855942894,0.0,0.0830486595726,0.0,-1.02589318944,0.0,-0.00528930250999,0.0,2.40247833417e-06,0.0,0.00967119307111,0.0,0.0731571216131,0.0,-0.0011324748771,0.0,0.0,0.0,0.0,50.0,-0.0,-15.24,0.00230154196664,0.0,0.00230154196664,0.0,-0.0,50.0,-0.0,0.0,253628.8,0.0,0.0,0.0,0.0,0.0,0.0
1402752440184789766,3,-9.81482520913,-0.00591572024346,5.09730444813,-0.122189614607,2.56668001187,0.10862951003,-0.00741654340194,0.0,-0.015401377298,0.0,0.082414197326,0.0,-1.02624767492,0.0,-0.00848434543815,0.0,0.000984799125741,0.0,0.00372182311307,0.0,0.0724789799472,0.0,0.00251829438929,0.0,0.0,0.0,0.0,50.0,-0.0,-15.24,0.00230154196664,0.0,0.00230154196664,0.0,-0.0,50.0,-0.0,0.0,253628.8,0.0,0.0,0.0,0.0,0.0,0.0
1402752440205693672,3,-9.81482520913,-0.00591572024346,5.09730444813,-0.122189614607,2.56668001187,0.10862951003,-0.00741654340194,0.0,-0.015401377298,0.0,0.082414197326,0.0,-1.02624767492,0.0,-0.00848434543815,0.0,0.000984799125741,0.0,0.00372182311307,0.0,0.0724789799472,0.0,0.00251829438929,0.0,0.0,0.0,0.0,50.0,-0.0,-15.24,0.00230154196664,0.0,0.00230154196664,0.0,-0.0,50.0,-0.0,0.0,253628.8,0.0,0.0,0.0,0.0,0.0,0.0
1402752440224919944,3,-9.81403503138,-0.00591572024346,5.10180441249,-0.122189614607,2.56144326505,0.10862951003,-0.00804723733223,0.0,-0.0144063730087,0.0,0.0820254461998,0.0,-1.02654714384,0.0,-0.00388844506563,0.0,0.00100370599562,0.0,0.00294015959323,0.0,0.0724157065184,0.0,0.00294781059757,0.0,0.0,0.0,0.0,50.0,-0.0,-15.24,0.00230154196664,0.0,0.00230154196664,0.0,-0.0,50.0,-0.0,0.0,253628.8,0.0,0.0,0.0,0.0,0.0,0.0
1402752440245014287,3,-9.81403503138,-0.00591572024346,5.10180441249,-0.122189614607,2.56144326505,0.10862951003,-0.00804723733223,0.0,-0.0144063730087,0.0,0.0820254461998,0.0,-1.02654714384,0.0,-0.00388844506563,0.0,0.00100370599562,0.0,0.00294015959323,0.0,0.0724157065184,0.0,0.00294781059757,0.0,0.0,0.0,0.0,50.0,-0.0,-15.24,0.00230154196664,0.0,0.00230154196664,0.0,-0.0,50.0,-0.0,0.0,253628.8,0.0,0.0,0.0,0.0,0.0,0.0
1402752440265030711,3,-9.81078916423,-0.00591572024346,5.10326782614,-0.122189614607,2.55986673182,0.10862951003,-0.00424333979108,0.0,-0.0173042081699,0.0,0.0819318621028,0.0,-1.02662176617,0.0,0.00287346435855,0.0,0.000627199496946,0.0,-0.00548099508337,0.0,0.0729926161939,0.0,0.0121622112826,0.0,0.0,0.0,0.0,50.0,-0.0,-15.24,0.00230154196664,0.0,0.00230154196664,0.0,-0.0,50.0,-0.0,0.0,253628.8,0.0,0.0,0.0,0.0,0.0,0.0
1402752440284862939,3,-9.81094422709,-0.00591572024346,5.10294023535,-0.122189614607,2.56153069585,0.10862951003,-0.00488661810268,0.0,-0.018104835149,0.0,0.0826508647364,0.0,-1.02671090931,0.0,0.000100642560597,0.0,0.000571647696638,0.0,-0.00100551140667,0.0,0.0730382536126,0.0,0.00242228283401,0.0,0.0,0.0,0.0,50.0,-0.0,-15.24,0.00230154196664,0.0,0.00230154196664,0.0,-0.0,50.0,-0.0,0.0,253628.8,0.0,0.0,0.0,0.0,0.0,0.0
1402752440305063273,3,-9.81094422709,-0.00591572024346,5.10294023535,-0.122189614607,2.56153069585,0.10862951003,-0.00488661810268,0.0,-0.018104835149,0.0,0.0826508647364,0.0,-1.02671090931,0.0,0.000100642560597,0.0,0.000571647696638,0.0,-0.00100551140667,0.0,0.0730382536126,0.0,0.00242228283401,0.0,0.0,0.0,0.0,50.0,-0.0,-15.24,0.00230154196664,0.0,0.00230154196664,0.0,-0.0,50.0,-0.0,0.0,253628.8,0.0,0.0,0.0,0.0,0.0,0.0
1402752440325605889,3,-9.80635336544,-0.00591572024346,5.10641461194,-0.122189614607,2.5652512627,0.10862951003,0.000659019255932,0.0,-0.013567757073,0.0,0.0852722977729,0.0,-1.02682873308,0.0,-0.00293533429152,0.0,-0.000244655776032,0.0,-0.00130972378415,0.0,0.0728918362749,0.0,0.0103929365847,0.0,0.0,0.0,0.0,50.0,-0.0,-15.24,0.00230154196664,0.0,0.00230154196664,0.0,-0.0,50.0,-0.0,0.0,253628.8,0.0,0.0,0.0,0.0,0.0,0.0
1402752440344871598,3,-9.80635336544,-0.00591572024346,5.10641461194,-0.122189614607,2.5652512627,0.10862951003,0.000659019255932,0.0,-0.013567757073,0.0,0.0852722977729,0.0,-1.02682873308,0.0,-0.00293533429152,0.0,-0.000244655776032,0.0,-0.00130972378415,0.0,0.0728918362749,0.0,0.0103929365847,0.0,0.0,0.0,0.0,50.0,-0.0,-15.24,0.00230154196664,0.0,0.00230154196664,0.0,-0.0,50.0,-0.0,0.0,253628.8,0.0,0.0,0.0,0.0,0.0,0.0
1402752440364991976,3,-9.80644499064,-0.00591572024346,5.10586736394,-0.122189614607,2.5688409747,0.10862951003,0.000136939421041,0.0,-0.0145128531616,0.0,0.0867597046551,0.0,-1.02694534134,0.0,-0.00520936637171,0.0,-0.00043038185156,0.0,0.00183375532099,0.0,0.0730227474832,0.0,0.000711377114438,0.0,0.0,0.0,0.0,50.0,-0.0,-15.24,0.00230154196664,0.0,0.00230154196664,0.0,-0.0,50.0,-0.0,0.0,253628.8,0.0,0.0,0.0,0.0,0.0,0.0
1402752440385011025,3,-9.80644499064,-0.00591572024346,5.10586736394,-0.122189614607,2.5688409747,0.10862951003,0.000136939421041,0.0,-0.0145128531616,0.0,0.0867597046551,0.0,-1.02694534134,0.0,-0.00520936637171,0.0,-0.00043038185156,0.0,0.00183375532099,0.0,0.0730227474832,0.0,0.000711377114438,0.0,0.0,0.0,0.0,50.0,-0.0,-15.24,0.00230154196664,0.0,0.00230154196664,0.0,-0.0,50.0,-0.0,0.0,253628.8,0.0,0.0,0.0,0.0,0.0,0.0
1402752440405305207,3,-9.81156649073,-0.00591572024346,5.10442968402,-0.122189614607,2.56427093361,0.10862951003,-0.0154596380033,0.0,-0.024168374651,0.0,0.0860922236077,0.0,-1.02708605557,0.0,-0.00229234261956,0.0,0.00142755085293,0.0,-0.00461435138751,0.0,0.0730096850102,0.0,0.00626639314473,0.0,0.0,0.0,0.0,50.0,-0.0,-15.24,0.00230154196664,0.0,0.00230154196664,0.0,-0.0,50.0,-0.0,0.0,253628.8,0.0,0.0,0.0,0.0,0.0,0.0
1402752440425024548,3,-9.81156649073,-0.00591572024346,5.10442968402,-0.122189614607,2.56427093361,0.10862951003,-0.0154596380033,0.0,-0.024168374651,0.0,0.0860922236077,0.0,-1.02708605557,0.0,-0.00229234261956,0.0,0.00142755085293,0.0,-0.00461435138751,0.0,0.0730096850102,0.0,0.00626639314473,0.0,0.0,0.0,0.0,50.0,-0.0,-15.24,0.00230154196664,0.0,0.00230154196664,0.0,-0.0,50.0,-0.0,0.0,253628.8,0.0,0.0,0.0,0.0,0.0,0.0
1402752440445456673,3,-9.80477210696,-0.00591572024346,5.10445112166,-0.122189614607,2.56875615735,0.10862951003,-0.00309277301237,0.0,-0.0267994733706,0.0,0.0881517284566,0.0,-1.02746059965,0.0,-0.00615226611058,0.0,-6.2327411651e-05,0.0,-0.00374982719592,0.0,0.0738687866768,0.0,0.00867938665195,0.0,0.0,0.0,0.0,50.0,-0.0,-15.24,0.00230154196664,0.0,0.00230154196664,0.0,-0.0,50.0,-0.0,0.0,253628.8,0.0,0.0,0.0,0.0,0.0,0.0
1402752440465026477,3,-9.80477210696,-0.00591572024346,5.10445112166,-0.122189614607,2.56875615735,0.10862951003,-0.00309277301237,0.0,-0.0267994733706,0.0,0.0881517284566,0.0,-1.02746059965,0.0,-0.00615226611058,0.0,-6.2327411651e-05,0.0,-0.00374982719592,0.0,0.0738687866768,0.0,0.00867938665195,0.0,0.0,0.0,0.0,50.0,-0.0,-15.24,0.00230154196664,0.0,0.00230154196664,0.0,-0.0,50.0,-0.0,0.0,253628.8,0.0,0.0,0.0,0.0,0.0,0.0
1402752440485157731,3,-9.80306555666,-0.00591572024346,5.11039127042,-0.122189614607,2.56573715106,0.10862951003,-0.00386806113346,0.0,-0.0195539502325,0.0,0.0871268203282,0.0,-1.02780937123,0.0,-0.00236129388914,0.0,-0.000701136468218,0.0,-0.00170720364403,0.0,0.0730360087847,0.0,0.00337290171208,0.0,0.0,0.0,0.0,50.0,-0.0,-15.24,0.00230154196664,0.0,0.00230154196664,0.0,-0.0,50.0,-0.0,0.0,253628.8,0.0,0.0,0.0,0.0,0.0,0.0
1402752440505028306,3,-9.80306555666,-0.00591572024346,5.11039127042,-0.122189614607,2.56573715106,0.10862951003,-0.00386806113346,0.0,-0.0195539502325,0.0,0.0871268203282,0.0,-1.02780937123,0.0,-0.00236129388914,0.0,-0.000701136468218,0.0,-0.00170720364403,0.0,0.0730360087847,0.0,0.00337290171208,0.0,0.0,0.0,0.0,50.0,-0.0,-15.24,0.00230154196664,0.0,0.00230154196664,0.0,-0.0,50.0,-0.0,0.0,253628.8,0.0,0.0,0.0,0.0,0.0,0.0
1402752440525780869,3,-9.80328998497,-0.00591572024346,5.10947931311,-0.122189614607,2.57006947375,0.10862951003,-0.00353997889285,0.0,-0.0184152021151,0.0,0.087018816372,0.0,-1.02828617636,0.0,-0.00512770794343,0.0,-0.000950999184706,0.0,-0.0104305697184,0.0,0.0728017380353,0.0,0.0015814423915,0.0,0.0,0.0,0.0,50.0,-0.0,-15.24,0.00230154196664,0.0,0.00230154196664,0.0,-0.0,50.0,-0.0,0.0,253628.8,0.0,0.0,0.0,0.0,0.0,0.0
1402752440545034522,3,-9.80328998497,-0.00591572024346,5.10947931311,-0.122189614607,2.57006947375,0.10862951003,-0.00353997889285,0.0,-0.0184152021151,0.0,0.087018816372,0.0,-1.02828617636,0.0,-0.00512770794343,0.0,-0.000950999184706,0.0,-0.0104305697184,0.0,0.0728017380353,0.0,0.0015814423915,0.0,0.0,0.0,0.0,50.0,-0.0,-15.24,0.00230154196664,0.0,0.00230154196664,0.0,-0.0,50.0,-0.0,0.0,253628.8,0.0,0.0,0.0,0.0,0.0,0.0
1402752440565017174,3,-9.80282591161,-0.00591572024346,5.10810711332,-0.122189614607,2.573889217,0.10862951003,-0.00826298826152,0.0,-0.0245790422004,0.0,0.0877906842105,0.0,-1.02853103854,0.0,-0.0093287922815,0.0,-0.000292338337175,0.0,-0.0102962132611,0.0,0.0728847073974,0.0,8.29123623165e-05,0.0,0.0,0.0,0.0,50.0,-0.0,-15.24,0.00230154196664,0.0,0.00230154196664,0.0,-0.0,50.0,-0.0,0.0,253628.8,0.0,0.0,0.0,0.0,0.0,0.0
1402752440585098164,3,-9.80282591161,-0.00591572024346,5.10810711332,-0.122189614607,2.573889217,0.10862951003,-0.00826298826152,0.0,-0.0245790422004,0.0,0.0877906842105,0.0,-1.02853103854,0.0,-0.0093287922815,0.0,-0.000292338337175,0.0,-0.0102962132611,0.0,0.0728847073974,0.0,8.29123623165e-05,0.0,0.0,0.0,0.0,50.0,-0.0,-15.24,0.00230154196664,0.0,0.00230154196664,0.0,-0.0,50.0,-0.0,0.0,253628.8,0.0,0.0,0.0,0.0,0.0,0.0
1402752440605070713,3,-9.79889413814,-0.00591572024346,5.1193085659,-0.122189614607,2.56509251587,0.10862951003,-0.0030181320995,0.0,-0.0099311248089,0.0,0.0848095017252,0.0,-1.02874908507,0.0,0.00193338399656,0.0,-0.00209271779211,0.0,-0.00964547262836,0.0,0.0715916973784,0.0,0.0071478223868,0.0,0.0,0.0,0.0,50.0,-0.0,-15.24,0.00230154196664,0.0,0.00230154196664,0.0,-0.0,50.0,-0.0,0.0,253628.8,0.0,0.0,0.0,0.0,0.0,0.0
1402752440625145891,3,-9.79889413814,-0.00591572024346,5.1193085659,-0.122189614607,2.56509251587,0.10862951003,-0.0030181320995,0.0,-0.0099311248089,0.0,0.0848095017252,0.0,-1.02874908507,0.0,0.00193338399656,0.0,-0.00209271779211,0.0,-0.00964547262836,0.0,0.0715916973784,0.0,0.0071478223868,0.0,0.0,0.0,0.0,50.0,-0.0,-15.24,0.00230154196664,0.0,0.00230154196664,0.0,-0.0,50.0,-0.0,0.0,253628.8,0.0,0.0,0.0,0.0,0.0,0.0
1402752440645415690,3,-9.80110802798,-0.00591572024346,5.12070692755,-0.122189614607,2.55385670569,0.10862951003,-0.0106764982728,0.0,-0.0177378066926,0.0,0.0803053317812,0.0,-1.02889560552,0.0,-0.00296776355571,0.0,-0.00126409751332,0.0,-0.00675321580698,0.0,0.0715926320532,0.0,0.00490398463433,0.0,0.0,0.0,0.0,50.0,-0.0,-15.24,0.00230154196664,0.0,0.00230154196664,0.0,-0.0,50.0,-0.0,0.0,253628.8,0.0,0.0,0.0,0.0,0.0,0.0
1402752440665090280,3,-9.80110802798,-0.00591572024346,5.12070692755,-0.122189614607,2.55385670569,0.10862951003,-0.0106764982728,0.0,-0.0177378066926,0.0,0.0803053317812,0.0,-1.02889560552,0.0,-0.00296776355571,0.0,-0.00126409751332,0.0,-0.00675321580698,0.0,0.0715926320532,0.0,0.00490398463433,0.0,0.0,0.0,0.0,50.0,-0.0,-15.24,0.00230154196664,0.0,0.00230154196664,0.0,-0.0,50.0,-0.0,0.0,253628.8,0.0,0.0,0.0,0.0,0.0,0.0
1402752440685709507,3,-9.79891906323,-0.00591572024346,5.12751610881,-0.122189614607,2.5575223499,0.10862951003,-0.0119354653126,0.0,-0.00495410286126,0.0,0.0800546911239,0.0,-1.02918577132,0.0,-0.00385513903945,0.0,-0.00220236887511,0.0,-0.0108473811854,0.0,0.0700146480547,0.0,-0.00136745617568,0.0,0.0,0.0,0.0,50.0,-0.0,-15.24,0.00230154196664,0.0,0.00230154196664,0.0,-0.0,50.0,-0.0,0.0,253628.8,0.0,0.0,0.0,0.0,0.0,0.0
1402752440705128751,3,-9.79891906323,-0.00591572024346,5.12751610881,-0.122189614607,2.5575223499,0.10862951003,-0.0119354653126,0.0,-0.00495410286126,0.0,0.0800546911239,0.0,-1.02918577132,0.0,-0.00385513903945,0.0,-0.00220236887511,0.0,-0.0108473811854,0.0,0.0700146480547,0.0,-0.00136745617568,0.0,0.0,0.0,0.0,50.0,-0.0,-15.24,0.00230154196664,0.0,0.00230154196664,0.0,-0.0,50.0,-0.0,0.0,253628.8,0.0,0.0,0.0,0.0,0.0,0.0
1402752440725097464,3,-9.79927942971,-0.00591572024346,5.12566644224,-0.122189614607,2.54645503199,0.10862951003,-0.0136753012671,0.0,-0.0195790454281,0.0,0.0753125549408,0.0,-1.02927161971,0.0,-0.00422715015376,0.0,-0.00141684065304,0.0,-0.00844332866205,0.0,0.0710897658775,0.0,0.00321553647858,0.0,0.0,0.0,0.0,50.0,-0.0,-15.24,0.00230154196664,0.0,0.00230154196664,0.0,-0.0,50.0,-0.0,0.0,253628.8,0.0,0.0,0.0,0.0,0.0,0.0
1402752440745459922,3,-9.79927942971,-0.00591572024346,5.12566644224,-0.122189614607,2.54645503199,0.10862951003,-0.0136753012671,0.0,-0.0195790454281,0.0,0.0753125549408,0.0,-1.02927161971,0.0,-0.00422715015376,0.0,-0.00141684065304,0.0,-0.00844332866205,0.0,0.0710897658775,0.0,0.00321553647858,0.0,0.0,0.0,0.0,50.0,-0.0,-15.24,0.00230154196664,0.0,0.00230154196664,0.0,-0.0,50.0,-0.0,0.0,253628.8,0.0,0.0,0.0,0.0,0.0,0.0
1402752440765227953,3,-9.79395180021,-0.00591572024346,5.12799525703,-0.122189614607,2.55151072203,0.10862951003,-0.00729618584696,0.0,-0.0182866486676,0.0,0.0769264278906,0.0,-1.02953875525,0.0,0.000830630300168,0.0,-0.00249099889351,0.0,-0.00177964168613,0.0,0.0710132325818,0.0,-0.000559951920393,0.0,0.0,0.0,0.0,50.0,-0.0,-15.24,0.00230154196664,0.0,0.00230154196664,0.0,-0.0,50.0,-0.0,0.0,253628.8,0.0,0.0,0.0,0.0,0.0,0.0
1402752440785037909,3,-9.79395180021,-0.00591572024346,5.12799525703,-0.122189614607,2.55151072203,0.10862951003,-0.00729618584696,0.0,-0.0182866486676,0.0,0.0769264278906,0.0,-1.02953875525,0.0,0.000830630300168,0.0,-0.00249099889351,0.0,-0.00177964168613,0.0,0.0710132325818,0.0,-0.000559951920393,0.0,0.0,0.0,0.0,50.0,-0.0,-15.24,0.00230154196664,0.0,0.00230154196664,0.0,-0.0,50.0,-0.0,0.0,253628.8,0.0,0.0,0.0,0.0,0.0,0.0
1402752440805169194,3,-9.79411170275,-0.00591572024346,5.12745108047,-0.122189614607,2.55388348675,0.10862951003,-0.00734219564537,0.0,-0.0183283204732,0.0,0.0775138238635,0.0,-1.02968532508,0.0,-0.00331385478127,0.0,-0.00238561428292,0.0,0.00275629176426,0.0,0.0709152979944,0.0,-0.0076955772336,0.0,0.0,0.0,0.0,50.0,-0.0,-15.24,0.00230154196664,0.0,0.00230154196664,0.0,-0.0,50.0,-0.0,0.0,253628.8,0.0,0.0,0.0,0.0,0.0,0.0
1402752440825071456,3,-9.79548208634,-0.00591572024346,5.12881065199,-0.122189614607,2.54334412863,0.10862951003,-0.0132442195502,0.0,-0.0256013653476,0.0,0.0734161589336,0.0,-1.02976556948,0.0,-0.00565862873259,0.0,-0.00130910175307,0.0,0.00304267138707,0.0,0.0712979417841,0.0,-0.00409871632193,0.0,0.0,0.0,0.0,50.0,-0.0,-15.24,0.00230154196664,0.0,0.00230154196664,0.0,-0.0,50.0,-0.0,0.0,253628.8,0.0,0.0,0.0,0.0,0.0,0.0
1402752440845356153,3,-9.79548208634,-0.00591572024346,5.12881065199,-0.122189614607,2.54334412863,0.10862951003,-0.0132442195502,0.0,-0.0256013653476,0.0,0.0734161589336,0.0,-1.02976556948,0.0,-0.00565862873259,0.0,-0.00130910175307,0.0,0.00304267138707,0.0,0.0712979417841,0.0,-0.00409871632193,0.0,0.0,0.0,0.0,50.0,-0.0,-15.24,0.00230154196664,0.0,0.00230154196664,0.0,-0.0,50.0,-0.0,0.0,253628.8,0.0,0.0,0.0,0.0,0.0,0.0
1402752440865072840,3,-9.79576849209,-0.00591572024346,5.12835196783,-0.122189614607,2.54473777307,0.10862951003,-0.0136660492106,0.0,-0.0258644645458,0.0,0.0749022957843,0.0,-1.02988824511,0.0,-0.00591587213971,0.0,-0.0011598018489,0.0,0.00321068253621,0.0,0.0712912652189,0.0,-0.0082390594218,0.0,0.0,0.0,0.0,50.0,-0.0,-15.24,0.00230154196664,0.0,0.00230154196664,0.0,-0.0,50.0,-0.0,0.0,253628.8,0.0,0.0,0.0,0.0,0.0,0.0
1402752440885194181,3,-9.79576849209,-0.00591572024346,5.12835196783,-0.122189614607,2.54473777307,0.10862951003,-0.0136660492106,0.0,-0.0258644645458,0.0,0.0749022957843,0.0,-1.02988824511,0.0,-0.00591587213971,0.0,-0.0011598018489,0.0,0.00321068253621,0.0,0.0712912652189,0.0,-0.0082390594218,0.0,0.0,0.0,0.0,50.0,-0.0,-15.24,0.00230154196664,0.0,0.00230154196664,0.0,-0.0,50.0,-0.0,0.0,253628.8,0.0,0.0,0.0,0.0,0.0,0.0
1402752440905808435,3,-9.79646766804,-0.00591572024346,5.13517018279,-0.122189614607,2.54233546381,0.10862951003,-0.0190804185824,0.0,-0.0155534959661,0.0,0.0752742163735,0.0,-1.03019991308,0.0,-0.00813933846057,0.0,-0.000825064733217,0.0,0.00846921010468,0.0,0.06996631408,0.0,-0.0034880948028,0.0,0.0,0.0,0.0,50.0,-0.0,-15.24,0.00230154196664,0.0,0.00230154196664,0.0,-0.0,50.0,-0.0,0.0,253628.8,0.0,0.0,0.0,0.0,0.0,0.0
1402752440925052443,3,-9.79646766804,-0.00591572024346,5.13517018279,-0.122189614607,2.54233546381,0.10862951003,-0.0190804185824,0.0,-0.0155534959661,0.0,0.0752742163735,0.0,-1.03019991308,0.0,-0.00813933846057,0.0,-0.000825064733217,0.0,0.00846921010468,0.0,0.06996631408,0.0,-0.0034880948028,0.0,0.0,0.0,0.0,50.0,-0.0,-15.24,0.00230154196664,0.0,0.00230154196664,0.0,-0.0,50.0,-0.0,0.0,253628.8,0.0,0.0,0.0,0.0,0.0,0.0
