rosbagTimestamp,header,seq,stamp,secs,nsecs,frame_id,child_frame_id,pose,pose,position,x,y,z,orientation,x,y,z,w,covariance,twist,twist,linear,x,y,z,angular,x,y,z,covariance
1402416515091510347,,250947,,1402416515,58897018,/enu,/base_link,,,,9.25719309837,11.5097222136,-30.0242960999,,0.00165885862016,0.00431360409449,-0.565473677838,0.824753393858,"[0.030351012638741383, -0.0024544943554133877, -0.010932487431702356, 5.0005151914309e-06, 1.6076012097251673e-06, 2.0452693537536587e-05, -0.0024544943554133877, 0.03365487408249329, -1.0904780225484393e-05, -2.1984816279321764e-06, -3.2911344445959683e-06, -4.368581510148634e-06, -0.010932487431702356, -1.0904780225484393e-05, 0.2259381468150414, -4.729563289789016e-06, -1.933007911331962e-06, -2.278410592345232e-05, 5.0005151914309e-06, -2.1984816279321764e-06, -4.729563289789016e-06, 5.066046945510062e-06, -3.5062258543466285e-07, -1.1440221772566521e-07, 1.6076012097251673e-06, -3.2911344445959683e-06, -1.933007911331962e-06, -3.5062258543466285e-07, 5.5770954235936205e-06, 1.4479556161938688e-06, 2.0452693537536587e-05, -4.368581510148634e-06, -2.278410592345232e-05, -1.1440221772566521e-07, 1.4479556161938688e-06, 8.783057344860516e-05]",,,,-1.01005601775,-0.189654597219,-0.244707804046,,-0.0179004652643,0.0107948652058,-0.12531906103,"[0.00033593102305856177, -3.0023146541650275e-05, -2.5678716471539802e-05, 1.7602268821944194e-09, 1.3815845575115403e-08, -5.147290730779984e-09, -3.0023146541650275e-05, 0.0006385950995273603, -8.742266922616265e-05, -2.0318545141685612e-08, -3.943923836657376e-10, 4.5780223762029e-08, -2.5678716471539802e-05, -8.742266922616265e-05, 0.00021656024196965734, 7.092269915468107e-10, -3.964718496351692e-09, 1.4316064699821137e-10, 1.7602268821944194e-09, -2.0318545141685612e-08, 7.092269915468107e-10, 2.0074936359337056e-09, 3.813796415674921e-12, 9.982269192208936e-12, 1.3815845575115403e-08, -3.943923836657376e-10, -3.964718496351692e-09, 3.813796415674921e-12, 1.9873552049284237e-09, -2.0904366452757213e-13, -5.147290730779984e-09, 4.5780223762029e-08, 1.4316064699821137e-10, 9.982269192208936e-12, -2.0904366452757213e-13, 1.9967009352737394e-09]"
1402416515091539682,,250948,,1402416515,69886922,/enu,/base_link,,,,9.25114861342,11.5192954337,-30.0267255901,,0.0016233014756,0.00442365901224,-0.566006672606,0.824387192222,"[0.03036017335016438, -0.002452065255284348, -0.010940283239305171, 4.964069803762859e-06, 1.9987238779425496e-06, 2.0529372176173902e-05, -0.002452065255284348, 0.03366037963227375, -1.5323506420955354e-05, -2.5267607926732427e-06, -3.250628041041944e-06, -4.404036633539867e-06, -0.010940283239305171, -1.5323506420955354e-05, 0.22596107460732878, -4.730155096498523e-06, -1.9474305965504492e-06, -2.2772165688488423e-05, 4.964069803762859e-06, -2.5267607926732427e-06, -4.730155096498523e-06, 5.114269358662446e-06, -3.5060894785914587e-07, -1.1427793299765451e-07, 1.9987238779425496e-06, -3.250628041041944e-06, -1.9474305965504492e-06, -3.5060894785914587e-07, 5.625297504486179e-06, 1.446555560128729e-06, 2.0529372176173902e-05, -4.404036633539867e-06, -2.2772165688488423e-05, -1.1427793299765451e-07, 1.446555560128729e-06, 8.78678448667431e-05]",,,,-1.01149459975,-0.189889932516,-0.237271549246,,-0.0158019601898,0.0131142673055,-0.120348898065,"[0.0003426771640457633, -3.052820051782366e-05, -2.6115739904954756e-05, 1.8058564470529442e-09, 1.406981984360585e-08, -5.1871175388678825e-09, -3.052820051782366e-05, 0.0006475067255281429, -8.760733076496925e-05, -2.0617634856171313e-08, -3.634941830872698e-10, 4.584139831362903e-08, -2.6115739904954756e-05, -8.760733076496925e-05, 0.00021699673212809977, 7.097905479522597e-10, -3.982618382135908e-09, 1.513542413413796e-10, 1.8058564470529442e-09, -2.0617634856171313e-08, 7.097905479522597e-10, 2.0074935724265145e-09, 3.8137844589099005e-12, 9.982664988337746e-12, 1.406981984360585e-08, -3.634941830872698e-10, -3.982618382135908e-09, 3.8137844589099005e-12, 1.9873551785230844e-09, -2.090382203372837e-13, -5.1871175388678825e-09, 4.584139831362903e-08, 1.513542413413796e-10, 9.982664988337746e-12, -2.090382203372837e-13, 1.996698274497265e-09]"
1402416515091566829,,250949,,1402416515,79902887,/enu,/base_link,,,,9.2458027953,11.5281177548,-30.0291046233,,0.00157090381629,0.00448391422584,-0.566511813553,0.82403992129,"[0.030368553667410206, -0.002449842912175518, -0.010947346855084536, 4.9304921635070095e-06, 2.360598986097968e-06, 2.0598027147975198e-05, -0.002449842912175518, 0.03366548678380871, -1.9316393300944875e-05, -2.830940577823127e-06, -3.2133173704041833e-06, -4.4352224920144014e-06, -0.010947346855084536, -1.9316393300944875e-05, 0.2259817514657557, -4.730974481509296e-06, -1.9607753692202902e-06, -2.2760933840473905e-05, 4.9304921635070095e-06, -2.830940577823127e-06, -4.730974481509296e-06, 5.154301464009854e-06, -3.5059477578534653e-07, -1.1414574425684184e-07, 2.360598986097968e-06, -3.2133173704041833e-06, -1.9607753692202902e-06, -3.5059477578534653e-07, 5.665308906660545e-06, 1.4451430181402665e-06, 2.0598027147975198e-05, -4.4352224920144014e-06, -2.2760933840473905e-05, -1.1414574425684184e-07, 1.4451430181402665e-06, 8.789684279359869e-05]",,,,-1.01382523479,-0.18952723436,-0.237286320867,,-0.0144765896168,0.00427844542236,-0.125539928189,"[0.0003488906084600625, -3.1016352067308665e-05, -2.652205653639035e-05, 1.849140207101543e-09, 1.4302949210556417e-08, -5.225561360160208e-09, -3.1016352067308665e-05, 0.0006556972401462842, -8.777844319094961e-05, -2.08920259163968e-08, -3.3413722615510767e-10, 4.589588598983331e-08, -2.652205653639035e-05, -8.777844319094961e-05, 0.0002173617982608779, 7.103016366993588e-10, -4.000110944594904e-09, 1.5875412073978303e-10, 1.849140207101543e-09, -2.08920259163968e-08, 7.103016366993588e-10, 2.00749350816288e-09, 3.81377241990075e-12, 9.983062862061673e-12, 1.4302949210556417e-08, -3.3413722615510767e-10, -4.000110944594904e-09, 3.81377241990075e-12, 1.9873551515689306e-09, -2.0903341791435166e-13, -5.225561360160208e-09, 4.589588598983331e-08, 1.5875412073978303e-10, 9.983062862061673e-12, -2.0903341791435166e-13, 1.996695611153658e-09]"
1402416515091594687,,250950,,1402416515,89876890,/enu,/base_link,,,,9.22290758733,11.5305240488,-29.9817788535,,0.0013967090882,0.00401204216271,-0.566969393578,0.823727903781,"[0.030340153829866393, -0.0024602311815726213, -0.010926415830321798, 5.0450719405621305e-06, 8.854779883400149e-07, 2.0499883741154832e-05, -0.0024602311815726213, 0.033645359514946356, 3.2735430472564685e-06, -1.585177566207539e-06, -3.3375827336838838e-06, -4.706212243020016e-06, -0.010926415830321798, 3.2735430472564685e-06, 0.22590248384466327, -4.741298237281093e-06, -1.9394763300080325e-06, -2.2811552707713062e-05, 5.0450719405621305e-06, -1.585177566207539e-06, -4.741298237281093e-06, 4.981424329808064e-06, -3.4858091985143076e-07, -7.781986956815792e-08, 8.854779883400149e-07, -3.3375827336838838e-06, -1.9394763300080325e-06, -3.4858091985143076e-07, 5.490967063988511e-06, 1.419850004765332e-06, 2.0499883741154832e-05, -4.706212243020016e-06, -2.2811552707713062e-05, -7.781986956815792e-08, 1.419850004765332e-06, 8.791646048857884e-05]",,,,-1.02612941873,-0.195641351638,-0.224304627763,,-0.000118309254387,0.0123406065599,-0.126312989263,"[0.0003241846735338222, -3.032684759956329e-05, -2.537253262428729e-05, 1.7613993553580977e-09, 1.3328350345321176e-08, -5.350453663261435e-09, -3.032684759956329e-05, 0.0006230041286333172, -8.746974709039963e-05, -1.9722364037013536e-08, -3.9006773832735833e-10, 4.6306412069441915e-08, -2.537253262428729e-05, -8.746974709039963e-05, 0.00021643641787722035, 7.229682813048383e-10, -3.98052197560708e-09, 1.3565766753120544e-10, 1.7613993553580977e-09, -1.9722364037013536e-08, 7.229682813048383e-10, 2.007443976573402e-09, 3.813088276974357e-12, 9.989053222433431e-12, 1.3328350345321176e-08, -3.9006773832735833e-10, -3.98052197560708e-09, 3.813088276974357e-12, 1.987307896028758e-09, -2.0381820863286337e-13, -5.350453663261435e-09, 4.6306412069441915e-08, 1.3565766753120544e-10, 9.989053222433431e-12, -2.0381820863286337e-13, 1.9966917216518452e-09]"
1402416515102056267,,250951,,1402416515,100862979,/enu,/base_link,,,,9.21675187157,11.540289654,-29.9840316778,,0.00143268120254,0.00406363621721,-0.567524463545,0.823345260242,"[0.030349042993246183, -0.0024578104443354638, -0.010934288867800682, 5.0095811797649934e-06, 1.2645231110396964e-06, 2.0572366567648423e-05, -0.0024578104443354638, 0.03365070414167386, -1.1303747385487828e-06, -1.902449603094422e-06, -3.2980551495893105e-06, -4.744697914493504e-06, -0.010934288867800682, -1.1303747385487828e-06, 0.22592544332060804, -4.741815947062258e-06, -1.954148796311901e-06, -2.2799736046853868e-05, 5.0095811797649934e-06, -1.902449603094422e-06, -4.741815947062258e-06, 5.02961708538674e-06, -3.4856816120987264e-07, -7.770333733676881e-08, 1.2645231110396964e-06, -3.2980551495893105e-06, -1.954148796311901e-06, -3.4856816120987264e-07, 5.539140054683796e-06, 1.4184720946625405e-06, 2.0572366567648423e-05, -4.744697914493504e-06, -2.2799736046853868e-05, -7.770333733676881e-08, 1.4184720946625405e-06, 8.795369006249028e-05]",,,,-1.02829561062,-0.196444781624,-0.218361992931,,0.000765271274215,0.0116779194055,-0.124435368233,"[0.0003307034395020823, -3.084755100848538e-05, -2.5807288361864357e-05, 1.8074590859176482e-09, 1.3577672426030748e-08, -5.392873828733945e-09, -3.084755100848538e-05, 0.000631601549020742, -8.773783259346644e-05, -2.0016248968535104e-08, -3.5972357274594914e-10, 4.636601198878786e-08, -2.5807288361864357e-05, -8.773783259346644e-05, 0.00021690820235875755, 7.273547954218326e-10, -3.99921346409962e-09, 1.354288056409996e-10, 1.8074590859176482e-09, -2.0016248968535104e-08, 7.273547954218326e-10, 2.0074439147470126e-09, 3.8130765823386484e-12, 9.989444008858944e-12, 1.3577672426030748e-08, -3.5972357274594914e-10, -3.99921346409962e-09, 3.8130765823386484e-12, 1.987307870429144e-09, -2.0381184513569193e-13, -5.392873828733945e-09, 4.636601198878786e-08, 1.354288056409996e-10, 9.989444008858944e-12, -2.0381184513569193e-13, 1.9966890571712607e-09]"
1402416515139034742,,250952,,1402416515,110877990,/enu,/base_link,,,,9.21116337857,11.5492021195,-29.9860565194,,0.00145970516486,0.00409017532492,-0.56802393275,0.823000578098,"[0.030357232924299614, -0.002455638862282555, -0.010941288872205152, 4.976847011718407e-06, 1.6154880690437383e-06, 2.0638525678788437e-05, -0.002455638862282555, 0.03365576457319621, -5.111126588236275e-06, -2.1966401005954625e-06, -3.261644426182498e-06, -4.779496991527369e-06, -0.010941288872205152, -5.111126588236275e-06, 0.2259460173678627, -4.742647998303201e-06, -1.9676600666813597e-06, -2.278856327202481e-05, 4.976847011718407e-06, -2.1966401005954625e-06, -4.742647998303201e-06, 5.069645568167221e-06, -3.485548799581805e-07, -7.757901027311371e-08, 1.6154880690437383e-06, -3.261644426182498e-06, -1.9676600666813597e-06, -3.485548799581805e-07, 5.579148389554471e-06, 1.417081667244421e-06, 2.0638525678788437e-05, -4.779496991527369e-06, -2.278856327202481e-05, -7.757901027311371e-08, 1.417081667244421e-06, 8.79826721862128e-05]",,,,-1.02809519014,-0.197106301169,-0.216015173102,,0.0023115375093,0.00770179906594,-0.124104010943,"[0.00033670806075610643, -3.1326307578224844e-05, -2.6210455948593386e-05, 1.8498270361573005e-09, 1.380675942804965e-08, -5.430542024721815e-09, -3.1326307578224844e-05, 0.0006395094319323101, -8.798768773879064e-05, -2.028604677651242e-08, -3.317388289892411e-10, 4.641945388499088e-08, -2.6210455948593386e-05, -8.798768773879064e-05, 0.00021730312999836753, 7.315386345731193e-10, -4.016709893924165e-09, 1.34837350735383e-10, 1.8498270361573005e-09, -2.028604677651242e-08, 7.315386345731193e-10, 2.007443852230133e-09, 3.813064793307987e-12, 9.989836860597507e-12, 1.380675942804965e-08, -3.317388289892411e-10, -4.016709893924165e-09, 3.813064793307987e-12, 1.987307844334734e-09, -2.038060732139563e-13, -5.430542024721815e-09, 4.641945388499088e-08, 1.34837350735383e-10, 9.989836860597507e-12, -2.038060732139563e-13, 1.996686390509375e-09]"
1402416515139079935,,250953,,1402416515,120845079,/enu,/base_link,,,,9.2057997932,11.5580676683,-29.988137505,,0.0013915736622,0.00415615627368,-0.568494520882,0.822675373166,"[0.030365500766102012, -0.0024534684837845965, -0.010948462922187291, 4.943950749735147e-06, 1.9700445855251185e-06, 2.070437856984804e-05, -0.0024534684837845965, 0.03366074913606942, -9.104755305175025e-06, -2.49420909755728e-06, -3.225039360606385e-06, -4.812818489579023e-06, -0.010948462922187291, -9.104755305175025e-06, 0.22596693749092578, -4.74343845957571e-06, -1.981220413425519e-06, -2.277746448466917e-05, 4.943950749735147e-06, -2.49420909755728e-06, -4.74343845957571e-06, 5.109288963177954e-06, -3.485414873738764e-07, -7.74533951649026e-08, 1.9700445855251185e-06, -3.225039360606385e-06, -1.981220413425519e-06, -3.485414873738764e-07, 5.618771804683064e-06, 1.4156821794224584e-06, 2.070437856984804e-05, -4.812818489579023e-06, -2.277746448466917e-05, -7.74533951649026e-08, 1.4156821794224584e-06, 8.801126049590182e-05]",,,,-1.02958395592,-0.196512661513,-0.222036338206,,-0.0179004054562,0.00339433545048,-0.117918921701,"[0.0003427722237363593, -3.178834488018764e-05, -2.6631042656500005e-05, 1.891392754929029e-09, 1.4036533389487923e-08, -5.46517954130754e-09, -3.178834488018764e-05, 0.0006475256466450175, -8.81486226830957e-05, -2.0556781675931663e-08, -3.033463266485078e-10, 4.647273878519665e-08, -2.6631042656500005e-05, -8.81486226830957e-05, 0.00021766085880560397, 7.315374879966194e-10, -4.034747551061419e-09, 1.4390652612327415e-10, 1.891392754929029e-09, -2.0556781675931663e-08, 7.315374879966194e-10, 2.00744378910406e-09, 3.813052930235122e-12, 9.990231972309477e-12, 1.4036533389487923e-08, -3.033463266485078e-10, -4.034747551061419e-09, 3.813052930235122e-12, 1.9873078177960757e-09, -2.0380085531086558e-13, -5.46517954130754e-09, 4.647273878519665e-08, 1.4390652612327415e-10, 9.990231972309477e-12, -2.0380085531086558e-13, 1.9966837227882267e-09]"
1402416515178817253,,250954,,1402416515,131861925,/enu,/base_link,,,,9.19980736321,11.568082254,-29.9906785791,,0.001359387246,0.00423332004934,-0.569035513467,0.822300927569,"[0.030374798024542037, -0.002451042364750018, -0.010956301651620438, 4.907188137790034e-06, 2.3687798276590563e-06, 2.077755127144136e-05, -0.002451042364750018, 0.03366640397321212, -1.3531488018301512e-05, -2.829394204982517e-06, -3.1842085338792607e-06, -4.850003279169001e-06, -0.010956301651620438, -1.3531488018301512e-05, 0.2259900656333127, -4.743705908696982e-06, -1.9960338810695905e-06, -2.2765583130604394e-05, 4.907188137790034e-06, -2.829394204982517e-06, -4.743705908696982e-06, 5.157746815428136e-06, -3.485284488273646e-07, -7.733400968072886e-08, 2.3687798276590563e-06, -3.1842085338792607e-06, -1.9960338810695905e-06, -3.485284488273646e-07, 5.6672105339331285e-06, 1.4142755119737749e-06, 2.077755127144136e-05, -4.850003279169001e-06, -2.2765583130604394e-05, -7.733400968072886e-08, 1.4142755119737749e-06, 8.80487410423597e-05]",,,,-1.03026284741,-0.197929069861,-0.215702264613,,-0.0119362287312,0.00847493161338,-0.1221159228,"[0.0003496363330174397, -3.2320310535432806e-05, -2.7085414640468586e-05, 1.939095111376679e-09, 1.429274664959254e-08, -5.506191050472927e-09, -3.2320310535432806e-05, 0.00065654912905765, -8.835775977990912e-05, -2.085796663001361e-08, -2.709335129952293e-10, 4.6532247239994456e-08, -2.7085414640468586e-05, -8.835775977990912e-05, 0.00021811160440710292, 7.329365001516779e-10, -4.053863923030897e-09, 1.5049916057105065e-10, 1.939095111376679e-09, -2.085796663001361e-08, 7.329365001516779e-10, 2.0074437253173906e-09, 3.813040961677065e-12, 9.990629169100982e-12, 1.429274664959254e-08, -2.709335129952293e-10, -4.053863923030897e-09, 3.813040961677065e-12, 1.9873077907545977e-09, -2.0379618817476094e-13, -5.506191050472927e-09, 4.6532247239994456e-08, 1.5049916057105065e-10, 9.990629169100982e-12, -2.0379618817476094e-13, 1.9966810532605273e-09]"
1402416515218812286,,250955,,1402416515,141865968,/enu,/base_link,,,,9.1649777794,11.5569395373,-29.9271744484,,0.00200159223377,0.00386933555436,-0.569647827559,0.821877347558,"[0.030346334915017897, -0.002461263440800844, -0.01093525393401292, 5.0034248327341596e-06, 8.909168217923323e-07, 2.0695095463094753e-05, -0.002461263440800844, 0.03364623845718148, 8.910396512192755e-06, -1.5772074402147053e-06, -3.2982768837740686e-06, -5.101325257609294e-06, -0.01093525393401292, 8.910396512192755e-06, 0.225910591741602, -4.734424839316508e-06, -1.9674483793085075e-06, -2.2818979377119175e-05, 5.0034248327341596e-06, -1.5772074402147053e-06, -4.734424839316508e-06, 4.984227437270433e-06, -3.46791849710185e-07, -4.427917520087336e-08, 8.909168217923323e-07, -3.2982768837740686e-06, -1.9674483793085075e-06, -3.46791849710185e-07, 5.492160116223336e-06, 1.3891540188946564e-06, 2.0695095463094753e-05, -5.101325257609294e-06, -2.2818979377119175e-05, -4.427917520087336e-08, 1.3891540188946564e-06, 8.80696911573694e-05]",,,,-1.03002835755,-0.220462841759,-0.201913326238,,-0.00321014116985,0.00703907878787,-0.132608499997,"[0.00032512182218503717, -3.333320684192749e-05, -2.5207829470562434e-05, 1.8884003652012564e-09, 1.3332841978494835e-08, -6.4174698557740025e-09, -3.333320684192749e-05, 0.0006208907481408902, -8.924786890636641e-05, -1.965234019244156e-08, -3.1936532755245987e-10, 4.63659483285741e-08, -2.5207829470562434e-05, -8.924786890636641e-05, 0.00021726371678394476, 8.228428727348425e-10, -3.985266146696687e-09, 5.163656602666646e-11, 1.8884003652012564e-09, -1.965234019244156e-08, 8.228428727348425e-10, 2.0073940332275392e-09, 3.812462327326332e-12, 9.99626736483441e-12, 1.3332841978494835e-08, -3.1936532755245987e-10, -3.985266146696687e-09, 3.812462327326332e-12, 1.9872602760260974e-09, -1.9920962170613744e-13, -6.4174698557740025e-09, 4.63659483285741e-08, 5.163656602666646e-11, 9.99626736483441e-12, -1.9920962170613744e-13, 1.996677363903866e-09]"
1402416515218876178,,250956,,1402416515,152842998,/enu,/base_link,,,,9.15868675635,11.5666539226,-29.9292855948,,0.0020461532363,0.0038731225729,-0.570219919217,0.821480405066,"[0.030355224521710966, -0.002458905542509699, -0.01094304890844492, 4.968021848663897e-06, 1.2697634238876019e-06, 2.0763975037708238e-05, -0.002458905542509699, 0.03365162667563081, 4.605475664162548e-06, -1.8943135177521793e-06, -3.2589143845437527e-06, -5.143350934538599e-06, -0.01094304890844492, 4.605475664162548e-06, 0.2259334044242293, -4.734726847433222e-06, -1.982284568238624e-06, -2.2807143386807382e-05, 4.968021848663897e-06, -1.8943135177521793e-06, -4.734726847433222e-06, 5.032340517009191e-06, -3.467796964915462e-07, -4.416808991045553e-08, 1.2697634238876019e-06, -3.2589143845437527e-06, -1.982284568238624e-06, -3.467796964915462e-07, 5.540254390638881e-06, 1.38777786985766e-06, 2.0763975037708238e-05, -5.143350934538599e-06, -2.2807143386807382e-05, -4.416808991045553e-08, 1.38777786985766e-06, 8.810681622110938e-05]",,,,-1.03200888953,-0.22493864318,-0.205631471428,,0.00717194596365,0.00538236146786,-0.129626395796,"[0.0003316269211519822, -3.388278002593123e-05, -2.5637880192919654e-05, 1.93615450035212e-09, 1.358153088561412e-08, -6.461381032480375e-09, -3.388278002593123e-05, 0.0006294275173135692, -8.957087127823509e-05, -1.9945321576933117e-08, -2.8795808002439964e-10, 4.6422466756327034e-08, -2.5637880192919654e-05, -8.957087127823509e-05, 0.00021775149492239568, 8.294088169565429e-10, -4.004820823335114e-09, 4.8507627742625754e-11, 1.93615450035212e-09, -1.9945321576933117e-08, 8.294088169565429e-10, 2.007393971778828e-09, 3.812450700778941e-12, 9.996657532700046e-12, 1.358153088561412e-08, -2.8795808002439964e-10, -4.004820823335114e-09, 3.812450700778941e-12, 1.9872602503091804e-09, -1.9920330000997634e-13, -6.461381032480375e-09, 4.6422466756327034e-08, 4.8507627742625754e-11, 9.996657532700046e-12, -1.9920330000997634e-13, 1.996674692442923e-09]"
1402416515218899160,,250957,,1402416515,162861108,/enu,/base_link,,,,9.1530078282,11.5758061957,-29.9316161895,,0.00209359721202,0.0038846037531,-0.570735585187,0.821122048483,"[0.030363450117513725, -0.002456760213393947, -0.010950205223442904, 4.935346935398445e-06, 1.6208584047375185e-06, 2.0827415862032763e-05, -0.002456760213393947, 0.03365662562859439, 5.630578129020918e-07, -2.1885982305569083e-06, -3.2226312498123982e-06, -5.182546271393318e-06, -0.010950205223442904, 5.630578129020918e-07, 0.2259544170004341, -4.735359133163929e-06, -1.99589428477057e-06, -2.2795999177789224e-05, 4.935346935398445e-06, -2.1885982305569083e-06, -4.735359133163929e-06, 5.072393806556443e-06, -3.467670363309851e-07, -4.4049317460636546e-08, 1.6208584047375185e-06, -3.2226312498123982e-06, -1.99589428477057e-06, -3.467670363309851e-07, 5.580288501186524e-06, 1.386389293692543e-06, 2.0827415862032763e-05, -5.182546271393318e-06, -2.2795999177789224e-05, -4.4049317460636546e-08, 1.386389293692543e-06, 8.813579913818939e-05]",,,,-1.03296049775,-0.226035308079,-0.198348861067,,0.00739283904636,0.00748086805873,-0.12830100844,"[0.0003376294737866104, -3.438380207490916e-05, -2.603064801761684e-05, 1.980115693768013e-09, 1.3810482149677732e-08, -6.500826850514114e-09, -3.438380207490916e-05, 0.0006372910066696028, -8.986962664839725e-05, -2.0214515707722928e-08, -2.58895804004518e-10, 4.647314645915458e-08, -2.603064801761684e-05, -8.986962664839725e-05, 0.00021815702468098945, 8.355306915661315e-10, -4.022359786253283e-09, 4.5459126769770895e-11, 1.980115693768013e-09, -2.0214515707722928e-08, 8.355306915661315e-10, 2.00739390962487e-09, 3.812438977902577e-12, 9.997050079890263e-12, 1.3810482149677732e-08, -2.58895804004518e-10, -4.022359786253283e-09, 3.812438977902577e-12, 1.9872602241142832e-09, -1.9919756545679454e-13, -6.500826850514114e-09, 4.647314645915458e-08, 4.5459126769770895e-11, 9.997050079890263e-12, -1.9919756545679454e-13, 1.9966720195409638e-09]"
1402416515218920032,,250958,,1402416515,173849105,/enu,/base_link,,,,9.14671018589,11.5855676808,-29.9335777826,,0.00209325995298,0.00390555186243,-0.571301299034,0.820728451225,"[0.0303726009007733, -0.0024543959941651958, -0.01095800599872959, 4.899117559583277e-06, 2.012914047071258e-06, 2.0895176673655542e-05, -0.0024543959941651958, 0.03366219369275195, -3.8196640213704235e-06, -2.517733332267065e-06, -3.182424631893518e-06, -5.224736253659487e-06, -0.01095800599872959, -3.8196640213704235e-06, 0.22597754236690762, -4.735409107731332e-06, -2.0107561185650008e-06, -2.278413705735325e-05, 4.899117559583277e-06, -2.517733332267065e-06, -4.735409107731332e-06, 5.120599330753527e-06, -3.4675469481718693e-07, -4.3936315192856486e-08, 2.012914047071258e-06, -3.182424631893518e-06, -2.0107561185650008e-06, -3.4675469481718693e-07, 5.628475660868175e-06, 1.3849932431700684e-06, 2.0895176673655542e-05, -5.224736253659487e-06, -2.278413705735325e-05, -4.3936315192856486e-08, 1.3849932431700684e-06, 8.817300582686068e-05]",,,,-1.03586059257,-0.224501525918,-0.195950229339,,-0.00133253664305,0.00328385219038,-0.128190546267,"[0.0003443615747600956, -3.494454633965697e-05, -2.6472998413786244e-05, 2.0291989074598486e-09, 1.406343971927612e-08, -6.544385924253001e-09, -3.494454633965697e-05, 0.0006461052662688967, -9.015869195207478e-05, -2.0511971396574956e-08, -2.2594987045657223e-10, 4.6529533404726894e-08, -2.6472998413786244e-05, -9.015869195207478e-05, 0.00021863031274925137, 8.402495115606148e-10, -4.042262214582607e-09, 4.683875338921123e-11, 2.0291989074598486e-09, -2.0511971396574956e-08, 8.402495115606148e-10, 2.0073938468655898e-09, 3.812427177256213e-12, 9.997444449321522e-12, 1.406343971927612e-08, -2.2594987045657223e-10, -4.042262214582607e-09, 3.812427177256213e-12, 1.987260197431602e-09, -1.9919237196284678e-13, -6.544385924253001e-09, 4.6529533404726894e-08, 4.683875338921123e-11, 9.997444449321522e-12, -1.9919237196284678e-13, 1.996669345210829e-09]"
1402416515258838804,,250959,,1402416515,183836936,/enu,/base_link,,,,9.12161808038,11.5922029487,-29.8952011381,,0.00208256188689,0.00309670864219,-0.57177879502,0.82039934355,"[0.030344506552982632, -0.002464470691943407, -0.010937018696547812, 4.981518570375399e-06, 5.842302326332327e-07, 2.083537275642384e-05, -0.002464470691943407, 0.033642256598988785, 1.863782248402341e-05, -1.3067330547471783e-06, -3.288174848967535e-06, -5.492286581354822e-06, -0.010937018696547812, 1.863782248402341e-05, 0.2258978788642608, -4.712991812788338e-06, -1.9763098916155215e-06, -2.283874531334316e-05, 4.981518570375399e-06, -1.3067330547471783e-06, -4.712991812788338e-06, 4.9537949569150936e-06, -3.449725564581556e-07, -9.624898863551573e-09, 5.842302326332327e-07, -3.288174848967535e-06, -1.9763098916155215e-06, -3.449725564581556e-07, 5.459884648338653e-06, 1.3644493651448279e-06, 2.083537275642384e-05, -5.492286581354822e-06, -2.283874531334316e-05, -9.624898863551573e-09, 1.3644493651448279e-06, 8.819408142544732e-05]",,,,-1.05269313879,-0.244737483575,-0.190612201425,,-0.00287842053037,0.00118465394916,-0.124103916973,"[0.00032067419803045473, -3.534069324075128e-05, -2.531929314519283e-05, 1.9546601001804043e-09, 1.313135629135862e-08, -7.0256018217261345e-09, -3.534069324075128e-05, 0.0006156693678467361, -9.027579914378154e-05, -1.9401355004517928e-08, -2.9986230669642007e-10, 4.7099215700196665e-08, -2.531929314519283e-05, -9.027579914378154e-05, 0.00021789706357854409, 8.826969638368292e-10, -4.0312464745218534e-09, -1.2387519521951065e-11, 1.9546601001804043e-09, -1.9401355004517928e-08, 8.826969638368292e-10, 2.0073456928185325e-09, 3.811885233239003e-12, 1.0002370965643316e-11, 1.313135629135862e-08, -2.9986230669642007e-10, -4.0312464745218534e-09, 3.811885233239003e-12, 1.987214086592821e-09, -1.9390039078264565e-13, -7.0256018217261345e-09, 4.7099215700196665e-08, -1.2387519521951065e-11, 1.0002370965643316e-11, -1.9390039078264565e-13, 1.9966656120109584e-09]"
1402416515258869675,,250960,,1402416515,194833040,/enu,/base_link,,,,9.11518731522,11.6021242539,-29.8971064205,,0.00209259213113,0.00313683068492,-0.572321510047,0.820020652477,"[0.030353352959651553, -0.0024621691330832833, -0.010944821545099244, 4.9464098209350645e-06, 9.587385950407666e-07, 2.090127842132802e-05, -0.0024621691330832833, 0.03364755865808687, 1.430447722239944e-05, -1.6198591713371923e-06, -3.24924452201775e-06, -5.543480739325777e-06, -0.010944821545099244, 1.430447722239944e-05, 0.22592070894232028, -4.713063992620261e-06, -1.990997375854866e-06, -2.2826903519776078e-05, 4.9464098209350645e-06, -1.6198591713371923e-06, -4.713063992620261e-06, 5.002077177809275e-06, -3.4496110473753003e-07, -9.520551247341756e-09, 9.587385950407666e-07, -3.24924452201775e-06, -1.990997375854866e-06, -3.4496110473753003e-07, 5.50814875324544e-06, 1.3630825789706564e-06, 2.090127842132802e-05, -5.543480739325777e-06, -2.2826903519776078e-05, -9.520551247341756e-09, 1.3630825789706564e-06, 8.82313562417608e-05]",,,,-1.05427051072,-0.245590517146,-0.190782021675,,-0.00188439318413,0.00714883222777,-0.123220319917,"[0.00032709169962884027, -3.587162485845669e-05, -2.5768728733813004e-05, 2.0012452606864067e-09, 1.3378678558750197e-08, -7.066648107441568e-09, -3.587162485845669e-05, 0.0006241188412937106, -9.057663698104152e-05, -1.9692820686102082e-08, -2.6877865965324506e-10, 4.7154750395014325e-08, -2.5768728733813004e-05, -9.057663698104152e-05, 0.00021837213447476836, 8.880849726347238e-10, -4.051418310578293e-09, -1.1078952255854308e-11, 2.0012452606864067e-09, -1.9692820686102082e-08, 8.880849726347238e-10, 2.0073456322256443e-09, 3.811873750772432e-12, 1.0002759052050565e-11, 1.3378678558750197e-08, -2.6877865965324506e-10, -4.051418310578293e-09, 3.811873750772432e-12, 1.9872140611344014e-09, -1.9389373941113727e-13, -7.066648107441568e-09, 4.7154750395014325e-08, -1.1078952255854308e-11, 1.0002759052050565e-11, -1.9389373941113727e-13, 1.9966629353631525e-09]"
1402416515258892379,,250961,,1402416515,204832077,/enu,/base_link,,,,9.10909497549,11.6111306591,-29.8987413766,,0.00208715284362,0.00314039765007,-0.572853053094,0.819649413625,"[0.030361502183209616, -0.0024600395335507186, -0.010952059108915033, 4.914118831364752e-06, 1.3045832222947832e-06, 2.09598685573406e-05, -0.0024600395335507186, 0.033652536113559534, 1.0326946761109529e-05, -1.9094134998575445e-06, -3.213471814920854e-06, -5.5895512284657465e-06, -0.010952059108915033, 1.0326946761109529e-05, 0.2259417029209196, -4.713457509903213e-06, -2.004507555062528e-06, -2.2815837111890525e-05, 4.914118831364752e-06, -1.9094134998575445e-06, -4.713457509903213e-06, 5.04197910980926e-06, -3.4494913894813017e-07, -9.40820557647202e-09, 1.3045832222947832e-06, -3.213471814920854e-06, -2.004507555062528e-06, -3.4494913894813017e-07, 5.548032167804124e-06, 1.3617032664489213e-06, 2.09598685573406e-05, -5.5895512284657465e-06, -2.2815837111890525e-05, -9.40820557647202e-09, 1.3617032664489213e-06, 8.826016519532919e-05]",,,,-1.05669162375,-0.246252856747,-0.18381083943,,-0.00055902181221,8.0174779934e-05,-0.131835235052,"[0.00033299392550821403, -3.639501165947465e-05, -2.6178101876695033e-05, 2.0461751060231956e-09, 1.3605188367301903e-08, -7.108739884444247e-09, -3.639501165947465e-05, 0.0006318619639433091, -9.085779168515611e-05, -1.9959417162224992e-08, -2.387481762260419e-10, 4.720355678409176e-08, -2.6178101876695033e-05, -9.085779168515611e-05, 0.00021876977473925122, 8.931544268741675e-10, -4.070683240397466e-09, -1.002567031997021e-11, 2.0461751060231956e-09, -1.9959417162224992e-08, 8.931544268741675e-10, 2.007345570953419e-09, 3.8118621739207215e-12, 1.0003149307478052e-11, 1.3605188367301903e-08, -2.387481762260419e-10, -4.070683240397466e-09, 3.8118621739207215e-12, 1.987214035191218e-09, -1.938876699180953e-13, -7.108739884444247e-09, 4.720355678409176e-08, -1.002567031997021e-11, 1.0003149307478052e-11, -1.938876699180953e-13, 1.996660256847293e-09]"
1402416515258914879,,250962,,1402416515,215831995,/enu,/base_link,,,,9.10265134543,11.6212939831,-29.9009317276,,0.00209242988247,0.0031771441178,-0.57342744027,0.819247519519,"[0.030370521019322406, -0.002457724156625938, -0.01095982744931022, 4.878184928730957e-06, 1.6920587303864068e-06, 2.1024200433989122e-05, -0.002457724156625938, 0.03365802830082011, 6.059518605631423e-06, -2.234336033214133e-06, -3.173708498713922e-06, -5.639899537261991e-06, -0.01095982744931022, 6.059518605631423e-06, 0.22596447065041647, -4.713296666239775e-06, -2.019277861594391e-06, -2.280393928809885e-05, 4.878184928730957e-06, -2.234336033214133e-06, -4.713296666239775e-06, 5.090290971811069e-06, -3.449375032567054e-07, -9.301860408424889e-09, 1.6920587303864068e-06, -3.173708498713922e-06, -2.019277861594391e-06, -3.449375032567054e-07, 5.596326352712128e-06, 1.3603165816574911e-06, 2.1024200433989122e-05, -5.639899537261991e-06, -2.280393928809885e-05, -9.301860408424889e-09, 1.3603165816574911e-06, 8.829745822521542e-05]",,,,-1.05720031613,-0.244851569578,-0.182449015672,,-0.00221574076483,0.00615480079753,-0.130288951564,"[0.00033963993505791167, -3.6965670398303795e-05, -2.6627193719047386e-05, 2.095865542867719e-09, 1.3856728720379532e-08, -7.1538062726237895e-09, -3.6965670398303795e-05, 0.000640558748166641, -9.116318136402507e-05, -2.025494067285462e-08, -2.0529932196140454e-10, 4.7258263571489205e-08, -2.6627193719047386e-05, -9.116318136402507e-05, 0.00021924500042907284, 8.984326015521677e-10, -4.090982607369261e-09, -8.460085154442029e-12, 2.095865542867719e-09, -2.025494067285462e-08, 8.984326015521677e-10, 2.0073455090539967e-09, 3.811850512402754e-12, 1.0003541635149564e-11, 1.3856728720379532e-08, -2.0529932196140454e-10, -4.090982607369261e-09, 3.811850512402754e-12, 1.987214008776747e-09, -1.938821184845304e-13, -7.1538062726237895e-09, 4.7258263571489205e-08, -8.460085154442029e-12, 1.0003541635149564e-11, -1.938821184845304e-13, 1.996657576445722e-09]"
1402416515298833358,,250963,,1402416515,225831985,/enu,/base_link,,,,9.0967195515,11.6303375256,-29.90258159,,0.00215819504114,0.00315834398892,-0.573967743196,0.818868974152,"[0.030378881213096086, -0.0024555966432446836, -0.010967041476753004, 4.845176835170813e-06, 2.0495314626986857e-06, 2.1082242565624822e-05, -0.0024555966432446836, 0.03366311665712852, 2.083076827392366e-06, -2.534523042354254e-06, -3.137173057961555e-06, -5.684707588892605e-06, -0.010967041476753004, 2.083076827392366e-06, 0.22598552673158534, -4.7134930147423584e-06, -2.032911128621553e-06, -2.2792786257520928e-05, 4.845176835170813e-06, -2.534523042354254e-06, -4.7134930147423584e-06, 5.1301964686208115e-06, -3.44925354572535e-07, -9.187524714764099e-09, 2.0495314626986857e-06, -3.137173057961555e-06, -2.032911128621553e-06, -3.44925354572535e-07, 5.6362137807147e-06, 1.358917326904162e-06, 2.1082242565624822e-05, -5.684707588892605e-06, -2.2792786257520928e-05, -9.187524714764099e-09, 1.358917326904162e-06, 8.832625915414382e-05]",,,,-1.05857396642,-0.245264866013,-0.1829336513,,0.0137991823155,0.00460853123804,-0.134817295848,"[0.00034574951050485406, -3.7509233744886534e-05, -2.7029416398851307e-05, 2.142655773546166e-09, 1.4087385539017009e-08, -7.196924555043283e-09, -3.7509233744886534e-05, 0.0006485030065458008, -9.151171454400845e-05, -2.052527606506898e-08, -1.7435228374560533e-10, 4.7306639463926585e-08, -2.7029416398851307e-05, -9.151171454400845e-05, 0.00021966624173365423, 9.064171223810433e-10, -4.1095975098405665e-09, -1.4491803126021207e-11, 2.142655773546166e-09, -2.052527606506898e-08, 9.064171223810433e-10, 2.0073454464674883e-09, 3.811838764920042e-12, 1.0003936230805269e-11, 1.4087385539017009e-08, -1.7435228374560533e-10, -4.1095975098405665e-09, 3.811838764920042e-12, 1.987213981868367e-09, -1.938771582529255e-13, -7.196924555043283e-09, 4.7306639463926585e-08, -1.4491803126021207e-11, 1.0003936230805269e-11, -1.938771582529255e-13, 1.996654893848973e-09]"
1402416515298863341,,250964,,1402416515,236807107,/enu,/base_link,,,,9.09026814948,11.6403349379,-29.904506413,,0.00219708708664,0.00312711483584,-0.574579433093,0.818439899459,"[0.03038812511679324, -0.0024532570451565117, -0.010974891933915102, 4.8085590559838764e-06, 2.448767759588404e-06, 2.1143918496846747e-05, -0.0024532570451565117, 0.03366876565439601, -2.2670833178907447e-06, -2.8702878597019917e-06, -3.0966686185581395e-06, -5.732395563597425e-06, -0.010974891933915102, -2.2670833178907447e-06, 0.22600869487055747, -4.713049702247445e-06, -2.0478478070940833e-06, -2.2780991055843818e-05, 4.8085590559838764e-06, -2.8702878597019917e-06, -4.713049702247445e-06, 5.178286230411366e-06, -3.449135267199622e-07, -9.079064327783283e-09, 2.448767759588404e-06, -3.0966686185581395e-06, -2.0478478070940833e-06, -3.449135267199622e-07, 5.684286312563793e-06, 1.3575106431302058e-06, 2.1143918496846747e-05, -5.732395563597425e-06, -2.2780991055843818e-05, -9.079064327783283e-09, 1.3575106431302058e-06, 8.836331648238688e-05]",,,,-1.06108374941,-0.244179790258,-0.176734303651,,0.00993350814519,-0.000472066677775,-0.138903848441,"[0.0003526073757622051, -3.81337064836075e-05, -2.747817483251639e-05, 2.195863309953518e-09, 1.4342237354070206e-08, -7.246698166171274e-09, -3.81337064836075e-05, 0.0006573990925342748, -9.188014559380101e-05, -2.0823930674006277e-08, -1.3886426679862799e-10, 4.736019052232527e-08, -2.747817483251639e-05, -9.188014559380101e-05, 0.00022016774744673784, 9.142769232180244e-10, -4.130833011029058e-09, -1.8754258242002056e-11, 2.195863309953518e-09, -2.0823930674006277e-08, 9.142769232180244e-10, 2.0073453832786766e-09, 3.811826928205103e-12, 1.0004332978691913e-11, 1.4342237354070206e-08, -1.3886426679862799e-10, -4.130833011029058e-09, 3.811826928205103e-12, 1.9872139544847e-09, -1.9387270829348463e-13, -7.246698166171274e-09, 4.736019052232527e-08, -1.8754258242002056e-11, 1.0004332978691913e-11, -1.9387270829348463e-13, 1.996652210253278e-09]"
1402416515298887437,,250965,,1402416515,247834920,/enu,/base_link,,,,9.08364580685,11.6504409888,-29.9063305758,,0.0022294904388,0.00312940993606,-0.575156250613,0.818034549116,"[0.03039756897557434, -0.002450893159790654, -0.01098288074211866, 4.771329582209772e-06, 2.8569594310182246e-06, 2.1205860833510243e-05, -0.002450893159790654, 0.03367454093860038, -6.606656583634994e-06, -3.2141281673552004e-06, -3.0555437056434717e-06, -5.7803025799089905e-06, -0.01098288074211866, -6.606656583634994e-06, 0.22603191106397516, -4.7124536960742974e-06, -2.06285297619281e-06, -2.276909892914205e-05, 4.771329582209772e-06, -3.2141281673552004e-06, -4.7124536960742974e-06, 5.2268377434509086e-06, -3.449016217703163e-07, -8.969902465412052e-09, 2.8569594310182246e-06, -3.0555437056434717e-06, -2.06285297619281e-06, -3.449016217703163e-07, 5.732820888429966e-06, 1.3560931370491023e-06, 2.1205860833510243e-05, -5.7803025799089905e-06, -2.276909892914205e-05, -8.969902465412052e-09, 1.3560931370491023e-06, 8.84008330935046e-05]",,,,-1.06187754829,-0.245579855906,-0.173037598449,,0.00540514737424,0.00383539515213,-0.13062025165,"[0.00035961590011468144, -3.8736431702839393e-05, -2.793637831472917e-05, 2.248277741033971e-09, 1.4600705674421494e-08, -7.2925339952827625e-09, -3.8736431702839393e-05, 0.0006664905393957047, -9.223197686076154e-05, -2.1126439845925337e-08, -1.0353950087365606e-10, 4.741454474303821e-08, -2.793637831472917e-05, -9.223197686076154e-05, 0.00022066237926356087, 9.213136009920381e-10, -4.151510110138765e-09, -2.101097246988845e-11, 2.248277741033971e-09, -2.1126439845925337e-08, 9.213136009920381e-10, 2.0073453193523523e-09, 3.811815000411197e-12, 1.000473203644873e-11, 1.4600705674421494e-08, -1.0353950087365606e-10, -4.151510110138765e-09, 3.811815000411197e-12, 1.9872139265879897e-09, -1.9386882161919693e-13, -7.2925339952827625e-09, 4.741454474303821e-08, -2.101097246988845e-11, 1.000473203644873e-11, -1.9386882161919693e-13, 1.9966495248334852e-09]"
1402416515298922964,,250966,,1402416515,256802082,/enu,/base_link,,,,9.07851602833,11.6587930288,-29.9080051491,,0.00219692882671,0.00309989702086,-0.575607703833,0.817717148793,"[0.03040536819983825, -0.00244894903617467, -0.010989340633272136, 4.740753999075161e-06, 3.1928967356123892e-06, 2.1255247525269486e-05, -0.00244894903617467, 0.03367933866278882, -1.0130141258051437e-05, -3.4973905559831523e-06, -3.0217916214169867e-06, -5.819075691555962e-06, -0.010989340633272136, -1.0130141258051437e-05, 0.22605081967554916, -4.712720271735661e-06, -2.075272126664665e-06, -2.275881225513044e-05, 4.740753999075161e-06, -3.4973905559831523e-06, -4.712720271735661e-06, 5.258895764858985e-06, -3.448887702791259e-07, -8.845417064776522e-09, 3.1928967356123892e-06, -3.0217916214169867e-06, -2.075272126664665e-06, -3.448887702791259e-07, 5.764860922011632e-06, 1.3546613229025981e-06, 2.1255247525269486e-05, -5.819075691555962e-06, -2.275881225513044e-05, -8.845417064776522e-09, 1.3546613229025981e-06, 8.842168675567755e-05]",,,,-1.06435191879,-0.246466969347,-0.179437758889,,-0.00122172097994,-0.00941833721319,-0.126644117043,"[0.0003653259784960828, -3.922587536918083e-05, -2.8333940610070404e-05, 2.2906910213752863e-09, 1.4812212734861465e-08, -7.327599590663678e-09, -3.922587536918083e-05, 0.0006739152058284271, -9.248695231113306e-05, -2.1374203681352666e-08, -7.461073036347394e-11, 4.745703136674434e-08, -2.8333940610070404e-05, -9.248695231113306e-05, 0.00022098474498170582, 9.255066012879481e-10, -4.170049856369585e-09, -1.9010039177668722e-11, 2.2906910213752863e-09, -2.1374203681352666e-08, 9.255066012879481e-10, 2.007345254749615e-09, 3.811802976458865e-12, 1.000513354877391e-11, 1.4812212734861465e-08, -7.461073036347394e-11, -4.170049856369585e-09, 3.811802976458865e-12, 1.9872138981615756e-09, -1.938655149522222e-13, -7.327599590663678e-09, 4.745703136674434e-08, -1.9010039177668722e-11, 1.000513354877391e-11, -1.938655149522222e-13, 1.9966468372672406e-09]"
1402416515298946044,,250967,,1402416515,267890930,/enu,/base_link,,,,9.07183129488,11.6689698521,-29.9098089092,,0.00225265180161,0.00307762535073,-0.576195463136,0.817303029509,"[0.030415064705503782, -0.0024465672951836546, -0.010997359560883758, 4.7025739326311086e-06, 3.6156143407808887e-06, 2.1317022395067208e-05, -0.0024465672951836546, 0.03368538457121464, -1.4503350243132451e-05, -3.854362971501881e-06, -2.9797103941442546e-06, -5.868734758932297e-06, -0.010997359560883758, -1.4503350243132451e-05, 0.2260741238277201, -4.711912023884867e-06, -2.090291915127926e-06, -2.2746862923939402e-05, 4.7025739326311086e-06, -3.854362971501881e-06, -4.711912023884867e-06, 5.307983780634447e-06, -3.448767284758294e-07, -8.734888785475972e-09, 3.6156143407808887e-06, -2.9797103941442546e-06, -2.090291915127926e-06, -3.448767284758294e-07, 5.813932507989773e-06, 1.3532257703480608e-06, 2.1317022395067208e-05, -5.868734758932297e-06, -2.2746862923939402e-05, -8.734888785475972e-09, 1.3532257703480608e-06, 8.845973480418065e-05]",,,,-1.06480925869,-0.249542686979,-0.175451179742,,0.0113693213436,0.00262046794179,-0.132387386094,"[0.00037259872677002716, -3.9857227370342085e-05, -2.8798192013750058e-05, 2.345396981731358e-09, 1.5076256961702482e-08, -7.375005167545544e-09, -3.9857227370342085e-05, 0.0006832940934190546, -9.287760264274256e-05, -2.1682440319668186e-08, -3.777053184543564e-11, 4.7511282643112516e-08, -2.8798192013750058e-05, -9.287760264274256e-05, 0.00022149827661838308, 9.340934262543287e-10, -4.191063321198995e-09, -2.4346568560302302e-11, 2.345396981731358e-09, -2.1682440319668186e-08, 9.340934262543287e-10, 2.007345189576133e-09, 3.8117908817113396e-12, 1.0005536508588356e-11, 1.5076256961702482e-08, -3.777053184543564e-11, -4.191063321198995e-09, 3.8117908817113396e-12, 1.987213869306709e-09, -1.9386266257809401e-13, -7.375005167545544e-09, 4.7511282643112516e-08, -2.4346568560302302e-11, 1.0005536508588356e-11, -1.9386266257809401e-13, 1.9966441484679204e-09]"
1402416515338850626,,250968,,1402416515,277817964,/enu,/base_link,,,,9.07481361557,11.663721341,-29.8932532643,,0.002560927834,0.00404796346229,-0.576782508654,0.816883708585,"[0.030355183540555632, -0.0024597634681781996, -0.010938393272621092, 3.9121969562125536e-06, -2.1505129270529544e-07, 2.1293281288715835e-05, -0.0024597634681781996, 0.03365533753707508, 1.6937158563663173e-05, -1.5506419069519367e-06, -3.0755934277246556e-06, -6.241900928693063e-06, -0.010938393272621092, 1.6937158563663173e-05, 0.22593560520958073, -3.983812495161485e-06, 2.5075499026407934e-07, -2.278683487382271e-05, 3.9121969562125536e-06, -1.5506419069519367e-06, -3.983812495161485e-06, 4.966527547702332e-06, -4.2567434514584564e-07, 4.220396783634659e-08, -2.1505129270529544e-07, -3.0755934277246556e-06, 2.5075499026407934e-07, -4.2567434514584564e-07, 5.4408204981964635e-06, 1.3359834792132004e-06, 2.1293281288715835e-05, -6.241900928693063e-06, -2.278683487382271e-05, 4.220396783634659e-08, 1.3359834792132004e-06, 8.847902630732312e-05]",,,,-1.04274775525,-0.240831576024,-0.17165573933,,0.00242284787267,-0.00698753395557,-0.131835221223,"[0.0003158423648145141, -4.89923017093676e-05, -2.0248046895314045e-05, 2.4862064183079433e-09, 1.281585586686961e-08, -6.841738614964695e-09, -4.89923017093676e-05, 0.0006152748768654987, -8.419001558455062e-05, -1.9549907357016595e-08, -6.332151958328596e-10, 4.648375464603165e-08, -2.0248046895314045e-05, -8.419001558455062e-05, 0.0002163890716990652, 6.944024197769178e-10, -3.784154614280551e-09, -2.6551296933766767e-11, 2.4862064183079433e-09, -1.9549907357016595e-08, 6.944024197769178e-10, 2.007266492488904e-09, 3.825171017896062e-12, 1.0009647537029008e-11, 1.281585586686961e-08, -6.332151958328596e-10, -3.784154614280551e-09, 3.825171017896062e-12, 1.987114073595008e-09, -1.8380856867193989e-13, -6.841738614964695e-09, 4.648375464603165e-08, -2.6551296933766767e-11, 1.0009647537029008e-11, -1.8380856867193989e-13, 1.996640071452421e-09]"
1402416515338879466,,250969,,1402416515,287806034,/enu,/base_link,,,,9.06925956481,11.6727801672,-29.8949912911,,0.0025705892037,0.00405414414845,-0.577322457173,0.816502134982,"[0.03036296387156617, -0.0024575986646533546, -0.01094514741107266, 3.868631085103557e-06, 1.2174317503324642e-07, 2.1346887092925784e-05, -0.0024575986646533546, 0.033660290648201814, 1.2952436957079471e-05, -1.8367484358731937e-06, -3.030731571636908e-06, -6.291304358796075e-06, -0.01094514741107266, 1.2952436957079471e-05, 0.22595639800939085, -3.982282694141035e-06, 2.414004074498564e-07, -2.277633189072105e-05, 3.868631085103557e-06, -1.8367484358731937e-06, -3.982282694141035e-06, 5.006343212611477e-06, -4.256598003668345e-07, 4.232636641227826e-08, 1.2174317503324642e-07, -3.030731571636908e-06, 2.414004074498564e-07, -4.256598003668345e-07, 5.480619683054328e-06, 1.3346170003942336e-06, 2.1346887092925784e-05, -6.291304358796075e-06, -2.277633189072105e-05, 4.232636641227826e-08, 1.3346170003942336e-06, 8.850769729789842e-05]",,,,-1.0427903302,-0.241852490383,-0.170821870705,,0.00187060665182,0.00229007716957,-0.13536953536,"[0.0003215582322721125, -4.973045468420443e-05, -2.0600160290105237e-05, 2.535688511966577e-09, 1.3038092142562954e-08, -6.88219265733345e-09, -4.973045468420443e-05, 0.0006228995938813641, -8.443154178374905e-05, -1.9814944018765947e-08, -6.060412564601875e-10, 4.653149760044685e-08, -2.0600160290105237e-05, -8.443154178374905e-05, 0.0002167864555716039, 6.998752596863657e-10, -3.802430228336764e-09, -2.671155597008223e-11, 2.535688511966577e-09, -1.9814944018765947e-08, 6.998752596863657e-10, 2.0072664316425477e-09, 3.825158720903413e-12, 1.0010036682474807e-11, 1.3038092142562954e-08, -6.060412564601875e-10, -3.802430228336764e-09, 3.825158720903413e-12, 1.9871140483243614e-09, -1.8379787131238346e-13, -6.88219265733345e-09, 4.653149760044685e-08, -2.671155597008223e-11, 1.0010036682474807e-11, -1.8379787131238346e-13, 1.9966373788138025e-09]"
1402416515338917445,,250970,,1402416515,298793077,/enu,/base_link,,,,9.06276645725,11.6826659937,-29.8966771785,,0.00252041100102,0.00404826818069,-0.577908179055,0.816087860242,"[0.03037168206101531, -0.0024551845127562966, -0.010952671171398885, 3.820249885121288e-06, 4.988705972051845e-07, 2.140447862144291e-05, -0.0024551845127562966, 0.033665773204057774, 8.642374975135458e-06, -2.1575631569549365e-06, -2.9809232668097343e-06, -6.346428076577991e-06, -0.010952671171398885, 8.642374975135458e-06, 0.22597924514020837, -3.97996673501561e-06, 2.312706450932051e-07, -2.276490357861795e-05, 3.820249885121288e-06, -2.1575631569549365e-06, -3.97996673501561e-06, 5.054543207752111e-06, -4.256456305231325e-07, 4.244284197264141e-08, 4.988705972051845e-07, -2.9809232668097343e-06, 2.312706450932051e-07, -4.256456305231325e-07, 5.5288040600028446e-06, 1.3332431058159767e-06, 2.140447862144291e-05, -6.346428076577991e-06, -2.276490357861795e-05, 4.244284197264141e-08, 1.3332431058159767e-06, 8.854482690984191e-05]",,,,-1.04536826337,-0.242601124235,-0.167436974176,,-0.00586073923372,-0.00599350588539,-0.133491908368,"[0.0003279903437649549, -5.055434692378478e-05, -2.1006572771848866e-05, 2.590636093573221e-09, 1.3284173755414264e-08, -6.926058287761074e-09, -5.055434692378478e-05, 0.0006314738416073532, -8.465998113221801e-05, -2.0108662705394768e-08, -5.753975828821659e-10, 4.658496190750429e-08, -2.1006572771848866e-05, -8.465998113221801e-05, 0.00021725777265289858, 7.040152946252484e-10, -3.823783153456367e-09, -2.2329312319477925e-11, 2.590636093573221e-09, -2.0108662705394768e-08, 7.040152946252484e-10, 2.0072663701830518e-09, 3.8251463459227904e-12, 1.0010428006670091e-11, 1.3284173755414264e-08, -5.753975828821659e-10, -3.823783153456367e-09, 3.8251463459227904e-12, 1.9871140225911477e-09, -1.8378768634732018e-13, -6.926058287761074e-09, 4.658496190750429e-08, -2.2329312319477925e-11, 1.0010428006670091e-11, -1.8378768634732018e-13, 1.9966346855917675e-09]"
1402416515347054118,,250971,,1402416515,308784961,/enu,/base_link,,,,9.05705674328,11.6919160744,-29.8985373903,,0.00243985434601,0.00405265835286,-0.578446608294,0.815706530821,"[0.03037969098895634, -0.0024530090064339605, -0.010959504006691843, 3.7757989005172993e-06, 8.471824384794462e-07, 2.1455394580946425e-05, -0.0024530090064339605, 0.03367080822043244, 4.740392156849205e-06, -2.4542381886971803e-06, -2.935133099507013e-06, -6.395049835659846e-06, -0.010959504006691843, 4.740392156849205e-06, 0.22600019396293788, -3.9781568214587965e-06, 2.218081237227441e-07, -2.2754252862701114e-05, 3.7757989005172993e-06, -2.4542381886971803e-06, -3.9781568214587965e-06, 5.094385353630219e-06, -4.256308471375087e-07, 4.256722280113251e-08, 8.471824384794462e-07, -2.935133099507013e-06, 2.218081237227441e-07, -4.256308471375087e-07, 5.568630204410333e-06, 1.3318567994654749e-06, 2.1455394580946425e-05, -6.395049835659846e-06, -2.2754252862701114e-05, 4.256722280113251e-08, 1.3318567994654749e-06, 8.857351300571535e-05]",,,,-1.04813176666,-0.240032484682,-0.164532822882,,-0.0125980555128,-0.0084233576293,-0.135590399362,"[0.00033390459328377665, -5.1316166251026314e-05, -2.138460870313443e-05, 2.6416376402880415e-09, 1.3509842440963444e-08, -6.966517311358532e-09, -5.1316166251026314e-05, 0.0006393507080889874, -8.483876499571466e-05, -2.0377613763251596e-08, -5.464238498808874e-10, 4.663247701796914e-08, -2.138460870313443e-05, -8.483876499571466e-05, 0.0002176355913412376, 7.062503522831877e-10, -3.843616611023106e-09, -1.493283262015504e-11, 2.6416376402880415e-09, -2.0377613763251596e-08, 7.062503522831877e-10, 2.007266308037667e-09, 3.82513386745967e-12, 1.001082129655473e-11, 1.3509842440963444e-08, -5.464238498808874e-10, -3.843616611023106e-09, 3.82513386745967e-12, 1.987113996346588e-09, -1.837780337297164e-13, -6.966517311358532e-09, 4.663247701796914e-08, -1.493283262015504e-11, 1.001082129655473e-11, -1.837780337297164e-13, 1.9966319904692773e-09]"
1402416515347404605,,250972,,1402416515,319798946,/enu,/base_link,,,,9.11387468197,11.7428191809,-30.0005809748,,0.000682087923299,0.00471316033776,-0.578866266007,0.815408588963,"[0.030328241515362817, -0.002466643093485701, -0.010907368505740627, 3.330382515404965e-06, -2.2207270584451818e-06, 2.1443242147582785e-05, -0.002466643093485701, 0.03364366326231879, 3.597247697637921e-05, -5.234803753473361e-07, -3.1131670836284186e-06, -6.729402262976352e-06, -0.010907368505740627, 3.597247697637921e-05, 0.2258692527427863, -3.518108644790374e-06, 2.0034881079071923e-06, -2.2813076164264918e-05, 3.330382515404965e-06, -5.234803753473361e-07, -3.518108644790374e-06, 4.823248552389216e-06, -4.710782413449782e-07, 8.878973892070571e-08, -2.2207270584451818e-06, -3.1131670836284186e-06, 2.0034881079071923e-06, -4.710782413449782e-07, 5.274508667846099e-06, 1.3185776659016453e-06, 2.1443242147582785e-05, -6.729402262976352e-06, -2.2813076164264918e-05, 8.878973892070571e-08, 1.3185776659016453e-06, 8.860289178837506e-05]",,,,-1.06138503345,-0.188641693522,-0.192367010287,,0.00374643794491,-2.96696376954e-05,-0.131724617338,"[0.00028930332281538443, -5.177162406357604e-05, -1.6724477074995263e-05, 2.5730059072588837e-09, 1.1733753379907037e-08, -4.388842946478137e-09, -5.177162406357604e-05, 0.0005907190715823614, -7.492917804387992e-05, -1.8702458602497955e-08, -9.67386403492141e-10, 4.71946255494728e-08, -1.6724477074995263e-05, -7.492917804387992e-05, 0.00021305834085201194, 3.18914959542658e-10, -3.647874366544488e-09, 1.797201650001153e-10, 2.5730059072588837e-09, -1.8702458602497955e-08, 3.18914959542658e-10, 2.0071969182664732e-09, 3.832945056792668e-12, 1.0014243210506371e-11, 1.1733753379907037e-08, -9.67386403492141e-10, -3.647874366544488e-09, 3.832945056792668e-12, 1.9870339299796417e-09, -1.7470252248251087e-13, -4.388842946478137e-09, 4.71946255494728e-08, 1.797201650001153e-10, 1.0014243210506371e-11, -1.7470252248251087e-13, 1.9966280013108382e-09]"
1402416515386892966,,250973,,1402416515,329788923,/enu,/base_link,,,,9.10851097079,11.7520806871,-30.0020667464,,0.000590636777458,0.00464275268213,-0.579387449029,0.815038821102,"[0.030335509194711154, -0.0024644714715397484, -0.010913777210546703, 3.2810259411428106e-06, -1.907635017368865e-06, 2.1491300306629568e-05, -0.0024644714715397484, 0.03364826983496496, 3.21000066089054e-05, -7.913699819510769e-07, -3.0640064377809235e-06, -6.785018157160539e-06, -0.010913777210546703, 3.21000066089054e-05, 0.2258897769056838, -3.515448575379103e-06, 1.9974556140423437e-06, -2.280290835472506e-05, 3.2810259411428106e-06, -7.913699819510769e-07, -3.515448575379103e-06, 4.8630857452708095e-06, -4.7106292189327e-07, 8.891356463717878e-08, -1.907635017368865e-06, -3.0640064377809235e-06, 1.9974556140423437e-06, -4.7106292189327e-07, 5.31433025111866e-06, 1.317248649283974e-06, 2.1491300306629568e-05, -6.785018157160539e-06, -2.280290835472506e-05, 8.891356463717878e-08, 1.317248649283974e-06, 8.863155600535634e-05]",,,,-1.06520480575,-0.185064084025,-0.198519236662,,-0.00586251975362,-0.0216774318549,-0.131061916206,"[0.000294608679245444, -5.262564028530399e-05, -1.7098620900457078e-05, 2.6223200787183515e-09, 1.1947817120550267e-08, -4.425613641605644e-09, -5.262564028530399e-05, 0.0005979847443280919, -7.503178104141761e-05, -1.8961899060438907e-08, -9.44081043345488e-10, 4.7245627907321545e-08, -1.7098620900457078e-05, -7.503178104141761e-05, 0.0002134536051638105, 3.201789313005532e-10, -3.6697365292656723e-09, 1.8435459624054875e-10, 2.6223200787183515e-09, -1.8961899060438907e-08, 3.201789313005532e-10, 2.0071968596853437e-09, 3.832932687786791e-12, 1.0014625058943594e-11, 1.1947817120550267e-08, -9.44081043345488e-10, -3.6697365292656723e-09, 3.832932687786791e-12, 1.9870339063264203e-09, -1.7468756350855328e-13, -4.425613641605644e-09, 4.7245627907321545e-08, 1.8435459624054875e-10, 1.0014625058943594e-11, -1.7468756350855328e-13, 1.9966253031286214e-09]"
1402416515386924329,,250974,,1402416515,339776992,/enu,/base_link,,,,9.10328316297,11.7617373367,-30.0043304945,,0.000604704513389,0.00461030409774,-0.579919924827,0.81466021151,"[0.030342778887727625, -0.0024622737220135514, -0.01092029657983842, 3.2312070299097287e-06, -1.589264361720844e-06, 2.1540094722669074e-05, -0.0024622737220135514, 0.03365310325849841, 2.8050180207678513e-05, -1.0640988616171288e-06, -3.014382346966784e-06, -6.840564667509955e-06, -0.01092029657983842, 2.8050180207678513e-05, 0.2259105075019123, -3.5127447892267406e-06, 1.991413665060336e-06, -2.2792723350347707e-05, 3.2312070299097287e-06, -1.0640988616171288e-06, -3.5127447892267406e-06, 4.902905956970209e-06, -4.710474787347242e-07, 8.903827272818771e-08, -1.589264361720844e-06, -3.014382346966784e-06, 1.991413665060336e-06, -4.710474787347242e-07, 5.354135062162975e-06, 1.3159107255737859e-06, 2.1540094722669074e-05, -6.840564667509955e-06, -2.2792723350347707e-05, 8.903827272818771e-08, 1.3159107255737859e-06, 8.866019804823892e-05]",,,,-1.06572331839,-0.18897347117,-0.190674333741,,0.00694941831986,-0.00323265647108,-0.133712648625,"[0.0003000146521154908, -5.3486266680680207e-05, -1.745302260106498e-05, 2.672766011915394e-09, 1.2164366058126192e-08, -4.4639393060203115e-09, -5.3486266680680207e-05, 0.0006053301572300225, -7.519505135498977e-05, -1.9222902379087886e-08, -9.204036252153235e-10, 4.7296420765347224e-08, -1.745302260106498e-05, -7.519505135498977e-05, 0.00021386205837025158, 3.243709565453808e-10, -3.689394476013761e-09, 1.8209047637864273e-10, 2.672766011915394e-09, -1.9222902379087886e-08, 3.243709565453808e-10, 2.007196800484748e-09, 3.832920184069636e-12, 1.0015009290281477e-11, 1.2164366058126192e-08, -9.204036252153235e-10, -3.689394476013761e-09, 3.832920184069636e-12, 1.9870338822781235e-09, -1.746730957945677e-13, -4.4639393060203115e-09, 4.7296420765347224e-08, 1.8209047637864273e-10, 1.0015009290281477e-11, -1.746730957945677e-13, 1.9966226028650477e-09]"
1402416515426847021,,250975,,1402416515,350789070,/enu,/base_link,,,,9.0974899898,11.7719789282,-30.0059793108,,0.000585600500577,0.00452379873252,-0.580526105213,0.814228858174,"[0.030350973005652013, -0.002459869376951338, -0.010927494239928661, 3.175752348830855e-06, -1.2317595196991558e-06, 2.1590912925065878e-05, -0.002459869376951338, 0.0336583208812307, 2.3814943146466365e-05, -1.3708079732346388e-06, -2.9591476650629114e-06, -6.902445360794004e-06, -0.010927494239928661, 2.3814943146466365e-05, 0.22593315611052964, -3.509006035060252e-06, 1.984890096053019e-06, -2.2781777676736888e-05, 3.175752348830855e-06, -1.3708079732346388e-06, -3.509006035060252e-06, 4.9513308535088715e-06, -4.710324486904787e-07, 8.915699682536534e-08, -1.2317595196991558e-06, -2.9591476650629114e-06, 1.984890096053019e-06, -4.710324486904787e-07, 5.4025454409564205e-06, 1.3145655048854862e-06, 2.1590912925065878e-05, -6.902445360794004e-06, -2.2781777676736888e-05, 8.915699682536534e-08, 1.3145655048854862e-06, 8.869752126330175e-05]",,,,-1.06960201135,-0.187247429138,-0.192515555806,,0.00717031140179,-0.0143878813103,-0.137909648927,"[0.0003061252247349222, -5.4471722618629655e-05, -1.7855896106375936e-05, 2.730157612936285e-09, 1.2404790706985661e-08, -4.508631581851409e-09, -5.4471722618629655e-05, 0.0006135930736916015, -7.537314087718184e-05, -1.9512708171640818e-08, -8.930955763193565e-10, 4.7353062079840506e-08, -1.7855896106375936e-05, -7.537314087718184e-05, 0.00021436338242742457, 3.287127265624576e-10, -3.712627719833791e-09, 1.799865456400201e-10, 2.730157612936285e-09, -1.9512708171640818e-08, 3.287127265624576e-10, 2.0071967406816334e-09, 3.832907607101452e-12, 1.0015395658854488e-11, 1.2404790706985661e-08, -8.930955763193565e-10, -3.712627719833791e-09, 3.832907607101452e-12, 1.9870338577669396e-09, -1.7465911251532766e-13, -4.508631581851409e-09, 4.7353062079840506e-08, 1.799865456400201e-10, 1.0015395658854488e-11, -1.7465911251532766e-13, 1.996619901358582e-09]"
1402416515426875511,,250976,,1402416515,360790014,/enu,/base_link,,,,9.13072090271,11.8075974844,-30.0340991344,,-0.0013340768474,0.00497487212085,-0.580838705062,0.814002376893,"[0.030304184874767635, -0.0024739806534843384, -0.01087883843396575, 2.942408312966935e-06, -3.828172145379092e-06, 2.160475814741803e-05, -0.0024739806534843384, 0.03363233306403415, 5.561638747980778e-05, 3.4085646729963525e-07, -3.181106328292006e-06, -7.198654012278344e-06, -0.01087883843396575, 5.561638747980778e-05, 0.22580380182989152, -3.209120609565933e-06, 3.382389492919817e-06, -2.28575787451046e-05, 2.942408312966935e-06, 3.4085646729963525e-07, -3.209120609565933e-06, 4.713233929335184e-06, -4.959019083353568e-07, 1.3081754183606403e-07, -3.828172145379092e-06, -3.181106328292006e-06, 3.382389492919817e-06, -4.959019083353568e-07, 5.147008601466879e-06, 1.3052286759873124e-06, 2.160475814741803e-05, -7.198654012278344e-06, -2.28575787451046e-05, 1.3081754183606403e-07, 1.3052286759873124e-06, 8.871927072947478e-05]",,,,-1.08857829699,-0.136232815064,-0.203531439204,,0.00286103715104,-0.0135047945242,-0.125870703139,"[0.0002683508517441032, -5.222942333696266e-05, -1.4355665007332257e-05, 2.589567967014018e-09, 1.089105073652358e-08, -2.1186629002586584e-09, -5.222942333696266e-05, 0.0005703579905664859, -6.714820862973445e-05, -1.7987046874017216e-08, -1.1961301175550235e-09, 4.809933897462428e-08, -1.4355665007332257e-05, -6.714820862973445e-05, 0.0002102667807274743, 5.726775345453068e-13, -3.5822512521798716e-09, 3.7277220410270037e-10, 2.589567967014018e-09, -1.7987046874017216e-08, 5.726775345453068e-13, 2.007134232707614e-09, 3.8374909673111524e-12, 1.0017996537869059e-11, 1.089105073652358e-08, -1.1961301175550235e-09, -3.5822512521798716e-09, 3.8374909673111524e-12, 1.986966654759244e-09, -1.663849216614249e-13, -2.1186629002586584e-09, 4.809933897462428e-08, 3.7277220410270037e-10, 1.0017996537869059e-11, -1.663849216614249e-13, 1.996616015208911e-09]"
