rosbagTimestamp,transforms,-,header,seq,stamp,secs,nsecs,frame_id,child_frame_id,transform,translation,x,y,z,rotation,x,y,z,w
1402416515091043938,,errorv,,0,,1402416515,16885995,/enu,/base_link,,,9.30072915337,11.4581040241,-30.052366533,,0.00290769094648,0.00574699608822,-0.563591180987,0.826028751366
1402416515091105872,,errorv,,0,,1402416515,26902914,/enu,/base_link,,,9.29548225039,11.4663124946,-30.0546996738,,0.00288403815753,0.00582043557184,-0.5640540295,0.825712332873
1402416515091130233,,errorv,,0,,1402416515,37897109,/enu,/base_link,,,9.26864075921,11.4914282933,-30.0195024361,,0.00173602176427,0.00413658255195,-0.564415956059,0.825478348268
1402416515091151445,,errorv,,0,,1402416515,47887086,/enu,/base_link,,,9.26313375288,11.5001220273,-30.0217354256,,0.00171137085423,0.00420726249819,-0.564917294013,0.825135032026
1402416515097686691,,errorv,,0,,1402416515,97543985,base_link,/z_drive,,,0.0,0.0,0.0,,0.0,0.0,0.0,1.0
1402416515097959597,,errorv,,0,,1402416515,97570612,/z_drive,port,,,-0.3,0.3048,0.0,,0.0,0.0,0.0,1.0
1402416515097990256,,errorv,,0,,1402416515,97724459,/z_drive,starboard,,,-0.3,-0.3048,0.0,,0.0,0.0,0.0,1.0
1402416515117654756,,errorv,,0,,1402416515,117447062,base_link,/z_drive,,,0.0,0.0,0.0,,0.0,0.0,0.0,1.0
1402416515117683991,,errorv,,0,,1402416515,117497096,/z_drive,port,,,-0.3,0.3048,0.0,,0.0,0.0,0.0,1.0
1402416515117700341,,errorv,,0,,1402416515,117504685,/z_drive,starboard,,,-0.3,-0.3048,0.0,,0.0,0.0,0.0,1.0
1402416515128164113,,errorv,,0,,1402416515,227946657,/base_link,/gps,,,-0.84,0.0,-0.14,,0.0,0.0,0.0,1.0
1402416515128326030,,errorv,,0,,1402416515,228129137,base_link,imu,,,0.13,0.0,-0.1,,1.0,0.0,0.0,0.0
1402416515131251295,,errorv,,0,,1402416515,58897018,/enu,/base_link,,,9.25719309837,11.5097222136,-30.0242960999,,0.00165885862016,0.00431360409449,-0.565473677838,0.824753393858
1402416515131283417,,errorv,,0,,1402416515,69886922,/enu,/base_link,,,9.25114861342,11.5192954337,-30.0267255901,,0.0016233014756,0.00442365901224,-0.566006672606,0.824387192222
1402416515131305910,,errorv,,0,,1402416515,79902887,/enu,/base_link,,,9.2458027953,11.5281177548,-30.0291046233,,0.00157090381629,0.00448391422584,-0.566511813553,0.82403992129
1402416515131325816,,errorv,,0,,1402416515,89876890,/enu,/base_link,,,9.22290758733,11.5305240488,-29.9817788535,,0.0013967090882,0.00401204216271,-0.566969393578,0.823727903781
1402416515131356835,,errorv,,0,,1402416515,100862979,/enu,/base_link,,,9.21675187157,11.540289654,-29.9840316778,,0.00143268120254,0.00406363621721,-0.567524463545,0.823345260242
1402416515137707975,,errorv,,0,,1402416515,137523315,base_link,/z_drive,,,0.0,0.0,0.0,,0.0,0.0,0.0,1.0
1402416515137738164,,errorv,,0,,1402416515,137541983,/z_drive,port,,,-0.3,0.3048,0.0,,0.0,0.0,0.0,1.0
1402416515137762105,,errorv,,0,,1402416515,137548405,/z_drive,starboard,,,-0.3,-0.3048,0.0,,0.0,0.0,0.0,1.0
1402416515157784868,,errorv,,0,,1402416515,157479392,base_link,/z_drive,,,0.0,0.0,0.0,,0.0,0.0,0.0,1.0
1402416515157822914,,errorv,,0,,1402416515,157496482,/z_drive,port,,,-0.3,0.3048,0.0,,0.0,0.0,0.0,1.0
1402416515157879844,,errorv,,0,,1402416515,157502752,/z_drive,starboard,,,-0.3,-0.3048,0.0,,0.0,0.0,0.0,1.0
1402416515171037844,,errorv,,0,,1402416515,110877990,/enu,/base_link,,,9.21116337857,11.5492021195,-29.9860565194,,0.00145970516486,0.00409017532492,-0.56802393275,0.823000578098
1402416515171065957,,errorv,,0,,1402416515,120845079,/enu,/base_link,,,9.2057997932,11.5580676683,-29.988137505,,0.0013915736622,0.00415615627368,-0.568494520882,0.822675373166
1402416515171090388,,errorv,,0,,1402416515,131861925,/enu,/base_link,,,9.19980736321,11.568082254,-29.9906785791,,0.001359387246,0.00423332004934,-0.569035513467,0.822300927569
1402416515177647442,,errorv,,0,,1402416515,177486106,base_link,/z_drive,,,0.0,0.0,0.0,,0.0,0.0,0.0,1.0
1402416515177785625,,errorv,,0,,1402416515,177518733,/z_drive,port,,,-0.3,0.3048,0.0,,0.0,0.0,0.0,1.0
1402416515177819657,,errorv,,0,,1402416515,177558752,/z_drive,starboard,,,-0.3,-0.3048,0.0,,0.0,0.0,0.0,1.0
1402416515179336738,,errorv,,0,,1402416515,141865968,/enu,/base_link,,,9.1649777794,11.5569395373,-29.9271744484,,0.00200159223377,0.00386933555436,-0.569647827559,0.821877347558
1402416515179383378,,errorv,,0,,1402416515,152842998,/enu,/base_link,,,9.15868675635,11.5666539226,-29.9292855948,,0.0020461532363,0.0038731225729,-0.570219919217,0.821480405066
1402416515197652213,,errorv,,0,,1402416515,197506397,base_link,/z_drive,,,0.0,0.0,0.0,,0.0,0.0,0.0,1.0
1402416515197929462,,errorv,,0,,1402416515,197533532,/z_drive,port,,,-0.3,0.3048,0.0,,0.0,0.0,0.0,1.0
1402416515197958126,,errorv,,0,,1402416515,197701477,/z_drive,starboard,,,-0.3,-0.3048,0.0,,0.0,0.0,0.0,1.0
1402416515217824706,,errorv,,0,,1402416515,217496321,base_link,/z_drive,,,0.0,0.0,0.0,,0.0,0.0,0.0,1.0
1402416515217852066,,errorv,,0,,1402416515,217514918,/z_drive,port,,,-0.3,0.3048,0.0,,0.0,0.0,0.0,1.0
1402416515217874225,,errorv,,0,,1402416515,217523324,/z_drive,starboard,,,-0.3,-0.3048,0.0,,0.0,0.0,0.0,1.0
1402416515219077730,,errorv,,0,,1402416515,162861108,/enu,/base_link,,,9.1530078282,11.5758061957,-29.9316161895,,0.00209359721202,0.0038846037531,-0.570735585187,0.821122048483
1402416515219248794,,errorv,,0,,1402416515,173849105,/enu,/base_link,,,9.14671018589,11.5855676808,-29.9335777826,,0.00209325995298,0.00390555186243,-0.571301299034,0.820728451225
1402416515228308630,,errorv,,0,,1402416515,328060705,/base_link,/gps,,,-0.84,0.0,-0.14,,0.0,0.0,0.0,1.0
1402416515228428084,,errorv,,0,,1402416515,328231045,base_link,imu,,,0.13,0.0,-0.1,,1.0,0.0,0.0,0.0
1402416515237672234,,errorv,,0,,1402416515,237500762,base_link,/z_drive,,,0.0,0.0,0.0,,0.0,0.0,0.0,1.0
1402416515237771997,,errorv,,0,,1402416515,237521178,/z_drive,port,,,-0.3,0.3048,0.0,,0.0,0.0,0.0,1.0
1402416515237801329,,errorv,,0,,1402416515,237561428,/z_drive,starboard,,,-0.3,-0.3048,0.0,,0.0,0.0,0.0,1.0
1402416515257686125,,errorv,,0,,1402416515,257483653,base_link,/z_drive,,,0.0,0.0,0.0,,0.0,0.0,0.0,1.0
1402416515257714941,,errorv,,0,,1402416515,257500719,/z_drive,port,,,-0.3,0.3048,0.0,,0.0,0.0,0.0,1.0
1402416515257739225,,errorv,,0,,1402416515,257509292,/z_drive,starboard,,,-0.3,-0.3048,0.0,,0.0,0.0,0.0,1.0
1402416515259139210,,errorv,,0,,1402416515,183836936,/enu,/base_link,,,9.12161808038,11.5922029487,-29.8952011381,,0.00208256188689,0.00309670864219,-0.57177879502,0.82039934355
1402416515259167113,,errorv,,0,,1402416515,194833040,/enu,/base_link,,,9.11518731522,11.6021242539,-29.8971064205,,0.00209259213113,0.00313683068492,-0.572321510047,0.820020652477
1402416515259191446,,errorv,,0,,1402416515,204832077,/enu,/base_link,,,9.10909497549,11.6111306591,-29.8987413766,,0.00208715284362,0.00314039765007,-0.572853053094,0.819649413625
1402416515259210813,,errorv,,0,,1402416515,215831995,/enu,/base_link,,,9.10265134543,11.6212939831,-29.9009317276,,0.00209242988247,0.0031771441178,-0.57342744027,0.819247519519
1402416515277620335,,errorv,,0,,1402416515,277491163,base_link,/z_drive,,,0.0,0.0,0.0,,0.0,0.0,0.0,1.0
1402416515277836013,,errorv,,0,,1402416515,277508976,/z_drive,port,,,-0.3,0.3048,0.0,,0.0,0.0,0.0,1.0
1402416515277987081,,errorv,,0,,1402416515,277547293,/z_drive,starboard,,,-0.3,-0.3048,0.0,,0.0,0.0,0.0,1.0
1402416515297740749,,errorv,,0,,1402416515,297515074,base_link,/z_drive,,,0.0,0.0,0.0,,0.0,0.0,0.0,1.0
1402416515297770331,,errorv,,0,,1402416515,297527854,/z_drive,port,,,-0.3,0.3048,0.0,,0.0,0.0,0.0,1.0
1402416515297804094,,errorv,,0,,1402416515,297532095,/z_drive,starboard,,,-0.3,-0.3048,0.0,,0.0,0.0,0.0,1.0
1402416515299146451,,errorv,,0,,1402416515,225831985,/enu,/base_link,,,9.0967195515,11.6303375256,-29.90258159,,0.00215819504114,0.00315834398892,-0.573967743196,0.818868974152
1402416515299357812,,errorv,,0,,1402416515,236807107,/enu,/base_link,,,9.09026814948,11.6403349379,-29.904506413,,0.00219708708664,0.00312711483584,-0.574579433093,0.818439899459
1402416515299385568,,errorv,,0,,1402416515,247834920,/enu,/base_link,,,9.08364580685,11.6504409888,-29.9063305758,,0.0022294904388,0.00312940993606,-0.575156250613,0.818034549116
1402416515299408093,,errorv,,0,,1402416515,256802082,/enu,/base_link,,,9.07851602833,11.6587930288,-29.9080051491,,0.00219692882671,0.00309989702086,-0.575607703833,0.817717148793
1402416515299431955,,errorv,,0,,1402416515,267890930,/enu,/base_link,,,9.07183129488,11.6689698521,-29.9098089092,,0.00225265180161,0.00307762535073,-0.576195463136,0.817303029509
1402416515317827951,,errorv,,0,,1402416515,317526902,base_link,/z_drive,,,0.0,0.0,0.0,,0.0,0.0,0.0,1.0
1402416515317857147,,errorv,,0,,1402416515,317546033,/z_drive,port,,,-0.3,0.3048,0.0,,0.0,0.0,0.0,1.0
1402416515317881874,,errorv,,0,,1402416515,317550350,/z_drive,starboard,,,-0.3,-0.3048,0.0,,0.0,0.0,0.0,1.0
1402416515328392034,,errorv,,0,,1402416515,428160062,/base_link,/gps,,,-0.84,0.0,-0.14,,0.0,0.0,0.0,1.0
1402416515328552821,,errorv,,0,,1402416515,428337053,base_link,imu,,,0.13,0.0,-0.1,,1.0,0.0,0.0,0.0
1402416515337724051,,errorv,,0,,1402416515,337516572,base_link,/z_drive,,,0.0,0.0,0.0,,0.0,0.0,0.0,1.0
1402416515337746177,,errorv,,0,,1402416515,337536004,/z_drive,port,,,-0.3,0.3048,0.0,,0.0,0.0,0.0,1.0
1402416515337761039,,errorv,,0,,1402416515,337544128,/z_drive,starboard,,,-0.3,-0.3048,0.0,,0.0,0.0,0.0,1.0
1402416515339120335,,errorv,,0,,1402416515,277817964,/enu,/base_link,,,9.07481361557,11.663721341,-29.8932532643,,0.002560927834,0.00404796346229,-0.576782508654,0.816883708585
1402416515339147960,,errorv,,0,,1402416515,287806034,/enu,/base_link,,,9.06925956481,11.6727801672,-29.8949912911,,0.0025705892037,0.00405414414845,-0.577322457173,0.816502134982
1402416515339171792,,errorv,,0,,1402416515,298793077,/enu,/base_link,,,9.06276645725,11.6826659937,-29.8966771785,,0.00252041100102,0.00404826818069,-0.577908179055,0.816087860242
1402416515347165548,,errorv,,0,,1402416515,308784961,/enu,/base_link,,,9.05705674328,11.6919160744,-29.8985373903,,0.00243985434601,0.00405265835286,-0.578446608294,0.815706530821
1402416515347504273,,errorv,,0,,1402416515,319798946,/enu,/base_link,,,9.11387468197,11.7428191809,-30.0005809748,,0.000682087923299,0.00471316033776,-0.578866266007,0.815408588963
1402416515358112288,,errorv,,0,,1402416515,357672552,base_link,/z_drive,,,0.0,0.0,0.0,,0.0,0.0,0.0,1.0
1402416515358220707,,errorv,,0,,1402416515,357700739,/z_drive,port,,,-0.3,0.3048,0.0,,0.0,0.0,0.0,1.0
1402416515358245346,,errorv,,0,,1402416515,357706876,/z_drive,starboard,,,-0.3,-0.3048,0.0,,0.0,0.0,0.0,1.0
1402416515377822762,,errorv,,0,,1402416515,377581806,base_link,/z_drive,,,0.0,0.0,0.0,,0.0,0.0,0.0,1.0
1402416515377859637,,errorv,,0,,1402416515,377611458,/z_drive,port,,,-0.3,0.3048,0.0,,0.0,0.0,0.0,1.0
1402416515377977764,,errorv,,0,,1402416515,377615874,/z_drive,starboard,,,-0.3,-0.3048,0.0,,0.0,0.0,0.0,1.0
1402416515387125071,,errorv,,0,,1402416515,329788923,/enu,/base_link,,,9.10851097079,11.7520806871,-30.0020667464,,0.000590636777458,0.00464275268213,-0.579387449029,0.815038821102
1402416515387145013,,errorv,,0,,1402416515,339776992,/enu,/base_link,,,9.10328316297,11.7617373367,-30.0043304945,,0.000604704513389,0.00461030409774,-0.579919924827,0.81466021151
1402416515397875533,,errorv,,0,,1402416515,397634486,base_link,/z_drive,,,0.0,0.0,0.0,,0.0,0.0,0.0,1.0
1402416515397915812,,errorv,,0,,1402416515,397660724,/z_drive,port,,,-0.3,0.3048,0.0,,0.0,0.0,0.0,1.0
1402416515397960970,,errorv,,0,,1402416515,397665046,/z_drive,starboard,,,-0.3,-0.3048,0.0,,0.0,0.0,0.0,1.0
1402416515417685280,,errorv,,0,,1402416515,417521782,base_link,/z_drive,,,0.0,0.0,0.0,,0.0,0.0,0.0,1.0
1402416515417708024,,errorv,,0,,1402416515,417535273,/z_drive,port,,,-0.3,0.3048,0.0,,0.0,0.0,0.0,1.0
1402416515417722099,,errorv,,0,,1402416515,417539380,/z_drive,starboard,,,-0.3,-0.3048,0.0,,0.0,0.0,0.0,1.0
1402416515427294397,,errorv,,0,,1402416515,350789070,/enu,/base_link,,,9.0974899898,11.7719789282,-30.0059793108,,0.000585600500577,0.00452379873252,-0.580526105213,0.814228858174
1402416515427324613,,errorv,,0,,1402416515,360790014,/enu,/base_link,,,9.13072090271,11.8075974844,-30.0340991344,,-0.0013340768474,0.00497487212085,-0.580838705062,0.814002376893
1402416515427385746,,errorv,,0,,1402416515,370764017,/enu,/base_link,,,9.12589079858,11.8173431531,-30.0359417052,,-0.00132609662889,0.00492362076984,-0.581373665473,0.81362071048
1402416515427919819,,errorv,,0,,1402416515,381803035,/enu,/base_link,,,9.12051457433,11.8283923908,-30.0382032583,,-0.0014047227594,0.00485828357834,-0.581965480508,0.813197763974
1402416515428445405,,errorv,,0,,1402416515,528261420,/base_link,/gps,,,-0.84,0.0,-0.14,,0.0,0.0,0.0,1.0
1402416515428626601,,errorv,,0,,1402416515,528441776,base_link,imu,,,0.13,0.0,-0.1,,1.0,0.0,0.0,0.0
1402416515438802480,,errorv,,0,,1402416515,437752233,base_link,/z_drive,,,0.0,0.0,0.0,,0.0,0.0,0.0,1.0
1402416515438837353,,errorv,,0,,1402416515,437777042,/z_drive,port,,,-0.3,0.3048,0.0,,0.0,0.0,0.0,1.0
1402416515438860653,,errorv,,0,,1402416515,437787551,/z_drive,starboard,,,-0.3,-0.3048,0.0,,0.0,0.0,0.0,1.0
1402416515457729264,,errorv,,0,,1402416515,457497943,base_link,/z_drive,,,0.0,0.0,0.0,,0.0,0.0,0.0,1.0
1402416515457751726,,errorv,,0,,1402416515,457537958,/z_drive,port,,,-0.3,0.3048,0.0,,0.0,0.0,0.0,1.0
1402416515457780167,,errorv,,0,,1402416515,457549987,/z_drive,starboard,,,-0.3,-0.3048,0.0,,0.0,0.0,0.0,1.0
1402416515467120899,,errorv,,0,,1402416515,391757011,/enu,/base_link,,,9.11571674882,11.8383518469,-30.0401635628,,-0.00144810470206,0.00480723658517,-0.582511004138,0.812807310208
1402416515467398453,,errorv,,0,,1402416515,402753114,/enu,/base_link,,,9.13316818954,11.8446582387,-30.0684583156,,-0.00130275344082,0.00574884953837,-0.583179548624,0.812321899021
1402416515467427337,,errorv,,0,,1402416515,412761926,/enu,/base_link,,,9.12871867708,11.8546170138,-30.0707153683,,-0.0013571561681,0.0057096067896,-0.583708796226,0.811941869672
1402416515467458361,,errorv,,0,,1402416515,422734022,/enu,/base_link,,,9.12397075758,11.8644967501,-30.0728041339,,-0.00136398929815,0.0056274740456,-0.584283682618,0.811528834544
1402416515477738164,,errorv,,0,,1402416515,477604442,base_link,/z_drive,,,0.0,0.0,0.0,,0.0,0.0,0.0,1.0
1402416515477832806,,errorv,,0,,1402416515,477621921,/z_drive,port,,,-0.3,0.3048,0.0,,0.0,0.0,0.0,1.0
1402416515477957078,,errorv,,0,,1402416515,477665012,/z_drive,starboard,,,-0.3,-0.3048,0.0,,0.0,0.0,0.0,1.0
1402416515497796097,,errorv,,0,,1402416515,497552958,base_link,/z_drive,,,0.0,0.0,0.0,,0.0,0.0,0.0,1.0
1402416515497918773,,errorv,,0,,1402416515,497574997,/z_drive,port,,,-0.3,0.3048,0.0,,0.0,0.0,0.0,1.0
1402416515497947680,,errorv,,0,,1402416515,497584948,/z_drive,starboard,,,-0.3,-0.3048,0.0,,0.0,0.0,0.0,1.0
1402416515507313912,,errorv,,0,,1402416515,433754920,/enu,/base_link,,,9.11899917639,11.8753957609,-30.0749679094,,-0.00148048602352,0.00553684834839,-0.584861356823,0.811113028355
1402416515507341429,,errorv,,0,,1402416515,443738937,/enu,/base_link,,,9.15200640779,11.9151754041,-30.13521219,,-0.00294151901364,0.00558833810505,-0.585310529629,0.810784621122
1402416515507398451,,errorv,,0,,1402416515,454731941,/enu,/base_link,,,9.14748189984,11.9263132054,-30.1374589087,,-0.00297986803261,0.00552107916358,-0.585941683702,0.810328934058
1402416515507465512,,errorv,,0,,1402416515,464708089,/enu,/base_link,,,9.1431239168,11.9363980631,-30.1394185807,,-0.00301650226995,0.00545665517665,-0.58649842349,0.809926370031
1402416515517730605,,errorv,,0,,1402416515,517543004,base_link,/z_drive,,,0.0,0.0,0.0,,0.0,0.0,0.0,1.0
1402416515517813538,,errorv,,0,,1402416515,517577088,/z_drive,port,,,-0.3,0.3048,0.0,,0.0,0.0,0.0,1.0
1402416515517899638,,errorv,,0,,1402416515,517589630,/z_drive,starboard,,,-0.3,-0.3048,0.0,,0.0,0.0,0.0,1.0
1402416515528604365,,errorv,,0,,1402416515,628370167,/base_link,/gps,,,-0.84,0.0,-0.14,,0.0,0.0,0.0,1.0
1402416515528764347,,errorv,,0,,1402416515,628540208,base_link,imu,,,0.13,0.0,-0.1,,1.0,0.0,0.0,0.0
1402416515537807931,,errorv,,0,,1402416515,537515271,base_link,/z_drive,,,0.0,0.0,0.0,,0.0,0.0,0.0,1.0
1402416515537838969,,errorv,,0,,1402416515,537534491,/z_drive,port,,,-0.3,0.3048,0.0,,0.0,0.0,0.0,1.0
1402416515537859448,,errorv,,0,,1402416515,537552210,/z_drive,starboard,,,-0.3,-0.3048,0.0,,0.0,0.0,0.0,1.0
1402416515547069304,,errorv,,0,,1402416515,474733114,/enu,/base_link,,,9.13888423562,11.9466564313,-30.1416202954,,-0.00300353028982,0.00533614465166,-0.587047544596,0.809529298265
1402416515547265053,,errorv,,0,,1402416515,485723018,/enu,/base_link,,,9.10723185971,11.9618701776,-30.1021314187,,-0.003218068644,0.00372386084759,-0.587528243931,0.809188692134
1402416515547318117,,errorv,,0,,1402416515,495719909,/enu,/base_link,,,9.10276323341,11.9723680871,-30.1042849853,,-0.0031993583751,0.00365396184722,-0.588086502477,0.808783455736
1402416515547336521,,errorv,,0,,1402416515,505717039,/enu,/base_link,,,9.09825608425,11.9828526465,-30.1063325498,,-0.00322885453956,0.00360144521248,-0.5886342372,0.808385018964
1402416515557800460,,errorv,,0,,1402416515,557558046,base_link,/z_drive,,,0.0,0.0,0.0,,0.0,0.0,0.0,1.0
1402416515557822051,,errorv,,0,,1402416515,557572644,/z_drive,port,,,-0.3,0.3048,0.0,,0.0,0.0,0.0,1.0
1402416515557835889,,errorv,,0,,1402416515,557576740,/z_drive,starboard,,,-0.3,-0.3048,0.0,,0.0,0.0,0.0,1.0
1402416515577779101,,errorv,,0,,1402416515,577605928,base_link,/z_drive,,,0.0,0.0,0.0,,0.0,0.0,0.0,1.0
1402416515577802238,,errorv,,0,,1402416515,577627996,/z_drive,port,,,-0.3,0.3048,0.0,,0.0,0.0,0.0,1.0
1402416515577866528,,errorv,,0,,1402416515,577637078,/z_drive,starboard,,,-0.3,-0.3048,0.0,,0.0,0.0,0.0,1.0
1402416515587076474,,errorv,,0,,1402416515,515687942,/enu,/base_link,,,9.09386190143,11.9933738512,-30.1085214209,,-0.00329334117675,0.00356754425713,-0.589190691862,0.807979427433
1402416515587102567,,errorv,,0,,1402416515,526689052,/enu,/base_link,,,9.08890113828,12.0050135028,-30.1109968059,,-0.00332259690889,0.00350358570447,-0.58980375435,0.807532176815
1402416515587166625,,errorv,,0,,1402416515,536693096,/enu,/base_link,,,9.06711599017,11.9817293947,-30.0355856982,,-0.0026608722682,0.00451832099188,-0.590476072525,0.807038110816
1402416515587187935,,errorv,,0,,1402416515,547693967,/enu,/base_link,,,9.06219591081,11.9929915906,-30.0377113607,,-0.00267738569309,0.004444448984,-0.591055303312,0.806614348314
1402416515587248056,,errorv,,0,,1402416515,557691097,/enu,/base_link,,,9.0579417705,12.0033927942,-30.0398741178,,-0.0027147198449,0.0044050611176,-0.591599273883,0.806215557326
1402416515597656611,,errorv,,0,,1402416515,597508136,base_link,/z_drive,,,0.0,0.0,0.0,,0.0,0.0,0.0,1.0
1402416515597678458,,errorv,,0,,1402416515,597526080,/z_drive,port,,,-0.3,0.3048,0.0,,0.0,0.0,0.0,1.0
1402416515597740121,,errorv,,0,,1402416515,597530641,/z_drive,starboard,,,-0.3,-0.3048,0.0,,0.0,0.0,0.0,1.0
1402416515618792410,,errorv,,0,,1402416515,617471746,base_link,/z_drive,,,0.0,0.0,0.0,,0.0,0.0,0.0,1.0
1402416515618827505,,errorv,,0,,1402416515,617488923,/z_drive,port,,,-0.3,0.3048,0.0,,0.0,0.0,0.0,1.0
1402416515618860930,,errorv,,0,,1402416515,617497751,/z_drive,starboard,,,-0.3,-0.3048,0.0,,0.0,0.0,0.0,1.0
1402416515627095991,,errorv,,0,,1402416515,567682027,/enu,/base_link,,,9.05355123672,12.0137056247,-30.041879427,,-0.0027875721828,0.00432204206279,-0.592130713089,0.805825519582
1402416515627119814,,errorv,,0,,1402416515,578666925,/enu,/base_link,,,9.048822778,12.0251184978,-30.0442576954,,-0.00277285134942,0.00418307407344,-0.592711798601,0.805398992417
1402416515627162741,,errorv,,0,,1402416515,588664054,/enu,/base_link,,,9.04226949017,12.0397282254,-30.0406286405,,-0.00301988037467,0.00359287609891,-0.593196802624,0.805043803107
1402416515628653682,,errorv,,0,,1402416515,728477978,/base_link,/gps,,,-0.84,0.0,-0.14,,0.0,0.0,0.0,1.0
1402416515628850155,,errorv,,0,,1402416515,728652704,base_link,imu,,,0.13,0.0,-0.1,,1.0,0.0,0.0,0.0
1402416515635273813,,errorv,,0,,1402416515,598669052,/enu,/base_link,,,9.0378121337,12.0501064109,-30.0426179674,,-0.0029952931017,0.00347919537092,-0.593749556107,0.80463680505
1402416515635318861,,errorv,,0,,1402416515,608654975,/enu,/base_link,,,9.03331694776,12.0606582263,-30.0448194548,,-0.00295564970795,0.00342171501297,-0.594302836628,0.804228633149
1402416515637698806,,errorv,,0,,1402416515,637509306,base_link,/z_drive,,,0.0,0.0,0.0,,0.0,0.0,0.0,1.0
1402416515637728197,,errorv,,0,,1402416515,637529924,/z_drive,port,,,-0.3,0.3048,0.0,,0.0,0.0,0.0,1.0
1402416515637757489,,errorv,,0,,1402416515,637537967,/z_drive,starboard,,,-0.3,-0.3048,0.0,,0.0,0.0,0.0,1.0
1402416515657720976,,errorv,,0,,1402416515,657472617,base_link,/z_drive,,,0.0,0.0,0.0,,0.0,0.0,0.0,1.0
1402416515657744801,,errorv,,0,,1402416515,657490240,/z_drive,port,,,-0.3,0.3048,0.0,,0.0,0.0,0.0,1.0
1402416515657813676,,errorv,,0,,1402416515,657511652,/z_drive,starboard,,,-0.3,-0.3048,0.0,,0.0,0.0,0.0,1.0
1402416515675130987,,errorv,,0,,1402416515,619635105,/enu,/base_link,,,9.02877420993,12.0723316657,-30.0473026061,,-0.00292642731458,0.00330904168096,-0.594890462613,0.80379464029
1402416515675160893,,errorv,,0,,1402416515,629638910,/enu,/base_link,,,9.02442463995,12.0828901122,-30.0493381908,,-0.00285038636568,0.00323830131987,-0.595450934886,0.803380092388
1402416515677757947,,errorv,,0,,1402416515,677537854,base_link,/z_drive,,,0.0,0.0,0.0,,0.0,0.0,0.0,1.0
1402416515677785564,,errorv,,0,,1402416515,677553602,/z_drive,port,,,-0.3,0.3048,0.0,,0.0,0.0,0.0,1.0
1402416515677849103,,errorv,,0,,1402416515,677557885,/z_drive,starboard,,,-0.3,-0.3048,0.0,,0.0,0.0,0.0,1.0
1402416515697765689,,errorv,,0,,1402416515,697529163,base_link,/z_drive,,,0.0,0.0,0.0,,0.0,0.0,0.0,1.0
1402416515697793528,,errorv,,0,,1402416515,697555246,/z_drive,port,,,-0.3,0.3048,0.0,,0.0,0.0,0.0,1.0
1402416515697861735,,errorv,,0,,1402416515,697562937,/z_drive,starboard,,,-0.3,-0.3048,0.0,,0.0,0.0,0.0,1.0
1402416515715153724,,errorv,,0,,1402416515,639635086,/enu,/base_link,,,9.01253641873,12.0875372929,-30.0183558724,,-0.0028903021985,0.00303704963878,-0.5959688477,0.802996609616
1402416515715181895,,errorv,,0,,1402416515,650635004,/enu,/base_link,,,9.00773123023,12.0990542994,-30.0203524817,,-0.00276466570746,0.00292963962074,-0.596589801201,0.802536219082
1402416515715205616,,errorv,,0,,1402416515,660628080,/enu,/base_link,,,9.00349448281,12.1097822581,-30.0227017201,,-0.00268297084883,0.00282567754661,-0.597181913193,0.802096365638
1402416515715234354,,errorv,,0,,1402416515,670627117,/enu,/base_link,,,8.99931499504,12.1203212117,-30.0246151515,,-0.00265514330747,0.00272332241958,-0.597761338834,0.801665089376
1402416515717867782,,errorv,,0,,1402416515,717498358,base_link,/z_drive,,,0.0,0.0,0.0,,0.0,0.0,0.0,1.0
1402416515717975024,,errorv,,0,,1402416515,717518038,/z_drive,port,,,-0.3,0.3048,0.0,,0.0,0.0,0.0,1.0
1402416515718001572,,errorv,,0,,1402416515,717525600,/z_drive,starboard,,,-0.3,-0.3048,0.0,,0.0,0.0,0.0,1.0
1402416515728751109,,errorv,,0,,1402416515,828572204,/base_link,/gps,,,-0.84,0.0,-0.14,,0.0,0.0,0.0,1.0
1402416515728964091,,errorv,,0,,1402416515,828757308,base_link,imu,,,0.13,0.0,-0.1,,1.0,0.0,0.0,0.0
1402416515737728827,,errorv,,0,,1402416515,737472623,base_link,/z_drive,,,0.0,0.0,0.0,,0.0,0.0,0.0,1.0
1402416515737756210,,errorv,,0,,1402416515,737491931,/z_drive,port,,,-0.3,0.3048,0.0,,0.0,0.0,0.0,1.0
1402416515737826258,,errorv,,0,,1402416515,737498735,/z_drive,starboard,,,-0.3,-0.3048,0.0,,0.0,0.0,0.0,1.0
1402416515757822437,,errorv,,0,,1402416515,681627988,/enu,/base_link,,,8.99446163794,12.1321348467,-30.027032916,,-0.00256093213113,0.00263467735682,-0.598386905386,0.801198858939
1402416515757852783,,errorv,,0,,1402416515,691591024,/enu,/base_link,,,8.96867209679,12.1505334622,-30.0308401436,,-0.00205257419388,0.000573980449692,-0.598725465034,0.800951481056
1402416515757874582,,errorv,,0,,1402416515,701591014,/enu,/base_link,,,8.96404795626,12.161387014,-30.0329403589,,-0.00192140049721,0.000433913918039,-0.59928983644,0.800529707056
1402416515757899583,,errorv,,0,,1402416515,711595058,/enu,/base_link,,,8.95948657289,12.1723496449,-30.0352098299,,-0.00178917418945,0.000317182187933,-0.599847127046,0.800112568596
1402416515757992981,,errorv,,0,,1402416515,757800059,base_link,/z_drive,,,0.0,0.0,0.0,,0.0,0.0,0.0,1.0
1402416515758009600,,errorv,,0,,1402416515,757819779,/z_drive,port,,,-0.3,0.3048,0.0,,0.0,0.0,0.0,1.0
1402416515758069697,,errorv,,0,,1402416515,757824955,/z_drive,starboard,,,-0.3,-0.3048,0.0,,0.0,0.0,0.0,1.0
1402416515777624086,,errorv,,0,,1402416515,777452647,base_link,/z_drive,,,0.0,0.0,0.0,,0.0,0.0,0.0,1.0
1402416515777654877,,errorv,,0,,1402416515,777469188,/z_drive,port,,,-0.3,0.3048,0.0,,0.0,0.0,0.0,1.0
1402416515777710156,,errorv,,0,,1402416515,777475518,/z_drive,starboard,,,-0.3,-0.3048,0.0,,0.0,0.0,0.0,1.0
1402416515795167190,,errorv,,0,,1402416515,722590923,/enu,/base_link,,,8.9544491533,12.1841810527,-30.0371869852,,-0.00165811154119,0.000180733477819,-0.600475060725,0.799641744438
1402416515795188756,,errorv,,0,,1402416515,732580900,/enu,/base_link,,,8.949809086,12.1950155945,-30.0392397519,,-0.00159925076891,0.000101860370593,-0.601040563841,0.799216912133
1402416515795333587,,errorv,,0,,1402416515,743596076,/enu,/base_link,,,8.95064880149,12.1888736895,-30.0033525662,,-0.00149310368445,0.00148691612641,-0.601817001164,0.798631239579
1402416515795362908,,errorv,,0,,1402416515,753565073,/enu,/base_link,,,8.94642765063,12.1995386392,-30.0053092627,,-0.00134949938882,0.00135383947101,-0.602373788018,0.79821185501
1402416515797594917,,errorv,,0,,1402416515,797442445,base_link,/z_drive,,,0.0,0.0,0.0,,0.0,0.0,0.0,1.0
1402416515797878788,,errorv,,0,,1402416515,797472730,/z_drive,port,,,-0.3,0.3048,0.0,,0.0,0.0,0.0,1.0
1402416515797909105,,errorv,,0,,1402416515,797512441,/z_drive,starboard,,,-0.3,-0.3048,0.0,,0.0,0.0,0.0,1.0
1402416515817926182,,errorv,,0,,1402416515,817650027,base_link,/z_drive,,,0.0,0.0,0.0,,0.0,0.0,0.0,1.0
1402416515817964537,,errorv,,0,,1402416515,817691127,/z_drive,port,,,-0.3,0.3048,0.0,,0.0,0.0,0.0,1.0
1402416515818038784,,errorv,,0,,1402416515,817700295,/z_drive,starboard,,,-0.3,-0.3048,0.0,,0.0,0.0,0.0,1.0
1402416515828902644,,errorv,,0,,1402416515,928670964,/base_link,/gps,,,-0.84,0.0,-0.14,,0.0,0.0,0.0,1.0
1402416515829043702,,errorv,,0,,1402416515,928819611,base_link,imu,,,0.13,0.0,-0.1,,1.0,0.0,0.0,0.0
1402416515835302716,,errorv,,0,,1402416515,763598918,/enu,/base_link,,,8.94202542362,12.2105036853,-30.0074689006,,-0.00115836876025,0.00120272719311,-0.602952197481,0.797775569432
1402416515835331276,,errorv,,0,,1402416515,773557901,/enu,/base_link,,,8.93783184527,12.2212238146,-30.00952639,,-0.00102446760206,0.00104804054119,-0.603519756123,0.79734669752
1402416515835399095,,errorv,,0,,1402416515,784558057,/enu,/base_link,,,8.92619954645,12.2320490881,-29.9942156181,,-0.00089005650043,0.000449988354283,-0.604070897843,0.796929956577
1402416515835457092,,errorv,,0,,1402416515,794557094,/enu,/base_link,,,8.92191847752,12.2429625931,-29.9961542364,,-0.000807915728151,0.000382455424443,-0.604640132015,0.796498281076
1402416515835483482,,errorv,,0,,1402416515,804557085,/enu,/base_link,,,8.91746927559,12.2537480911,-29.9979242689,,-0.000700749688626,0.000275831522351,-0.60519288151,0.796078519391
1402416515837824716,,errorv,,0,,1402416515,837623515,base_link,/z_drive,,,0.0,0.0,0.0,,0.0,0.0,0.0,1.0
1402416515837852717,,errorv,,0,,1402416515,837650675,/z_drive,port,,,-0.3,0.3048,0.0,,0.0,0.0,0.0,1.0
1402416515837935123,,errorv,,0,,1402416515,837673142,/z_drive,starboard,,,-0.3,-0.3048,0.0,,0.0,0.0,0.0,1.0
1402416515857618566,,errorv,,0,,1402416515,857480709,base_link,/z_drive,,,0.0,0.0,0.0,,0.0,0.0,0.0,1.0
1402416515857672782,,errorv,,0,,1402416515,857501356,/z_drive,port,,,-0.3,0.3048,0.0,,0.0,0.0,0.0,1.0
1402416515857740354,,errorv,,0,,1402416515,857537209,/z_drive,starboard,,,-0.3,-0.3048,0.0,,0.0,0.0,0.0,1.0
1402416515875051179,,errorv,,0,,1402416515,814555883,/enu,/base_link,,,8.91329406003,12.2648081055,-30.0000393459,,-0.000576002344785,0.000213383648749,-0.605778522847,0.795633083743
1402416515876384011,,errorv,,0,,1402416515,825553894,/enu,/base_link,,,8.90856096548,12.2768606,-30.0020571089,,-0.000444653176572,8.73974189875e-05,-0.606397832783,0.795161281151
1402416515876411124,,errorv,,0,,1402416515,835529088,/enu,/base_link,,,8.90415879972,12.287870475,-30.0040564764,,-0.000285439449145,1.24729307626e-05,-0.606984654851,0.794713500039
1402416515879239464,,errorv,,0,,1402416515,878962586,base_link,/z_drive,,,0.0,0.0,0.0,,0.0,0.0,0.0,1.0
1402416515879302140,,errorv,,0,,1402416515,878985947,/z_drive,port,,,-0.3,0.3048,0.0,,0.0,0.0,0.0,1.0
1402416515879322549,,errorv,,0,,1402416515,879061862,/z_drive,starboard,,,-0.3,-0.3048,0.0,,0.0,0.0,0.0,1.0
1402416515883375312,,errorv,,0,,1402416515,845555067,/enu,/base_link,,,8.8998210986,12.2988130266,-30.0057775791,,-0.000231259777264,-4.19126941287e-05,-0.607549738207,0.794281600169
1402416515883395351,,errorv,,0,,1402416515,856528997,/enu,/base_link,,,8.89510904192,12.3109987253,-30.0080103261,,-0.000100656123031,-0.000120087861135,-0.608183908112,0.793796138414
1402416515897695239,,errorv,,0,,1402416515,897513636,base_link,/z_drive,,,0.0,0.0,0.0,,0.0,0.0,0.0,1.0
1402416515897724418,,errorv,,0,,1402416515,897536671,/z_drive,port,,,-0.3,0.3048,0.0,,0.0,0.0,0.0,1.0
1402416515897863769,,errorv,,0,,1402416515,897543757,/z_drive,starboard,,,-0.3,-0.3048,0.0,,0.0,0.0,0.0,1.0
1402416515917799787,,errorv,,0,,1402416515,917592604,base_link,/z_drive,,,0.0,0.0,0.0,,0.0,0.0,0.0,1.0
1402416515917828101,,errorv,,0,,1402416515,917655236,/z_drive,port,,,-0.3,0.3048,0.0,,0.0,0.0,0.0,1.0
1402416515917906199,,errorv,,0,,1402416515,917668138,/z_drive,starboard,,,-0.3,-0.3048,0.0,,0.0,0.0,0.0,1.0
1402416515923089258,,errorv,,0,,1402416515,866527080,/enu,/base_link,,,8.89094338336,12.3218601892,-30.0095298495,,-1.10208512521e-05,-0.000196649722405,-0.60874310334,0.793367377287
1402416515923117134,,errorv,,0,,1402416515,877526044,/enu,/base_link,,,8.88632158621,12.3340852289,-30.0116460454,,0.000103026529424,-0.000285051301699,-0.609358987374,0.792894401946
1402416515929006860,,errorv,,0,,1402416516,28789006,/base_link,/gps,,,-0.84,0.0,-0.14,,0.0,0.0,0.0,1.0
1402416515929129625,,errorv,,0,,1402416516,28924823,base_link,imu,,,0.13,0.0,-0.1,,1.0,0.0,0.0,0.0
1402416515937670544,,errorv,,0,,1402416515,937522070,base_link,/z_drive,,,0.0,0.0,0.0,,0.0,0.0,0.0,1.0
1402416515937800652,,errorv,,0,,1402416515,937542066,/z_drive,port,,,-0.3,0.3048,0.0,,0.0,0.0,0.0,1.0
1402416515937870049,,errorv,,0,,1402416515,937575669,/z_drive,starboard,,,-0.3,-0.3048,0.0,,0.0,0.0,0.0,1.0
1402416515957649237,,errorv,,0,,1402416515,957453952,base_link,/z_drive,,,0.0,0.0,0.0,,0.0,0.0,0.0,1.0
1402416515957778409,,errorv,,0,,1402416515,957469819,/z_drive,port,,,-0.3,0.3048,0.0,,0.0,0.0,0.0,1.0
1402416515957803649,,errorv,,0,,1402416515,957476066,/z_drive,starboard,,,-0.3,-0.3048,0.0,,0.0,0.0,0.0,1.0
1402416515963133651,,errorv,,0,,1402416515,887541055,/enu,/base_link,,,8.86975901656,12.3409395564,-29.9624964699,,-0.000317464386828,-0.000931231013733,-0.609792604144,0.792560415335
1402416515963154834,,errorv,,0,,1402416515,897528886,/enu,/base_link,,,8.86539419038,12.3520226637,-29.9639764563,,-0.000224879334249,-0.00097941308632,-0.610362410657,0.792121655957
1402416515963196160,,errorv,,0,,1402416515,908526897,/enu,/base_link,,,8.86067784111,12.3646364265,-29.9661933277,,-0.000112070864412,-0.00102774894956,-0.610996092329,0.791632936614
1402416515963220038,,errorv,,0,,1402416515,918528079,/enu,/base_link,,,8.85634621174,12.3759303926,-29.967923501,,-0.000132071010821,-0.00102119860182,-0.611518502101,0.791229461849
1402416515977798899,,errorv,,0,,1402416515,977485369,base_link,/z_drive,,,0.0,0.0,0.0,,0.0,0.0,0.0,1.0
1402416515977827642,,errorv,,0,,1402416515,977515401,/z_drive,port,,,-0.3,0.3048,0.0,,0.0,0.0,0.0,1.0
1402416515977863044,,errorv,,0,,1402416515,977523629,/z_drive,starboard,,,-0.3,-0.3048,0.0,,0.0,0.0,0.0,1.0
1402416515997754770,,errorv,,0,,1402416515,997556724,base_link,/z_drive,,,0.0,0.0,0.0,,0.0,0.0,0.0,1.0
1402416515997783943,,errorv,,0,,1402416515,997590700,/z_drive,port,,,-0.3,0.3048,0.0,,0.0,0.0,0.0,1.0
1402416515997843942,,errorv,,0,,1402416515,997601747,/z_drive,starboard,,,-0.3,-0.3048,0.0,,0.0,0.0,0.0,1.0
1402416516003188705,,errorv,,0,,1402416515,928514957,/enu,/base_link,,,8.85198861012,12.387072853,-29.9694266152,,-8.36866759515e-05,-0.00104090167314,-0.61207852111,0.790796303428
1402416516003219245,,errorv,,0,,1402416515,938523054,/enu,/base_link,,,8.8416667363,12.3911377351,-29.967275313,,0.00057074837316,-0.00138774250738,-0.612688496025,0.790323070178
1402416516003245384,,errorv,,0,,1402416515,949505090,/enu,/base_link,,,8.83671040479,12.4034926585,-29.9691607758,,0.000600318362036,-0.0013994503154,-0.613334813566,0.789821554292
1402416516003268242,,errorv,,0,,1402416515,959528923,/enu,/base_link,,,8.83240685721,12.4146673593,-29.9705952712,,0.000701312535834,-0.0014319352899,-0.613927791714,0.789360579383
1402416516017646510,,errorv,,0,,1402416516,17448849,base_link,/z_drive,,,0.0,0.0,0.0,,0.0,0.0,0.0,1.0
1402416516017744396,,errorv,,0,,1402416516,17473252,/z_drive,port,,,-0.3,0.3048,0.0,,0.0,0.0,0.0,1.0
1402416516017779459,,errorv,,0,,1402416516,17482549,/z_drive,starboard,,,-0.3,-0.3048,0.0,,0.0,0.0,0.0,1.0
1402416516029123618,,errorv,,0,,1402416516,128891297,/base_link,/gps,,,-0.84,0.0,-0.14,,0.0,0.0,0.0,1.0
1402416516029214484,,errorv,,0,,1402416516,129027340,base_link,imu,,,0.13,0.0,-0.1,,1.0,0.0,0.0,0.0
1402416516037718234,,errorv,,0,,1402416516,37464955,base_link,/z_drive,,,0.0,0.0,0.0,,0.0,0.0,0.0,1.0
1402416516037748610,,errorv,,0,,1402416516,37490607,/z_drive,port,,,-0.3,0.3048,0.0,,0.0,0.0,0.0,1.0
1402416516037783134,,errorv,,0,,1402416516,37498624,/z_drive,starboard,,,-0.3,-0.3048,0.0,,0.0,0.0,0.0,1.0
1402416516043209974,,errorv,,0,,1402416515,969515085,/enu,/base_link,,,8.82784452479,12.4260881352,-29.9726190123,,0.000751046757805,-0.00143176737297,-0.614496585844,0.788917823323
1402416516043228143,,errorv,,0,,1402416515,980509996,/enu,/base_link,,,8.82294895764,12.4383950029,-29.9743082851,,0.000686806919808,-0.00138498977268,-0.615126963759,0.788426552417
1402416516043253618,,errorv,,0,,1402416515,990524053,/enu,/base_link,,,8.80822157148,12.4073866264,-29.9063016426,,0.00196895550139,0.000909721040788,-0.615966328772,0.78776949512
1402416516043277600,,errorv,,0,,1402416516,483989,/enu,/base_link,,,8.80388474595,12.4181916309,-29.9078608182,,0.00192147923568,0.000946806412263,-0.616532562783,0.787326495492
1402416516057751133,,errorv,,0,,1402416516,57500335,base_link,/z_drive,,,0.0,0.0,0.0,,0.0,0.0,0.0,1.0
1402416516057780143,,errorv,,0,,1402416516,57517847,/z_drive,port,,,-0.3,0.3048,0.0,,0.0,0.0,0.0,1.0
1402416516057799411,,errorv,,0,,1402416516,57525282,/z_drive,starboard,,,-0.3,-0.3048,0.0,,0.0,0.0,0.0,1.0
1402416516077696181,,errorv,,0,,1402416516,77418628,base_link,/z_drive,,,0.0,0.0,0.0,,0.0,0.0,0.0,1.0
1402416516077720473,,errorv,,0,,1402416516,77458557,/z_drive,port,,,-0.3,0.3048,0.0,,0.0,0.0,0.0,1.0
1402416516077734584,,errorv,,0,,1402416516,77468080,/z_drive,starboard,,,-0.3,-0.3048,0.0,,0.0,0.0,0.0,1.0
1402416516083156714,,errorv,,0,,1402416516,10479927,/enu,/base_link,,,8.79955494385,12.4289669585,-29.9094008139,,0.00189662246892,0.000971096223237,-0.617113222795,0.786871482548
1402416516083220464,,errorv,,0,,1402416516,21497011,/enu,/base_link,,,8.79474370745,12.4410163331,-29.911338295,,0.00178772999369,0.00103173934365,-0.617747850899,0.786373532264
1402416516083281307,,errorv,,0,,1402416516,31466960,/enu,/base_link,,,8.79053588436,12.4517230927,-29.9126196107,,0.00170209309329,0.00112118154657,-0.618353232145,0.785897656267
1402416516083365948,,errorv,,0,,1402416516,41481018,/enu,/base_link,,,8.7855822185,12.4853884783,-29.9441068907,,0.0012705190713,-0.00109351991693,-0.618757293786,0.785580423243
1402416516097758295,,errorv,,0,,1402416516,97503215,base_link,/z_drive,,,0.0,0.0,0.0,,0.0,0.0,0.0,1.0
1402416516097794310,,errorv,,0,,1402416516,97523237,/z_drive,port,,,-0.3,0.3048,0.0,,0.0,0.0,0.0,1.0
1402416516097894200,,errorv,,0,,1402416516,97577042,/z_drive,starboard,,,-0.3,-0.3048,0.0,,0.0,0.0,0.0,1.0
1402416516117632584,,errorv,,0,,1402416516,117485277,base_link,/z_drive,,,0.0,0.0,0.0,,0.0,0.0,0.0,1.0
1402416516117667078,,errorv,,0,,1402416516,117500233,/z_drive,port,,,-0.3,0.3048,0.0,,0.0,0.0,0.0,1.0
1402416516117708101,,errorv,,0,,1402416516,117504798,/z_drive,starboard,,,-0.3,-0.3048,0.0,,0.0,0.0,0.0,1.0
1402416516123236913,,errorv,,0,,1402416516,52479028,/enu,/base_link,,,8.78064740032,12.4977823783,-29.9459917358,,0.00121503405175,-0.0010357951279,-0.619409654943,0.785066322156
1402416516123263492,,errorv,,0,,1402416516,62758922,/enu,/base_link,,,8.77576277048,12.5093729907,-29.9477339272,,0.00122512300631,-0.00101409925973,-0.620041753378,0.784567202185
1402416516123288938,,errorv,,0,,1402416516,73484897,/enu,/base_link,,,8.7708412422,12.5214884084,-29.9496082459,,0.00118427740006,-0.000901738712106,-0.620716897374,0.78403336515
1402416516123424315,,errorv,,0,,1402416516,84137916,/enu,/base_link,,,8.76555769379,12.5124596642,-29.8909770626,,0.00111269613818,0.000608592713075,-0.621495558363,0.783416659548
1402416516123450823,,errorv,,0,,1402416516,93441009,/enu,/base_link,,,8.76137237812,12.5226633086,-29.8923482772,,0.00109357053863,0.000703322364793,-0.622059662635,0.782968764105
1402416516129205091,,errorv,,0,,1402416516,228986447,/base_link,/gps,,,-0.84,0.0,-0.14,,0.0,0.0,0.0,1.0
1402416516129364741,,errorv,,0,,1402416516,229154896,base_link,imu,,,0.13,0.0,-0.1,,1.0,0.0,0.0,0.0
1402416516137759986,,errorv,,0,,1402416516,137505232,base_link,/z_drive,,,0.0,0.0,0.0,,0.0,0.0,0.0,1.0
1402416516137789559,,errorv,,0,,1402416516,137525522,/z_drive,port,,,-0.3,0.3048,0.0,,0.0,0.0,0.0,1.0
1402416516137866896,,errorv,,0,,1402416516,137534079,/z_drive,starboard,,,-0.3,-0.3048,0.0,,0.0,0.0,0.0,1.0
1402416516157742237,,errorv,,0,,1402416516,157476321,base_link,/z_drive,,,0.0,0.0,0.0,,0.0,0.0,0.0,1.0
1402416516157766531,,errorv,,0,,1402416516,157492331,/z_drive,port,,,-0.3,0.3048,0.0,,0.0,0.0,0.0,1.0
1402416516157829877,,errorv,,0,,1402416516,157496804,/z_drive,starboard,,,-0.3,-0.3048,0.0,,0.0,0.0,0.0,1.0
1402416516163088868,,errorv,,0,,1402416516,103441953,/enu,/base_link,,,8.75694594187,12.534043529,-29.8943782529,,0.00113539832239,0.000720401302283,-0.622717914618,0.782445263712
1402416516163116802,,errorv,,0,,1402416516,114439964,/enu,/base_link,,,8.75207116388,12.5461513257,-29.8959025861,,0.0010985897443,0.000728247681303,-0.62340715141,0.781896275938
1402416516163143065,,errorv,,0,,1402416516,124439001,/enu,/base_link,,,8.74778652907,12.5573974838,-29.8977034057,,0.00110499520442,0.00077079829899,-0.624069151887,0.781367953348
1402416516171236897,,errorv,,0,,1402416516,134432077,/enu,/base_link,,,8.74504026736,12.5679404786,-29.8801851731,,0.000805980129342,0.000680047573733,-0.624713608276,0.780853248418
1402416516171305778,,errorv,,0,,1402416516,145441055,/enu,/base_link,,,8.74028816378,12.5804004209,-29.8821019852,,0.000830479841065,0.000759400480218,-0.625424444544,0.780283921263
1402416516177711942,,errorv,,0,,1402416516,177491950,base_link,/z_drive,,,0.0,0.0,0.0,,0.0,0.0,0.0,1.0
1402416516177740394,,errorv,,0,,1402416516,177507300,/z_drive,port,,,-0.3,0.3048,0.0,,0.0,0.0,0.0,1.0
1402416516177803989,,errorv,,0,,1402416516,177511639,/z_drive,starboard,,,-0.3,-0.3048,0.0,,0.0,0.0,0.0,1.0
1402416516197811024,,errorv,,0,,1402416516,197616636,base_link,/z_drive,,,0.0,0.0,0.0,,0.0,0.0,0.0,1.0
1402416516197844499,,errorv,,0,,1402416516,197641852,/z_drive,port,,,-0.3,0.3048,0.0,,0.0,0.0,0.0,1.0
1402416516197899390,,errorv,,0,,1402416516,197648797,/z_drive,starboard,,,-0.3,-0.3048,0.0,,0.0,0.0,0.0,1.0
1402416516211050769,,errorv,,0,,1402416516,155412912,/enu,/base_link,,,8.73594319166,12.5916280451,-29.8836612273,,0.000765417851913,0.000778318858728,-0.626084405516,0.779754529018
1402416516211122950,,errorv,,0,,1402416516,165411949,/enu,/base_link,,,8.7315573601,12.6029568939,-29.8853148013,,0.000732471612757,0.000882553286695,-0.626735375333,0.779231322452
1402416516217656488,,errorv,,0,,1402416516,217506211,base_link,/z_drive,,,0.0,0.0,0.0,,0.0,0.0,0.0,1.0
1402416516217775427,,errorv,,0,,1402416516,217520296,/z_drive,port,,,-0.3,0.3048,0.0,,0.0,0.0,0.0,1.0
1402416516217804658,,errorv,,0,,1402416516,217524485,/z_drive,starboard,,,-0.3,-0.3048,0.0,,0.0,0.0,0.0,1.0
1402416516229310012,,errorv,,0,,1402416516,329090299,/base_link,/gps,,,-0.84,0.0,-0.14,,0.0,0.0,0.0,1.0
1402416516229442088,,errorv,,0,,1402416516,329256432,base_link,imu,,,0.13,0.0,-0.1,,1.0,0.0,0.0,0.0
1402416516237711396,,errorv,,0,,1402416516,237479211,base_link,/z_drive,,,0.0,0.0,0.0,,0.0,0.0,0.0,1.0
1402416516237763175,,errorv,,0,,1402416516,237496056,/z_drive,port,,,-0.3,0.3048,0.0,,0.0,0.0,0.0,1.0
1402416516237852857,,errorv,,0,,1402416516,237551921,/z_drive,starboard,,,-0.3,-0.3048,0.0,,0.0,0.0,0.0,1.0
1402416516251195049,,errorv,,0,,1402416516,176414966,/enu,/base_link,,,8.72686588836,12.6155217215,-29.8872927553,,0.000737092653265,0.000968330216439,-0.627456648815,0.778650546066
1402416516251257865,,errorv,,0,,1402416516,186414957,/enu,/base_link,,,8.71854841623,12.6237158561,-29.886671737,,0.00106539299469,0.000452542264021,-0.628086989557,0.778142270855
1402416516251316819,,errorv,,0,,1402416516,197398900,/enu,/base_link,,,8.71378537826,12.6361383438,-29.8883662102,,0.00105925855095,0.000568698403738,-0.628827471534,0.777543931619
1402416516251375569,,errorv,,0,,1402416516,207397937,/enu,/base_link,,,8.70943056917,12.6477828552,-29.8902458139,,0.00103277976404,0.000620917230318,-0.629501635143,0.776998223409
1402416516257786633,,errorv,,0,,1402416516,257637043,base_link,/z_drive,,,0.0,0.0,0.0,,0.0,0.0,0.0,1.0
1402416516257870086,,errorv,,0,,1402416516,257652418,/z_drive,port,,,-0.3,0.3048,0.0,,0.0,0.0,0.0,1.0
1402416516257892654,,errorv,,0,,1402416516,257660537,/z_drive,starboard,,,-0.3,-0.3048,0.0,,0.0,0.0,0.0,1.0
1402416516277635318,,errorv,,0,,1402416516,277498956,base_link,/z_drive,,,0.0,0.0,0.0,,0.0,0.0,0.0,1.0
1402416516278043623,,errorv,,0,,1402416516,277516211,/z_drive,port,,,-0.3,0.3048,0.0,,0.0,0.0,0.0,1.0
1402416516278066589,,errorv,,0,,1402416516,277561081,/z_drive,starboard,,,-0.3,-0.3048,0.0,,0.0,0.0,0.0,1.0
1402416516291118275,,errorv,,0,,1402416516,217397928,/enu,/base_link,,,8.70494738982,12.6590843176,-29.8916946876,,0.00102368435173,0.00069105792779,-0.630166453826,0.776459087771
1402416516291530566,,errorv,,0,,1402416516,228387117,/enu,/base_link,,,8.7000854832,12.6717886255,-29.8936392491,,0.00104441197079,0.000751188221836,-0.630934143877,0.775835324673
1402416516291616642,,errorv,,0,,1402416516,238368034,/enu,/base_link,,,8.6956698099,12.6831479343,-29.8950576222,,0.00105194596208,0.000799885859128,-0.631606870467,0.775287698065
1402416516291644125,,errorv,,0,,1402416516,249378919,/enu,/base_link,,,8.69084117121,12.6958061535,-29.8968537483,,0.00104034553592,0.000873040880882,-0.632391747587,0.774647554094
1402416516297748660,,errorv,,0,,1402416516,297505811,base_link,/z_drive,,,0.0,0.0,0.0,,0.0,0.0,0.0,1.0
1402416516297774015,,errorv,,0,,1402416516,297523111,/z_drive,port,,,-0.3,0.3048,0.0,,0.0,0.0,0.0,1.0
1402416516297793048,,errorv,,0,,1402416516,297565467,/z_drive,starboard,,,-0.3,-0.3048,0.0,,0.0,0.0,0.0,1.0
1402416516317693109,,errorv,,0,,1402416516,317454729,base_link,/z_drive,,,0.0,0.0,0.0,,0.0,0.0,0.0,1.0
1402416516317722382,,errorv,,0,,1402416516,317470064,/z_drive,port,,,-0.3,0.3048,0.0,,0.0,0.0,0.0,1.0
1402416516317770541,,errorv,,0,,1402416516,317474184,/z_drive,starboard,,,-0.3,-0.3048,0.0,,0.0,0.0,0.0,1.0
1402416516329383953,,errorv,,0,,1402416516,429187698,/base_link,/gps,,,-0.84,0.0,-0.14,,0.0,0.0,0.0,1.0
1402416516329570457,,errorv,,0,,1402416516,429368613,base_link,imu,,,0.13,0.0,-0.1,,1.0,0.0,0.0,0.0
1402416516331087230,,errorv,,0,,1402416516,259368896,/enu,/base_link,,,8.68633287622,12.7072227232,-29.8983026626,,0.00107500869596,0.000967235832515,-0.63306887498,0.774094121113
1402416516331116279,,errorv,,0,,1402416516,270363092,/enu,/base_link,,,8.68166895847,12.7198101002,-29.8998598725,,0.00105679508702,0.00105352668329,-0.633829835756,0.77347108063
1402416516331135740,,errorv,,0,,1402416516,280400037,/enu,/base_link,,,8.68495630734,12.7417101528,-29.9337936142,,0.000803128352666,0.000247551611126,-0.63443895083,0.77297251657
1402416516331189785,,errorv,,0,,1402416516,290354967,/enu,/base_link,,,8.6805439384,12.7533877672,-29.9354399694,,0.000748145478905,0.000354836653563,-0.635116361604,0.772416028829
1402416516331214563,,errorv,,0,,1402416516,301333904,/enu,/base_link,,,8.6756522496,12.7660139991,-29.9367357833,,0.000809098856691,0.0004203561125,-0.635852978361,0.771809664729
1402416516337740369,,errorv,,0,,1402416516,337493725,base_link,/z_drive,,,0.0,0.0,0.0,,0.0,0.0,0.0,1.0
1402416516337848570,,errorv,,0,,1402416516,337618916,/z_drive,port,,,-0.3,0.3048,0.0,,0.0,0.0,0.0,1.0
1402416516337872309,,errorv,,0,,1402416516,337634706,/z_drive,starboard,,,-0.3,-0.3048,0.0,,0.0,0.0,0.0,1.0
1402416516357733018,,errorv,,0,,1402416516,357594775,base_link,/z_drive,,,0.0,0.0,0.0,,0.0,0.0,0.0,1.0
1402416516357951407,,errorv,,0,,1402416516,357617198,/z_drive,port,,,-0.3,0.3048,0.0,,0.0,0.0,0.0,1.0
1402416516357986438,,errorv,,0,,1402416516,357652754,/z_drive,starboard,,,-0.3,-0.3048,0.0,,0.0,0.0,0.0,1.0
1402416516371131130,,errorv,,0,,1402416516,311336994,/enu,/base_link,,,8.67127650768,12.7778619762,-29.9385515757,,0.000764922561203,0.000486961180373,-0.636544681536,0.771239292419
1402416516371161308,,errorv,,0,,1402416516,321346044,/enu,/base_link,,,8.65371305716,12.7457130228,-29.8377829911,,0.0013929091191,0.00317041776085,-0.637473548191,0.770464459668
1402416516371186303,,errorv,,0,,1402416516,332350969,/enu,/base_link,,,8.64930527168,12.7580870464,-29.83923679,,0.00147599302994,0.00317356549181,-0.638213425696,0.769851526717
1402416516377850341,,errorv,,0,,1402416516,377634727,base_link,/z_drive,,,0.0,0.0,0.0,,0.0,0.0,0.0,1.0
1402416516377879344,,errorv,,0,,1402416516,377659601,/z_drive,port,,,-0.3,0.3048,0.0,,0.0,0.0,0.0,1.0
1402416516377903169,,errorv,,0,,1402416516,377669968,/z_drive,starboard,,,-0.3,-0.3048,0.0,,0.0,0.0,0.0,1.0
1402416516379155518,,errorv,,0,,1402416516,342356920,/enu,/base_link,,,8.64503584589,12.7693256228,-29.8403292701,,0.00155076641533,0.00321217031941,-0.638866786344,0.769309109781
1402416516379368018,,errorv,,0,,1402416516,353348970,/enu,/base_link,,,8.64070196188,12.7819062511,-29.842169708,,0.0015725840875,0.0033062508644,-0.639612389109,0.768688875543
1402416516397889952,,errorv,,0,,1402416516,397709948,base_link,/z_drive,,,0.0,0.0,0.0,,0.0,0.0,0.0,1.0
1402416516398117535,,errorv,,0,,1402416516,397747922,/z_drive,port,,,-0.3,0.3048,0.0,,0.0,0.0,0.0,1.0
1402416516398170897,,errorv,,0,,1402416516,397793531,/z_drive,starboard,,,-0.3,-0.3048,0.0,,0.0,0.0,0.0,1.0
1402416516417799324,,errorv,,0,,1402416516,417621564,base_link,/z_drive,,,0.0,0.0,0.0,,0.0,0.0,0.0,1.0
1402416516417824378,,errorv,,0,,1402416516,417644238,/z_drive,port,,,-0.3,0.3048,0.0,,0.0,0.0,0.0,1.0
1402416516417886868,,errorv,,0,,1402416516,417649314,/z_drive,starboard,,,-0.3,-0.3048,0.0,,0.0,0.0,0.0,1.0
1402416516419109090,,errorv,,0,,1402416516,363358974,/enu,/base_link,,,8.63162258166,12.7714076559,-29.8349805724,,0.00294506134235,0.00436325595179,-0.640438425914,0.767991478614
1402416516419227472,,errorv,,0,,1402416516,374330043,/enu,/base_link,,,8.62709342964,12.7832997217,-29.8361902784,,0.00294599110267,0.0044837748758,-0.641168849244,0.767381081118
1402416516429477124,,errorv,,0,,1402416516,529294853,/base_link,/gps,,,-0.84,0.0,-0.14,,0.0,0.0,0.0,1.0
1402416516429646245,,errorv,,0,,1402416516,529467454,base_link,imu,,,0.13,0.0,-0.1,,1.0,0.0,0.0,0.0
1402416516437907412,,errorv,,0,,1402416516,437691494,base_link,/z_drive,,,0.0,0.0,0.0,,0.0,0.0,0.0,1.0
1402416516437973585,,errorv,,0,,1402416516,437732681,/z_drive,port,,,-0.3,0.3048,0.0,,0.0,0.0,0.0,1.0
1402416516438065107,,errorv,,0,,1402416516,437745411,/z_drive,starboard,,,-0.3,-0.3048,0.0,,0.0,0.0,0.0,1.0
1402416516457657556,,errorv,,0,,1402416516,457529698,base_link,/z_drive,,,0.0,0.0,0.0,,0.0,0.0,0.0,1.0
1402416516457805809,,errorv,,0,,1402416516,457543951,/z_drive,port,,,-0.3,0.3048,0.0,,0.0,0.0,0.0,1.0
1402416516457831308,,errorv,,0,,1402416516,457572711,/z_drive,starboard,,,-0.3,-0.3048,0.0,,0.0,0.0,0.0,1.0
1402416516459252211,,errorv,,0,,1402416516,384331941,/enu,/base_link,,,8.62297742271,12.7943620562,-29.8376311041,,0.00289026648799,0.00454003750975,-0.641850065348,0.76681127276
1402416516459281765,,errorv,,0,,1402416516,394330978,/enu,/base_link,,,8.61895759218,12.8053182844,-29.8390054566,,0.00295028573901,0.00459519151494,-0.642515257732,0.766253433017
1402416516459299189,,errorv,,0,,1402416516,404333114,/enu,/base_link,,,8.61793805751,12.8174999608,-29.8508134291,,0.00316185893856,0.00430660509236,-0.643182346416,0.765694407097
1402416516459428885,,errorv,,0,,1402416516,414331912,/enu,/base_link,,,8.61379390827,12.8284076278,-29.8520994317,,0.00321510153372,0.00434481527332,-0.643856718995,0.765126990184
1402416516477721058,,errorv,,0,,1402416516,477476831,base_link,/z_drive,,,0.0,0.0,0.0,,0.0,0.0,0.0,1.0
1402416516477749720,,errorv,,0,,1402416516,477495597,/z_drive,port,,,-0.3,0.3048,0.0,,0.0,0.0,0.0,1.0
1402416516477870565,,errorv,,0,,1402416516,477516141,/z_drive,starboard,,,-0.3,-0.3048,0.0,,0.0,0.0,0.0,1.0
1402416516497871064,,errorv,,0,,1402416516,497611468,base_link,/z_drive,,,0.0,0.0,0.0,,0.0,0.0,0.0,1.0
1402416516497901034,,errorv,,0,,1402416516,497652865,/z_drive,port,,,-0.3,0.3048,0.0,,0.0,0.0,0.0,1.0
1402416516497969743,,errorv,,0,,1402416516,497665344,/z_drive,starboard,,,-0.3,-0.3048,0.0,,0.0,0.0,0.0,1.0
1402416516499227785,,errorv,,0,,1402416516,425333023,/enu,/base_link,,,8.60937406194,12.840570107,-29.8536812461,,0.00324226604929,0.00439744379106,-0.644605288501,0.764496024997
1402416516499255154,,errorv,,0,,1402416516,435280084,/enu,/base_link,,,8.59565984,12.8519976179,-29.8363117185,,0.00329731522751,0.00346679964101,-0.645160761568,0.764031871551
1402416516499279356,,errorv,,0,,1402416516,446283102,/enu,/base_link,,,8.59106201222,12.8642449881,-29.837791177,,0.00322735813448,0.00362062190489,-0.645889678356,0.763415351333
1402416516499348698,,errorv,,0,,1402416516,456279993,/enu,/base_link,,,8.5869102198,12.8753732844,-29.8389936997,,0.00315908913606,0.00371367038985,-0.646584062201,0.762827162151
1402416516517648594,,errorv,,0,,1402416516,517516601,base_link,/z_drive,,,0.0,0.0,0.0,,0.0,0.0,0.0,1.0
1402416516517802136,,errorv,,0,,1402416516,517534780,/z_drive,port,,,-0.3,0.3048,0.0,,0.0,0.0,0.0,1.0
1402416516517880693,,errorv,,0,,1402416516,517578453,/z_drive,starboard,,,-0.3,-0.3048,0.0,,0.0,0.0,0.0,1.0
1402416516529630367,,errorv,,0,,1402416516,629403380,/base_link,/gps,,,-0.84,0.0,-0.14,,0.0,0.0,0.0,1.0
1402416516529783795,,errorv,,0,,1402416516,629568918,base_link,imu,,,0.13,0.0,-0.1,,1.0,0.0,0.0,0.0
1402416516537658728,,errorv,,0,,1402416516,537491169,base_link,/z_drive,,,0.0,0.0,0.0,,0.0,0.0,0.0,1.0
1402416516537682388,,errorv,,0,,1402416516,537505820,/z_drive,port,,,-0.3,0.3048,0.0,,0.0,0.0,0.0,1.0
1402416516537788032,,errorv,,0,,1402416516,537510470,/z_drive,starboard,,,-0.3,-0.3048,0.0,,0.0,0.0,0.0,1.0
1402416516539158130,,errorv,,0,,1402416516,467281103,/enu,/base_link,,,8.58207341499,12.8876366621,-29.8404738454,,0.00319459856151,0.00385294313221,-0.647330064597,0.762193372339
1402416516539189979,,errorv,,0,,1402416516,477281093,/enu,/base_link,,,8.57790670138,12.8988227918,-29.8417646077,,0.00324680532901,0.00389080769071,-0.648002891624,0.7616210162
1402416516539218858,,errorv,,0,,1402416516,487277030,/enu,/base_link,,,8.57499075949,12.9130228218,-29.8075111756,,0.00225848074343,0.00370991027691,-0.648611124117,0.76110757814
1402416516539243167,,errorv,,0,,1402416516,497278928,/enu,/base_link,,,8.57084702609,12.924321395,-29.8086980188,,0.00232071093101,0.00370147571975,-0.649309761427,0.760511503591
1402416516557640154,,errorv,,0,,1402416516,557484532,base_link,/z_drive,,,0.0,0.0,0.0,,0.0,0.0,0.0,1.0
1402416516557787765,,errorv,,0,,1402416516,557504905,/z_drive,port,,,-0.3,0.3048,0.0,,0.0,0.0,0.0,1.0
1402416516557907372,,errorv,,0,,1402416516,557514615,/z_drive,starboard,,,-0.3,-0.3048,0.0,,0.0,0.0,0.0,1.0
1402416516577681060,,errorv,,0,,1402416516,577499889,base_link,/z_drive,,,0.0,0.0,0.0,,0.0,0.0,0.0,1.0
1402416516577713098,,errorv,,0,,1402416516,577515009,/z_drive,port,,,-0.3,0.3048,0.0,,0.0,0.0,0.0,1.0
1402416516577735943,,errorv,,0,,1402416516,577519461,/z_drive,starboard,,,-0.3,-0.3048,0.0,,0.0,0.0,0.0,1.0
1402416516579065996,,errorv,,0,,1402416516,508280038,/enu,/base_link,,,8.56643142292,12.9368300158,-29.8099879416,,0.00229852704505,0.00376723335301,-0.650077687665,0.759854936633
1402416516579088336,,errorv,,0,,1402416516,518260955,/enu,/base_link,,,8.56228258656,12.9483304788,-29.8113507294,,0.00233201641797,0.00385849527106,-0.650789120599,0.759245147645
1402416516579221629,,errorv,,0,,1402416516,529252052,/enu,/base_link,,,8.55790633965,12.9608138089,-29.8126045737,,0.00225005569796,0.00386753629791,-0.651549339103,0.758593064908
1402416516579243402,,errorv,,0,,1402416516,539258956,/enu,/base_link,,,8.55074510151,12.9737993064,-29.7876085393,,0.00182904395376,0.00336536310685,-0.652200506917,0.75803682477
1402416516579297161,,errorv,,0,,1402416516,549252986,/enu,/base_link,,,8.54671702033,12.9855365685,-29.7891237353,,0.00197547679287,0.00332690393949,-0.652900178355,0.757434080502
1402416516597731982,,errorv,,0,,1402416516,597571666,base_link,/z_drive,,,0.0,0.0,0.0,,0.0,0.0,0.0,1.0
1402416516597759789,,errorv,,0,,1402416516,597596489,/z_drive,port,,,-0.3,0.3048,0.0,,0.0,0.0,0.0,1.0
1402416516597825127,,errorv,,0,,1402416516,597605115,/z_drive,starboard,,,-0.3,-0.3048,0.0,,0.0,0.0,0.0,1.0
1402416516617769336,,errorv,,0,,1402416516,617513848,base_link,/z_drive,,,0.0,0.0,0.0,,0.0,0.0,0.0,1.0
1402416516617798178,,errorv,,0,,1402416516,617530438,/z_drive,port,,,-0.3,0.3048,0.0,,0.0,0.0,0.0,1.0
1402416516617820505,,errorv,,0,,1402416516,617536391,/z_drive,starboard,,,-0.3,-0.3048,0.0,,0.0,0.0,0.0,1.0
1402416516619128139,,errorv,,0,,1402416516,559256076,/enu,/base_link,,,8.54255093749,12.9968723532,-29.7899539202,,0.00200043606389,0.00321744895605,-0.653594130563,0.756835754158
1402416516619190923,,errorv,,0,,1402416516,570250034,/enu,/base_link,,,8.53803927356,13.0097087975,-29.7914921364,,0.00211203442595,0.0031841565731,-0.654374171272,0.756161255573
1402416516619213234,,errorv,,0,,1402416516,580266952,/enu,/base_link,,,8.53406568308,13.0214101245,-29.792742877,,0.00210430354102,0.00314093390646,-0.655075728789,0.755553767771
1402416516627276340,,errorv,,0,,1402416516,590230941,/enu,/base_link,,,8.53560098653,13.0159603676,-29.7692338773,,0.0024316391562,0.00492238528892,-0.65591068894,0.754818538053
1402416516627397901,,errorv,,0,,1402416516,600218057,/enu,/base_link,,,8.53185175573,13.0271836437,-29.7701907278,,0.00237239467984,0.00490024312324,-0.656592341064,0.754225998635
1402416516629665949,,errorv,,0,,1402416516,729496686,/base_link,/gps,,,-0.84,0.0,-0.14,,0.0,0.0,0.0,1.0
1402416516629849316,,errorv,,0,,1402416516,729665418,base_link,imu,,,0.13,0.0,-0.1,,1.0,0.0,0.0,0.0
1402416516637691573,,errorv,,0,,1402416516,637520149,base_link,/z_drive,,,0.0,0.0,0.0,,0.0,0.0,0.0,1.0
1402416516637720197,,errorv,,0,,1402416516,637539448,/z_drive,port,,,-0.3,0.3048,0.0,,0.0,0.0,0.0,1.0
1402416516637749006,,errorv,,0,,1402416516,637544092,/z_drive,starboard,,,-0.3,-0.3048,0.0,,0.0,0.0,0.0,1.0
1402416516657832525,,errorv,,0,,1402416516,657674847,base_link,/z_drive,,,0.0,0.0,0.0,,0.0,0.0,0.0,1.0
1402416516657863111,,errorv,,0,,1402416516,657694530,/z_drive,port,,,-0.3,0.3048,0.0,,0.0,0.0,0.0,1.0
1402416516657927514,,errorv,,0,,1402416516,657704003,/z_drive,starboard,,,-0.3,-0.3048,0.0,,0.0,0.0,0.0,1.0
1402416516667113504,,errorv,,0,,1402416516,611232042,/enu,/base_link,,,8.52773914486,13.0397494457,-29.7715993701,,0.00243540710379,0.00486159274911,-0.657394167568,0.753527267029
1402416516667190945,,errorv,,0,,1402416516,621242046,/enu,/base_link,,,8.52374433805,13.0512388206,-29.7728259698,,0.00251364725831,0.00473848065529,-0.658089680546,0.752920447815
1402416516677631272,,errorv,,0,,1402416516,677477859,base_link,/z_drive,,,0.0,0.0,0.0,,0.0,0.0,0.0,1.0
1402416516677940012,,errorv,,0,,1402416516,677511170,/z_drive,port,,,-0.3,0.3048,0.0,,0.0,0.0,0.0,1.0
1402416516677972041,,errorv,,0,,1402416516,677549080,/z_drive,starboard,,,-0.3,-0.3048,0.0,,0.0,0.0,0.0,1.0
1402416516697723866,,errorv,,0,,1402416516,697473011,base_link,/z_drive,,,0.0,0.0,0.0,,0.0,0.0,0.0,1.0
1402416516697749366,,errorv,,0,,1402416516,697491691,/z_drive,port,,,-0.3,0.3048,0.0,,0.0,0.0,0.0,1.0
1402416516697812440,,errorv,,0,,1402416516,697498186,/z_drive,starboard,,,-0.3,-0.3048,0.0,,0.0,0.0,0.0,1.0
1402416516707302307,,errorv,,0,,1402416516,631210088,/enu,/base_link,,,8.51993192202,13.0625826257,-29.7740793294,,0.00256293301436,0.00463291556244,-0.65878775492,0.752310216224
1402416516707376990,,errorv,,0,,1402416516,641197919,/enu,/base_link,,,8.51029232683,13.0689786683,-29.7687410709,,0.00309652877729,0.00410467893613,-0.659512425303,0.751676076506
1402416516707404435,,errorv,,0,,1402416516,651201963,/enu,/base_link,,,8.50653056441,13.0805664439,-29.7703528946,,0.00308629374581,0.00399011301644,-0.660233554137,0.751043412713
1402416516707470809,,errorv,,0,,1402416516,662179946,/enu,/base_link,,,8.50229462453,13.0931352087,-29.7716723834,,0.00313109528928,0.00388459679696,-0.661028778947,0.75034396083
1402416516717637864,,errorv,,0,,1402416516,717463247,base_link,/z_drive,,,0.0,0.0,0.0,,0.0,0.0,0.0,1.0
1402416516717764213,,errorv,,0,,1402416516,717483609,/z_drive,port,,,-0.3,0.3048,0.0,,0.0,0.0,0.0,1.0
1402416516717880401,,errorv,,0,,1402416516,717491545,/z_drive,starboard,,,-0.3,-0.3048,0.0,,0.0,0.0,0.0,1.0
1402416516729771992,,errorv,,0,,1402416516,829591776,/base_link,/gps,,,-0.84,0.0,-0.14,,0.0,0.0,0.0,1.0
1402416516729946317,,errorv,,0,,1402416516,829765970,base_link,imu,,,0.13,0.0,-0.1,,1.0,0.0,0.0,0.0
1402416516737654902,,errorv,,0,,1402416516,737498118,base_link,/z_drive,,,0.0,0.0,0.0,,0.0,0.0,0.0,1.0
1402416516737806704,,errorv,,0,,1402416516,737516761,/z_drive,port,,,-0.3,0.3048,0.0,,0.0,0.0,0.0,1.0
1402416516737835822,,errorv,,0,,1402416516,737524611,/z_drive,starboard,,,-0.3,-0.3048,0.0,,0.0,0.0,0.0,1.0
1402416516747114042,,errorv,,0,,1402416516,672188997,/enu,/base_link,,,8.49836947098,13.1044530926,-29.7728196082,,0.00318215398231,0.00374321524889,-0.661737494299,0.749719514802
1402416516747141669,,errorv,,0,,1402416516,682162046,/enu,/base_link,,,8.49465469299,13.1158869522,-29.7741217582,,0.00325330262276,0.00361237736879,-0.662467603459,0.749074790071
1402416516747212104,,errorv,,0,,1402416516,692162990,/enu,/base_link,,,8.49067540249,13.1273189763,-29.7753590992,,0.00328272627353,0.00346955388313,-0.663196481324,0.748430098983
1402416516747301623,,errorv,,0,,1402416516,703161954,/enu,/base_link,,,8.48644895146,13.1399485769,-29.7768196199,,0.0032813788974,0.00339028737068,-0.663981549115,0.747734071003
1402416516757652074,,errorv,,0,,1402416516,757466465,base_link,/z_drive,,,0.0,0.0,0.0,,0.0,0.0,0.0,1.0
1402416516757777367,,errorv,,0,,1402416516,757481729,/z_drive,port,,,-0.3,0.3048,0.0,,0.0,0.0,0.0,1.0
1402416516757855960,,errorv,,0,,1402416516,757487976,/z_drive,starboard,,,-0.3,-0.3048,0.0,,0.0,0.0,0.0,1.0
1402416516777616525,,errorv,,0,,1402416516,777468913,base_link,/z_drive,,,0.0,0.0,0.0,,0.0,0.0,0.0,1.0
