rosbagTimestamp,control_method,x_current,x_desired,y_current,y_desired,z_current,z_desired,x_velocity_current,x_velocity_desired,y_velocity_current,y_velocity_desired,z_velocity_current,z_velocity_desired,yaw_current,yaw_desired,yaw_velocity_current,yaw_velocity_desired,roll_current,roll_desired,roll_velocity_current,roll_velocity_desired,pitch_current,pitch_desired,pitch_velocity_current,pitch_velocity_desired,required_force_x,required_force_y,required_moment_z,resultant_force_x,resultant_force_y,resultant_moment_z,current_port_servo_angle,current_port_thruster_force,current_starboard_servo_angle,current_starboard_thruster_force,estimated_port_servo_angle,estimated_port_thruster_force,estimated_starboard_servo_angle,estimated_starboard_thruster_force,cost_value,step,user_defined_1,user_defined_2,user_defined_3,user_defined_4,user_defined_5
1402754346053223796,3,-17.1755018183,-0.00591572024346,-16.9701093297,-0.122189614607,58.0457829327,0.10862951003,0.0302962351899,0.0,-0.0209842001767,0.0,0.100590406519,0.0,1.15522096475,0.0,-0.00438253781943,0.0,0.000576275456161,0.0,-0.0106092612588,0.0,0.0722994386581,0.0,0.00706117234996,0.0,0.0,0.0,0.0,-75.0,0.0,22.86,0.00230154196664,0.0,0.00230154196664,0.0,-0.0,-75.0,-0.0,0.0,570664.8,0.0,0.0,0.0,0.0,0.0,0.0
1402754346071870166,3,-17.1755018183,-0.00591572024346,-16.9701093297,-0.122189614607,58.0457829327,0.10862951003,0.0302962351899,0.0,-0.0209842001767,0.0,0.100590406519,0.0,1.15522096475,0.0,-0.00438253781943,0.0,0.000576275456161,0.0,-0.0106092612588,0.0,0.0722994386581,0.0,0.00706117234996,0.0,0.0,0.0,0.0,-75.0,0.0,22.86,0.00230154196664,0.0,0.00230154196664,0.0,-0.0,-75.0,-0.0,0.0,570664.8,0.0,0.0,0.0,0.0,0.0,0.0
1402754346092084233,3,-17.1791773732,-0.00591572024346,-16.9701280323,-0.122189614607,58.0434950465,0.10862951003,0.0268569196665,0.0,-0.023966442333,0.0,0.0993289132842,0.0,1.15529236379,0.0,0.00179750789909,0.0,0.000487460409274,0.0,-0.00303763076217,0.0,0.0722060794315,0.0,0.00396650519558,0.0,0.0,0.0,0.0,-75.0,0.0,22.86,0.00230154196664,0.0,0.00230154196664,0.0,-0.0,-75.0,-0.0,0.0,570664.8,0.0,0.0,0.0,0.0,0.0,0.0
1402754346111677137,3,-17.1791773732,-0.00591572024346,-16.9701280323,-0.122189614607,58.0434950465,0.10862951003,0.0268569196665,0.0,-0.023966442333,0.0,0.0993289132842,0.0,1.15529236379,0.0,0.00179750789909,0.0,0.000487460409274,0.0,-0.00303763076217,0.0,0.0722060794315,0.0,0.00396650519558,0.0,0.0,0.0,0.0,-75.0,0.0,22.86,0.00230154196664,0.0,0.00230154196664,0.0,-0.0,-75.0,-0.0,0.0,570664.8,0.0,0.0,0.0,0.0,0.0,0.0
1402754346131988981,3,-17.1750706626,-0.00591572024346,-16.9699146008,-0.122189614607,58.0550549532,0.10862951003,0.0344299674345,0.0,-0.0157599364192,0.0,0.104862595639,0.0,1.15550185418,0.0,0.00263720690932,0.0,0.000766543057079,0.0,-0.00270009486375,0.0,0.0737901571398,0.0,-0.000469297713874,0.0,0.0,0.0,0.0,-75.0,0.0,22.86,0.00230154196664,0.0,0.00230154196664,0.0,-0.0,-75.0,-0.0,0.0,570664.8,0.0,0.0,0.0,0.0,0.0,0.0
1402754346152336107,3,-17.1750706626,-0.00591572024346,-16.9699146008,-0.122189614607,58.0550549532,0.10862951003,0.0344299674345,0.0,-0.0157599364192,0.0,0.104862595639,0.0,1.15550185418,0.0,0.00263720690932,0.0,0.000766543057079,0.0,-0.00270009486375,0.0,0.0737901571398,0.0,-0.000469297713874,0.0,0.0,0.0,0.0,-75.0,0.0,22.86,0.00230154196664,0.0,0.00230154196664,0.0,-0.0,-75.0,-0.0,0.0,570664.8,0.0,0.0,0.0,0.0,0.0,0.0
1402754346171873831,3,-17.1743737378,-0.00591572024346,-16.9702433054,-0.122189614607,58.0570534003,0.10862951003,0.0345709032829,0.0,-0.0159900370553,0.0,0.106155816063,0.0,1.15550073202,0.0,-0.00111418167807,0.0,0.0007906038795,0.0,0.00245360134871,0.0,0.0738184148587,0.0,0.0019176602225,0.0,0.0,0.0,0.0,-75.0,0.0,22.86,0.00230154196664,0.0,0.00230154196664,0.0,-0.0,-75.0,-0.0,0.0,570664.8,0.0,0.0,0.0,0.0,0.0,0.0
1402754346192182154,3,-17.1743737378,-0.00591572024346,-16.9702433054,-0.122189614607,58.0570534003,0.10862951003,0.0345709032829,0.0,-0.0159900370553,0.0,0.106155816063,0.0,1.15550073202,0.0,-0.00111418167807,0.0,0.0007906038795,0.0,0.00245360134871,0.0,0.0738184148587,0.0,0.0019176602225,0.0,0.0,0.0,0.0,-75.0,0.0,22.86,0.00230154196664,0.0,0.00230154196664,0.0,-0.0,-75.0,-0.0,0.0,570664.8,0.0,0.0,0.0,0.0,0.0,0.0
1402754346212543910,3,-17.173814361,-0.00591572024346,-16.9659223625,-0.122189614607,58.0449830331,0.10862951003,0.0441208943757,0.0,-0.0144949258314,0.0,0.104416826269,0.0,1.15529766906,0.0,-0.00818011996572,0.0,0.00202329820949,0.0,0.00550061236609,0.0,0.0742844789407,0.0,0.00338774123415,0.0,0.0,0.0,0.0,-75.0,0.0,22.86,0.00230154196664,0.0,0.00230154196664,0.0,-0.0,-75.0,-0.0,0.0,570664.8,0.0,0.0,0.0,0.0,0.0,0.0
1402754346231891940,3,-17.173814361,-0.00591572024346,-16.9659223625,-0.122189614607,58.0449830331,0.10862951003,0.0441208943757,0.0,-0.0144949258314,0.0,0.104416826269,0.0,1.15529766906,0.0,-0.00818011996572,0.0,0.00202329820949,0.0,0.00550061236609,0.0,0.0742844789407,0.0,0.00338774123415,0.0,0.0,0.0,0.0,-75.0,0.0,22.86,0.00230154196664,0.0,0.00230154196664,0.0,-0.0,-75.0,-0.0,0.0,570664.8,0.0,0.0,0.0,0.0,0.0,0.0
1402754346252048331,3,-17.1785044594,-0.00591572024346,-16.9715350014,-0.122189614607,58.0598795828,0.10862951003,0.0260387222368,0.0,-0.0205966977631,0.0,0.110059803737,0.0,1.15521078079,0.0,0.00662707819973,0.0,-2.8494719391e-06,0.0,0.00259605358134,0.0,0.0725406022683,0.0,-0.00624486216898,0.0,0.0,0.0,0.0,-75.0,0.0,22.86,0.00230154196664,0.0,0.00230154196664,0.0,-0.0,-75.0,-0.0,0.0,570664.8,0.0,0.0,0.0,0.0,0.0,0.0
1402754346272755607,3,-17.1785044594,-0.00591572024346,-16.9715350014,-0.122189614607,58.0598795828,0.10862951003,0.0260387222368,0.0,-0.0205966977631,0.0,0.110059803737,0.0,1.15521078079,0.0,0.00662707819973,0.0,-2.8494719391e-06,0.0,0.00259605358134,0.0,0.0725406022683,0.0,-0.00624486216898,0.0,0.0,0.0,0.0,-75.0,0.0,22.86,0.00230154196664,0.0,0.00230154196664,0.0,-0.0,-75.0,-0.0,0.0,570664.8,0.0,0.0,0.0,0.0,0.0,0.0
1402754346291742440,3,-17.177020742,-0.00591572024346,-16.9700662642,-0.122189614607,58.050795936,0.10862951003,0.0370538641178,0.0,-0.0237881724524,0.0,0.107973356385,0.0,1.15522092225,0.0,-0.00340150596463,0.0,0.00169826636544,0.0,0.00675197878685,0.0,0.072445423325,0.0,-0.000643486799432,0.0,0.0,0.0,0.0,-75.0,0.0,22.86,0.00230154196664,0.0,0.00230154196664,0.0,-0.0,-75.0,-0.0,0.0,570664.8,0.0,0.0,0.0,0.0,0.0,0.0
1402754346311941305,3,-17.177020742,-0.00591572024346,-16.9700662642,-0.122189614607,58.050795936,0.10862951003,0.0370538641178,0.0,-0.0237881724524,0.0,0.107973356385,0.0,1.15522092225,0.0,-0.00340150596463,0.0,0.00169826636544,0.0,0.00675197878685,0.0,0.072445423325,0.0,-0.000643486799432,0.0,0.0,0.0,0.0,-75.0,0.0,22.86,0.00230154196664,0.0,0.00230154196664,0.0,-0.0,-75.0,-0.0,0.0,570664.8,0.0,0.0,0.0,0.0,0.0,0.0
1402754346332332423,3,-17.1754097507,-0.00591572024346,-16.9711297092,-0.122189614607,58.0552751557,0.10862951003,0.0369133389341,0.0,-0.024270406706,0.0,0.109028482605,0.0,1.15514128912,0.0,-0.00147826043356,0.0,0.00172892269553,0.0,0.00945006793337,0.0,0.0720243284435,0.0,-0.00930733736006,0.0,0.0,0.0,0.0,-75.0,0.0,22.86,0.00230154196664,0.0,0.00230154196664,0.0,-0.0,-75.0,-0.0,0.0,570664.8,0.0,0.0,0.0,0.0,0.0,0.0
1402754346351942940,3,-17.1754097507,-0.00591572024346,-16.9711297092,-0.122189614607,58.0552751557,0.10862951003,0.0369133389341,0.0,-0.024270406706,0.0,0.109028482605,0.0,1.15514128912,0.0,-0.00147826043356,0.0,0.00172892269553,0.0,0.00945006793337,0.0,0.0720243284435,0.0,-0.00930733736006,0.0,0.0,0.0,0.0,-75.0,0.0,22.86,0.00230154196664,0.0,0.00230154196664,0.0,-0.0,-75.0,-0.0,0.0,570664.8,0.0,0.0,0.0,0.0,0.0,0.0
1402754346371638021,3,-17.1787004613,-0.00591572024346,-16.9700333389,-0.122189614607,58.0595531981,0.10862951003,0.0302067274799,0.0,-0.0179497874818,0.0,0.109034602319,0.0,1.15506054511,0.0,-0.00564662778091,0.0,0.00073279398042,0.0,0.00917972412176,0.0,0.0718600509685,0.0,-0.00116511099784,0.0,0.0,0.0,0.0,-75.0,0.0,22.86,0.00230154196664,0.0,0.00230154196664,0.0,-0.0,-75.0,-0.0,0.0,570664.8,0.0,0.0,0.0,0.0,0.0,0.0
1402754346392014400,3,-17.1787004613,-0.00591572024346,-16.9700333389,-0.122189614607,58.0595531981,0.10862951003,0.0302067274799,0.0,-0.0179497874818,0.0,0.109034602319,0.0,1.15506054511,0.0,-0.00564662778091,0.0,0.00073279398042,0.0,0.00917972412176,0.0,0.0718600509685,0.0,-0.00116511099784,0.0,0.0,0.0,0.0,-75.0,0.0,22.86,0.00230154196664,0.0,0.00230154196664,0.0,-0.0,-75.0,-0.0,0.0,570664.8,0.0,0.0,0.0,0.0,0.0,0.0
1402754346411624474,3,-17.1778148116,-0.00591572024346,-16.9736482408,-0.122189614607,58.0706567655,0.10862951003,0.0306296688762,0.0,-0.0194608265137,0.0,0.109972548213,0.0,1.15505199934,0.0,-0.000110735360645,0.0,0.000720327090485,0.0,0.00274520960154,0.0,0.0712516708263,0.0,-0.00672479575453,0.0,0.0,0.0,0.0,-75.0,0.0,22.86,0.00230154196664,0.0,0.00230154196664,0.0,-0.0,-75.0,-0.0,0.0,570664.8,0.0,0.0,0.0,0.0,0.0,0.0
1402754346431718672,3,-17.1778148116,-0.00591572024346,-16.9736482408,-0.122189614607,58.0706567655,0.10862951003,0.0306296688762,0.0,-0.0194608265137,0.0,0.109972548213,0.0,1.15505199934,0.0,-0.000110735360645,0.0,0.000720327090485,0.0,0.00274520960154,0.0,0.0712516708263,0.0,-0.00672479575453,0.0,0.0,0.0,0.0,-75.0,0.0,22.86,0.00230154196664,0.0,0.00230154196664,0.0,-0.0,-75.0,-0.0,0.0,570664.8,0.0,0.0,0.0,0.0,0.0,0.0
1402754346451711402,3,-17.1774331514,-0.00591572024346,-16.9797520132,-0.122189614607,58.0788214858,0.10862951003,0.032864315803,0.0,-0.0304001352888,0.0,0.107411984236,0.0,1.15490056169,0.0,-0.000744723812603,0.0,0.00120757134842,0.0,0.0099223059299,0.0,0.0697868099729,0.0,-0.00195461319662,0.0,0.0,0.0,0.0,-75.0,0.0,22.86,0.00230154196664,0.0,0.00230154196664,0.0,-0.0,-75.0,-0.0,0.0,570664.8,0.0,0.0,0.0,0.0,0.0,0.0
1402754346471892360,3,-17.1774331514,-0.00591572024346,-16.9797520132,-0.122189614607,58.0788214858,0.10862951003,0.032864315803,0.0,-0.0304001352888,0.0,0.107411984236,0.0,1.15490056169,0.0,-0.000744723812603,0.0,0.00120757134842,0.0,0.0099223059299,0.0,0.0697868099729,0.0,-0.00195461319662,0.0,0.0,0.0,0.0,-75.0,0.0,22.86,0.00230154196664,0.0,0.00230154196664,0.0,-0.0,-75.0,-0.0,0.0,570664.8,0.0,0.0,0.0,0.0,0.0,0.0
1402754346492399949,3,-17.1808332242,-0.00591572024346,-16.9801821119,-0.122189614607,58.0886172576,0.10862951003,0.0238596831838,0.0,-0.0224755179703,0.0,0.106007856207,0.0,1.15491595682,0.0,-0.00157167197186,0.0,-8.44234716219e-05,0.0,0.00797440284076,0.0,0.0699474027033,0.0,-0.00527333920599,0.0,0.0,0.0,0.0,-75.0,0.0,22.86,0.00230154196664,0.0,0.00230154196664,0.0,-0.0,-75.0,-0.0,0.0,570664.8,0.0,0.0,0.0,0.0,0.0,0.0
1402754346512380139,3,-17.1797831725,-0.00591572024346,-16.9810040745,-0.122189614607,58.0929408581,0.10862951003,0.0244119707195,0.0,-0.0216249077133,0.0,0.105328434837,0.0,1.15489096733,0.0,-0.000427041035973,0.0,-0.000128586852582,0.0,0.000342879106911,0.0,0.0697271968005,0.0,-0.00423588196609,0.0,0.0,0.0,0.0,-75.0,0.0,22.86,0.00230154196664,0.0,0.00230154196664,0.0,-0.0,-75.0,-0.0,0.0,570664.8,0.0,0.0,0.0,0.0,0.0,0.0
1402754346531834002,3,-17.1795571982,-0.00591572024346,-16.9811956173,-0.122189614607,58.0939238844,0.10862951003,0.0243138481714,0.0,-0.0218181333041,0.0,0.104636940787,0.0,1.15487435145,0.0,-0.00178744856916,0.0,-0.000162383598583,0.0,0.0020438061735,0.0,0.0696911357405,0.0,-0.00448580984467,0.0,0.0,0.0,0.0,-75.0,0.0,22.86,0.00230154196664,0.0,0.00230154196664,0.0,-0.0,-75.0,-0.0,0.0,570664.8,0.0,0.0,0.0,0.0,0.0,0.0
1402754346552889944,3,-17.1795571982,-0.00591572024346,-16.9811956173,-0.122189614607,58.0939238844,0.10862951003,0.0243138481714,0.0,-0.0218181333041,0.0,0.104636940787,0.0,1.15487435145,0.0,-0.00178744856916,0.0,-0.000162383598583,0.0,0.0020438061735,0.0,0.0696911357405,0.0,-0.00448580984467,0.0,0.0,0.0,0.0,-75.0,0.0,22.86,0.00230154196664,0.0,0.00230154196664,0.0,-0.0,-75.0,-0.0,0.0,570664.8,0.0,0.0,0.0,0.0,0.0,0.0
1402754346571891989,3,-17.1787192808,-0.00591572024346,-16.9819171827,-0.122189614607,58.0972855847,0.10862951003,0.0260332047192,0.0,-0.0214313343494,0.0,0.104627050304,0.0,1.15485637762,0.0,1.24940392253e-05,0.0,1.98220235418e-05,0.0,-0.00347603791712,0.0,0.0697894138176,0.0,0.00789364923171,0.0,0.0,0.0,0.0,-75.0,0.0,22.86,0.00230154196664,0.0,0.00230154196664,0.0,-0.0,-75.0,-0.0,0.0,570664.8,0.0,0.0,0.0,0.0,0.0,0.0
1402754346591657540,3,-17.1787192808,-0.00591572024346,-16.9819171827,-0.122189614607,58.0972855847,0.10862951003,0.0260332047192,0.0,-0.0214313343494,0.0,0.104627050304,0.0,1.15485637762,0.0,1.24940392253e-05,0.0,1.98220235418e-05,0.0,-0.00347603791712,0.0,0.0697894138176,0.0,0.00789364923171,0.0,0.0,0.0,0.0,-75.0,0.0,22.86,0.00230154196664,0.0,0.00230154196664,0.0,-0.0,-75.0,-0.0,0.0,570664.8,0.0,0.0,0.0,0.0,0.0,0.0
1402754346611773645,3,-17.1752317008,-0.00591572024346,-16.9828705428,-0.122189614607,58.1052367166,0.10862951003,0.0344285774479,0.0,-0.017000520611,0.0,0.101834629326,0.0,1.15488487332,0.0,-0.00219434443643,0.0,0.000848244059843,0.0,-0.00491484563488,0.0,0.0707874495433,0.0,0.0032747787539,0.0,0.0,0.0,0.0,-75.0,0.0,22.86,0.00230154196664,0.0,0.00230154196664,0.0,-0.0,-75.0,-0.0,0.0,570664.8,0.0,0.0,0.0,0.0,0.0,0.0
1402754346632426608,3,-17.1752317008,-0.00591572024346,-16.9828705428,-0.122189614607,58.1052367166,0.10862951003,0.0344285774479,0.0,-0.017000520611,0.0,0.101834629326,0.0,1.15488487332,0.0,-0.00219434443643,0.0,0.000848244059843,0.0,-0.00491484563488,0.0,0.0707874495433,0.0,0.0032747787539,0.0,0.0,0.0,0.0,-75.0,0.0,22.86,0.00230154196664,-75.0,0.00230154196664,0.0,-0.0,-75.0,-0.0,0.0,570664.8,0.0,0.0,0.0,0.0,0.0,0.0
1402754346651694648,3,-17.1772276919,-0.00591572024346,-16.9845198728,-0.122189614607,58.0996617884,0.10862951003,0.0377711846404,0.0,-0.0235002082367,0.0,0.0957949811836,0.0,1.15505608934,0.0,0.00229683404213,0.0,0.00148596980184,0.0,-0.00828041070633,0.0,0.0703166847077,0.0,0.00220192264718,0.0,0.0,0.0,0.0,-75.0,0.0,22.86,0.00230154196664,-75.0,0.00230154196664,0.0,-0.0,-75.0,-0.0,0.0,570664.8,0.0,0.0,0.0,0.0,0.0,0.0
1402754346671822397,3,-17.1772276919,-0.00591572024346,-16.9845198728,-0.122189614607,58.0996617884,0.10862951003,0.0377711846404,0.0,-0.0235002082367,0.0,0.0957949811836,0.0,1.15505608934,0.0,0.00229683404213,0.0,0.00148596980184,0.0,-0.00828041070633,0.0,0.0703166847077,0.0,0.00220192264718,0.0,0.0,0.0,0.0,-75.0,0.0,22.86,0.00230154196664,-75.0,0.00230154196664,0.0,-0.0,-75.0,-0.0,0.0,570664.8,0.0,0.0,0.0,0.0,0.0,0.0
1402754346691525346,3,-17.1795733896,-0.00591572024346,-16.9909941533,-0.122189614607,58.1169211983,0.10862951003,0.0316710120573,0.0,-0.0240448516806,0.0,0.094407972708,0.0,1.15493495132,0.0,0.00167452062596,0.0,0.000839909459194,0.0,-0.0106288063325,0.0,0.07030193588,0.0,-0.000923317422357,0.0,0.0,0.0,0.0,-75.0,0.0,22.86,0.00230154196664,-75.0,0.00230154196664,0.0,-0.0,-75.0,-0.0,0.0,570664.8,0.0,0.0,0.0,0.0,0.0,0.0
1402754346711685676,3,-17.1795733896,-0.00591572024346,-16.9909941533,-0.122189614607,58.1169211983,0.10862951003,0.0316710120573,0.0,-0.0240448516806,0.0,0.094407972708,0.0,1.15493495132,0.0,0.00167452062596,0.0,0.000839909459194,0.0,-0.0106288063325,0.0,0.07030193588,0.0,-0.000923317422357,0.0,0.0,0.0,0.0,-75.0,0.0,22.86,0.00230154196664,-75.0,0.00230154196664,0.0,-0.0,-75.0,-0.0,0.0,570664.8,0.0,0.0,0.0,0.0,0.0,0.0
1402754346731647130,3,-17.1706501647,-0.00591572024346,-16.9967278972,-0.122189614607,58.1432429378,0.10862951003,0.0445000224177,0.0,-0.0193613503327,0.0,0.0994236576822,0.0,1.15498301623,0.0,0.00316781552156,0.0,0.00172319801018,0.0,-0.0129471577209,0.0,0.0718923814175,0.0,0.00639355049216,0.0,0.0,0.0,0.0,-75.0,0.0,22.86,0.00230154196664,-75.0,0.00230154196664,0.0,-0.0,-75.0,-0.0,0.0,570664.8,0.0,0.0,0.0,0.0,0.0,0.0
1402754346751703794,3,-17.1706501647,-0.00591572024346,-16.9967278972,-0.122189614607,58.1432429378,0.10862951003,0.0445000224177,0.0,-0.0193613503327,0.0,0.0994236576822,0.0,1.15498301623,0.0,0.00316781552156,0.0,0.00172319801018,0.0,-0.0129471577209,0.0,0.0718923814175,0.0,0.00639355049216,0.0,0.0,0.0,0.0,-75.0,0.0,22.86,0.00230154196664,-75.0,0.00230154196664,0.0,-0.0,-75.0,-0.0,0.0,570664.8,0.0,0.0,0.0,0.0,0.0,0.0
1402754346771934559,3,-17.1687510575,-0.00591572024346,-16.997442672,-0.122189614607,58.147130232,0.10862951003,0.0439881214199,0.0,-0.019878796456,0.0,0.099538051491,0.0,1.15495515854,0.0,-0.00356546097238,0.0,0.00161024852259,0.0,-0.00676832565262,0.0,0.0723291751574,0.0,0.00482843088705,0.0,0.0,0.0,0.0,-75.0,0.0,22.86,0.00230154196664,-75.0,0.00230154196664,0.0,-0.0,-75.0,-0.0,0.0,570664.8,0.0,0.0,0.0,0.0,0.0,0.0
1402754346791618514,3,-17.1687510575,-0.00591572024346,-16.997442672,-0.122189614607,58.147130232,0.10862951003,0.0439881214199,0.0,-0.019878796456,0.0,0.099538051491,0.0,1.15495515854,0.0,-0.00356546097238,0.0,0.00161024852259,0.0,-0.00676832565262,0.0,0.0723291751574,0.0,0.00482843088705,0.0,0.0,0.0,0.0,-75.0,0.0,22.86,0.00230154196664,-75.0,0.00230154196664,0.0,-0.0,-75.0,-0.0,0.0,570664.8,0.0,0.0,0.0,0.0,0.0,0.0
1402754346811507195,3,-17.1790791287,-0.00591572024346,-16.9953375192,-0.122189614607,58.1402491045,0.10862951003,0.0186278503976,0.0,-0.0274299091613,0.0,0.0957488754631,0.0,1.15508205234,0.0,0.0119373420457,0.0,-0.000451550739386,0.0,-0.0200316814658,0.0,0.0723763360443,0.0,0.0103363610299,0.0,0.0,0.0,0.0,-75.0,0.0,22.86,0.00230154196664,-75.0,0.00230154196664,0.0,-0.0,-75.0,-0.0,0.0,570664.8,0.0,0.0,0.0,0.0,0.0,0.0
1402754346832099193,3,-17.1790791287,-0.00591572024346,-16.9953375192,-0.122189614607,58.1402491045,0.10862951003,0.0186278503976,0.0,-0.0274299091613,0.0,0.0957488754631,0.0,1.15508205234,0.0,0.0119373420457,0.0,-0.000451550739386,0.0,-0.0200316814658,0.0,0.0723763360443,0.0,0.0103363610299,0.0,0.0,0.0,0.0,-75.0,0.0,22.86,0.00230154196664,-75.0,0.00230154196664,0.0,-0.0,-75.0,-0.0,0.0,570664.8,0.0,0.0,0.0,0.0,0.0,0.0
1402754346851672512,3,-17.1779563327,-0.00591572024346,-17.0031461524,-0.122189614607,58.1536247189,0.10862951003,0.00468052584069,0.0,-0.0561309432235,0.0,0.0944579136052,0.0,1.15664287978,0.0,0.0400288471171,0.0,0.000127842494058,0.0,-0.0306870445655,0.0,0.0730107570837,0.0,0.00912978197667,0.0,0.0,0.0,0.0,-75.0,0.0,22.86,0.00230154196664,-75.0,0.00230154196664,0.0,-0.0,-75.0,-0.0,0.0,570664.8,0.0,0.0,0.0,0.0,0.0,0.0
1402754346871884380,3,-17.1779563327,-0.00591572024346,-17.0031461524,-0.122189614607,58.1536247189,0.10862951003,0.00468052584069,0.0,-0.0561309432235,0.0,0.0944579136052,0.0,1.15664287978,0.0,0.0400288471171,0.0,0.000127842494058,0.0,-0.0306870445655,0.0,0.0730107570837,0.0,0.00912978197667,0.0,0.0,0.0,0.0,-75.0,0.0,22.86,0.00230154196664,-75.0,0.00230154196664,0.0,-0.0,-75.0,-0.0,0.0,570664.8,0.0,0.0,0.0,0.0,0.0,0.0
1402754346892867218,3,-17.1743809131,-0.00591572024346,-17.0000383035,-0.122189614607,58.149643436,0.10862951003,0.012640027385,0.0,-0.0592692695051,0.0,0.0909788022949,0.0,1.15918805505,0.0,0.0418301758524,0.0,0.00159675384139,0.0,-0.0331371015942,0.0,0.0756324490559,0.0,0.0171423221307,0.0,0.0,0.0,0.0,-75.0,0.0,22.86,0.00230154196664,-75.0,0.00230154196664,0.0,-0.0,-75.0,-0.0,0.0,570664.8,0.0,0.0,0.0,0.0,0.0,0.0
1402754346911668530,3,-17.1741429067,-0.00591572024346,-17.00135668,-0.122189614607,58.1515286801,0.10862951003,0.00829268333312,0.0,-0.0676471248034,0.0,0.0929412090652,0.0,1.16020724031,0.0,0.0488879024541,0.0,0.00180305290805,0.0,-0.022814346551,0.0,0.0763736175013,0.0,0.0272442887179,0.0,0.0,0.0,0.0,-75.0,0.0,22.86,0.00230154196664,-75.0,0.00230154196664,0.0,-0.0,-75.0,-0.0,0.0,570664.8,0.0,0.0,0.0,0.0,0.0,0.0
1402754346932082797,3,-17.1741429067,-0.00591572024346,-17.00135668,-0.122189614607,58.1515286801,0.10862951003,0.00829268333312,0.0,-0.0676471248034,0.0,0.0929412090652,0.0,1.16020724031,0.0,0.0488879024541,0.0,0.00180305290805,0.0,-0.022814346551,0.0,0.0763736175013,0.0,0.0272442887179,0.0,0.0,0.0,0.0,-75.0,0.0,22.86,0.00230154196664,-75.0,0.00230154196664,0.0,-0.0,-75.0,-0.0,0.0,570664.8,0.0,0.0,0.0,0.0,0.0,0.0
1402754346952210048,3,-17.1774711266,-0.00591572024346,-17.0016245294,-0.122189614607,58.1563379393,0.10862951003,-0.00307022084878,0.0,-0.0691524124333,0.0,0.0917867221544,0.0,1.1608059839,0.0,0.0639645056955,0.0,0.000892600023152,0.0,-0.0304051479214,0.0,0.0775201929751,0.0,0.017366888905,0.0,0.0,0.0,0.0,-75.0,0.0,22.86,0.00230154196664,-75.0,0.00230154196664,0.0,-0.0,-75.0,-0.0,0.0,570664.8,0.0,0.0,0.0,0.0,0.0,0.0
1402754346971712018,3,-17.1774711266,-0.00591572024346,-17.0016245294,-0.122189614607,58.1563379393,0.10862951003,-0.00307022084878,0.0,-0.0691524124333,0.0,0.0917867221544,0.0,1.1608059839,0.0,0.0639645056955,0.0,0.000892600023152,0.0,-0.0304051479214,0.0,0.0775201929751,0.0,0.017366888905,0.0,0.0,0.0,0.0,-75.0,0.0,22.86,0.00230154196664,-75.0,0.00230154196664,0.0,-0.0,-75.0,-0.0,0.0,570664.8,0.0,0.0,0.0,0.0,0.0,0.0
1402754346991714161,3,-17.1767066378,-0.00591572024346,-17.0077832401,-0.122189614607,58.1611604572,0.10862951003,-0.00563947369925,0.0,-0.090161992311,0.0,0.0937511002022,0.0,1.16473318361,0.0,0.0722094443857,0.0,0.00220807616144,0.0,-0.0239152086816,0.0,0.0784687254844,0.0,0.0126677103597,0.0,0.0,0.0,0.0,-75.0,0.0,22.86,0.00230154196664,-75.0,0.00230154196664,0.0,-0.0,-75.0,-0.0,0.0,570664.8,0.0,0.0,0.0,0.0,0.0,0.0
1402754347011711101,3,-17.1767066378,-0.00591572024346,-17.0077832401,-0.122189614607,58.1611604572,0.10862951003,-0.00563947369925,0.0,-0.090161992311,0.0,0.0937511002022,0.0,1.16473318361,0.0,0.0722094443857,0.0,0.00220807616144,0.0,-0.0239152086816,0.0,0.0784687254844,0.0,0.0126677103597,0.0,0.0,0.0,0.0,-75.0,0.0,22.86,0.00230154196664,-75.0,0.00230154196664,0.0,-0.0,-75.0,-0.0,0.0,570664.8,0.0,0.0,0.0,0.0,0.0,0.0
1402754347032254717,3,-17.1795043568,-0.00591572024346,-17.0103768118,-0.122189614607,58.1698922217,0.10862951003,-0.0170785556755,0.0,-0.0953710055629,0.0,0.0943558609236,0.0,1.16776942619,0.0,0.0850929239977,0.0,0.00154144115872,0.0,-0.0203189965271,0.0,0.0804857495929,0.0,0.00739475773819,0.0,0.0,0.0,0.0,-75.0,0.0,22.86,0.00230154196664,-75.0,0.00230154196664,0.0,-0.0,-75.0,-0.0,0.0,570664.8,0.0,0.0,0.0,0.0,0.0,0.0
1402754347051685554,3,-17.1795043568,-0.00591572024346,-17.0103768118,-0.122189614607,58.1698922217,0.10862951003,-0.0170785556755,0.0,-0.0953710055629,0.0,0.0943558609236,0.0,1.16776942619,0.0,0.0850929239977,0.0,0.00154144115872,0.0,-0.0203189965271,0.0,0.0804857495929,0.0,0.00739475773819,0.0,0.0,0.0,0.0,-75.0,0.0,22.86,0.00230154196664,-75.0,0.00230154196664,0.0,-0.0,-75.0,-0.0,0.0,570664.8,0.0,0.0,0.0,0.0,0.0,0.0
1402754347071784961,3,-17.176824005,-0.00591572024346,-17.0222737986,-0.122189614607,58.1904224582,0.10862951003,-0.0201167646757,0.0,-0.118577388681,0.0,0.105293328752,0.0,1.17390636793,0.0,0.0973580261105,0.0,0.0025595855233,0.0,-0.0113007100784,0.0,0.0812799269789,0.0,-0.00198030977411,0.0,0.0,0.0,0.0,-75.0,0.0,22.86,0.00230154196664,-75.0,0.00230154196664,0.0,-0.0,-75.0,-0.0,0.0,570664.8,0.0,0.0,0.0,0.0,0.0,0.0
1402754347091689951,3,-17.176824005,-0.00591572024346,-17.0222737986,-0.122189614607,58.1904224582,0.10862951003,-0.0201167646757,0.0,-0.118577388681,0.0,0.105293328752,0.0,1.17390636793,0.0,0.0973580261105,0.0,0.0025595855233,0.0,-0.0113007100784,0.0,0.0812799269789,0.0,-0.00198030977411,0.0,0.0,0.0,0.0,-75.0,0.0,22.86,0.00230154196664,-75.0,0.00230154196664,0.0,-0.0,-75.0,-0.0,0.0,570664.8,0.0,0.0,0.0,0.0,0.0,0.0
1402754347112310727,3,-17.1780803638,-0.00591572024346,-17.0289298711,-0.122189614607,58.1960018107,0.10862951003,-0.0301645658533,0.0,-0.137436947529,0.0,0.110505535004,0.0,1.17939769582,0.0,0.109258307941,0.0,0.00270501813284,0.0,0.00259917688867,0.0,0.0815158279889,0.0,-0.00585849272916,0.0,0.0,0.0,0.0,-75.0,0.0,22.86,0.00230154196664,-75.0,0.000767318410122,0.0,-0.0,-75.0,-0.0,0.0,570664.8,0.0,0.0,0.0,0.0,0.0,0.0
1402754347131683924,3,-17.1780803638,-0.00591572024346,-17.0289298711,-0.122189614607,58.1960018107,0.10862951003,-0.0301645658533,0.0,-0.137436947529,0.0,0.110505535004,0.0,1.17939769582,0.0,0.109258307941,0.0,0.00270501813284,0.0,0.00259917688867,0.0,0.0815158279889,0.0,-0.00585849272916,0.0,0.0,0.0,0.0,-75.0,0.0,22.86,0.00230154196664,-75.0,0.00230154196664,0.0,-0.0,-75.0,-0.0,0.0,570664.8,0.0,0.0,0.0,0.0,0.0,0.0
1402754347151914566,3,-17.1838313073,-0.00591572024346,-17.0353276739,-0.122189614607,58.2000324206,0.10862951003,-0.0413389063286,0.0,-0.149521407093,0.0,0.112228123754,0.0,1.18082821251,0.0,0.117817553297,0.0,0.00233807792651,0.0,0.00588524613311,0.0,0.0804189341086,0.0,-0.00335082339418,0.0,0.0,0.0,0.0,-75.0,0.0,22.86,0.00230154196664,-75.0,0.00230154196664,0.0,-0.0,-75.0,-0.0,0.0,570664.8,0.0,0.0,0.0,0.0,0.0,0.0
1402754347171733935,3,-17.1838313073,-0.00591572024346,-17.0353276739,-0.122189614607,58.2000324206,0.10862951003,-0.0413389063286,0.0,-0.149521407093,0.0,0.112228123754,0.0,1.18082821251,0.0,0.117817553297,0.0,0.00233807792651,0.0,0.00588524613311,0.0,0.0804189341086,0.0,-0.00335082339418,0.0,0.0,0.0,0.0,-75.0,0.0,22.86,0.00230154196664,-75.0,0.00230154196664,0.0,-0.0,-75.0,-0.0,0.0,570664.8,0.0,0.0,0.0,0.0,0.0,0.0
1402754347191708247,3,-17.1881353825,-0.00591572024346,-17.0443137234,-0.122189614607,58.2097062512,0.10862951003,-0.0506716610167,0.0,-0.165103467063,0.0,0.114450235603,0.0,1.18568125485,0.0,0.128508198334,0.0,0.00238543276575,0.0,0.014952522417,0.0,0.0797579472308,0.0,0.00245494092767,0.0,0.0,0.0,0.0,-75.0,0.0,22.86,0.00230154196664,-75.0,0.00230154196664,0.0,-0.0,-75.0,-0.0,0.0,570664.8,0.0,0.0,0.0,0.0,0.0,0.0
1402754347211646264,3,-17.1881353825,-0.00591572024346,-17.0443137234,-0.122189614607,58.2097062512,0.10862951003,-0.0506716610167,0.0,-0.165103467063,0.0,0.114450235603,0.0,1.18568125485,0.0,0.128508198334,0.0,0.00238543276575,0.0,0.014952522417,0.0,0.0797579472308,0.0,0.00245494092767,0.0,0.0,0.0,0.0,-75.0,0.0,22.86,0.00230154196664,-75.0,0.00230154196664,0.0,-0.0,-75.0,-0.0,0.0,570664.8,0.0,0.0,0.0,0.0,0.0,0.0
1402754347231906438,3,-17.1923923418,-0.00591572024346,-17.0580882612,-0.122189614607,58.2225234018,0.10862951003,-0.0639811091142,0.0,-0.188574692585,0.0,0.120095922152,0.0,1.19050859891,0.0,0.145654358092,0.0,0.00213800717468,0.0,0.0152560912531,0.0,0.0775048481521,0.0,-0.0112719662348,0.0,0.0,0.0,0.0,-75.0,0.0,22.86,0.00230154196664,-75.0,0.00230154196664,0.0,-0.0,-75.0,-0.0,0.0,570664.8,0.0,0.0,0.0,0.0,0.0,0.0
1402754347251766025,3,-17.1923923418,-0.00591572024346,-17.0580882612,-0.122189614607,58.2225234018,0.10862951003,-0.0639811091142,0.0,-0.188574692585,0.0,0.120095922152,0.0,1.19050859891,0.0,0.145654358092,0.0,0.00213800717468,0.0,0.0152560912531,0.0,0.0775048481521,0.0,-0.0112719662348,0.0,0.0,0.0,0.0,-75.0,0.0,22.86,0.00230154196664,-75.0,0.00230154196664,0.0,-0.0,-75.0,-0.0,0.0,570664.8,0.0,0.0,0.0,0.0,0.0,0.0
1402754347271765598,3,-17.1905170957,-0.00591572024346,-17.0741120125,-0.122189614607,58.2428987079,0.10862951003,-0.0636610823758,0.0,-0.211052334798,0.0,0.123974258296,0.0,1.19796315409,0.0,0.149120192916,0.0,0.00310105881644,0.0,0.0262980606822,0.0,0.075827844641,0.0,-0.0138762820385,0.0,0.0,0.0,0.0,-75.0,0.0,22.86,0.00230154196664,-75.0,0.00230154196664,0.0,-0.0,-75.0,-0.0,0.0,570664.8,0.0,0.0,0.0,0.0,0.0,0.0
1402754347292361348,3,-17.1905170957,-0.00591572024346,-17.0741120125,-0.122189614607,58.2428987079,0.10862951003,-0.0636610823758,0.0,-0.211052334798,0.0,0.123974258296,0.0,1.19796315409,0.0,0.149120192916,0.0,0.00310105881644,0.0,0.0262980606822,0.0,0.075827844641,0.0,-0.0138762820385,0.0,0.0,0.0,0.0,-75.0,0.0,22.86,0.00230154196664,-75.0,0.00230154196664,0.0,-0.0,-75.0,-0.0,0.0,570664.8,0.0,0.0,0.0,0.0,0.0,0.0
1402754347311761464,3,-17.1932607512,-0.00591572024346,-17.0829091456,-0.122189614607,58.2477743731,0.10862951003,-0.0694684919269,0.0,-0.224430820861,0.0,0.124830852136,0.0,1.20453739473,0.0,0.165240118816,0.0,0.00322844537335,0.0,0.0290053403306,0.0,0.0747654169832,0.0,-0.0095496362123,0.0,0.0,0.0,0.0,-75.0,0.0,22.86,0.00230154196664,-75.0,0.00230154196664,0.0,-0.0,-75.0,-0.0,0.0,570664.8,0.0,0.0,0.0,0.0,0.0,0.0
1402754347332016478,3,-17.1932607512,-0.00591572024346,-17.0829091456,-0.122189614607,58.2477743731,0.10862951003,-0.0694684919269,0.0,-0.224430820861,0.0,0.124830852136,0.0,1.20453739473,0.0,0.165240118816,0.0,0.00322844537335,0.0,0.0290053403306,0.0,0.0747654169832,0.0,-0.0095496362123,0.0,0.0,0.0,0.0,-75.0,0.0,22.86,0.00230154196664,-75.0,0.00230154196664,0.0,-0.0,-75.0,-0.0,0.0,570664.8,0.0,0.0,0.0,0.0,0.0,0.0
1402754347351885812,3,-17.2019062542,-0.00591572024346,-17.0875804495,-0.122189614607,58.2348537421,0.10862951003,-0.0772725166821,0.0,-0.231590818162,0.0,0.121571651224,0.0,1.21401079243,0.0,0.175126600974,0.0,0.00319712920187,0.0,0.019416041744,0.0,0.0741855385383,0.0,-0.0153862977032,0.0,0.0,0.0,0.0,-75.0,0.0,22.86,0.00230154196664,-75.0,0.00230154196664,0.0,-0.0,-75.0,-0.0,0.0,570664.8,0.0,0.0,0.0,0.0,0.0,0.0
1402754347371662914,3,-17.2019062542,-0.00591572024346,-17.0875804495,-0.122189614607,58.2348537421,0.10862951003,-0.0772725166821,0.0,-0.231590818162,0.0,0.121571651224,0.0,1.21401079243,0.0,0.175126600974,0.0,0.00319712920187,0.0,0.019416041744,0.0,0.0741855385383,0.0,-0.0153862977032,0.0,0.0,0.0,0.0,-75.0,0.0,22.86,0.00230154196664,-75.0,0.00230154196664,0.0,-0.0,-75.0,-0.0,0.0,570664.8,0.0,0.0,0.0,0.0,0.0,0.0
1402754347391637223,3,-17.2033507289,-0.00591572024346,-17.0949037716,-0.122189614607,58.2327031496,0.10862951003,-0.0723650743528,0.0,-0.243976204481,0.0,0.118176904365,0.0,1.22106980674,0.0,0.183880249672,0.0,0.00432260238488,0.0,0.0245621910727,0.0,0.0734256786103,0.0,-0.00663962860893,0.0,0.0,0.0,0.0,-75.0,0.0,22.86,0.00230154196664,-75.0,0.00230154196664,0.0,-0.0,-75.0,-0.0,0.0,570664.8,0.0,0.0,0.0,0.0,0.0,0.0
1402754347411536575,3,-17.2075706012,-0.00591572024346,-17.1077716425,-0.122189614607,58.2360421176,0.10862951003,-0.0764331693673,0.0,-0.261109104651,0.0,0.116138222074,0.0,1.22892806079,0.0,0.192518723746,0.0,0.00453716753742,0.0,0.013949532756,0.0,0.0719860847041,0.0,-0.0155531584921,0.0,0.0,0.0,0.0,-75.0,0.0,22.86,0.00230154196664,-75.0,0.00230154196664,0.0,-0.0,-75.0,-0.0,0.0,570664.8,0.0,0.0,0.0,0.0,0.0,0.0
1402754347431894589,3,-17.2075706012,-0.00591572024346,-17.1077716425,-0.122189614607,58.2360421176,0.10862951003,-0.0764331693673,0.0,-0.261109104651,0.0,0.116138222074,0.0,1.22892806079,0.0,0.192518723746,0.0,0.00453716753742,0.0,0.013949532756,0.0,0.0719860847041,0.0,-0.0155531584921,0.0,0.0,0.0,0.0,-75.0,0.0,22.86,0.00230154196664,-75.0,0.00230154196664,0.0,-0.0,-75.0,-0.0,0.0,570664.8,0.0,0.0,0.0,0.0,0.0,0.0
1402754347452284156,3,-17.2083161281,-0.00591572024346,-17.1103316299,-0.122189614607,58.2370102888,0.10862951003,-0.0771114530841,0.0,-0.265065673448,0.0,0.114759392898,0.0,1.2308289356,0.0,0.189534371205,0.0,0.00458928057082,0.0,0.0189624728336,0.0,0.0718043778559,0.0,-0.00111011592924,0.0,0.0,0.0,0.0,-75.0,0.0,22.86,0.00230154196664,-75.0,0.00230154196664,0.0,-0.0,-75.0,-0.0,0.0,570664.8,0.0,0.0,0.0,0.0,0.0,0.0
1402754347471690877,3,-17.2083161281,-0.00591572024346,-17.1103316299,-0.122189614607,58.2370102888,0.10862951003,-0.0771114530841,0.0,-0.265065673448,0.0,0.114759392898,0.0,1.2308289356,0.0,0.189534371205,0.0,0.00458928057082,0.0,0.0189624728336,0.0,0.0718043778559,0.0,-0.00111011592924,0.0,0.0,0.0,0.0,-75.0,0.0,22.86,0.00230154196664,-75.0,0.00230154196664,0.0,-0.0,-75.0,-0.0,0.0,570664.8,0.0,0.0,0.0,0.0,0.0,0.0
1402754347492013863,3,-17.2093557954,-0.00591572024346,-17.1171875166,-0.122189614607,58.2409468582,0.10862951003,-0.0739408643143,0.0,-0.268240569455,0.0,0.11102157245,0.0,1.23794103695,0.0,0.197648408402,0.0,0.00499986761531,0.0,0.00962590554186,0.0,0.0723355405182,0.0,-0.00908419970232,0.0,0.0,0.0,0.0,-75.0,0.0,22.86,0.00230154196664,-75.0,0.00230154196664,0.0,-0.0,-75.0,-0.0,0.0,570664.8,0.0,0.0,0.0,0.0,0.0,0.0
1402754347511659198,3,-17.2093557954,-0.00591572024346,-17.1171875166,-0.122189614607,58.2409468582,0.10862951003,-0.0739408643143,0.0,-0.268240569455,0.0,0.11102157245,0.0,1.23794103695,0.0,0.197648408402,0.0,0.00499986761531,0.0,0.00962590554186,0.0,0.0723355405182,0.0,-0.00908419970232,0.0,0.0,0.0,0.0,-75.0,0.0,22.86,0.00230154196664,-75.0,0.00230154196664,0.0,-0.0,-75.0,-0.0,0.0,570664.8,0.0,0.0,0.0,0.0,0.0,0.0
1402754347532210474,3,-17.2126800951,-0.00591572024346,-17.1287390102,-0.122189614607,58.2455610331,0.10862951003,-0.0784747877143,0.0,-0.281661199525,0.0,0.111614457162,0.0,1.24655030191,0.0,0.208946849912,0.0,0.00476662951495,0.0,0.00603837949839,0.0,0.0718894207439,0.0,0.0039776964939,0.0,0.0,0.0,0.0,-75.0,0.0,22.86,0.00230154196664,-75.0,0.00230154196664,0.0,-0.0,-75.0,-0.0,0.0,570664.8,0.0,0.0,0.0,0.0,0.0,0.0
1402754347551862008,3,-17.2126800951,-0.00591572024346,-17.1287390102,-0.122189614607,58.2455610331,0.10862951003,-0.0784747877143,0.0,-0.281661199525,0.0,0.111614457162,0.0,1.24655030191,0.0,0.208946849912,0.0,0.00476662951495,0.0,0.00603837949839,0.0,0.0718894207439,0.0,0.0039776964939,0.0,0.0,0.0,0.0,-75.0,0.0,22.86,0.00230154196664,-75.0,0.00230154196664,0.0,-0.0,-75.0,-0.0,0.0,570664.8,0.0,0.0,0.0,0.0,0.0,0.0
1402754347571733579,3,-17.2160830634,-0.00591572024346,-17.1406156137,-0.122189614607,58.2503423347,0.10862951003,-0.0844925323146,0.0,-0.293898723386,0.0,0.112396018455,0.0,1.25517565546,0.0,0.211874868432,0.0,0.00470534718043,0.0,-0.00218153764783,0.0,0.0717697324348,0.0,-0.0099930512738,0.0,0.0,0.0,0.0,-75.0,0.0,22.86,0.00230154196664,-75.0,0.00230154196664,0.0,-0.0,-75.0,-0.0,0.0,570664.8,0.0,0.0,0.0,0.0,0.0,0.0
1402754347591785743,3,-17.2160830634,-0.00591572024346,-17.1406156137,-0.122189614607,58.2503423347,0.10862951003,-0.0844925323146,0.0,-0.293898723386,0.0,0.112396018455,0.0,1.25517565546,0.0,0.211874868432,0.0,0.00470534718043,0.0,-0.00218153764783,0.0,0.0717697324348,0.0,-0.0099930512738,0.0,0.0,0.0,0.0,-75.0,0.0,22.86,0.00230154196664,-75.0,0.00230154196664,0.0,-0.0,-75.0,-0.0,0.0,570664.8,0.0,0.0,0.0,0.0,0.0,0.0
1402754347611760914,3,-17.2244368926,-0.00591572024346,-17.1476242122,-0.122189614607,58.2442553078,0.10862951003,-0.0883129149768,0.0,-0.295281070376,0.0,0.10838245002,0.0,1.26660871092,0.0,0.221830181175,0.0,0.00425729481659,0.0,-0.00484842953418,0.0,0.0738245187336,0.0,0.00635963404568,0.0,0.0,0.0,0.0,-75.0,0.0,22.86,0.00230154196664,-75.0,0.00230154196664,0.0,-0.0,-75.0,-0.0,0.0,570664.8,0.0,0.0,0.0,0.0,0.0,0.0
1402754347631862485,3,-17.2244368926,-0.00591572024346,-17.1476242122,-0.122189614607,58.2442553078,0.10862951003,-0.0883129149768,0.0,-0.295281070376,0.0,0.10838245002,0.0,1.26660871092,0.0,0.221830181175,0.0,0.00425729481659,0.0,-0.00484842953418,0.0,0.0738245187336,0.0,0.00635963404568,0.0,0.0,0.0,0.0,-75.0,0.0,22.86,0.00230154196664,-75.0,0.00230154196664,0.0,-0.0,-75.0,-0.0,0.0,570664.8,0.0,0.0,0.0,0.0,0.0,0.0
1402754347651724696,3,-17.230801542,-0.00591572024346,-17.167944213,-0.122189614607,58.247026333,0.10862951003,-0.0925028567,0.0,-0.325162064147,0.0,0.103326061961,0.0,1.27794726968,0.0,0.230496640324,0.0,0.00449680604496,0.0,-0.00742869761553,0.0,0.0726852317607,0.0,0.00340723083215,0.0,0.0,0.0,0.0,-75.0,0.0,22.86,0.00230154196664,-75.0,0.00230154196664,0.0,-0.0,-75.0,-0.0,0.0,570664.8,0.0,0.0,0.0,0.0,0.0,0.0
1402754347671645357,3,-17.230801542,-0.00591572024346,-17.167944213,-0.122189614607,58.247026333,0.10862951003,-0.0925028567,0.0,-0.325162064147,0.0,0.103326061961,0.0,1.27794726968,0.0,0.230496640324,0.0,0.00449680604496,0.0,-0.00742869761553,0.0,0.0726852317607,0.0,0.00340723083215,0.0,0.0,0.0,0.0,-75.0,0.0,22.86,0.00230154196664,-75.0,0.00230154196664,0.0,-0.0,-75.0,-0.0,0.0,570664.8,0.0,0.0,0.0,0.0,0.0,0.0
1402754347692155009,3,-17.2327210419,-0.00591572024346,-17.1745677746,-0.122189614607,58.2491748591,0.10862951003,-0.0923961395888,0.0,-0.332329759404,0.0,0.104911526803,0.0,1.28261835003,0.0,0.234689478369,0.0,0.004600637884,0.0,-0.00418780849011,0.0,0.0728610088667,0.0,0.0153585794128,0.0,0.0,0.0,0.0,-75.0,0.0,22.86,0.00230154196664,-75.0,0.00230154196664,0.0,-0.0,-75.0,-0.0,0.0,570664.8,0.0,0.0,0.0,0.0,0.0,0.0
1402754347711683002,3,-17.2327210419,-0.00591572024346,-17.1745677746,-0.122189614607,58.2491748591,0.10862951003,-0.0923961395888,0.0,-0.332329759404,0.0,0.104911526803,0.0,1.28261835003,0.0,0.234689478369,0.0,0.004600637884,0.0,-0.00418780849011,0.0,0.0728610088667,0.0,0.0153585794128,0.0,0.0,0.0,0.0,-75.0,0.0,22.86,0.00230154196664,-75.0,0.00230154196664,0.0,-0.0,-75.0,-0.0,0.0,570664.8,0.0,0.0,0.0,0.0,0.0,0.0
1402754347733153473,3,-17.238910417,-0.00591572024346,-17.189516076,-0.122189614607,58.2388198714,0.10862951003,-0.0923036370753,0.0,-0.358040149613,0.0,0.0980952569611,0.0,1.29258674549,0.0,0.23818036125,0.0,0.00544418979119,0.0,-0.00216207337324,0.0,0.0720181418596,0.0,0.0121007399969,0.0,0.0,0.0,0.0,-75.0,0.0,22.86,0.00230154196664,-75.0,0.00230154196664,0.0,-0.0,-75.0,-0.0,0.0,570664.8,0.0,0.0,0.0,0.0,0.0,0.0
1402754347751776999,3,-17.238910417,-0.00591572024346,-17.189516076,-0.122189614607,58.2388198714,0.10862951003,-0.0923036370753,0.0,-0.358040149613,0.0,0.0980952569611,0.0,1.29258674549,0.0,0.23818036125,0.0,0.00544418979119,0.0,-0.00216207337324,0.0,0.0720181418596,0.0,0.0121007399969,0.0,0.0,0.0,0.0,-75.0,0.0,22.86,0.00230154196664,-75.0,0.00230154196664,0.0,-0.0,-75.0,-0.0,0.0,570664.8,0.0,0.0,0.0,0.0,0.0,0.0
1402754347771737030,3,-17.2430580575,-0.00591572024346,-17.2013521112,-0.122189614607,58.2448035187,0.10862951003,-0.0973440295907,0.0,-0.35882969586,0.0,0.102687947399,0.0,1.30284252818,0.0,0.243091554265,0.0,0.00476135972671,0.0,-0.0133209153627,0.0,0.0738022098109,0.0,-0.0066988919835,0.0,0.0,0.0,0.0,-75.0,0.0,22.86,0.00230154196664,-75.0,0.00230154196664,0.0,-0.0,-75.0,-0.0,0.0,570664.8,0.0,0.0,0.0,0.0,0.0,0.0
1402754347792467732,3,-17.2430580575,-0.00591572024346,-17.2013521112,-0.122189614607,58.2448035187,0.10862951003,-0.0973440295907,0.0,-0.35882969586,0.0,0.102687947399,0.0,1.30284252818,0.0,0.243091554265,0.0,0.00476135972671,0.0,-0.0133209153627,0.0,0.0738022098109,0.0,-0.0066988919835,0.0,0.0,0.0,0.0,-75.0,0.0,22.86,0.00230154196664,-75.0,0.00230154196664,0.0,-0.0,-75.0,-0.0,0.0,570664.8,0.0,0.0,0.0,0.0,0.0,0.0
1402754347811745036,3,-17.2463907642,-0.00591572024346,-17.2158781298,-0.122189614607,58.2523476434,0.10862951003,-0.0946292459939,0.0,-0.363224720453,0.0,0.101308778719,0.0,1.31596069461,0.0,0.25031258683,0.0,0.00471861645729,0.0,-0.00672618050191,0.0,0.075884639498,0.0,-0.000840168482858,0.0,0.0,0.0,0.0,-75.0,0.0,22.86,0.00230154196664,-75.0,0.00230154196664,0.0,-0.0,-75.0,-0.0,0.0,570664.8,0.0,0.0,0.0,0.0,0.0,0.0
1402754347831674803,3,-17.2463907642,-0.00591572024346,-17.2158781298,-0.122189614607,58.2523476434,0.10862951003,-0.0946292459939,0.0,-0.363224720453,0.0,0.101308778719,0.0,1.31596069461,0.0,0.25031258683,0.0,0.00471861645729,0.0,-0.00672618050191,0.0,0.075884639498,0.0,-0.000840168482858,0.0,0.0,0.0,0.0,-75.0,0.0,22.86,0.00230154196664,-75.0,0.00230154196664,0.0,-0.0,-75.0,-0.0,0.0,570664.8,0.0,0.0,0.0,0.0,0.0,0.0
1402754347851792157,3,-17.2484179075,-0.00591572024346,-17.2257475811,-0.122189614607,58.258365899,0.10862951003,-0.0932349864759,0.0,-0.365319027442,0.0,0.101635253172,0.0,1.32423577643,0.0,0.25129818199,0.0,0.00451677257818,0.0,-0.00613082233552,0.0,0.0769826255319,0.0,0.00388686361392,0.0,0.0,0.0,0.0,-75.0,0.0,22.86,0.00230154196664,-75.0,0.00230154196664,0.0,-0.0,-75.0,-0.0,0.0,570664.8,0.0,0.0,0.0,0.0,0.0,0.0
1402754347871646020,3,-17.24623816,-0.00591572024346,-17.2429439758,-0.122189614607,58.2712424323,0.10862951003,-0.0885784859201,0.0,-0.3886126496,0.0,0.102653409143,0.0,1.32967644449,0.0,0.25412135528,0.0,0.00528814576942,0.0,0.00360710297521,0.0,0.075328971785,0.0,0.00888736009559,0.0,0.0,0.0,0.0,-75.0,0.0,22.86,0.00230154196664,-75.0,0.00230154196664,0.0,-0.0,-75.0,-0.0,0.0,570664.8,0.0,0.0,0.0,0.0,0.0,0.0
1402754347891974032,3,-17.24623816,-0.00591572024346,-17.2429439758,-0.122189614607,58.2712424323,0.10862951003,-0.0885784859201,0.0,-0.3886126496,0.0,0.102653409143,0.0,1.32967644449,0.0,0.25412135528,0.0,0.00528814576942,0.0,0.00360710297521,0.0,0.075328971785,0.0,0.00888736009559,0.0,0.0,0.0,0.0,-75.0,0.0,22.86,0.00230154196664,-75.0,0.00230154196664,0.0,-0.0,-75.0,-0.0,0.0,570664.8,0.0,0.0,0.0,0.0,0.0,0.0
1402754347912474646,3,-17.2477894205,-0.00591572024346,-17.2500347372,-0.122189614607,58.2729202347,0.10862951003,-0.0893210222279,0.0,-0.395222283198,0.0,0.104133941585,0.0,1.33443906694,0.0,0.258354978567,0.0,0.00537174483012,0.0,0.00608322793945,0.0,0.0752795950635,0.0,0.00314474257334,0.0,0.0,0.0,0.0,-75.0,0.0,22.86,0.00230154196664,-75.0,0.00230154196664,0.0,-0.0,-75.0,-0.0,0.0,570664.8,0.0,0.0,0.0,0.0,0.0,0.0
1402754347931707602,3,-17.2477894205,-0.00591572024346,-17.2500347372,-0.122189614607,58.2729202347,0.10862951003,-0.0893210222279,0.0,-0.395222283198,0.0,0.104133941585,0.0,1.33443906694,0.0,0.258354978567,0.0,0.00537174483012,0.0,0.00608322793945,0.0,0.0752795950635,0.0,0.00314474257334,0.0,0.0,0.0,0.0,-75.0,0.0,22.86,0.00230154196664,-75.0,0.00230154196664,0.0,-0.0,-75.0,-0.0,0.0,570664.8,0.0,0.0,0.0,0.0,0.0,0.0
1402754347951674392,3,-17.249732135,-0.00591572024346,-17.2730385015,-0.122189614607,58.2752239321,0.10862951003,-0.0881301580462,0.0,-0.427366502785,0.0,0.104047531432,0.0,1.34457068221,0.0,0.265684724602,0.0,0.0060631219867,0.0,0.000234756225617,0.0,0.072974345324,0.0,0.00107416798073,0.0,0.0,0.0,0.0,-75.0,0.0,22.86,0.00230154196664,-75.0,0.00230154196664,0.0,-0.0,-75.0,-0.0,0.0,570664.8,0.0,0.0,0.0,0.0,0.0,0.0
1402754347971703859,3,-17.249732135,-0.00591572024346,-17.2730385015,-0.122189614607,58.2752239321,0.10862951003,-0.0881301580462,0.0,-0.427366502785,0.0,0.104047531432,0.0,1.34457068221,0.0,0.265684724602,0.0,0.0060631219867,0.0,0.000234756225617,0.0,0.072974345324,0.0,0.00107416798073,0.0,0.0,0.0,0.0,-75.0,0.0,22.86,0.00230154196664,-75.0,0.00230154196664,0.0,-0.0,-75.0,-0.0,0.0,570664.8,0.0,0.0,0.0,0.0,0.0,0.0
1402754347991963525,3,-17.2560116311,-0.00591572024346,-17.2846470941,-0.122189614607,58.2633876323,0.10862951003,-0.0890002054517,0.0,-0.435652739625,0.0,0.10184080375,0.0,1.35587525179,0.0,0.26273774494,0.0,0.00589056309892,0.0,0.00373298905375,0.0,0.0733394990456,0.0,-0.0130742052188,0.0,0.0,0.0,0.0,-75.0,0.0,22.86,0.00230154196664,-75.0,0.00230154196664,0.0,-0.0,-75.0,-0.0,0.0,570664.8,0.0,0.0,0.0,0.0,0.0,0.0
1402754348011729884,3,-17.2560116311,-0.00591572024346,-17.2846470941,-0.122189614607,58.2633876323,0.10862951003,-0.0890002054517,0.0,-0.435652739625,0.0,0.10184080375,0.0,1.35587525179,0.0,0.26273774494,0.0,0.00589056309892,0.0,0.00373298905375,0.0,0.0733394990456,0.0,-0.0130742052188,0.0,0.0,0.0,0.0,-75.0,0.0,22.86,0.00230154196664,-75.0,0.00230154196664,0.0,-0.0,-75.0,-0.0,0.0,570664.8,0.0,0.0,0.0,0.0,0.0,0.0
1402754348031669836,3,-17.259602387,-0.00591572024346,-17.3027095071,-0.122189614607,58.2674224678,0.10862951003,-0.0875308648845,0.0,-0.448510807849,0.0,0.105171601672,0.0,1.36689553254,0.0,0.266834329809,0.0,0.00599314395844,0.0,0.00633774767563,0.0,0.0731040236369,0.0,0.00185582039863,0.0,0.0,0.0,0.0,-75.0,0.0,22.86,0.00230154196664,-75.0,0.00230154196664,0.0,-0.0,-75.0,-0.0,0.0,570664.8,0.0,0.0,0.0,0.0,0.0,0.0
1402754348051868985,3,-17.259602387,-0.00591572024346,-17.3027095071,-0.122189614607,58.2674224678,0.10862951003,-0.0875308648845,0.0,-0.448510807849,0.0,0.105171601672,0.0,1.36689553254,0.0,0.266834329809,0.0,0.00599314395844,0.0,0.00633774767563,0.0,0.0731040236369,0.0,0.00185582039863,0.0,0.0,0.0,0.0,-75.0,0.0,22.86,0.00230154196664,-75.0,0.000767318410122,0.0,-0.0,-75.0,-0.0,0.0,570664.8,0.0,0.0,0.0,0.0,0.0,0.0
1402754348071650766,3,-17.2639776967,-0.00591572024346,-17.3248454654,-0.122189614607,58.2821159249,0.10862951003,-0.0930451246275,0.0,-0.456138774619,0.0,0.107371007317,0.0,1.38095539097,0.0,0.279367106369,0.0,0.00520000894647,0.0,0.0115102376334,0.0,0.0736803298142,0.0,-0.00415857878833,0.0,0.0,0.0,0.0,-75.0,0.0,22.86,0.00230154196664,-75.0,0.00230154196664,0.0,-0.0,-75.0,-0.0,0.0,570664.8,0.0,0.0,0.0,0.0,0.0,0.0
1402754348091741930,3,-17.2639776967,-0.00591572024346,-17.3248454654,-0.122189614607,58.2821159249,0.10862951003,-0.0930451246275,0.0,-0.456138774619,0.0,0.107371007317,0.0,1.38095539097,0.0,0.279367106369,0.0,0.00520000894647,0.0,0.0115102376334,0.0,0.0736803298142,0.0,-0.00415857878833,0.0,0.0,0.0,0.0,-75.0,0.0,22.86,0.00230154196664,-75.0,0.00230154196664,0.0,-0.0,-75.0,-0.0,0.0,570664.8,0.0,0.0,0.0,0.0,0.0,0.0
1402754348111711858,3,-17.2664528514,-0.00591572024346,-17.3359050711,-0.122189614607,58.2878962818,0.10862951003,-0.0871847535033,0.0,-0.439210515296,0.0,0.106792174739,0.0,1.39683948353,0.0,0.282166147827,0.0,0.00517629751907,0.0,0.00956924300777,0.0,0.0770650256515,0.0,0.00306724331846,0.0,0.0,0.0,0.0,-75.0,0.0,22.86,0.00230154196664,-75.0,0.00230154196664,0.0,-0.0,-75.0,-0.0,0.0,570664.8,0.0,0.0,0.0,0.0,0.0,0.0
1402754348131897269,3,-17.2664528514,-0.00591572024346,-17.3359050711,-0.122189614607,58.2878962818,0.10862951003,-0.0871847535033,0.0,-0.439210515296,0.0,0.106792174739,0.0,1.39683948353,0.0,0.282166147827,0.0,0.00517629751907,0.0,0.00956924300777,0.0,0.0770650256515,0.0,0.00306724331846,0.0,0.0,0.0,0.0,-75.0,0.0,22.86,0.00230154196664,-75.0,0.00230154196664,0.0,-0.0,-75.0,-0.0,0.0,570664.8,0.0,0.0,0.0,0.0,0.0,0.0
1402754348151744308,3,-17.272267494,-0.00591572024346,-17.3504667196,-0.122189614607,58.262864931,0.10862951003,-0.078568990958,0.0,-0.475906165743,0.0,0.0991059927984,0.0,1.40183583875,0.0,0.288912871709,0.0,0.00706455169201,0.0,0.0062312490012,0.0,0.0730847193267,0.0,-0.00010238980786,0.0,0.0,0.0,0.0,-75.0,0.0,22.86,0.00230154196664,-75.0,0.000767318410122,0.0,-0.0,-75.0,-0.0,0.0,570664.8,0.0,0.0,0.0,0.0,0.0,0.0
1402754348173415938,3,-17.272267494,-0.00591572024346,-17.3504667196,-0.122189614607,58.262864931,0.10862951003,-0.078568990958,0.0,-0.475906165743,0.0,0.0991059927984,0.0,1.40183583875,0.0,0.288912871709,0.0,0.00706455169201,0.0,0.0062312490012,0.0,0.0730847193267,0.0,-0.00010238980786,0.0,0.0,0.0,0.0,-75.0,0.0,22.86,0.00230154196664,-75.0,0.00230154196664,0.0,-0.0,-75.0,-0.0,0.0,570664.8,0.0,0.0,0.0,0.0,0.0,0.0
1402754348191741017,3,-17.2779404442,-0.00591572024346,-17.3776718917,-0.122189614607,58.2780774423,0.10862951003,-0.0868843745991,0.0,-0.497679632928,0.0,0.0984438669261,0.0,1.41280063988,0.0,0.289242919451,0.0,0.00636715412617,0.0,0.00826322270133,0.0,0.0714119945795,0.0,0.000634134384677,0.0,0.0,0.0,0.0,-75.0,0.0,22.86,0.00230154196664,-75.0,0.00230154196664,0.0,-0.0,-75.0,-0.0,0.0,570664.8,0.0,0.0,0.0,0.0,0.0,0.0
1402754348211859412,3,-17.2779404442,-0.00591572024346,-17.3776718917,-0.122189614607,58.2780774423,0.10862951003,-0.0868843745991,0.0,-0.497679632928,0.0,0.0984438669261,0.0,1.41280063988,0.0,0.289242919451,0.0,0.00636715412617,0.0,0.00826322270133,0.0,0.0714119945795,0.0,0.000634134384677,0.0,0.0,0.0,0.0,-75.0,0.0,22.86,0.00230154196664,-75.0,0.00230154196664,0.0,-0.0,-75.0,-0.0,0.0,570664.8,0.0,0.0,0.0,0.0,0.0,0.0
1402754348232874381,3,-17.2813560112,-0.00591572024346,-17.3982679083,-0.122189614607,58.2820741262,0.10862951003,-0.0837784511771,0.0,-0.510463447655,0.0,0.0969833799793,0.0,1.42473934693,0.0,0.290179285036,0.0,0.00665853597033,0.0,0.00547080478096,0.0,0.0712042176343,0.0,0.00696888707586,0.0,0.0,0.0,0.0,-75.0,0.0,22.86,0.00230154196664,-75.0,0.00230154196664,0.0,-0.0,-75.0,-0.0,0.0,570664.8,0.0,0.0,0.0,0.0,0.0,0.0
1402754348251765554,3,-17.2813560112,-0.00591572024346,-17.3982679083,-0.122189614607,58.2820741262,0.10862951003,-0.0837784511771,0.0,-0.510463447655,0.0,0.0969833799793,0.0,1.42473934693,0.0,0.290179285036,0.0,0.00665853597033,0.0,0.00547080478096,0.0,0.0712042176343,0.0,0.00696888707586,0.0,0.0,0.0,0.0,-75.0,0.0,22.86,0.00230154196664,-75.0,0.00230154196664,0.0,-0.0,-75.0,-0.0,0.0,570664.8,0.0,0.0,0.0,0.0,0.0,0.0
1402754348271749864,3,-17.2773120675,-0.00591572024346,-17.4162389522,-0.122189614607,58.3050951756,0.10862951003,-0.0712696710262,0.0,-0.500064522308,0.0,0.105755821955,0.0,1.43795636231,0.0,0.29575115654,0.0,0.00731410277952,0.0,0.00128412519061,0.0,0.0739386830755,0.0,0.00802403067766,0.0,0.0,0.0,0.0,-75.0,0.0,22.86,0.00230154196664,-75.0,0.00230154196664,0.0,-0.0,-75.0,-0.0,0.0,570664.8,0.0,0.0,0.0,0.0,0.0,0.0
1402754348292343044,3,-17.2773120675,-0.00591572024346,-17.4162389522,-0.122189614607,58.3050951756,0.10862951003,-0.0712696710262,0.0,-0.500064522308,0.0,0.105755821955,0.0,1.43795636231,0.0,0.29575115654,0.0,0.00731410277952,0.0,0.00128412519061,0.0,0.0739386830755,0.0,0.00802403067766,0.0,0.0,0.0,0.0,-75.0,0.0,22.86,0.00230154196664,-75.0,0.00230154196664,0.0,-0.0,-75.0,-0.0,0.0,570664.8,0.0,0.0,0.0,0.0,0.0,0.0
1402754348311787756,3,-17.2907803763,-0.00591572024346,-17.4317595902,-0.122189614607,58.3036280032,0.10862951003,-0.0900110280852,0.0,-0.499813448614,0.0,0.103040866696,0.0,1.45037080275,0.0,0.301049397924,0.0,0.00489138581863,0.0,0.00629380765855,0.0,0.0748539704565,0.0,-5.07710602132e-05,0.0,0.0,0.0,0.0,-75.0,0.0,22.86,0.00230154196664,-75.0,0.00230154196664,0.0,-0.0,-75.0,-0.0,0.0,570664.8,0.0,0.0,0.0,0.0,0.0,0.0
1402754348331832910,3,-17.2907803763,-0.00591572024346,-17.4317595902,-0.122189614607,58.3036280032,0.10862951003,-0.0900110280852,0.0,-0.499813448614,0.0,0.103040866696,0.0,1.45037080275,0.0,0.301049397924,0.0,0.00489138581863,0.0,0.00629380765855,0.0,0.0748539704565,0.0,-5.07710602132e-05,0.0,0.0,0.0,0.0,-75.0,0.0,22.86,0.00230154196664,-75.0,0.00230154196664,0.0,-0.0,-75.0,-0.0,0.0,570664.8,0.0,0.0,0.0,0.0,0.0,0.0
1402754348351759691,3,-17.2954827621,-0.00591572024346,-17.463272162,-0.122189614607,58.304547916,0.10862951003,-0.0858521552833,0.0,-0.536457501736,0.0,0.0998805594832,0.0,1.46146178683,0.0,0.298488670769,0.0,0.00559499883509,0.0,-0.00669201784608,0.0,0.0717196119804,0.0,-0.00770997221591,0.0,0.0,0.0,0.0,-75.0,0.0,22.86,0.00230154196664,-75.0,0.00230154196664,0.0,-0.0,-75.0,-0.0,0.0,570664.8,0.0,0.0,0.0,0.0,0.0,0.0
1402754348371523684,3,-17.2954827621,-0.00591572024346,-17.463272162,-0.122189614607,58.304547916,0.10862951003,-0.0858521552833,0.0,-0.536457501736,0.0,0.0998805594832,0.0,1.46146178683,0.0,0.298488670769,0.0,0.00559499883509,0.0,-0.00669201784608,0.0,0.0717196119804,0.0,-0.00770997221591,0.0,0.0,0.0,0.0,-75.0,0.0,22.86,0.00230154196664,-75.0,0.00230154196664,0.0,-0.0,-75.0,-0.0,0.0,570664.8,0.0,0.0,0.0,0.0,0.0,0.0
1402754348391782993,3,-17.2968540351,-0.00591572024346,-17.4899041925,-0.122189614607,58.2893997983,0.10862951003,-0.0575344553603,0.0,-0.560668777162,0.0,0.0908601341224,0.0,1.47657318017,0.0,0.296058942123,0.0,0.00816211991558,0.0,-0.00465710713446,0.0,0.0707794045815,0.0,-0.00366232638759,0.0,0.0,0.0,0.0,-75.0,0.0,22.86,0.00230154196664,-75.0,0.00230154196664,0.0,-0.0,-75.0,-0.0,0.0,570664.8,0.0,0.0,0.0,0.0,0.0,0.0
1402754348412142382,3,-17.2968540351,-0.00591572024346,-17.4899041925,-0.122189614607,58.2893997983,0.10862951003,-0.0575344553603,0.0,-0.560668777162,0.0,0.0908601341224,0.0,1.47657318017,0.0,0.296058942123,0.0,0.00816211991558,0.0,-0.00465710713446,0.0,0.0707794045815,0.0,-0.00366232638759,0.0,0.0,0.0,0.0,-75.0,0.0,22.86,0.00230154196664,-75.0,0.00230154196664,0.0,-0.0,-75.0,-0.0,0.0,570664.8,0.0,0.0,0.0,0.0,0.0,0.0
1402754348431701427,3,-17.3021333683,-0.00591572024346,-17.5104745535,-0.122189614607,58.3159142445,0.10862951003,-0.0704530241393,0.0,-0.547250902624,0.0,0.0967206388005,0.0,1.49084029611,0.0,0.310128169558,0.0,0.00481919825318,0.0,-0.000222479023335,0.0,0.0741488488885,0.0,-0.00803218313911,0.0,0.0,0.0,0.0,-75.0,0.0,22.86,0.00230154196664,-75.0,0.00230154196664,0.0,-0.0,-75.0,-0.0,0.0,570664.8,0.0,0.0,0.0,0.0,0.0,0.0
1402754348452107187,3,-17.3027742368,-0.00591572024346,-17.5160036496,-0.122189614607,58.3169063245,0.10862951003,-0.0676982390028,0.0,-0.549614731669,0.0,0.096687007542,0.0,1.4939461453,0.0,0.311125977052,0.0,0.00475549798342,0.0,-0.00404214615227,0.0,0.0741848076905,0.0,-0.00598504837555,0.0,0.0,0.0,0.0,-75.0,0.0,22.86,0.00230154196664,-75.0,0.00230154196664,0.0,-0.0,-75.0,-0.0,0.0,570664.8,0.0,0.0,0.0,0.0,0.0,0.0
1402754348471887633,3,-17.3042030675,-0.00591572024346,-17.5276438285,-0.122189614607,58.3189889862,0.10862951003,-0.065567747427,0.0,-0.555200183693,0.0,0.0955319978173,0.0,1.50029916211,0.0,0.308981417225,0.0,0.00447503430735,0.0,-0.00173076943095,0.0,0.074265121283,0.0,-0.0147442676851,0.0,0.0,0.0,0.0,-75.0,0.0,22.86,0.00230154196664,-75.0,0.00230154196664,0.0,-0.0,-75.0,-0.0,0.0,570664.8,0.0,0.0,0.0,0.0,0.0,0.0
1402754348491780267,3,-17.3042030675,-0.00591572024346,-17.5276438285,-0.122189614607,58.3189889862,0.10862951003,-0.065567747427,0.0,-0.555200183693,0.0,0.0955319978173,0.0,1.50029916211,0.0,0.308981417225,0.0,0.00447503430735,0.0,-0.00173076943095,0.0,0.074265121283,0.0,-0.0147442676851,0.0,0.0,0.0,0.0,-75.0,0.0,22.86,0.00230154196664,-75.0,0.00230154196664,0.0,-0.0,-75.0,-0.0,0.0,570664.8,0.0,0.0,0.0,0.0,0.0,0.0
1402754348512450091,3,-17.30104371,-0.00591572024346,-17.5540994909,-0.122189614607,58.3385749354,0.10862951003,-0.0541331615049,0.0,-0.561780998679,0.0,0.101775981607,0.0,1.51348455099,0.0,0.309541837185,0.0,0.00431462228573,0.0,-0.0079631204487,0.0,0.0751173234678,0.0,-0.0122058640549,0.0,0.0,0.0,0.0,-75.0,0.0,22.86,0.00230154196664,-75.0,0.000767318410122,0.0,-0.0,-75.0,-0.0,0.0,570664.8,0.0,0.0,0.0,0.0,0.0,0.0
1402754348531697872,3,-17.30104371,-0.00591572024346,-17.5540994909,-0.122189614607,58.3385749354,0.10862951003,-0.0541331615049,0.0,-0.561780998679,0.0,0.101775981607,0.0,1.51348455099,0.0,0.309541837185,0.0,0.00431462228573,0.0,-0.0079631204487,0.0,0.0751173234678,0.0,-0.0122058640549,0.0,0.0,0.0,0.0,-75.0,0.0,22.86,0.00230154196664,-75.0,0.00230154196664,0.0,-0.0,-75.0,-0.0,0.0,570664.8,0.0,0.0,0.0,0.0,0.0,0.0
1402754348551627014,3,-17.303064224,-0.00591572024346,-17.5772275084,-0.122189614607,58.3425431763,0.10862951003,-0.0486123589761,0.0,-0.572206900061,0.0,0.100374169287,0.0,1.5261495705,0.0,0.310455831671,0.0,0.00388553191169,0.0,-0.0111634891734,0.0,0.0753684824317,0.0,-0.0152244589059,0.0,0.0,0.0,0.0,-75.0,0.0,22.86,0.00230154196664,-75.0,0.00230154196664,0.0,-0.0,-75.0,-0.0,0.0,570664.8,0.0,0.0,0.0,0.0,0.0,0.0
1402754348571684739,3,-17.303064224,-0.00591572024346,-17.5772275084,-0.122189614607,58.3425431763,0.10862951003,-0.0486123589761,0.0,-0.572206900061,0.0,0.100374169287,0.0,1.5261495705,0.0,0.310455831671,0.0,0.00388553191169,0.0,-0.0111634891734,0.0,0.0753684824317,0.0,-0.0152244589059,0.0,0.0,0.0,0.0,-75.0,0.0,22.86,0.00230154196664,-75.0,0.00230154196664,0.0,-0.0,-75.0,-0.0,0.0,570664.8,0.0,0.0,0.0,0.0,0.0,0.0
1402754348591699144,3,-17.3112490011,-0.00591572024346,-17.6107043889,-0.122189614607,58.3290515049,0.10862951003,-0.0435949611773,0.0,-0.60392808737,0.0,0.0939122514795,0.0,1.54154114019,0.0,0.318768785078,0.0,0.00315420807047,0.0,-0.00406624512214,0.0,0.0731071909645,0.0,-0.0157964665857,0.0,0.0,0.0,0.0,-75.0,0.0,22.86,0.00230154196664,-75.0,0.00230154196664,0.0,-0.0,-75.0,-0.0,0.0,570664.8,0.0,0.0,0.0,0.0,0.0,0.0
1402754348611809924,3,-17.3112490011,-0.00591572024346,-17.6107043889,-0.122189614607,58.3290515049,0.10862951003,-0.0435949611773,0.0,-0.60392808737,0.0,0.0939122514795,0.0,1.54154114019,0.0,0.318768785078,0.0,0.00315420807047,0.0,-0.00406624512214,0.0,0.0731071909645,0.0,-0.0157964665857,0.0,0.0,0.0,0.0,-75.0,0.0,22.86,0.00230154196664,-75.0,0.00230154196664,0.0,-0.0,-75.0,-0.0,0.0,570664.8,0.0,0.0,0.0,0.0,0.0,0.0
1402754348631714747,3,-17.3123787948,-0.00591572024346,-17.6310274157,-0.122189614607,58.3462823141,0.10862951003,-0.0469787499969,0.0,-0.604014261513,0.0,0.100072991583,0.0,1.55223083973,0.0,0.315800990679,0.0,0.00185894336585,0.0,-0.000610313301667,0.0,0.0742791606745,0.0,-0.0127582856295,0.0,0.0,0.0,0.0,-75.0,0.0,22.86,0.00230154196664,-75.0,0.00230154196664,0.0,-0.0,-75.0,-0.0,0.0,570664.8,0.0,0.0,0.0,0.0,0.0,0.0
1402754348651719417,3,-17.3173909314,-0.00591572024346,-17.6363632814,-0.122189614607,58.3423416632,0.10862951003,-0.0492269538737,0.0,-0.592909190499,0.0,0.0953908341736,0.0,1.56011782414,0.0,0.31550666055,0.0,0.00100675042679,0.0,-0.000489984926032,0.0,0.0762926043242,0.0,-0.00650228970951,0.0,0.0,0.0,0.0,-75.0,0.0,22.86,0.00230154196664,-75.0,0.00230154196664,0.0,-0.0,-75.0,-0.0,0.0,570664.8,0.0,0.0,0.0,0.0,0.0,0.0
1402754348671683428,3,-17.3173909314,-0.00591572024346,-17.6363632814,-0.122189614607,58.3423416632,0.10862951003,-0.0492269538737,0.0,-0.592909190499,0.0,0.0953908341736,0.0,1.56011782414,0.0,0.31550666055,0.0,0.00100675042679,0.0,-0.000489984926032,0.0,0.0762926043242,0.0,-0.00650228970951,0.0,0.0,0.0,0.0,-75.0,0.0,22.86,0.00230154196664,-75.0,0.00230154196664,0.0,-0.0,-75.0,-0.0,0.0,570664.8,0.0,0.0,0.0,0.0,0.0,0.0
1402754348692264237,3,-17.3182280084,-0.00591572024346,-17.6487668829,-0.122189614607,58.3442651566,0.10862951003,-0.0446871976918,0.0,-0.59821552211,0.0,0.0969143308111,0.0,1.56679948443,0.0,0.319046826552,0.0,0.00109405738224,0.0,0.00102667305073,0.0,0.076317229683,0.0,-0.00501436411405,0.0,0.0,0.0,0.0,-75.0,0.0,22.86,0.00230154196664,-75.0,0.00230154196664,0.0,-0.0,-75.0,-0.0,0.0,570664.8,0.0,0.0,0.0,0.0,0.0,0.0
1402754348711636870,3,-17.3182280084,-0.00591572024346,-17.6487668829,-0.122189614607,58.3442651566,0.10862951003,-0.0446871976918,0.0,-0.59821552211,0.0,0.0969143308111,0.0,1.56679948443,0.0,0.319046826552,0.0,0.00109405738224,0.0,0.00102667305073,0.0,0.076317229683,0.0,-0.00501436411405,0.0,0.0,0.0,0.0,-75.0,0.0,22.86,0.00230154196664,-75.0,0.00230154196664,0.0,-0.0,-75.0,-0.0,0.0,570664.8,0.0,0.0,0.0,0.0,0.0,0.0
1402754348731677312,3,-17.3213553279,-0.00591572024346,-17.672108671,-0.122189614607,58.3409654259,0.10862951003,-0.0348077698718,0.0,-0.606214316435,0.0,0.0931803628507,0.0,1.58020171777,0.0,0.316540578072,0.0,0.00118807072335,0.0,-0.00353844580005,0.0,0.0765384357927,0.0,0.00901405546264,0.0,0.0,0.0,0.0,-75.0,0.0,22.86,0.00230154196664,-75.0,0.00230154196664,0.0,-0.0,-75.0,-0.0,0.0,570664.8,0.0,0.0,0.0,0.0,0.0,0.0
1402754348752239631,3,-17.3213553279,-0.00591572024346,-17.672108671,-0.122189614607,58.3409654259,0.10862951003,-0.0348077698718,0.0,-0.606214316435,0.0,0.0931803628507,0.0,1.58020171777,0.0,0.316540578072,0.0,0.00118807072335,0.0,-0.00353844580005,0.0,0.0765384357927,0.0,0.00901405546264,0.0,0.0,0.0,0.0,-75.0,0.0,22.86,0.00230154196664,-75.0,0.00230154196664,0.0,-0.0,-75.0,-0.0,0.0,570664.8,0.0,0.0,0.0,0.0,0.0,0.0
1402754348771892060,3,-17.3260390712,-0.00591572024346,-17.6901320218,-0.122189614607,58.3366392737,0.10862951003,-0.0322800265833,0.0,-0.600688374815,0.0,0.0929583791585,0.0,1.59417780147,0.0,0.316362698268,0.0,0.000722357463635,0.0,0.000666479483725,0.0,0.0781086584184,0.0,0.00168115263751,0.0,0.0,0.0,0.0,-75.0,0.0,22.86,0.00230154196664,-75.0,0.00230154196664,0.0,-0.0,-75.0,-0.0,0.0,570664.8,0.0,0.0,0.0,0.0,0.0,0.0
1402754348791563678,3,-17.3260390712,-0.00591572024346,-17.6901320218,-0.122189614607,58.3366392737,0.10862951003,-0.0322800265833,0.0,-0.600688374815,0.0,0.0929583791585,0.0,1.59417780147,0.0,0.316362698268,0.0,0.000722357463635,0.0,0.000666479483725,0.0,0.0781086584184,0.0,0.00168115263751,0.0,0.0,0.0,0.0,-75.0,0.0,22.86,0.00230154196664,-75.0,0.00230154196664,0.0,-0.0,-75.0,-0.0,0.0,570664.8,0.0,0.0,0.0,0.0,0.0,0.0
1402754348812232325,3,-17.3265179347,-0.00591572024346,-17.7233408465,-0.122189614607,58.3485077765,0.10862951003,-0.0257116747267,0.0,-0.622474664583,0.0,0.0960509484474,0.0,1.60711341879,0.0,0.325716072294,0.0,0.00039013422927,0.0,0.0010794700773,0.0,0.0764218966528,0.0,-0.000883082335958,0.0,0.0,0.0,0.0,-75.0,0.0,22.86,0.00230154196664,-75.0,0.00230154196664,0.0,-0.0,-75.0,-0.0,0.0,570664.8,0.0,0.0,0.0,0.0,0.0,0.0
1402754348831634947,3,-17.3265179347,-0.00591572024346,-17.7233408465,-0.122189614607,58.3485077765,0.10862951003,-0.0257116747267,0.0,-0.622474664583,0.0,0.0960509484474,0.0,1.60711341879,0.0,0.325716072294,0.0,0.00039013422927,0.0,0.0010794700773,0.0,0.0764218966528,0.0,-0.000883082335958,0.0,0.0,0.0,0.0,-75.0,0.0,22.86,0.00230154196664,-75.0,0.00230154196664,0.0,-0.0,-75.0,-0.0,0.0,570664.8,0.0,0.0,0.0,0.0,0.0,0.0
