rosbagTimestamp,control_method,x_current,x_desired,y_current,y_desired,z_current,z_desired,x_velocity_current,x_velocity_desired,y_velocity_current,y_velocity_desired,z_velocity_current,z_velocity_desired,yaw_current,yaw_desired,yaw_velocity_current,yaw_velocity_desired,roll_current,roll_desired,roll_velocity_current,roll_velocity_desired,pitch_current,pitch_desired,pitch_velocity_current,pitch_velocity_desired,required_force_x,required_force_y,required_moment_z,resultant_force_x,resultant_force_y,resultant_moment_z,current_port_servo_angle,current_port_thruster_force,current_starboard_servo_angle,current_starboard_thruster_force,estimated_port_servo_angle,estimated_port_thruster_force,estimated_starboard_servo_angle,estimated_starboard_thruster_force,cost_value,step,user_defined_1,user_defined_2,user_defined_3,user_defined_4,user_defined_5
1402756971322265579,3,-4.87541930714,-7.1377884924,2.96600759819,2.38304939926,-9.22589866286,-3.84635974695,0.0544069733873,0.0,-0.149825091645,0.0,-0.566366157169,0.0,-2.56501378684,0.0,0.0201167094603,0.0,-0.00118373737736,0.0,-0.00900441937142,0.0,0.0693336782651,0.0,0.0106227181667,0.0,0.0,0.0,0.0,-12.8557521937,-137.887999761,135.083022445,0.86767801444,0.0,-0.870746525126,0.0,0.872664625997,-100.0,-0.872664625997,80.0,18720525.2338,0.0,0.0,0.0,0.0,0.0,0.0
1402756971341646154,3,-4.86303605112,-7.1377884924,2.93466043252,2.38304939926,-9.31645615873,-3.84635974695,0.0454969114145,0.0,-0.163645137532,0.0,-0.566907695191,0.0,-2.56429132805,0.0,0.0243508233422,0.0,-0.00229401430245,0.0,-0.0149073636081,0.0,0.070923795115,0.0,0.016623112134,0.0,0.0,0.0,0.0,-12.8557521937,-137.887999761,135.083022445,0.86767801444,0.0,-0.870746525126,0.0,0.872664625997,-100.0,-0.872664625997,80.0,18720525.2338,0.0,0.0,0.0,0.0,0.0,0.0
1402756971361548295,3,-4.86303605112,-7.1377884924,2.93466043252,2.38304939926,-9.31645615873,-3.84635974695,0.0454969114145,0.0,-0.163645137532,0.0,-0.566907695191,0.0,-2.56429132805,0.0,0.0243508233422,0.0,-0.00229401430245,0.0,-0.0149073636081,0.0,0.070923795115,0.0,0.016623112134,0.0,0.0,0.0,0.0,-12.8557521937,-137.887999761,135.083022445,0.86767801444,0.0,-0.870746525126,0.0,0.872664625997,-100.0,-0.872664625997,80.0,18720525.2338,0.0,0.0,0.0,0.0,0.0,0.0
1402756971381436343,3,-4.86102584623,-7.1377884924,2.92774610508,2.38304939926,-9.33930003554,-3.84635974695,0.0454508878333,0.0,-0.164336481025,0.0,-0.565124700413,0.0,-2.56316129896,0.0,0.0215260960494,0.0,-0.00228132379082,0.0,-0.00661315564027,0.0,0.0701506057138,0.0,0.0170310250036,0.0,0.0,0.0,0.0,-12.8557521937,-137.887999761,135.083022445,0.86767801444,0.0,-0.870746525126,0.0,0.872664625997,-100.0,-0.872664625997,80.0,18720525.2338,0.0,0.0,0.0,0.0,0.0,0.0
1402756971402002730,3,-4.86102584623,-7.1377884924,2.92774610508,2.38304939926,-9.33930003554,-3.84635974695,0.0454508878333,0.0,-0.164336481025,0.0,-0.565124700413,0.0,-2.56316129896,0.0,0.0215260960494,0.0,-0.00228132379082,0.0,-0.00661315564027,0.0,0.0701506057138,0.0,0.0170310250036,0.0,0.0,0.0,0.0,-12.8557521937,-137.887999761,135.083022445,0.86767801444,0.0,-0.870746525126,0.0,0.872664625997,-100.0,-0.872664625997,80.0,18720525.2338,0.0,0.0,0.0,0.0,0.0,0.0
1402756971421383735,3,-4.85209401286,-7.1377884924,2.91103198768,2.38304939926,-9.41864939434,-3.84635974695,0.0387071358143,0.0,-0.145587834027,0.0,-0.564380667038,0.0,-2.56161424486,0.0,0.0230081670897,0.0,-0.000283856842492,0.0,-0.0103388196899,0.0,0.0687067444689,0.0,0.00738509033865,0.0,0.0,0.0,0.0,-12.8557521937,-137.887999761,135.083022445,0.86767801444,0.0,-0.870746525126,0.0,0.872664625997,-100.0,-0.872664625997,80.0,18720525.2338,0.0,0.0,0.0,0.0,0.0,0.0
1402756971441353773,3,-4.85209401286,-7.1377884924,2.91103198768,2.38304939926,-9.41864939434,-3.84635974695,0.0387071358143,0.0,-0.145587834027,0.0,-0.564380667038,0.0,-2.56161424486,0.0,0.0230081670897,0.0,-0.000283856842492,0.0,-0.0103388196899,0.0,0.0687067444689,0.0,0.00738509033865,0.0,0.0,0.0,0.0,-12.8557521937,-137.887999761,135.083022445,0.86767801444,0.0,-0.870746525126,0.0,0.872664625997,-100.0,-0.872664625997,80.0,18720525.2338,0.0,0.0,0.0,0.0,0.0,0.0
1402756971462279322,3,-4.83566182654,-7.1377884924,2.88109438999,2.38304939926,-9.49785328507,-3.84635974695,0.043375202856,0.0,-0.160691333519,0.0,-0.565302683436,0.0,-2.56111354447,0.0,0.0203756115807,0.0,-0.00168713984624,0.0,-0.0120784311938,0.0,0.0690585801483,0.0,0.00449002206839,0.0,0.0,0.0,0.0,-12.8557521937,-137.887999761,135.083022445,0.86767801444,0.0,-0.870746525126,0.0,0.872664625997,-100.0,-0.872664625997,80.0,18720525.2338,0.0,0.0,0.0,0.0,0.0,0.0
1402756971481480342,3,-4.82577955154,-7.1377884924,2.86160978398,2.38304939926,-9.56706305897,-3.84635974695,0.0362886380876,0.0,-0.155638418358,0.0,-0.566026156997,0.0,-2.56046032579,0.0,0.0245750015674,0.0,-0.000767448160687,0.0,-0.0112321674162,0.0,0.0692225519808,0.0,0.000433902982321,0.0,0.0,0.0,0.0,-12.8557521937,-137.887999761,135.083022445,0.86767801444,0.0,-0.870746525126,0.0,0.872664625997,-100.0,-0.872664625997,80.0,18720525.2338,0.0,0.0,0.0,0.0,0.0,0.0
1402756971501442324,3,-4.82577955154,-7.1377884924,2.86160978398,2.38304939926,-9.56706305897,-3.84635974695,0.0362886380876,0.0,-0.155638418358,0.0,-0.566026156997,0.0,-2.56046032579,0.0,0.0245750015674,0.0,-0.000767448160687,0.0,-0.0112321674162,0.0,0.0692225519808,0.0,0.000433902982321,0.0,0.0,0.0,0.0,-12.8557521937,-137.887999761,135.083022445,0.86767801444,0.0,-0.870746525126,0.0,0.872664625997,-100.0,-0.872664625997,80.0,18720525.2338,0.0,0.0,0.0,0.0,0.0,0.0
1402756971522211185,3,-4.82504822867,-7.1377884924,2.85850490131,2.38304939926,-9.57836539137,-3.84635974695,0.035380649438,0.0,-0.155191895348,0.0,-0.565909815577,0.0,-2.55984456529,0.0,0.0277428874951,0.0,-0.000555892315039,0.0,-0.0118885747806,0.0,0.0691802925985,0.0,-0.00542036305791,0.0,0.0,0.0,0.0,-12.8557521937,-137.887999761,135.083022445,0.86767801444,0.0,-0.870746525126,0.0,0.872664625997,-100.0,-0.872664625997,80.0,18720525.2338,0.0,0.0,0.0,0.0,0.0,0.0
1402756971541576083,3,-4.82504822867,-7.1377884924,2.85850490131,2.38304939926,-9.57836539137,-3.84635974695,0.035380649438,0.0,-0.155191895348,0.0,-0.565909815577,0.0,-2.55984456529,0.0,0.0277428874951,0.0,-0.000555892315039,0.0,-0.0118885747806,0.0,0.0691802925985,0.0,-0.00542036305791,0.0,0.0,0.0,0.0,-12.8557521937,-137.887999761,135.083022445,0.86767801444,0.0,-0.870746525126,0.0,0.872664625997,-100.0,-0.872664625997,80.0,18720525.2338,0.0,0.0,0.0,0.0,0.0,0.0
1402756971561549448,3,-4.82374890028,-7.1377884924,2.85208155189,2.38304939926,-9.60158405935,-3.84635974695,0.0345866004727,0.0,-0.155177939821,0.0,-0.566224553357,0.0,-2.55864922446,0.0,0.024404464162,0.0,-1.38084975453e-05,0.0,-0.0154207555503,0.0,0.0691383223123,0.0,-0.0121151168143,0.0,0.0,0.0,0.0,-12.8557521937,-137.887999761,135.083022445,0.86767801444,0.0,-0.870746525126,0.0,0.872664625997,-100.0,-0.872664625997,80.0,18720525.2338,0.0,0.0,0.0,0.0,0.0,0.0
1402756971581801593,3,-4.82374890028,-7.1377884924,2.85208155189,2.38304939926,-9.60158405935,-3.84635974695,0.0345866004727,0.0,-0.155177939821,0.0,-0.566224553357,0.0,-2.55864922446,0.0,0.024404464162,0.0,-1.38084975453e-05,0.0,-0.0154207555503,0.0,0.0691383223123,0.0,-0.0121151168143,0.0,0.0,0.0,0.0,-12.8557521937,-137.887999761,135.083022445,0.86767801444,0.0,-0.870746525126,0.0,0.872664625997,-100.0,-0.872664625997,80.0,18720525.2338,0.0,0.0,0.0,0.0,0.0,0.0
1402756971601459507,3,-4.80422747481,-7.1377884924,2.82347681043,2.38304939926,-9.70496360785,-3.84635974695,0.0428300317447,0.0,-0.150433455311,0.0,-0.570902422824,0.0,-2.55738047636,0.0,0.0215499649006,0.0,0.0010097687514,0.0,-0.0106510171282,0.0,0.067978475169,0.0,-0.0165100889202,0.0,0.0,0.0,0.0,-12.8557521937,-137.887999761,135.083022445,0.86767801444,0.0,-0.870746525126,0.0,0.872664625997,-100.0,-0.872664625997,80.0,18720525.2338,0.0,0.0,0.0,0.0,0.0,0.0
1402756971621370318,3,-4.80422747481,-7.1377884924,2.82347681043,2.38304939926,-9.70496360785,-3.84635974695,0.0428300317447,0.0,-0.150433455311,0.0,-0.570902422824,0.0,-2.55738047636,0.0,0.0215499649006,0.0,0.0010097687514,0.0,-0.0106510171282,0.0,0.067978475169,0.0,-0.0165100889202,0.0,0.0,0.0,0.0,-12.8557521937,-137.887999761,135.083022445,0.86767801444,0.0,-0.870746525126,0.0,0.872664625997,-100.0,-0.872664625997,80.0,18720525.2338,0.0,0.0,0.0,0.0,0.0,0.0
1402756971642090011,3,-4.79912885133,-7.1377884924,2.81300316724,2.38304939926,-9.7071408862,-3.84635974695,0.0472379358978,0.0,-0.166091825912,0.0,-0.566843072566,0.0,-2.55635373874,0.0,0.0254800622825,0.0,-2.42229234374e-05,0.0,-0.0149324385623,0.0,0.069238521259,0.0,-0.0193979618478,0.0,0.0,0.0,0.0,-12.8557521937,-137.887999761,135.083022445,0.86767801444,0.0,-0.870746525126,0.0,0.872664625997,-100.0,-0.872664625997,80.0,18720525.2338,0.0,0.0,0.0,0.0,0.0,0.0
1402756971661445340,3,-4.79912885133,-7.1377884924,2.81300316724,2.38304939926,-9.7071408862,-3.84635974695,0.0472379358978,0.0,-0.166091825912,0.0,-0.566843072566,0.0,-2.55635373874,0.0,0.0254800622825,0.0,-2.42229234374e-05,0.0,-0.0149324385623,0.0,0.069238521259,0.0,-0.0193979618478,0.0,0.0,0.0,0.0,-12.8557521937,-137.887999761,135.083022445,0.86767801444,0.0,-0.870746525126,0.0,0.872664625997,-100.0,-0.872664625997,80.0,18720525.2338,0.0,0.0,0.0,0.0,0.0,0.0
1402756971681664341,3,-4.78412055126,-7.1377884924,2.78377309583,2.38304939926,-9.808133994,-3.84635974695,0.0426567376575,0.0,-0.162916237629,0.0,-0.571409099454,0.0,-2.55500837291,0.0,0.028253939421,0.0,0.00149152842799,0.0,-0.0155879442641,0.0,0.0699126623639,0.0,-0.0269776274632,0.0,0.0,0.0,0.0,-12.8557521937,-137.887999761,135.083022445,0.86767801444,0.0,-0.870746525126,0.0,0.872664625997,-100.0,-0.872664625997,80.0,18720525.2338,0.0,0.0,0.0,0.0,0.0,0.0
1402756971702108689,3,-4.78412055126,-7.1377884924,2.78377309583,2.38304939926,-9.808133994,-3.84635974695,0.0426567376575,0.0,-0.162916237629,0.0,-0.571409099454,0.0,-2.55500837291,0.0,0.028253939421,0.0,0.00149152842799,0.0,-0.0155879442641,0.0,0.0699126623639,0.0,-0.0269776274632,0.0,0.0,0.0,0.0,-12.8557521937,-137.887999761,135.083022445,0.86767801444,0.0,-0.870746525126,0.0,0.872664625997,-100.0,-0.872664625997,80.0,18720525.2338,0.0,0.0,0.0,0.0,0.0,0.0
1402756971721484277,3,-4.76905068717,-7.1377884924,2.75558571761,2.38304939926,-9.91312690982,-3.84635974695,0.0383512303577,0.0,-0.156801458785,0.0,-0.576467443005,0.0,-2.55374355354,0.0,0.0222553146574,0.0,0.00346207423844,0.0,-0.0101496904036,0.0,0.0705444254558,0.0,-0.0307828154886,0.0,0.0,0.0,0.0,-12.8557521937,-137.887999761,135.083022445,0.86767801444,0.0,-0.870746525126,0.0,0.872664625997,-100.0,-0.872664625997,80.0,18720525.2338,0.0,0.0,0.0,0.0,0.0,0.0
1402756971741347037,3,-4.76905068717,-7.1377884924,2.75558571761,2.38304939926,-9.91312690982,-3.84635974695,0.0383512303577,0.0,-0.156801458785,0.0,-0.576467443005,0.0,-2.55374355354,0.0,0.0222553146574,0.0,0.00346207423844,0.0,-0.0101496904036,0.0,0.0705444254558,0.0,-0.0307828154886,0.0,0.0,0.0,0.0,-12.8557521937,-137.887999761,135.083022445,0.86767801444,0.0,-0.870746525126,0.0,0.872664625997,-100.0,-0.872664625997,80.0,18720525.2338,0.0,0.0,0.0,0.0,0.0,0.0
1402756971762171389,3,-4.7624433843,-7.1377884924,2.74127412026,2.38304939926,-9.9463997359,-3.84635974695,0.0387563935369,0.0,-0.165243638882,0.0,-0.575722379341,0.0,-2.55275107356,0.0,0.0233686502289,0.0,0.00328124656943,0.0,-0.00312448441911,0.0,0.0720114684528,0.0,-0.0293115824954,0.0,0.0,0.0,0.0,-12.8557521937,-137.887999761,135.083022445,0.86767801444,0.0,-0.870746525126,0.0,0.872664625997,-100.0,-0.872664625997,80.0,18720525.2338,0.0,0.0,0.0,0.0,0.0,0.0
1402756971781512432,3,-4.7624433843,-7.1377884924,2.74127412026,2.38304939926,-9.9463997359,-3.84635974695,0.0387563935369,0.0,-0.165243638882,0.0,-0.575722379341,0.0,-2.55275107356,0.0,0.0233686502289,0.0,0.00328124656943,0.0,-0.00312448441911,0.0,0.0720114684528,0.0,-0.0293115824954,0.0,0.0,0.0,0.0,-12.8557521937,-137.887999761,135.083022445,0.86767801444,0.0,-0.870746525126,0.0,0.872664625997,-100.0,-0.872664625997,80.0,18720525.2338,0.0,0.0,0.0,0.0,0.0,0.0
1402756971801544407,3,-4.75512611088,-7.1377884924,2.72295399626,2.38304939926,-10.0192348047,-3.84635974695,0.0324098228014,0.0,-0.158682080007,0.0,-0.579998739712,0.0,-2.55136126378,0.0,0.0178422203304,0.0,0.00511724853424,0.0,0.00200042205088,0.0,0.0731507454246,0.0,-0.0203102342674,0.0,0.0,0.0,0.0,-12.8557521937,-137.887999761,135.083022445,0.86767801444,0.0,-0.870746525126,0.0,0.872664625997,-100.0,-0.872664625997,80.0,18720525.2338,0.0,0.0,0.0,0.0,0.0,0.0
1402756971822182001,3,-4.75512611088,-7.1377884924,2.72295399626,2.38304939926,-10.0192348047,-3.84635974695,0.0324098228014,0.0,-0.158682080007,0.0,-0.579998739712,0.0,-2.55136126378,0.0,0.0178422203304,0.0,0.00511724853424,0.0,0.00200042205088,0.0,0.0731507454246,0.0,-0.0203102342674,0.0,0.0,0.0,0.0,-12.8557521937,-137.887999761,135.083022445,0.86767801444,0.0,-0.870746525126,0.0,0.872664625997,-100.0,-0.872664625997,80.0,18720525.2338,0.0,0.0,0.0,0.0,0.0,0.0
1402756971841502577,3,-4.75001621069,-7.1377884924,2.71702013505,2.38304939926,-10.0340070082,-3.84635974695,0.0423857384875,0.0,-0.159834587231,0.0,-0.576632463039,0.0,-2.55006045884,0.0,0.0215608824832,0.0,0.00461832087472,0.0,0.0097385509591,0.0,0.0730948351413,0.0,-0.0165843377849,0.0,0.0,0.0,0.0,-12.8557521937,-137.887999761,135.083022445,0.86767801444,0.0,-0.870746525126,0.0,0.872664625997,-100.0,-0.872664625997,80.0,18720525.2338,0.0,0.0,0.0,0.0,0.0,0.0
1402756971861360425,3,-4.75001621069,-7.1377884924,2.71702013505,2.38304939926,-10.0340070082,-3.84635974695,0.0423857384875,0.0,-0.159834587231,0.0,-0.576632463039,0.0,-2.55006045884,0.0,0.0215608824832,0.0,0.00461832087472,0.0,0.0097385509591,0.0,0.0730948351413,0.0,-0.0165843377849,0.0,0.0,0.0,0.0,-12.8557521937,-137.887999761,135.083022445,0.86767801444,-100.0,-0.870746525126,80.0,0.872664625997,-100.0,-0.872664625997,80.0,18720525.2338,0.0,0.0,0.0,0.0,0.0,0.0
1402756971881933934,3,-4.74895915405,-7.1377884924,2.71392471037,2.38304939926,-10.0457368124,-3.84635974695,0.0427563618427,0.0,-0.159837903084,0.0,-0.576380070863,0.0,-2.54956411592,0.0,0.0202297432638,0.0,0.00449803178326,0.0,0.0116543081198,0.0,0.0733767293008,0.0,-0.0109165478185,0.0,0.0,0.0,0.0,-12.8557521937,-137.887999761,135.083022445,0.86767801444,-100.0,-0.870746525126,80.0,0.872664625997,-100.0,-0.872664625997,80.0,18720525.2338,0.0,0.0,0.0,0.0,0.0,0.0
1402756971901326658,3,-4.74895915405,-7.1377884924,2.71392471037,2.38304939926,-10.0457368124,-3.84635974695,0.0427563618427,0.0,-0.159837903084,0.0,-0.576380070863,0.0,-2.54956411592,0.0,0.0202297432638,0.0,0.00449803178326,0.0,0.0116543081198,0.0,0.0733767293008,0.0,-0.0109165478185,0.0,0.0,0.0,0.0,-12.8557521937,-137.887999761,135.083022445,0.86767801444,-100.0,-0.870746525126,80.0,0.872664625997,-100.0,-0.872664625997,80.0,18720525.2338,0.0,0.0,0.0,0.0,0.0,0.0
1402756971921384560,3,-4.7511946023,-7.1377884924,2.7126523758,2.38304939926,-10.0462446768,-3.84635974695,0.0391183233159,0.0,-0.159868098848,0.0,-0.572101197643,0.0,-2.54857162118,0.0,0.0262196294408,0.0,0.00419644835879,0.0,0.0150929850364,0.0,0.074287032889,0.0,0.00101420210383,0.0,0.0,0.0,0.0,-12.8557521937,-137.887999761,135.083022445,0.86767801444,-100.0,-0.870746525126,80.0,0.872664625997,-100.0,-0.872664625997,80.0,18720525.2338,0.0,0.0,0.0,0.0,0.0,0.0
1402756971942102618,3,-4.7511946023,-7.1377884924,2.7126523758,2.38304939926,-10.0462446768,-3.84635974695,0.0391183233159,0.0,-0.159868098848,0.0,-0.572101197643,0.0,-2.54857162118,0.0,0.0262196294408,0.0,0.00419644835879,0.0,0.0150929850364,0.0,0.074287032889,0.0,0.00101420210383,0.0,0.0,0.0,0.0,-12.8557521937,-137.887999761,135.083022445,0.86767801444,-100.0,-0.86921230157,80.0,0.872664625997,-100.0,-0.872664625997,80.0,18720525.2338,0.0,0.0,0.0,0.0,0.0,0.0
1402756971961352064,3,-4.74784775764,-7.1377884924,2.71407676858,2.38304939926,-10.0293418957,-3.84635974695,0.0538789721303,0.0,-0.163233884192,0.0,-0.564081482305,0.0,-2.54776230394,0.0,0.0187715826861,0.0,0.00233129841827,0.0,0.0162306256196,0.0,0.0732732330304,0.0,0.0049154953961,0.0,0.0,0.0,0.0,-12.8557521937,-137.887999761,135.083022445,0.86767801444,-100.0,-0.86921230157,80.0,0.872664625997,-100.0,-0.872664625997,80.0,18720525.2338,0.0,0.0,0.0,0.0,0.0,0.0
1402756971981514037,3,-4.74784775764,-7.1377884924,2.71407676858,2.38304939926,-10.0293418957,-3.84635974695,0.0538789721303,0.0,-0.163233884192,0.0,-0.564081482305,0.0,-2.54776230394,0.0,0.0187715826861,0.0,0.00233129841827,0.0,0.0162306256196,0.0,0.0732732330304,0.0,0.0049154953961,0.0,0.0,0.0,0.0,-12.8557521937,-137.887999761,135.083022445,0.86767801444,-100.0,-0.86921230157,80.0,0.872664625997,-100.0,-0.872664625997,80.0,18720525.2338,0.0,0.0,0.0,0.0,0.0,0.0
1402756972001836389,3,-4.74526699709,-7.1377884924,2.69668560616,2.38304939926,-10.0893289593,-3.84635974695,0.0390362933394,0.0,-0.168432392255,0.0,-0.563534072568,0.0,-2.5470120399,0.0,0.014672799131,0.0,0.00202474824844,0.0,0.0234082899977,0.0,0.0752305097851,0.0,0.0092319473673,0.0,0.0,0.0,0.0,-12.8557521937,-137.887999761,135.083022445,0.86767801444,-100.0,-0.86921230157,80.0,0.872664625997,-100.0,-0.872664625997,80.0,18720525.2338,0.0,0.0,0.0,0.0,0.0,0.0
1402756972021375992,3,-4.74526699709,-7.1377884924,2.69668560616,2.38304939926,-10.0893289593,-3.84635974695,0.0390362933394,0.0,-0.168432392255,0.0,-0.563534072568,0.0,-2.5470120399,0.0,0.014672799131,0.0,0.00202474824844,0.0,0.0234082899977,0.0,0.0752305097851,0.0,0.0092319473673,0.0,0.0,0.0,0.0,-12.8557521937,-137.887999761,135.083022445,0.86767801444,-100.0,-0.86921230157,80.0,0.872664625997,-100.0,-0.872664625997,80.0,18720525.2338,0.0,0.0,0.0,0.0,0.0,0.0
1402756972041273475,3,-4.7469071864,-7.1377884924,2.69094204586,2.38304939926,-10.1115965876,-3.84635974695,0.0418843884426,0.0,-0.188903741083,0.0,-0.551362579712,0.0,-2.54603851085,0.0,0.0267467628779,0.0,-0.00127741252757,0.0,0.140545776595,0.0,0.0757218829643,0.0,0.0991241932675,0.0,0.0,0.0,0.0,-12.8557521937,-137.887999761,135.083022445,0.86767801444,-100.0,-0.86921230157,80.0,0.872664625997,-100.0,-0.872664625997,80.0,18720525.2338,0.0,0.0,0.0,0.0,0.0,0.0
1402756972061819619,3,-4.7469071864,-7.1377884924,2.69094204586,2.38304939926,-10.1115965876,-3.84635974695,0.0418843884426,0.0,-0.188903741083,0.0,-0.551362579712,0.0,-2.54603851085,0.0,0.0267467628779,0.0,-0.00127741252757,0.0,0.140545776595,0.0,0.0757218829643,0.0,0.0991241932675,0.0,0.0,0.0,0.0,-12.8557521937,-137.887999761,135.083022445,0.866143552465,-100.0,-0.86921230157,80.0,0.872664625997,-100.0,-0.872664625997,80.0,18720525.2338,0.0,0.0,0.0,0.0,0.0,0.0
1402756972082222920,3,-4.74771138454,-7.1377884924,2.69815638619,2.38304939926,-10.0674438005,-3.84635974695,0.0649437163201,0.0,-0.192448254692,0.0,-0.568715036143,0.0,-2.54589074519,0.0,-0.0190007377939,0.0,-0.000940710901794,0.0,-0.0224838621132,0.0,0.0741718383774,0.0,0.00563320684773,0.0,0.0,0.0,0.0,-12.8557521937,-137.887999761,135.083022445,0.866143552465,-100.0,-0.86921230157,80.0,0.872664625997,-100.0,-0.872664625997,80.0,18720525.2338,0.0,0.0,0.0,0.0,0.0,0.0
1402756972101253732,3,-4.74704264649,-7.1377884924,2.69589752115,2.38304939926,-10.0727397831,-3.84635974695,0.071906512239,0.0,-0.202290004855,0.0,-0.566547127632,0.0,-2.54611071052,0.0,-0.0217875135398,0.0,-0.00132082112364,0.0,0.0196422833402,0.0,0.0739619283634,0.0,0.0386002771819,0.0,0.0,0.0,0.0,-12.8557521937,-137.887999761,135.083022445,0.866143552465,-100.0,-0.86921230157,80.0,0.872664625997,-100.0,-0.872664625997,80.0,18720525.2338,0.0,0.0,0.0,0.0,0.0,0.0
1402756972121420489,3,-4.74558464046,-7.1377884924,2.69191999782,2.38304939926,-10.0840211018,-3.84635974695,0.0737984694801,0.0,-0.203465813465,0.0,-0.561951887004,0.0,-2.54671692093,0.0,-0.045742873352,0.0,-0.000324826865199,0.0,-0.0780259991373,0.0,0.0736877776883,0.0,-0.0206027118065,0.0,0.0,0.0,0.0,-12.8557521937,-137.887999761,135.083022445,0.866143552465,-100.0,-0.86921230157,80.0,0.872664625997,-100.0,-0.872664625997,80.0,18720525.2338,0.0,0.0,0.0,0.0,0.0,0.0
1402756972141491417,3,-4.74558464046,-7.1377884924,2.69191999782,2.38304939926,-10.0840211018,-3.84635974695,0.0737984694801,0.0,-0.203465813465,0.0,-0.561951887004,0.0,-2.54671692093,0.0,-0.045742873352,0.0,-0.000324826865199,0.0,-0.0780259991373,0.0,0.0736877776883,0.0,-0.0206027118065,0.0,0.0,0.0,0.0,-12.8557521937,-137.887999761,135.083022445,0.866143552465,-100.0,-0.86921230157,80.0,0.872664625997,-100.0,-0.872664625997,80.0,18720525.2338,0.0,0.0,0.0,0.0,0.0,0.0
1402756972161242051,3,-4.75330040289,-7.1377884924,2.69981625988,2.38304939926,-10.0698042169,-3.84635974695,0.0696832546146,0.0,-0.199032203381,0.0,-0.555313526125,0.0,-2.5483426038,0.0,-0.064353536401,0.0,0.00710170352328,0.0,-0.107440394263,0.0,0.0729678681197,0.0,-0.0446432685239,0.0,0.0,0.0,0.0,-12.8557521937,-137.887999761,135.083022445,0.864609567327,-100.0,-0.86921230157,80.0,0.872664625997,-100.0,-0.872664625997,80.0,18720525.2338,0.0,0.0,0.0,0.0,0.0,0.0
1402756972182119050,3,-4.75330040289,-7.1377884924,2.69981625988,2.38304939926,-10.0698042169,-3.84635974695,0.0696832546146,0.0,-0.199032203381,0.0,-0.555313526125,0.0,-2.5483426038,0.0,-0.064353536401,0.0,0.00710170352328,0.0,-0.107440394263,0.0,0.0729678681197,0.0,-0.0446432685239,0.0,0.0,0.0,0.0,-12.8557521937,-137.887999761,135.083022445,0.864609567327,-100.0,-0.86921230157,80.0,0.872664625997,-100.0,-0.872664625997,80.0,18720525.2338,0.0,0.0,0.0,0.0,0.0,0.0
1402756972201238762,3,-4.75183909086,-7.1377884924,2.69664404449,2.38304939926,-10.0774795053,-3.84635974695,0.0794142432102,0.0,-0.207898908276,0.0,-0.567447070725,0.0,-2.55111139108,0.0,-0.0996567228363,0.0,0.0126576413263,0.0,-0.138995451247,0.0,0.0715141272472,0.0,-0.0491394834984,0.0,0.0,0.0,0.0,-12.8557521937,-137.887999761,135.083022445,0.864609567327,-100.0,-0.86921230157,80.0,0.872664625997,-100.0,-0.872664625997,80.0,18720525.2338,0.0,0.0,0.0,0.0,0.0,0.0
1402756972221548848,3,-4.75183909086,-7.1377884924,2.69664404449,2.38304939926,-10.0774795053,-3.84635974695,0.0794142432102,0.0,-0.207898908276,0.0,-0.567447070725,0.0,-2.55111139108,0.0,-0.0996567228363,0.0,0.0126576413263,0.0,-0.138995451247,0.0,0.0715141272472,0.0,-0.0491394834984,0.0,0.0,0.0,0.0,-12.8557521937,-137.887999761,135.083022445,0.864609567327,-100.0,-0.86921230157,80.0,0.872664625997,-100.0,-0.872664625997,80.0,18720525.2338,0.0,0.0,0.0,0.0,0.0,0.0
1402756972241575406,3,-4.75183446525,-7.1377884924,2.69979385466,2.38304939926,-10.0401864137,-3.84635974695,0.102630670563,0.0,-0.228808720533,0.0,-0.565039248401,0.0,-2.55488424697,0.0,-0.111863627921,0.0,0.0156500636641,0.0,-0.12541332971,0.0,0.0695340066747,0.0,-0.0277099816051,0.0,0.0,0.0,0.0,-12.8557521937,-137.887999761,135.083022445,0.863074628514,-100.0,-0.86921230157,80.0,0.872664625997,-100.0,-0.872664625997,80.0,18720525.2338,0.0,0.0,0.0,0.0,0.0,0.0
1402756972261251150,3,-4.75183446525,-7.1377884924,2.69979385466,2.38304939926,-10.0401864137,-3.84635974695,0.102630670563,0.0,-0.228808720533,0.0,-0.565039248401,0.0,-2.55488424697,0.0,-0.111863627921,0.0,0.0156500636641,0.0,-0.12541332971,0.0,0.0695340066747,0.0,-0.0277099816051,0.0,0.0,0.0,0.0,-12.8557521937,-137.887999761,135.083022445,0.864609567327,-100.0,-0.86921230157,80.0,0.872664625997,-100.0,-0.872664625997,80.0,18720525.2338,0.0,0.0,0.0,0.0,0.0,0.0
1402756972281400408,3,-4.75743964978,-7.1377884924,2.70324039765,2.38304939926,-10.029715635,-3.84635974695,0.0987176672774,0.0,-0.234785245163,0.0,-0.559987619322,0.0,-2.56026886174,0.0,-0.126624546616,0.0,0.0211863002765,0.0,-0.0972209190014,0.0,0.0684197832195,0.0,-0.00926245430241,0.0,0.0,0.0,0.0,-12.8557521937,-137.887999761,135.083022445,0.863074628514,-100.0,-0.86921230157,80.0,0.872664625997,-100.0,-0.872664625997,80.0,18720525.2338,0.0,0.0,0.0,0.0,0.0,0.0
1402756972301793583,3,-4.75743964978,-7.1377884924,2.70324039765,2.38304939926,-10.029715635,-3.84635974695,0.0987176672774,0.0,-0.234785245163,0.0,-0.559987619322,0.0,-2.56026886174,0.0,-0.126624546616,0.0,0.0211863002765,0.0,-0.0972209190014,0.0,0.0684197832195,0.0,-0.00926245430241,0.0,0.0,0.0,0.0,-12.8557521937,-137.887999761,135.083022445,0.863074628514,-100.0,-0.86921230157,80.0,0.872664625997,-100.0,-0.872664625997,80.0,18720525.2338,0.0,0.0,0.0,0.0,0.0,0.0
1402756972321419964,3,-4.75336323259,-7.1377884924,2.69356212634,2.38304939926,-10.0522205432,-3.84635974695,0.10787324613,0.0,-0.249245197299,0.0,-0.557814267092,0.0,-2.56556567838,0.0,-0.140217271414,0.0,0.0241156079615,0.0,-0.0759808967307,0.0,0.0669921028271,0.0,-0.0090714617116,0.0,0.0,0.0,0.0,-12.8557521937,-137.887999761,135.083022445,0.863074628514,-100.0,-0.86921230157,80.0,0.872664625997,-100.0,-0.872664625997,80.0,18720525.2338,0.0,0.0,0.0,0.0,0.0,0.0
1402756972341421765,3,-4.75336323259,-7.1377884924,2.69356212634,2.38304939926,-10.0522205432,-3.84635974695,0.10787324613,0.0,-0.249245197299,0.0,-0.557814267092,0.0,-2.56556567838,0.0,-0.140217271414,0.0,0.0241156079615,0.0,-0.0759808967307,0.0,0.0669921028271,0.0,-0.0090714617116,0.0,0.0,0.0,0.0,-12.8557521937,-137.887999761,135.083022445,0.863074628514,-100.0,-0.86921230157,80.0,0.872664625997,-100.0,-0.872664625997,80.0,18720525.2338,0.0,0.0,0.0,0.0,0.0,0.0
1402756972361734709,3,-4.75518026301,-7.1377884924,2.69283055883,2.38304939926,-10.0159122244,-3.84635974695,0.129061257973,0.0,-0.286083670991,0.0,-0.561630430015,0.0,-2.57361529422,0.0,-0.157672536977,0.0,0.0230910046962,0.0,-0.0256388813009,0.0,0.0664563371039,0.0,0.0147761116692,0.0,0.0,0.0,0.0,-12.8557521937,-137.887999761,135.083022445,0.863074628514,-100.0,-0.86921230157,80.0,0.872664625997,-100.0,-0.872664625997,80.0,18720525.2338,0.0,0.0,0.0,0.0,0.0,0.0
1402756972381416855,3,-4.75518026301,-7.1377884924,2.69283055883,2.38304939926,-10.0159122244,-3.84635974695,0.129061257973,0.0,-0.286083670991,0.0,-0.561630430015,0.0,-2.57361529422,0.0,-0.157672536977,0.0,0.0230910046962,0.0,-0.0256388813009,0.0,0.0664563371039,0.0,0.0147761116692,0.0,0.0,0.0,0.0,-12.8557521937,-137.887999761,135.083022445,0.863074628514,-100.0,-0.86921230157,80.0,0.872664625997,-100.0,-0.872664625997,80.0,18720525.2338,0.0,0.0,0.0,0.0,0.0,0.0
1402756972401373542,3,-4.76009212456,-7.1377884924,2.69638635917,2.38304939926,-9.99465533025,-3.84635974695,0.132806706448,0.0,-0.293593427026,0.0,-0.557649230329,0.0,-2.58025568168,0.0,-0.166746322058,0.0,0.0237709705126,0.0,-0.00322216686162,0.0,0.0659415633342,0.0,0.0245100078836,0.0,0.0,0.0,0.0,-12.8557521937,-137.887999761,135.083022445,0.863074628514,-100.0,-0.86921230157,80.0,0.872664625997,-100.0,-0.872664625997,80.0,18720525.2338,0.0,0.0,0.0,0.0,0.0,0.0
1402756972421875583,3,-4.76009212456,-7.1377884924,2.69638635917,2.38304939926,-9.99465533025,-3.84635974695,0.132806706448,0.0,-0.293593427026,0.0,-0.557649230329,0.0,-2.58025568168,0.0,-0.166746322058,0.0,0.0237709705126,0.0,-0.00322216686162,0.0,0.0659415633342,0.0,0.0245100078836,0.0,0.0,0.0,0.0,-12.8557521937,-137.887999761,135.083022445,0.863074628514,-100.0,-0.86921230157,80.0,0.872664625997,-100.0,-0.872664625997,80.0,18720525.2338,0.0,0.0,0.0,0.0,0.0,0.0
1402756972441487460,3,-4.75212945739,-7.1377884924,2.68954095248,2.38304939926,-9.99957146399,-3.84635974695,0.153534828293,0.0,-0.307093883337,0.0,-0.556259319994,0.0,-2.58494653149,0.0,-0.175670845987,0.0,0.0221878279201,0.0,0.0127199480495,0.0,0.0641599598095,0.0,0.0283103983235,0.0,0.0,0.0,0.0,-12.8557521937,-137.887999761,135.083022445,0.863074628514,-100.0,-0.867677839595,80.0,0.872664625997,-100.0,-0.872664625997,80.0,18720525.2338,0.0,0.0,0.0,0.0,0.0,0.0
1402756972461481773,3,-4.75212945739,-7.1377884924,2.68954095248,2.38304939926,-9.99957146399,-3.84635974695,0.153534828293,0.0,-0.307093883337,0.0,-0.556259319994,0.0,-2.58494653149,0.0,-0.175670845987,0.0,0.0221878279201,0.0,0.0127199480495,0.0,0.0641599598095,0.0,0.0283103983235,0.0,0.0,0.0,0.0,-12.8557521937,-137.887999761,135.083022445,0.861540643377,-100.0,-0.867677839595,80.0,0.872664625997,-100.0,-0.872664625997,80.0,18720525.2338,0.0,0.0,0.0,0.0,0.0,0.0
1402756972482223895,3,-4.75307091658,-7.1377884924,2.69822241708,2.38304939926,-9.94386542377,-3.84635974695,0.175640866601,0.0,-0.319355818875,0.0,-0.550793855477,0.0,-2.59020419469,0.0,-0.172105181685,0.0,0.0194435533678,0.0,0.0529278451336,0.0,0.062680377938,0.0,0.0407634771409,0.0,0.0,0.0,0.0,-12.8557521937,-137.887999761,135.083022445,0.861540643377,-100.0,-0.86921230157,80.0,0.872664625997,-100.0,-0.872664625997,80.0,18720525.2338,0.0,0.0,0.0,0.0,0.0,0.0
1402756972501629233,3,-4.75307091658,-7.1377884924,2.69822241708,2.38304939926,-9.94386542377,-3.84635974695,0.175640866601,0.0,-0.319355818875,0.0,-0.550793855477,0.0,-2.59020419469,0.0,-0.172105181685,0.0,0.0194435533678,0.0,0.0529278451336,0.0,0.062680377938,0.0,0.0407634771409,0.0,0.0,0.0,0.0,-12.8557521937,-137.887999761,135.083022445,0.861540643377,-100.0,-0.86921230157,80.0,0.872664625997,-100.0,-0.872664625997,80.0,18720525.2338,0.0,0.0,0.0,0.0,0.0,0.0
1402756972521201298,3,-4.74359419101,-7.1377884924,2.68135088851,2.38304939926,-9.97166436987,-3.84635974695,0.190214416736,0.0,-0.337703441866,0.0,-0.544627102699,0.0,-2.59941392458,0.0,-0.178276063625,0.0,0.0162603104014,0.0,0.0426922048355,0.0,0.0625033131952,0.0,0.0281195257654,0.0,0.0,0.0,0.0,-12.8557521937,-137.887999761,135.083022445,0.861540643377,-100.0,-0.86921230157,80.0,0.872664625997,-100.0,-0.872664625997,80.0,18720525.2338,0.0,0.0,0.0,0.0,0.0,0.0
1402756972542049367,3,-4.74359419101,-7.1377884924,2.68135088851,2.38304939926,-9.97166436987,-3.84635974695,0.190214416736,0.0,-0.337703441866,0.0,-0.544627102699,0.0,-2.59941392458,0.0,-0.178276063625,0.0,0.0162603104014,0.0,0.0426922048355,0.0,0.0625033131952,0.0,0.0281195257654,0.0,0.0,0.0,0.0,-12.8557521937,-137.887999761,135.083022445,0.861540643377,-100.0,-0.86921230157,80.0,0.872664625997,-100.0,-0.872664625997,80.0,18720525.2338,0.0,0.0,0.0,0.0,0.0,0.0
1402756972561131688,3,-4.73758712507,-7.1377884924,2.67071780151,2.38304939926,-9.98858897954,-3.84635974695,0.198318918599,0.0,-0.349149420621,0.0,-0.542988601978,0.0,-2.60509595785,0.0,-0.18242619791,0.0,0.0143649340066,0.0,0.0628208063984,0.0,0.0627775805898,0.0,0.0124413997221,0.0,0.0,0.0,0.0,-12.8557521937,-137.887999761,135.083022445,0.860006181401,-100.0,-0.86921230157,80.0,0.872664625997,-100.0,-0.872664625997,80.0,18720525.2338,0.0,0.0,0.0,0.0,0.0,0.0
1402756972581319623,3,-4.73324252951,-7.1377884924,2.66372435177,2.38304939926,-10.0060670682,-3.84635974695,0.204129860862,0.0,-0.345000021139,0.0,-0.546445547506,0.0,-2.6087303201,0.0,-0.176186259084,0.0,0.013633246065,0.0,0.0694728952966,0.0,0.0629688125817,0.0,0.0327646434468,0.0,0.0,0.0,0.0,-12.8557521937,-137.887999761,135.083022445,0.860006181401,-100.0,-0.86921230157,80.0,0.872664625997,-100.0,-0.872664625997,80.0,18720525.2338,0.0,0.0,0.0,0.0,0.0,0.0
1402756972601853722,3,-4.73324252951,-7.1377884924,2.66372435177,2.38304939926,-10.0060670682,-3.84635974695,0.204129860862,0.0,-0.345000021139,0.0,-0.546445547506,0.0,-2.6087303201,0.0,-0.176186259084,0.0,0.013633246065,0.0,0.0694728952966,0.0,0.0629688125817,0.0,0.0327646434468,0.0,0.0,0.0,0.0,-12.8557521937,-137.887999761,135.083022445,0.860006181401,-100.0,-0.86921230157,80.0,0.872664625997,-100.0,-0.872664625997,80.0,18720525.2338,0.0,0.0,0.0,0.0,0.0,0.0
1402756972621226933,3,-4.72908289686,-7.1377884924,2.65686035029,2.38304939926,-10.0171364526,-3.84635974695,0.208216712169,0.0,-0.347864647873,0.0,-0.541486599414,0.0,-2.61250453865,0.0,-0.18904588959,0.0,0.0126783965473,0.0,0.0495785364483,0.0,0.063187292545,0.0,0.00484431600655,0.0,0.0,0.0,0.0,-12.8557521937,-137.887999761,135.083022445,0.860006181401,-100.0,-0.86921230157,80.0,0.872664625997,-100.0,-0.872664625997,80.0,18720525.2338,0.0,0.0,0.0,0.0,0.0,0.0
1402756972641486309,3,-4.72908289686,-7.1377884924,2.65686035029,2.38304939926,-10.0171364526,-3.84635974695,0.208216712169,0.0,-0.347864647873,0.0,-0.541486599414,0.0,-2.61250453865,0.0,-0.18904588959,0.0,0.0126783965473,0.0,0.0495785364483,0.0,0.063187292545,0.0,0.00484431600655,0.0,0.0,0.0,0.0,-12.8557521937,-137.887999761,135.083022445,0.860006181401,-100.0,-0.86921230157,80.0,0.872664625997,-100.0,-0.872664625997,80.0,18720525.2338,0.0,0.0,0.0,0.0,0.0,0.0
1402756972662003264,3,-4.7300932355,-7.1377884924,2.64407346371,2.38304939926,-10.0290804715,-3.84635974695,0.200363750673,0.0,-0.368071969265,0.0,-0.543906559169,0.0,-2.62370336018,0.0,-0.178962880594,0.0,0.0106691253201,0.0,0.042762159,0.0,0.0659016623546,0.0,0.00196412339004,0.0,0.0,0.0,0.0,-12.8557521937,-137.887999761,135.083022445,0.860006181401,-100.0,-0.867677839595,80.0,0.872664625997,-100.0,-0.872664625997,80.0,18720525.2338,0.0,0.0,0.0,0.0,0.0,0.0
1402756972681417814,3,-4.7300932355,-7.1377884924,2.64407346371,2.38304939926,-10.0290804715,-3.84635974695,0.200363750673,0.0,-0.368071969265,0.0,-0.543906559169,0.0,-2.62370336018,0.0,-0.178962880594,0.0,0.0106691253201,0.0,0.042762159,0.0,0.0659016623546,0.0,0.00196412339004,0.0,0.0,0.0,0.0,-12.8557521937,-137.887999761,135.083022445,0.860006181401,-100.0,-0.867677839595,80.0,0.872664625997,-100.0,-0.872664625997,80.0,18720525.2338,0.0,0.0,0.0,0.0,0.0,0.0
1402756972702069833,3,-4.72164933288,-7.1377884924,2.63316428107,2.38304939926,-10.0490045593,-3.84635974695,0.210829559275,0.0,-0.369846589412,0.0,-0.547729179991,0.0,-2.62986177612,0.0,-0.175810978096,0.0,0.00967873083484,0.0,0.0408530781081,0.0,0.0659543447826,0.0,-0.00432737985779,0.0,0.0,0.0,0.0,-12.8557521937,-137.887999761,135.083022445,0.858471719426,-100.0,-0.867677839595,80.0,0.872664625997,-100.0,-0.872664625997,80.0,18720525.2338,0.0,0.0,0.0,0.0,0.0,0.0
1402756972721850170,3,-4.72164933288,-7.1377884924,2.63316428107,2.38304939926,-10.0490045593,-3.84635974695,0.210829559275,0.0,-0.369846589412,0.0,-0.547729179991,0.0,-2.62986177612,0.0,-0.175810978096,0.0,0.00967873083484,0.0,0.0408530781081,0.0,0.0659543447826,0.0,-0.00432737985779,0.0,0.0,0.0,0.0,-12.8557521937,-137.887999761,135.083022445,0.858471719426,-100.0,-0.86921230157,80.0,0.872664625997,-100.0,-0.872664625997,80.0,18720525.2338,0.0,0.0,0.0,0.0,0.0,0.0
1402756972741365983,3,-4.72464345655,-7.1377884924,2.62897659475,2.38304939926,-10.0421900646,-3.84635974695,0.204046433322,0.0,-0.369522490253,0.0,-0.538852156618,0.0,-2.63837993437,0.0,-0.180586022663,0.0,0.00955887879018,0.0,0.0307367818592,0.0,0.067897461417,0.0,0.00147867292252,0.0,0.0,0.0,0.0,-12.8557521937,-137.887999761,135.083022445,0.858471719426,-100.0,-0.86921230157,80.0,0.872664625997,-100.0,-0.872664625997,80.0,18720525.2338,0.0,0.0,0.0,0.0,0.0,0.0
1402756972761209466,3,-4.72464345655,-7.1377884924,2.62897659475,2.38304939926,-10.0421900646,-3.84635974695,0.204046433322,0.0,-0.369522490253,0.0,-0.538852156618,0.0,-2.63837993437,0.0,-0.180586022663,0.0,0.00955887879018,0.0,0.0307367818592,0.0,0.067897461417,0.0,0.00147867292252,0.0,0.0,0.0,0.0,-12.8557521937,-137.887999761,135.083022445,0.858471719426,-100.0,-0.86921230157,80.0,0.872664625997,-100.0,-0.872664625997,80.0,18720525.2338,0.0,0.0,0.0,0.0,0.0,0.0
1402756972781964240,3,-4.71164764315,-7.1377884924,2.61384038207,2.38304939926,-10.0553827898,-3.84635974695,0.224091058347,0.0,-0.381746245686,0.0,-0.544220780301,0.0,-2.64484536114,0.0,-0.176191836081,0.0,0.00735429598166,0.0,0.0374381227762,0.0,0.0674045772268,0.0,0.0150684180227,0.0,0.0,0.0,0.0,-12.8557521937,-137.887999761,135.083022445,0.858471719426,-100.0,-0.867677839595,80.0,0.872664625997,-100.0,-0.872664625997,80.0,18720525.2338,0.0,0.0,0.0,0.0,0.0,0.0
1402756972801439341,3,-4.71164764315,-7.1377884924,2.61384038207,2.38304939926,-10.0553827898,-3.84635974695,0.224091058347,0.0,-0.381746245686,0.0,-0.544220780301,0.0,-2.64484536114,0.0,-0.176191836081,0.0,0.00735429598166,0.0,0.0374381227762,0.0,0.0674045772268,0.0,0.0150684180227,0.0,0.0,0.0,0.0,-12.8557521937,-137.887999761,135.083022445,0.858471719426,-100.0,-0.867677839595,80.0,0.872664625997,-100.0,-0.872664625997,80.0,18720525.2338,0.0,0.0,0.0,0.0,0.0,0.0
1402756972821355400,3,-4.70853427751,-7.1377884924,2.61030439819,2.38304939926,-10.0446423325,-3.84635974695,0.223410486309,0.0,-0.376103978747,0.0,-0.52304019412,0.0,-2.65170725896,0.0,-0.178019345588,0.0,0.00740132355619,0.0,0.0167060559991,0.0,0.0675172633838,0.0,-0.00557040680747,0.0,0.0,0.0,0.0,-12.8557521937,-137.887999761,135.083022445,0.858471719426,-100.0,-0.867677839595,80.0,0.872664625997,-100.0,-0.872664625997,80.0,18720525.2338,0.0,0.0,0.0,0.0,0.0,0.0
1402756972841886388,3,-4.70853427751,-7.1377884924,2.61030439819,2.38304939926,-10.0446423325,-3.84635974695,0.223410486309,0.0,-0.376103978747,0.0,-0.52304019412,0.0,-2.65170725896,0.0,-0.178019345588,0.0,0.00740132355619,0.0,0.0167060559991,0.0,0.0675172633838,0.0,-0.00557040680747,0.0,0.0,0.0,0.0,-12.8557521937,-137.887999761,135.083022445,0.858471719426,-100.0,-0.867677839595,80.0,0.872664625997,-100.0,-0.872664625997,80.0,18720525.2338,0.0,0.0,0.0,0.0,0.0,0.0
1402756972861284520,3,-4.69446569408,-7.1377884924,2.59008711068,2.38304939926,-10.0559442162,-3.84635974695,0.244200706555,0.0,-0.391971565053,0.0,-0.518083199534,0.0,-2.66064867591,0.0,-0.174137946854,0.0,0.00541933032734,0.0,0.0151146483625,0.0,0.0674705393904,0.0,0.0241674734991,0.0,0.0,0.0,0.0,-12.8557521937,-137.887999761,135.083022445,0.858471719426,-100.0,-0.867677839595,80.0,0.872664625997,-100.0,-0.872664625997,80.0,18720525.2338,0.0,0.0,0.0,0.0,0.0,0.0
1402756972881330557,3,-4.69446569408,-7.1377884924,2.59008711068,2.38304939926,-10.0559442162,-3.84635974695,0.244200706555,0.0,-0.391971565053,0.0,-0.518083199534,0.0,-2.66064867591,0.0,-0.174137946854,0.0,0.00541933032734,0.0,0.0151146483625,0.0,0.0674705393904,0.0,0.0241674734991,0.0,0.0,0.0,0.0,-12.8557521937,-137.887999761,135.083022445,0.858471719426,-100.0,-0.867677839595,80.0,0.872664625997,-100.0,-0.872664625997,80.0,18720525.2338,0.0,0.0,0.0,0.0,0.0,0.0
1402756972901788198,3,-4.68432714504,-7.1377884924,2.5756824188,2.38304939926,-10.0723880227,-3.84635974695,0.247463010837,0.0,-0.395697218118,0.0,-0.521244173907,0.0,-2.66921086994,0.0,-0.17793997079,0.0,0.00616262280512,0.0,-0.0259411623242,0.0,0.0671950043111,0.0,-0.0280750477774,0.0,0.0,0.0,0.0,-12.8557521937,-137.887999761,135.083022445,0.858471719426,-100.0,-0.86921230157,80.0,0.872664625997,-100.0,-0.872664625997,80.0,18720525.2338,0.0,0.0,0.0,0.0,0.0,0.0
1402756972921344886,3,-4.68432714504,-7.1377884924,2.5756824188,2.38304939926,-10.0723880227,-3.84635974695,0.247463010837,0.0,-0.395697218118,0.0,-0.521244173907,0.0,-2.66921086994,0.0,-0.17793997079,0.0,0.00616262280512,0.0,-0.0259411623242,0.0,0.0671950043111,0.0,-0.0280750477774,0.0,0.0,0.0,0.0,-12.8557521937,-137.887999761,135.083022445,0.858471719426,-100.0,-0.86921230157,80.0,0.872664625997,-100.0,-0.872664625997,80.0,18720525.2338,0.0,0.0,0.0,0.0,0.0,0.0
1402756972941262454,3,-4.69021619662,-7.1377884924,2.58945774134,2.38304939926,-10.0194449946,-3.84635974695,0.255787123526,0.0,-0.392546678786,0.0,-0.523917249533,0.0,-2.67245927734,0.0,-0.182417178747,0.0,0.00725581700728,0.0,-0.0220374630084,0.0,0.0665051555569,0.0,-0.000469205981366,0.0,0.0,0.0,0.0,-12.8557521937,-137.887999761,135.083022445,0.858471719426,-100.0,-0.867677839595,80.0,0.872664625997,-100.0,-0.872664625997,80.0,18720525.2338,0.0,0.0,0.0,0.0,0.0,0.0
1402756972962000693,3,-4.69021619662,-7.1377884924,2.58945774134,2.38304939926,-10.0194449946,-3.84635974695,0.255787123526,0.0,-0.392546678786,0.0,-0.523917249533,0.0,-2.67245927734,0.0,-0.182417178747,0.0,0.00725581700728,0.0,-0.0220374630084,0.0,0.0665051555569,0.0,-0.000469205981366,0.0,0.0,0.0,0.0,-12.8557521937,-137.887999761,135.083022445,0.858471719426,-100.0,-0.86921230157,80.0,0.872664625997,-100.0,-0.872664625997,80.0,18720525.2338,0.0,0.0,0.0,0.0,0.0,0.0
1402756972982197425,3,-4.67947744716,-7.1377884924,2.57317651498,2.38304939926,-10.0408783253,-3.84635974695,0.263102403831,0.0,-0.401130068231,0.0,-0.527317874884,0.0,-2.67953118759,0.0,-0.17317233706,0.0,0.008115671491,0.0,-0.0184495646573,0.0,0.0663630772023,0.0,0.00718038601581,0.0,0.0,0.0,0.0,-12.8557521937,-137.887999761,135.083022445,0.858471719426,-100.0,-0.86921230157,80.0,0.872664625997,-100.0,-0.872664625997,80.0,18720525.2338,0.0,0.0,0.0,0.0,0.0,0.0
1402756973001238102,3,-4.67947744716,-7.1377884924,2.57317651498,2.38304939926,-10.0408783253,-3.84635974695,0.263102403831,0.0,-0.401130068231,0.0,-0.527317874884,0.0,-2.67953118759,0.0,-0.17317233706,0.0,0.008115671491,0.0,-0.0184495646573,0.0,0.0663630772023,0.0,0.00718038601581,0.0,0.0,0.0,0.0,-12.8557521937,-137.887999761,135.083022445,0.858471719426,-100.0,-0.86921230157,80.0,0.872664625997,-100.0,-0.872664625997,80.0,18720525.2338,0.0,0.0,0.0,0.0,0.0,0.0
1402756973021983705,3,-4.67277034428,-7.1377884924,2.56236380706,2.38304939926,-10.0426947588,-3.84635974695,0.270687181098,0.0,-0.418581181151,0.0,-0.536870683103,0.0,-2.68642997417,0.0,-0.172323902422,0.0,0.00890874836428,0.0,-0.0145992724444,0.0,0.0663747488486,0.0,0.00521041474475,0.0,0.0,0.0,0.0,-12.8557521937,-137.887999761,135.083022445,0.858471719426,-100.0,-0.867677839595,80.0,0.872664625997,-100.0,-0.872664625997,80.0,18720525.2338,0.0,0.0,0.0,0.0,0.0,0.0
1402756973041393498,3,-4.67277034428,-7.1377884924,2.56236380706,2.38304939926,-10.0426947588,-3.84635974695,0.270687181098,0.0,-0.418581181151,0.0,-0.536870683103,0.0,-2.68642997417,0.0,-0.172323902422,0.0,0.00890874836428,0.0,-0.0145992724444,0.0,0.0663747488486,0.0,0.00521041474475,0.0,0.0,0.0,0.0,-12.8557521937,-137.887999761,135.083022445,0.85693749587,-100.0,-0.867677839595,80.0,0.872664625997,-100.0,-0.872664625997,80.0,18720525.2338,0.0,0.0,0.0,0.0,0.0,0.0
1402756973061150880,3,-4.67713688095,-7.1377884924,2.56586087884,2.38304939926,-9.9953877953,-3.84635974695,0.26158451304,0.0,-0.423907346609,0.0,-0.526015711122,0.0,-2.69307191389,0.0,-0.166239824322,0.0,0.0105444826607,0.0,-0.0330447469903,0.0,0.0675213388689,0.0,-0.0264785250475,0.0,0.0,0.0,0.0,-12.8557521937,-137.887999761,135.083022445,0.858471719426,-100.0,-0.867677839595,80.0,0.872664625997,-100.0,-0.872664625997,80.0,18720525.2338,0.0,0.0,0.0,0.0,0.0,0.0
1402756973081905719,3,-4.67713688095,-7.1377884924,2.56586087884,2.38304939926,-9.9953877953,-3.84635974695,0.26158451304,0.0,-0.423907346609,0.0,-0.526015711122,0.0,-2.69307191389,0.0,-0.166239824322,0.0,0.0105444826607,0.0,-0.0330447469903,0.0,0.0675213388689,0.0,-0.0264785250475,0.0,0.0,0.0,0.0,-12.8557521937,-137.887999761,135.083022445,0.85693749587,-100.0,-0.867677839595,80.0,0.872664625997,-100.0,-0.872664625997,80.0,18720525.2338,0.0,0.0,0.0,0.0,0.0,0.0
1402756973101308908,3,-4.66638184088,-7.1377884924,2.55842389658,2.38304939926,-9.95008216492,-3.84635974695,0.290880663232,0.0,-0.452523685674,0.0,-0.510709749273,0.0,-2.69942468029,0.0,-0.163760404138,0.0,0.00886738459033,0.0,-0.0303595019897,0.0,0.0662024407478,0.0,-0.0303351082643,0.0,0.0,0.0,0.0,-12.8557521937,-137.887999761,135.083022445,0.85693749587,-100.0,-0.867677839595,80.0,0.872664625997,-100.0,-0.872664625997,80.0,18720525.2338,0.0,0.0,0.0,0.0,0.0,0.0
1402756973121527771,3,-4.66638184088,-7.1377884924,2.55842389658,2.38304939926,-9.95008216492,-3.84635974695,0.290880663232,0.0,-0.452523685674,0.0,-0.510709749273,0.0,-2.69942468029,0.0,-0.163760404138,0.0,0.00886738459033,0.0,-0.0303595019897,0.0,0.0662024407478,0.0,-0.0303351082643,0.0,0.0,0.0,0.0,-12.8557521937,-137.887999761,135.083022445,0.85693749587,-100.0,-0.867677839595,80.0,0.872664625997,-100.0,-0.872664625997,80.0,18720525.2338,0.0,0.0,0.0,0.0,0.0,0.0
1402756973141764090,3,-4.67396299827,-7.1377884924,2.56508281622,2.38304939926,-9.91048225951,-3.84635974695,0.278448787225,0.0,-0.448048421968,0.0,-0.519553119612,0.0,-2.70544990866,0.0,-0.144051793448,0.0,0.0119918269063,0.0,-0.0120577849748,0.0,0.0673150126854,0.0,0.00214953528713,0.0,0.0,0.0,0.0,-12.8557521937,-137.887999761,135.083022445,0.85693749587,-100.0,-0.867677839595,80.0,0.872664625997,-100.0,-0.872664625997,80.0,18720525.2338,0.0,0.0,0.0,0.0,0.0,0.0
1402756973161395300,3,-4.67396299827,-7.1377884924,2.56508281622,2.38304939926,-9.91048225951,-3.84635974695,0.278448787225,0.0,-0.448048421968,0.0,-0.519553119612,0.0,-2.70544990866,0.0,-0.144051793448,0.0,0.0119918269063,0.0,-0.0120577849748,0.0,0.0673150126854,0.0,0.00214953528713,0.0,0.0,0.0,0.0,-12.8557521937,-137.887999761,135.083022445,0.858471719426,-100.0,-0.86921230157,80.0,0.872664625997,-100.0,-0.872664625997,80.0,18720525.2338,0.0,0.0,0.0,0.0,0.0,0.0
1402756973181475555,3,-4.66260665563,-7.1377884924,2.54693793686,2.38304939926,-9.93113721784,-3.84635974695,0.28504407963,0.0,-0.460118959469,0.0,-0.525648953132,0.0,-2.71117472462,0.0,-0.142346005493,0.0,0.012466457215,0.0,-0.00378766813016,0.0,0.0673650222729,0.0,0.00546416841134,0.0,0.0,0.0,0.0,-12.8557521937,-137.887999761,135.083022445,0.858471719426,-100.0,-0.867677839595,80.0,0.872664625997,-100.0,-0.872664625997,80.0,18720525.2338,0.0,0.0,0.0,0.0,0.0,0.0
1402756973202389305,3,-4.66260665563,-7.1377884924,2.54693793686,2.38304939926,-9.93113721784,-3.84635974695,0.28504407963,0.0,-0.460118959469,0.0,-0.525648953132,0.0,-2.71117472462,0.0,-0.142346005493,0.0,0.012466457215,0.0,-0.00378766813016,0.0,0.0673650222729,0.0,0.00546416841134,0.0,0.0,0.0,0.0,-12.8557521937,-137.887999761,135.083022445,0.858471719426,-100.0,-0.867677839595,80.0,0.872664625997,-100.0,-0.872664625997,80.0,18720525.2338,0.0,0.0,0.0,0.0,0.0,0.0
1402756973221307591,3,-4.65890229288,-7.1377884924,2.54771639047,2.38304939926,-9.86963445304,-3.84635974695,0.297619863962,0.0,-0.471115788788,0.0,-0.507814589929,0.0,-2.71679730011,0.0,-0.133005126458,0.0,0.0120571753018,0.0,-0.011545518496,0.0,0.0668552457542,0.0,-0.00826510997857,0.0,0.0,0.0,0.0,-12.8557521937,-137.887999761,135.083022445,0.858471719426,-100.0,-0.867677839595,80.0,0.872664625997,-100.0,-0.872664625997,80.0,18720525.2338,0.0,0.0,0.0,0.0,0.0,0.0
1402756973241335981,3,-4.65890229288,-7.1377884924,2.54771639047,2.38304939926,-9.86963445304,-3.84635974695,0.297619863962,0.0,-0.471115788788,0.0,-0.507814589929,0.0,-2.71679730011,0.0,-0.133005126458,0.0,0.0120571753018,0.0,-0.011545518496,0.0,0.0668552457542,0.0,-0.00826510997857,0.0,0.0,0.0,0.0,-12.8557521937,-137.887999761,135.083022445,0.85693749587,-100.0,-0.867677839595,80.0,0.872664625997,-100.0,-0.872664625997,80.0,18720525.2338,0.0,0.0,0.0,0.0,0.0,0.0
1402756973261876162,3,-4.65956915005,-7.1377884924,2.5581249572,2.38304939926,-9.79574075674,-3.84635974695,0.312012956932,0.0,-0.473062021989,0.0,-0.49844328423,0.0,-2.72242242477,0.0,-0.126043034499,0.0,0.0128486199136,0.0,-0.0165649849887,0.0,0.0653673539391,0.0,0.00299010748605,0.0,0.0,0.0,0.0,-12.8557521937,-137.887999761,135.083022445,0.858471719426,-100.0,-0.86921230157,80.0,0.872664625997,-100.0,-0.872664625997,80.0,18720525.2338,0.0,0.0,0.0,0.0,0.0,0.0
1402756973281384190,3,-4.65956915005,-7.1377884924,2.5581249572,2.38304939926,-9.79574075674,-3.84635974695,0.312012956932,0.0,-0.473062021989,0.0,-0.49844328423,0.0,-2.72242242477,0.0,-0.126043034499,0.0,0.0128486199136,0.0,-0.0165649849887,0.0,0.0653673539391,0.0,0.00299010748605,0.0,0.0,0.0,0.0,-12.8557521937,-137.887999761,135.083022445,0.858471719426,-100.0,-0.867677839595,80.0,0.872664625997,-100.0,-0.872664625997,80.0,18720525.2338,0.0,0.0,0.0,0.0,0.0,0.0
1402756973301356939,3,-4.65822173663,-7.1377884924,2.56255607438,2.38304939926,-9.73769234459,-3.84635974695,0.317695830093,0.0,-0.479009743243,0.0,-0.48385985667,0.0,-2.72779808219,0.0,-0.124060387511,0.0,0.0131989479525,0.0,-0.0135917927211,0.0,0.0644858993459,0.0,-0.0204870524991,0.0,0.0,0.0,0.0,-12.8557521937,-137.887999761,135.083022445,0.858471719426,-100.0,-0.867677839595,80.0,0.872664625997,-100.0,-0.872664625997,80.0,18720525.2338,0.0,0.0,0.0,0.0,0.0,0.0
1402756973321884585,3,-4.65822173663,-7.1377884924,2.56255607438,2.38304939926,-9.73769234459,-3.84635974695,0.317695830093,0.0,-0.479009743243,0.0,-0.48385985667,0.0,-2.72779808219,0.0,-0.124060387511,0.0,0.0131989479525,0.0,-0.0135917927211,0.0,0.0644858993459,0.0,-0.0204870524991,0.0,0.0,0.0,0.0,-12.8557521937,-137.887999761,135.083022445,0.858471719426,-100.0,-0.86921230157,80.0,0.872664625997,-100.0,-0.872664625997,80.0,18720525.2338,0.0,0.0,0.0,0.0,0.0,0.0
1402756973341765800,3,-4.66813405265,-7.1377884924,2.56843518942,2.38304939926,-9.68169947248,-3.84635974695,0.304301246195,0.0,-0.486843651078,0.0,-0.487669898187,0.0,-2.73110651073,0.0,-0.116107154882,0.0,0.0144804466855,0.0,-0.00481882807125,0.0,0.0666988297928,0.0,0.012129421979,0.0,0.0,0.0,0.0,-12.8557521937,-137.887999761,135.083022445,0.858471719426,-100.0,-0.86921230157,80.0,0.872664625997,-100.0,-0.872664625997,80.0,18720525.2338,0.0,0.0,0.0,0.0,0.0,0.0
1402756973361079548,3,-4.66813405265,-7.1377884924,2.56843518942,2.38304939926,-9.68169947248,-3.84635974695,0.304301246195,0.0,-0.486843651078,0.0,-0.487669898187,0.0,-2.73110651073,0.0,-0.116107154882,0.0,0.0144804466855,0.0,-0.00481882807125,0.0,0.0666988297928,0.0,0.012129421979,0.0,0.0,0.0,0.0,-12.8557521937,-137.887999761,135.083022445,0.858471719426,-100.0,-0.867677839595,80.0,0.872664625997,-100.0,-0.872664625997,80.0,18720525.2338,0.0,0.0,0.0,0.0,0.0,0.0
1402756973381356473,3,-4.65595416922,-7.1377884924,2.54876963747,2.38304939926,-9.70104304108,-3.84635974695,0.309124161855,0.0,-0.49490568075,0.0,-0.493853007484,0.0,-2.73538849338,0.0,-0.106113658945,0.0,0.014585254913,0.0,-0.00327956178655,0.0,0.0664375776755,0.0,0.0153368800773,0.0,0.0,0.0,0.0,-12.8557521937,-137.887999761,135.083022445,0.858471719426,-100.0,-0.867677839595,80.0,0.872664625997,-100.0,-0.872664625997,80.0,18720525.2338,0.0,0.0,0.0,0.0,0.0,0.0
1402756973402168819,3,-4.65595416922,-7.1377884924,2.54876963747,2.38304939926,-9.70104304108,-3.84635974695,0.309124161855,0.0,-0.49490568075,0.0,-0.493853007484,0.0,-2.73538849338,0.0,-0.106113658945,0.0,0.014585254913,0.0,-0.00327956178655,0.0,0.0664375776755,0.0,0.0153368800773,0.0,0.0,0.0,0.0,-12.8557521937,-137.887999761,135.083022445,0.858471719426,-100.0,-0.867677839595,80.0,0.872664625997,-100.0,-0.872664625997,80.0,18720525.2338,0.0,0.0,0.0,0.0,0.0,0.0
1402756973421143643,3,-4.65331162283,-7.1377884924,2.55417452897,2.38304939926,-9.64170908948,-3.84635974695,0.318445424143,0.0,-0.492659288425,0.0,-0.467113910728,0.0,-2.74046152632,0.0,-0.0998830408818,0.0,0.0152197527491,0.0,-0.00755118258067,0.0,0.0647596312149,0.0,-0.015000817281,0.0,0.0,0.0,0.0,-12.8557521937,-137.887999761,135.083022445,0.858471719426,-100.0,-0.867677839595,80.0,0.872664625997,-100.0,-0.872664625997,80.0,18720525.2338,0.0,0.0,0.0,0.0,0.0,0.0
1402756973441423049,3,-4.65331162283,-7.1377884924,2.55417452897,2.38304939926,-9.64170908948,-3.84635974695,0.318445424143,0.0,-0.492659288425,0.0,-0.467113910728,0.0,-2.74046152632,0.0,-0.0998830408818,0.0,0.0152197527491,0.0,-0.00755118258067,0.0,0.0647596312149,0.0,-0.015000817281,0.0,0.0,0.0,0.0,-12.8557521937,-137.887999761,135.083022445,0.858471719426,-100.0,-0.867677839595,80.0,0.872664625997,-100.0,-0.872664625997,80.0,18720525.2338,0.0,0.0,0.0,0.0,0.0,0.0
1402756973461520373,3,-4.65757101685,-7.1377884924,2.56191134747,2.38304939926,-9.56414101355,-3.84635974695,0.317714339629,0.0,-0.50125792421,0.0,-0.452935647072,0.0,-2.74380096747,0.0,-0.0901260135795,0.0,0.0152469605517,0.0,-0.0108756697644,0.0,0.0645720010534,0.0,-0.0245733135518,0.0,0.0,0.0,0.0,-12.8557521937,-137.887999761,135.083022445,0.858471719426,-100.0,-0.867677839595,80.0,0.872664625997,-100.0,-0.872664625997,80.0,18720525.2338,0.0,0.0,0.0,0.0,0.0,0.0
1402756973481279149,3,-4.65757101685,-7.1377884924,2.56191134747,2.38304939926,-9.56414101355,-3.84635974695,0.317714339629,0.0,-0.50125792421,0.0,-0.452935647072,0.0,-2.74380096747,0.0,-0.0901260135795,0.0,0.0152469605517,0.0,-0.0108756697644,0.0,0.0645720010534,0.0,-0.0245733135518,0.0,0.0,0.0,0.0,-12.8557521937,-137.887999761,135.083022445,0.858471719426,-100.0,-0.867677839595,80.0,0.872664625997,-100.0,-0.872664625997,80.0,18720525.2338,0.0,0.0,0.0,0.0,0.0,0.0
1402756973501513198,3,-4.67206581561,-7.1377884924,2.58055405911,2.38304939926,-9.47094366154,-3.84635974695,0.304007813355,0.0,-0.496741676738,0.0,-0.445469224068,0.0,-2.7467341759,0.0,-0.081963648993,0.0,0.0174239920708,0.0,-0.0138135939078,0.0,0.0654651438967,0.0,-0.00820400945125,0.0,0.0,0.0,0.0,-12.8557521937,-137.887999761,135.083022445,0.858471719426,-100.0,-0.867677839595,80.0,0.872664625997,-100.0,-0.872664625997,80.0,18720525.2338,0.0,0.0,0.0,0.0,0.0,0.0
1402756973521804149,3,-4.67206581561,-7.1377884924,2.58055405911,2.38304939926,-9.47094366154,-3.84635974695,0.304007813355,0.0,-0.496741676738,0.0,-0.445469224068,0.0,-2.7467341759,0.0,-0.081963648993,0.0,0.0174239920708,0.0,-0.0138135939078,0.0,0.0654651438967,0.0,-0.00820400945125,0.0,0.0,0.0,0.0,-12.8557521937,-137.887999761,135.083022445,0.858471719426,-100.0,-0.867677839595,80.0,0.872664625997,-100.0,-0.872664625997,80.0,18720525.2338,0.0,0.0,0.0,0.0,0.0,0.0
1402756973541501135,3,-4.6598118206,-7.1377884924,2.56059665935,2.38304939926,-9.48923175023,-3.84635974695,0.306644463461,0.0,-0.504733574429,0.0,-0.458647278725,0.0,-2.74998053458,0.0,-0.0805764652814,0.0,0.0176392043474,0.0,0.00104599480509,0.0,0.0660598366991,0.0,-0.0266322358738,0.0,0.0,0.0,0.0,-12.8557521937,-137.887999761,135.083022445,0.85693749587,-100.0,-0.867677839595,80.0,0.872664625997,-100.0,-0.872664625997,80.0,18720525.2338,0.0,0.0,0.0,0.0,0.0,0.0
1402756973561202165,3,-4.6598118206,-7.1377884924,2.56059665935,2.38304939926,-9.48923175023,-3.84635974695,0.306644463461,0.0,-0.504733574429,0.0,-0.458647278725,0.0,-2.74998053458,0.0,-0.0805764652814,0.0,0.0176392043474,0.0,0.00104599480509,0.0,0.0660598366991,0.0,-0.0266322358738,0.0,0.0,0.0,0.0,-12.8557521937,-137.887999761,135.083022445,0.858471719426,-100.0,-0.867677839595,80.0,0.872664625997,-100.0,-0.872664625997,80.0,18720525.2338,0.0,0.0,0.0,0.0,0.0,0.0
1402756973582619517,3,-4.66126724797,-7.1377884924,2.55883737653,2.38304939926,-9.43756957559,-3.84635974695,0.309673151741,0.0,-0.515815388909,0.0,-0.467706689013,0.0,-2.75208874663,0.0,-0.0726842027955,0.0,0.0172769641117,0.0,0.00413050152151,0.0,0.0671777670943,0.0,0.014692422844,0.0,0.0,0.0,0.0,-12.8557521937,-137.887999761,135.083022445,0.858471719426,-100.0,-0.867677839595,80.0,0.872664625997,-100.0,-0.872664625997,80.0,18720525.2338,0.0,0.0,0.0,0.0,0.0,0.0
1402756973601308452,3,-4.66126724797,-7.1377884924,2.55883737653,2.38304939926,-9.43756957559,-3.84635974695,0.309673151741,0.0,-0.515815388909,0.0,-0.467706689013,0.0,-2.75208874663,0.0,-0.0726842027955,0.0,0.0172769641117,0.0,0.00413050152151,0.0,0.0671777670943,0.0,0.014692422844,0.0,0.0,0.0,0.0,-12.8557521937,-137.887999761,135.083022445,0.858471719426,-100.0,-0.867677839595,80.0,0.872664625997,-100.0,-0.872664625997,80.0,18720525.2338,0.0,0.0,0.0,0.0,0.0,0.0
1402756973621285000,3,-4.6545526301,-7.1377884924,2.55129855948,2.38304939926,-9.39724851566,-3.84635974695,0.308329027915,0.0,-0.51792490111,0.0,-0.455464001388,0.0,-2.75603468448,0.0,-0.0698010172423,0.0,0.0173112270064,0.0,-0.000699685550355,0.0,0.0673033768249,0.0,-0.0320542386968,0.0,0.0,0.0,0.0,-12.8557521937,-137.887999761,135.083022445,0.858471719426,-100.0,-0.867677839595,80.0,0.872664625997,-100.0,-0.872664625997,80.0,18720525.2338,0.0,0.0,0.0,0.0,0.0,0.0
1402756973641865819,3,-4.6545526301,-7.1377884924,2.55129855948,2.38304939926,-9.39724851566,-3.84635974695,0.308329027915,0.0,-0.51792490111,0.0,-0.455464001388,0.0,-2.75603468448,0.0,-0.0698010172423,0.0,0.0173112270064,0.0,-0.000699685550355,0.0,0.0673033768249,0.0,-0.0320542386968,0.0,0.0,0.0,0.0,-12.8557521937,-137.887999761,135.083022445,0.858471719426,-100.0,-0.867677839595,80.0,0.872664625997,-100.0,-0.872664625997,80.0,18720525.2338,0.0,0.0,0.0,0.0,0.0,0.0
1402756973661484898,3,-4.66437604829,-7.1377884924,2.56745233569,2.38304939926,-9.31901209255,-3.84635974695,0.304269648566,0.0,-0.510849192413,0.0,-0.44896437287,0.0,-2.75853164825,0.0,-0.0732698575407,0.0,0.0181607930521,0.0,0.0160609445622,0.0,0.0676952694281,0.0,-0.0331587126911,0.0,0.0,0.0,0.0,-12.8557521937,-137.887999761,135.083022445,0.858471719426,-100.0,-0.867677839595,80.0,0.872664625997,-100.0,-0.872664625997,80.0,18720525.2338,0.0,0.0,0.0,0.0,0.0,0.0
1402756973681428920,3,-4.67403259905,-7.1377884924,2.58471590572,2.38304939926,-9.2028651668,-3.84635974695,0.310603666993,0.0,-0.527546310864,0.0,-0.443250331972,0.0,-2.75922945782,0.0,-0.0637985308274,0.0,0.0159427522483,0.0,0.0135876626321,0.0,0.0681828451895,0.0,-0.0352413964942,0.0,0.0,0.0,0.0,-12.8557521937,-137.887999761,135.083022445,0.858471719426,-100.0,-0.867677839595,80.0,0.872664625997,-100.0,-0.872664625997,80.0,18720525.2338,0.0,0.0,0.0,0.0,0.0,0.0
1402756973702075138,3,-4.67403259905,-7.1377884924,2.58471590572,2.38304939926,-9.2028651668,-3.84635974695,0.310603666993,0.0,-0.527546310864,0.0,-0.443250331972,0.0,-2.75922945782,0.0,-0.0637985308274,0.0,0.0159427522483,0.0,0.0135876626321,0.0,0.0681828451895,0.0,-0.0352413964942,0.0,0.0,0.0,0.0,-12.8557521937,-137.887999761,135.083022445,0.858471719426,-100.0,-0.867677839595,80.0,0.872664625997,-100.0,-0.872664625997,80.0,18720525.2338,0.0,0.0,0.0,0.0,0.0,0.0
1402756973721280208,3,-4.66777533477,-7.1377884924,2.57413764911,2.38304939926,-9.21178109222,-3.84635974695,0.309516233804,0.0,-0.528763881997,0.0,-0.431148575875,0.0,-2.76048148734,0.0,-0.0633969566068,0.0,0.0157275122237,0.0,0.0223373731441,0.0,0.0686386473628,0.0,-0.0333892425443,0.0,0.0,0.0,0.0,-12.8557521937,-137.887999761,135.083022445,0.858471719426,-100.0,-0.867677839595,80.0,0.872664625997,-100.0,-0.872664625997,80.0,18720525.2338,0.0,0.0,0.0,0.0,0.0,0.0
1402756973741809675,3,-4.66777533477,-7.1377884924,2.57413764911,2.38304939926,-9.21178109222,-3.84635974695,0.309516233804,0.0,-0.528763881997,0.0,-0.431148575875,0.0,-2.76048148734,0.0,-0.0633969566068,0.0,0.0157275122237,0.0,0.0223373731441,0.0,0.0686386473628,0.0,-0.0333892425443,0.0,0.0,0.0,0.0,-12.8557521937,-137.887999761,135.083022445,0.858471719426,-100.0,-0.867677839595,80.0,0.872664625997,-100.0,-0.872664625997,80.0,18720525.2338,0.0,0.0,0.0,0.0,0.0,0.0
1402756973761732757,3,-4.66628936724,-7.1377884924,2.57463589556,2.38304939926,-9.14066452307,-3.84635974695,0.324435831376,0.0,-0.541482831351,0.0,-0.449758348183,0.0,-2.7632114054,0.0,-0.0623007155587,0.0,0.013790268519,0.0,0.0161320071831,0.0,0.0684288776079,0.0,-0.0123155583452,0.0,0.0,0.0,0.0,-12.8557521937,-137.887999761,135.083022445,0.858471719426,-100.0,-0.867677839595,80.0,0.872664625997,-100.0,-0.872664625997,80.0,18720525.2338,0.0,0.0,0.0,0.0,0.0,0.0
1402756973781359903,3,-4.66628936724,-7.1377884924,2.57463589556,2.38304939926,-9.14066452307,-3.84635974695,0.324435831376,0.0,-0.541482831351,0.0,-0.449758348183,0.0,-2.7632114054,0.0,-0.0623007155587,0.0,0.013790268519,0.0,0.0161320071831,0.0,0.0684288776079,0.0,-0.0123155583452,0.0,0.0,0.0,0.0,-12.8557521937,-137.887999761,135.083022445,0.858471719426,-100.0,-0.867677839595,80.0,0.872664625997,-100.0,-0.872664625997,80.0,18720525.2338,0.0,0.0,0.0,0.0,0.0,0.0
1402756973801326560,3,-4.68372235338,-7.1377884924,2.60725936744,2.38304939926,-8.98736014969,-3.84635974695,0.320676550661,0.0,-0.531842747648,0.0,-0.421182017104,0.0,-2.76659110364,0.0,-0.064088527198,0.0,0.0142207364515,0.0,0.00676163144634,0.0,0.068072563845,0.0,-0.0162065166623,0.0,0.0,0.0,0.0,-12.8557521937,-137.887999761,135.083022445,0.858471719426,-100.0,-0.867677839595,80.0,0.872664625997,-100.0,-0.872664625997,80.0,18720525.2338,0.0,0.0,0.0,0.0,0.0,0.0
1402756973821443242,3,-4.68372235338,-7.1377884924,2.60725936744,2.38304939926,-8.98736014969,-3.84635974695,0.320676550661,0.0,-0.531842747648,0.0,-0.421182017104,0.0,-2.76659110364,0.0,-0.064088527198,0.0,0.0142207364515,0.0,0.00676163144634,0.0,0.068072563845,0.0,-0.0162065166623,0.0,0.0,0.0,0.0,-12.8557521937,-137.887999761,135.083022445,0.858471719426,-100.0,-0.867677839595,80.0,0.872664625997,-100.0,-0.872664625997,80.0,18720525.2338,0.0,0.0,0.0,0.0,0.0,0.0
