rosbagTimestamp,control_method,x_current,x_desired,y_current,y_desired,z_current,z_desired,x_velocity_current,x_velocity_desired,y_velocity_current,y_velocity_desired,z_velocity_current,z_velocity_desired,yaw_current,yaw_desired,yaw_velocity_current,yaw_velocity_desired,roll_current,roll_desired,roll_velocity_current,roll_velocity_desired,pitch_current,pitch_desired,pitch_velocity_current,pitch_velocity_desired,required_force_x,required_force_y,required_moment_z,resultant_force_x,resultant_force_y,resultant_moment_z,current_port_servo_angle,current_port_thruster_force,current_starboard_servo_angle,current_starboard_thruster_force,estimated_port_servo_angle,estimated_port_thruster_force,estimated_starboard_servo_angle,estimated_starboard_thruster_force,cost_value,step,user_defined_1,user_defined_2,user_defined_3,user_defined_4,user_defined_5
1402757081342362533,3,-14.4724546719,-7.1377884924,21.3851146268,2.38304939926,52.2976560704,-3.84635974695,-0.128264031202,0.0,0.233749296141,0.0,0.747463747002,0.0,-2.83838867308,0.0,0.00379830774401,0.0,0.000132994909871,0.0,0.0570678947806,0.0,0.0706580083165,0.0,-0.00351361805205,0.0,0.0,0.0,0.0,-10.0,-155.884572681,140.276842164,1.04259428183,0.0,-1.04873195489,0.0,1.0471975512,-100.0,-1.0471975512,80.0,22075796.2237,0.0,0.0,0.0,0.0,0.0,0.0
1402757081361487455,3,-14.4761235213,-7.1377884924,21.3921213944,2.38304939926,52.3201129763,-3.84635974695,-0.128308984245,0.0,0.234726839678,0.0,0.751063696887,0.0,-2.83824116652,0.0,0.00317021241974,0.0,-0.00127780025966,0.0,0.0450057781325,0.0,0.0711258469269,0.0,-0.00485088174691,0.0,0.0,0.0,0.0,-10.0,-155.884572681,140.276842164,1.04259428183,0.0,-1.04873195489,0.0,1.0471975512,-100.0,-1.0471975512,80.0,22075796.2237,0.0,0.0,0.0,0.0,0.0,0.0
1402757081381651056,3,-14.4985594018,-7.1377884924,21.432682246,2.38304939926,52.4704700319,-3.84635974695,-0.122001192209,0.0,0.225106093658,0.0,0.75910219659,0.0,-2.8382240336,0.0,0.00284131520866,0.0,-0.00330789628172,0.0,0.0493542587724,0.0,0.0713571812613,0.0,-0.00198249387116,0.0,0.0,0.0,0.0,-10.0,-155.884572681,140.276842164,1.04259428183,0.0,-1.04873195489,0.0,1.0471975512,-100.0,-1.0471975512,80.0,22075796.2237,0.0,0.0,0.0,0.0,0.0,0.0
1402757081402266885,3,-14.4985594018,-7.1377884924,21.432682246,2.38304939926,52.4704700319,-3.84635974695,-0.122001192209,0.0,0.225106093658,0.0,0.75910219659,0.0,-2.8382240336,0.0,0.00284131520866,0.0,-0.00330789628172,0.0,0.0493542587724,0.0,0.0713571812613,0.0,-0.00198249387116,0.0,0.0,0.0,0.0,-10.0,-155.884572681,140.276842164,1.04259428183,0.0,-1.04873195489,0.0,1.0471975512,-100.0,-1.0471975512,80.0,22075796.2237,0.0,0.0,0.0,0.0,0.0,0.0
1402757081421809260,3,-14.5009197871,-7.1377884924,21.4372090402,2.38304939926,52.4856705787,-3.84635974695,-0.121737216743,0.0,0.225984088309,0.0,0.760546588726,0.0,-2.83807264532,0.0,0.00851543097315,0.0,-0.00413837423268,0.0,0.0384735669355,0.0,0.0716292856981,0.0,0.00176590724289,0.0,0.0,0.0,0.0,-10.0,-155.884572681,140.276842164,1.04259428183,0.0,-1.04873195489,0.0,1.0471975512,-100.0,-1.0471975512,80.0,22075796.2237,0.0,0.0,0.0,0.0,0.0,0.0
1402757081441993006,3,-14.5009197871,-7.1377884924,21.4372090402,2.38304939926,52.4856705787,-3.84635974695,-0.121737216743,0.0,0.225984088309,0.0,0.760546588726,0.0,-2.83807264532,0.0,0.00851543097315,0.0,-0.00413837423268,0.0,0.0384735669355,0.0,0.0716292856981,0.0,0.00176590724289,0.0,0.0,0.0,0.0,-10.0,-155.884572681,140.276842164,1.04259428183,0.0,-1.04873195489,0.0,1.0471975512,-100.0,-1.0471975512,80.0,22075796.2237,0.0,0.0,0.0,0.0,0.0,0.0
1402757081462331555,3,-14.5307937127,-7.1377884924,21.4868302228,2.38304939926,52.6567370692,-3.84635974695,-0.123766710472,0.0,0.219727001591,0.0,0.77115187064,0.0,-2.83787771525,0.0,0.00506014779541,0.0,-0.00621457722686,0.0,0.0304378097812,0.0,0.0725611426675,0.0,-0.00398053434708,0.0,0.0,0.0,0.0,-10.0,-155.884572681,140.276842164,1.04105981986,0.0,-1.04873195489,0.0,1.0471975512,-100.0,-1.0471975512,80.0,22075796.2237,0.0,0.0,0.0,0.0,0.0,0.0
1402757081481775722,3,-14.5307937127,-7.1377884924,21.4868302228,2.38304939926,52.6567370692,-3.84635974695,-0.123766710472,0.0,0.219727001591,0.0,0.77115187064,0.0,-2.83787771525,0.0,0.00506014779541,0.0,-0.00621457722686,0.0,0.0304378097812,0.0,0.0725611426675,0.0,-0.00398053434708,0.0,0.0,0.0,0.0,-10.0,-155.884572681,140.276842164,1.04259428183,0.0,-1.04873195489,0.0,1.0471975512,-100.0,-1.0471975512,80.0,22075796.2237,0.0,0.0,0.0,0.0,0.0,0.0
1402757081501991268,3,-14.557729195,-7.1377884924,21.538244781,2.38304939926,52.8198611434,-3.84635974695,-0.119643282112,0.0,0.226327136692,0.0,0.779393606395,0.0,-2.83737705273,0.0,0.01265409199,0.0,-0.00688576636061,0.0,0.0251400349412,0.0,0.072083333419,0.0,-0.0040679063452,0.0,0.0,0.0,0.0,-10.0,-155.884572681,140.276842164,1.04259428183,0.0,-1.04873195489,0.0,1.0471975512,-100.0,-1.0471975512,80.0,22075796.2237,0.0,0.0,0.0,0.0,0.0,0.0
1402757081522412868,3,-14.557729195,-7.1377884924,21.538244781,2.38304939926,52.8198611434,-3.84635974695,-0.119643282112,0.0,0.226327136692,0.0,0.779393606395,0.0,-2.83737705273,0.0,0.01265409199,0.0,-0.00688576636061,0.0,0.0251400349412,0.0,0.072083333419,0.0,-0.0040679063452,0.0,0.0,0.0,0.0,-10.0,-155.884572681,140.276842164,1.04259428183,0.0,-1.04873195489,0.0,1.0471975512,-100.0,-1.0471975512,80.0,22075796.2237,0.0,0.0,0.0,0.0,0.0,0.0
1402757081541970426,3,-14.5625594048,-7.1377884924,21.5472895816,2.38304939926,52.8521228205,-3.84635974695,-0.119226099061,0.0,0.224414630082,0.0,0.781283276895,0.0,-2.83675181384,0.0,0.00768735295848,0.0,-0.00768322412109,0.0,0.0152251848636,0.0,0.0723374223342,0.0,-0.00344211085964,0.0,0.0,0.0,0.0,-10.0,-155.884572681,140.276842164,1.04259428183,0.0,-1.04873195489,0.0,1.0471975512,-100.0,-1.0471975512,80.0,22075796.2237,0.0,0.0,0.0,0.0,0.0,0.0
1402757081561828398,3,-14.5625594048,-7.1377884924,21.5472895816,2.38304939926,52.8521228205,-3.84635974695,-0.119226099061,0.0,0.224414630082,0.0,0.781283276895,0.0,-2.83675181384,0.0,0.00768735295848,0.0,-0.00768322412109,0.0,0.0152251848636,0.0,0.0723374223342,0.0,-0.00344211085964,0.0,0.0,0.0,0.0,-10.0,-155.884572681,140.276842164,1.04259428183,0.0,-1.04873195489,0.0,1.0471975512,-100.0,-1.0471975512,80.0,22075796.2237,0.0,0.0,0.0,0.0,0.0,0.0
1402757081582596701,3,-14.5965794845,-7.1377884924,21.6062340958,2.38304939926,53.0477386528,-3.84635974695,-0.120540806694,0.0,0.224244005731,0.0,0.788624832091,0.0,-2.83597492745,0.0,0.0142296935914,0.0,-0.00843892601717,0.0,0.00735462363284,0.0,0.0726200537456,0.0,-0.000306479046208,0.0,0.0,0.0,0.0,-10.0,-155.884572681,140.276842164,1.04259428183,0.0,-1.04873195489,0.0,1.0471975512,-100.0,-1.0471975512,80.0,22075796.2237,0.0,0.0,0.0,0.0,0.0,0.0
1402757081601784769,3,-14.5965794845,-7.1377884924,21.6062340958,2.38304939926,53.0477386528,-3.84635974695,-0.120540806694,0.0,0.224244005731,0.0,0.788624832091,0.0,-2.83597492745,0.0,0.0142296935914,0.0,-0.00843892601717,0.0,0.00735462363284,0.0,0.0726200537456,0.0,-0.000306479046208,0.0,0.0,0.0,0.0,-10.0,-155.884572681,140.276842164,1.04259428183,0.0,-1.04873195489,0.0,1.0471975512,-100.0,-1.0471975512,80.0,22075796.2237,0.0,0.0,0.0,0.0,0.0,0.0
1402757081622291231,3,-14.6372688933,-7.1377884924,21.6760903919,2.38304939926,53.2690069089,-3.84635974695,-0.125284303217,0.0,0.231993004081,0.0,0.795922012369,0.0,-2.83492514105,0.0,0.0147155099148,0.0,-0.0078448767409,0.0,-0.00819200179155,0.0,0.0726836076183,0.0,-0.00487935476975,0.0,0.0,0.0,0.0,-10.0,-155.884572681,140.276842164,1.04259428183,0.0,-1.04873195489,0.0,1.0471975512,-100.0,-1.0471975512,80.0,22075796.2237,0.0,0.0,0.0,0.0,0.0,0.0
1402757081643089715,3,-14.6372688933,-7.1377884924,21.6760903919,2.38304939926,53.2690069089,-3.84635974695,-0.125284303217,0.0,0.231993004081,0.0,0.795922012369,0.0,-2.83492514105,0.0,0.0147155099148,0.0,-0.0078448767409,0.0,-0.00819200179155,0.0,0.0726836076183,0.0,-0.00487935476975,0.0,0.0,0.0,0.0,-10.0,-155.884572681,140.276842164,1.04259428183,0.0,-1.04873195489,0.0,1.0471975512,-100.0,-1.0471975512,80.0,22075796.2237,0.0,0.0,0.0,0.0,0.0,0.0
1402757081662124309,3,-14.671052709,-7.1377884924,21.7392020408,2.38304939926,53.4831587827,-3.84635974695,-0.11793704052,0.0,0.2317995006,0.0,0.802745717958,0.0,-2.8344931945,0.0,0.0192727302081,0.0,-0.0079794185328,0.0,-0.0143149635866,0.0,0.0719301444431,0.0,-0.00200172112538,0.0,0.0,0.0,0.0,-10.0,-155.884572681,140.276842164,1.04259428183,0.0,-1.04873195489,0.0,1.0471975512,-100.0,-1.0471975512,80.0,22075796.2237,0.0,0.0,0.0,0.0,0.0,0.0
1402757081681709334,3,-14.671052709,-7.1377884924,21.7392020408,2.38304939926,53.4831587827,-3.84635974695,-0.11793704052,0.0,0.2317995006,0.0,0.802745717958,0.0,-2.8344931945,0.0,0.0192727302081,0.0,-0.0079794185328,0.0,-0.0143149635866,0.0,0.0719301444431,0.0,-0.00200172112538,0.0,0.0,0.0,0.0,-10.0,-155.884572681,140.276842164,1.04259428183,0.0,-1.04873195489,0.0,1.0471975512,-100.0,-1.0471975512,80.0,22075796.2237,0.0,0.0,0.0,0.0,0.0,0.0
1402757081702349324,3,-14.7245382531,-7.1377884924,21.8208812836,2.38304939926,53.7308368725,-3.84635974695,-0.137517225735,0.0,0.243445162526,0.0,0.810899555475,0.0,-2.83359866535,0.0,0.0168129903264,0.0,-0.00629759894036,0.0,-0.0149316796269,0.0,0.0731347972426,0.0,-0.000653059889081,0.0,0.0,0.0,0.0,-10.0,-155.884572681,140.276842164,1.04259428183,0.0,-1.04873195489,0.0,1.0471975512,-100.0,-1.0471975512,80.0,22075796.2237,0.0,0.0,0.0,0.0,0.0,0.0
1402757081722148445,3,-14.7245382531,-7.1377884924,21.8208812836,2.38304939926,53.7308368725,-3.84635974695,-0.137517225735,0.0,0.243445162526,0.0,0.810899555475,0.0,-2.83359866535,0.0,0.0168129903264,0.0,-0.00629759894036,0.0,-0.0149316796269,0.0,0.0731347972426,0.0,-0.000653059889081,0.0,0.0,0.0,0.0,-10.0,-155.884572681,140.276842164,1.04259428183,0.0,-1.04873195489,0.0,1.0471975512,-100.0,-1.0471975512,80.0,22075796.2237,0.0,0.0,0.0,0.0,0.0,0.0
1402757081742301645,3,-14.7695741938,-7.1377884924,21.8947336723,2.38304939926,53.9863400229,-3.84635974695,-0.142911216126,0.0,0.238748243559,0.0,0.819319335868,0.0,-2.83259213392,0.0,0.0192947044881,0.0,-0.00626641684024,0.0,-0.0228455938869,0.0,0.0737495690107,0.0,-0.00309858715641,0.0,0.0,0.0,0.0,-10.0,-155.884572681,140.276842164,1.04259428183,0.0,-1.04873195489,0.0,1.0471975512,-100.0,-1.0471975512,80.0,22075796.2237,0.0,0.0,0.0,0.0,0.0,0.0
1402757081762247505,3,-14.7695741938,-7.1377884924,21.8947336723,2.38304939926,53.9863400229,-3.84635974695,-0.142911216126,0.0,0.238748243559,0.0,0.819319335868,0.0,-2.83259213392,0.0,0.0192947044881,0.0,-0.00626641684024,0.0,-0.0228455938869,0.0,0.0737495690107,0.0,-0.00309858715641,0.0,0.0,0.0,0.0,-10.0,-155.884572681,140.276842164,1.04259428183,0.0,-1.04873195489,0.0,1.0471975512,-100.0,-1.0471975512,80.0,22075796.2237,0.0,0.0,0.0,0.0,0.0,0.0
1402757081781976027,3,-14.812872918,-7.1377884924,21.9706342681,2.38304939926,54.2438170268,-3.84635974695,-0.14283933921,0.0,0.243622856625,0.0,0.826334512225,0.0,-2.83129933212,0.0,0.0197203622212,0.0,-0.00452881153796,0.0,-0.0416653354827,0.0,0.073230110874,0.0,-0.00542261817289,0.0,0.0,0.0,0.0,-10.0,-155.884572681,140.276842164,1.04259428183,-100.0,-1.04873195489,80.0,1.0471975512,-100.0,-1.0471975512,80.0,22075796.2237,0.0,0.0,0.0,0.0,0.0,0.0
1402757081801794795,3,-14.812872918,-7.1377884924,21.9706342681,2.38304939926,54.2438170268,-3.84635974695,-0.14283933921,0.0,0.243622856625,0.0,0.826334512225,0.0,-2.83129933212,0.0,0.0197203622212,0.0,-0.00452881153796,0.0,-0.0416653354827,0.0,0.073230110874,0.0,-0.00542261817289,0.0,0.0,0.0,0.0,-10.0,-155.884572681,140.276842164,1.04259428183,-100.0,-1.04873195489,80.0,1.0471975512,-100.0,-1.0471975512,80.0,22075796.2237,0.0,0.0,0.0,0.0,0.0,0.0
1402757081822090356,3,-14.8543975855,-7.1377884924,22.0515324114,2.38304939926,54.5052548727,-3.84635974695,-0.134093519353,0.0,0.256586849669,0.0,0.835397232949,0.0,-2.82981883619,0.0,0.0242543516576,0.0,-0.00175182895168,0.0,-0.0413322251365,0.0,0.0711944544019,0.0,-0.00450887929852,0.0,0.0,0.0,0.0,-10.0,-155.884572681,140.276842164,1.04259428183,-100.0,-1.04873195489,80.0,1.0471975512,-100.0,-1.0471975512,80.0,22075796.2237,0.0,0.0,0.0,0.0,0.0,0.0
1402757081841855045,3,-14.8543975855,-7.1377884924,22.0515324114,2.38304939926,54.5052548727,-3.84635974695,-0.134093519353,0.0,0.256586849669,0.0,0.835397232949,0.0,-2.82981883619,0.0,0.0242543516576,0.0,-0.00175182895168,0.0,-0.0413322251365,0.0,0.0711944544019,0.0,-0.00450887929852,0.0,0.0,0.0,0.0,-10.0,-155.884572681,140.276842164,1.04259428183,-100.0,-1.04719749291,80.0,1.0471975512,-100.0,-1.0471975512,80.0,22075796.2237,0.0,0.0,0.0,0.0,0.0,0.0
1402757081861661683,3,-14.856993271,-7.1377884924,22.0565640841,2.38304939926,54.5221482452,-3.84635974695,-0.133611839607,0.0,0.257260362384,0.0,0.835228935911,0.0,-2.82932499755,0.0,0.022089521513,0.0,-0.00088751506259,0.0,-0.0419165326064,0.0,0.0709201408429,0.0,-0.000745924603433,0.0,0.0,0.0,0.0,-10.0,-155.884572681,140.276842164,1.04259428183,-100.0,-1.0395258983,80.0,1.0471975512,-100.0,-1.0471975512,80.0,22075796.2237,0.0,0.0,0.0,0.0,0.0,0.0
1402757081882191020,3,-14.856993271,-7.1377884924,22.0565640841,2.38304939926,54.5221482452,-3.84635974695,-0.133611839607,0.0,0.257260362384,0.0,0.835228935911,0.0,-2.82932499755,0.0,0.022089521513,0.0,-0.00088751506259,0.0,-0.0419165326064,0.0,0.0709201408429,0.0,-0.000745924603433,0.0,0.0,0.0,0.0,-10.0,-155.884572681,140.276842164,1.04259428183,-100.0,-1.04259458383,80.0,1.0471975512,-100.0,-1.0471975512,80.0,22075796.2237,0.0,0.0,0.0,0.0,0.0,0.0
1402757081902270078,3,-14.8992832288,-7.1377884924,22.1287536127,2.38304939926,54.7782263582,-3.84635974695,-0.13356980193,0.0,0.252111196685,0.0,0.844223767839,0.0,-2.82817934153,0.0,0.0227416418799,0.0,-8.28167818443e-05,0.0,-0.0533108832099,0.0,0.0708377976667,0.0,-0.00133144636583,0.0,0.0,0.0,0.0,-10.0,-155.884572681,140.276842164,1.04259428183,-100.0,-1.04259458383,80.0,1.0471975512,-100.0,-1.0471975512,80.0,22075796.2237,0.0,0.0,0.0,0.0,0.0,0.0
1402757081921726825,3,-14.8992832288,-7.1377884924,22.1287536127,2.38304939926,54.7782263582,-3.84635974695,-0.13356980193,0.0,0.252111196685,0.0,0.844223767839,0.0,-2.82817934153,0.0,0.0227416418799,0.0,-8.28167818443e-05,0.0,-0.0533108832099,0.0,0.0708377976667,0.0,-0.00133144636583,0.0,0.0,0.0,0.0,-10.0,-155.884572681,140.276842164,1.04259428183,-100.0,-1.04106012185,80.0,1.0471975512,-100.0,-1.0471975512,80.0,22075796.2237,0.0,0.0,0.0,0.0,0.0,0.0
1402757081942116422,3,-14.9468897311,-7.1377884924,22.2110675382,2.38304939926,55.0252804119,-3.84635974695,-0.138874937269,0.0,0.272647946999,0.0,0.853336763432,0.0,-2.82696722559,0.0,0.0207040634056,0.0,0.00354072250959,0.0,-0.0431781559016,0.0,0.0697976388743,0.0,0.00129398519042,0.0,0.0,0.0,0.0,-10.0,-155.884572681,140.276842164,1.04259428183,-100.0,-1.0395258983,80.0,1.0471975512,-100.0,-1.0471975512,80.0,22075796.2237,0.0,0.0,0.0,0.0,0.0,0.0
1402757081961677371,3,-14.9468897311,-7.1377884924,22.2110675382,2.38304939926,55.0252804119,-3.84635974695,-0.138874937269,0.0,0.272647946999,0.0,0.853336763432,0.0,-2.82696722559,0.0,0.0207040634056,0.0,0.00354072250959,0.0,-0.0431781559016,0.0,0.0697976388743,0.0,0.00129398519042,0.0,0.0,0.0,0.0,-10.0,-155.884572681,140.276842164,1.04259428183,-100.0,-1.0395258983,80.0,1.0471975512,-100.0,-1.0471975512,80.0,22075796.2237,0.0,0.0,0.0,0.0,0.0,0.0
1402757081981772494,3,-14.9522062641,-7.1377884924,22.2214350569,2.38304939926,55.0595290297,-3.84635974695,-0.131634275736,0.0,0.253202583987,0.0,0.850286635212,0.0,-2.82681113456,0.0,-0.0317838842221,0.0,0.00352177397559,0.0,-0.0835785080945,0.0,0.0692392209368,0.0,0.00235124379856,0.0,0.0,0.0,0.0,-10.0,-155.884572681,140.276842164,1.04105981986,-100.0,-1.0395258983,80.0,1.0471975512,-100.0,-1.0471975512,80.0,22075796.2237,0.0,0.0,0.0,0.0,0.0,0.0
1402757082001637113,3,-14.9522062641,-7.1377884924,22.2214350569,2.38304939926,55.0595290297,-3.84635974695,-0.131634275736,0.0,0.253202583987,0.0,0.850286635212,0.0,-2.82681113456,0.0,-0.0317838842221,0.0,0.00352177397559,0.0,-0.0835785080945,0.0,0.0692392209368,0.0,0.00235124379856,0.0,0.0,0.0,0.0,-10.0,-155.884572681,140.276842164,1.04105981986,-100.0,-1.0395258983,80.0,1.0471975512,-100.0,-1.0471975512,80.0,22075796.2237,0.0,0.0,0.0,0.0,0.0,0.0
1402757082021877677,3,-15.0084153295,-7.1377884924,22.3013004641,2.38304939926,55.3223432993,-3.84635974695,-0.149950611257,0.0,0.240521648868,0.0,0.866043733189,0.0,-2.82993394372,0.0,-0.0574091312251,0.0,0.0101597224246,0.0,-0.0791302251358,0.0,0.0715391030901,0.0,-0.00534708100583,0.0,0.0,0.0,0.0,-10.0,-155.884572681,140.276842164,1.04105981986,-100.0,-1.0395258983,80.0,1.0471975512,-100.0,-1.0471975512,80.0,22075796.2237,0.0,0.0,0.0,0.0,0.0,0.0
1402757082041842113,3,-15.0084153295,-7.1377884924,22.3013004641,2.38304939926,55.3223432993,-3.84635974695,-0.149950611257,0.0,0.240521648868,0.0,0.866043733189,0.0,-2.82993394372,0.0,-0.0574091312251,0.0,0.0101597224246,0.0,-0.0791302251358,0.0,0.0715391030901,0.0,-0.00534708100583,0.0,0.0,0.0,0.0,-10.0,-155.884572681,140.276842164,1.04105981986,-100.0,-1.0395258983,80.0,1.0471975512,-100.0,-1.0471975512,80.0,22075796.2237,0.0,0.0,0.0,0.0,0.0,0.0
1402757082061573360,3,-15.0567085494,-7.1377884924,22.384305294,2.38304939926,55.5909862535,-3.84635974695,-0.153678739867,0.0,0.243583400469,0.0,0.884226466349,0.0,-2.8325536896,0.0,-0.112378783759,0.0,0.017458207563,0.0,-0.234977023378,0.0,0.0705687542721,0.0,-0.0403172809394,0.0,0.0,0.0,0.0,-10.0,-155.884572681,140.276842164,1.03952583472,-100.0,-1.0395258983,80.0,1.0471975512,-100.0,-1.0471975512,80.0,22075796.2237,0.0,0.0,0.0,0.0,0.0,0.0
1402757082082244843,3,-15.0567085494,-7.1377884924,22.384305294,2.38304939926,55.5909862535,-3.84635974695,-0.153678739867,0.0,0.243583400469,0.0,0.884226466349,0.0,-2.8325536896,0.0,-0.112378783759,0.0,0.017458207563,0.0,-0.234977023378,0.0,0.0705687542721,0.0,-0.0403172809394,0.0,0.0,0.0,0.0,-10.0,-155.884572681,140.276842164,1.03952583472,-100.0,-1.0395258983,80.0,1.0471975512,-100.0,-1.0471975512,80.0,22075796.2237,0.0,0.0,0.0,0.0,0.0,0.0
1402757082101962731,3,-15.0973735615,-7.1377884924,22.461194728,2.38304939926,55.8661830133,-3.84635974695,-0.137694538347,0.0,0.226749730412,0.0,0.899343686488,0.0,-2.83585838973,0.0,-0.136869609947,0.0,0.0232966974221,0.0,-0.160033274869,0.0,0.0690752651146,0.0,-0.03279425778,0.0,0.0,0.0,0.0,-10.0,-155.884572681,140.276842164,1.03799137275,-100.0,-1.0395258983,80.0,1.0471975512,-100.0,-1.0471975512,80.0,22075796.2237,0.0,0.0,0.0,0.0,0.0,0.0
1402757082121685608,3,-15.0973735615,-7.1377884924,22.461194728,2.38304939926,55.8661830133,-3.84635974695,-0.137694538347,0.0,0.226749730412,0.0,0.899343686488,0.0,-2.83585838973,0.0,-0.136869609947,0.0,0.0232966974221,0.0,-0.160033274869,0.0,0.0690752651146,0.0,-0.03279425778,0.0,0.0,0.0,0.0,-10.0,-155.884572681,140.276842164,1.03799137275,-100.0,-1.0395258983,80.0,1.0471975512,-100.0,-1.0471975512,80.0,22075796.2237,0.0,0.0,0.0,0.0,0.0,0.0
1402757082141851727,3,-15.1413940658,-7.1377884924,22.5445860715,2.38304939926,56.1726713744,-3.84635974695,-0.117065064434,0.0,0.203112658881,0.0,0.900157309809,0.0,-2.84079992338,0.0,-0.177406685488,0.0,0.0294628836958,0.0,-0.144830277616,0.0,0.0671996988725,0.0,-0.00586281028591,0.0,0.0,0.0,0.0,-10.0,-155.884572681,140.276842164,1.03799137275,-100.0,-1.0395258983,80.0,1.0471975512,-100.0,-1.0471975512,80.0,22075796.2237,0.0,0.0,0.0,0.0,0.0,0.0
1402757082161693867,3,-15.1413940658,-7.1377884924,22.5445860715,2.38304939926,56.1726713744,-3.84635974695,-0.117065064434,0.0,0.203112658881,0.0,0.900157309809,0.0,-2.84079992338,0.0,-0.177406685488,0.0,0.0294628836958,0.0,-0.144830277616,0.0,0.0671996988725,0.0,-0.00586281028591,0.0,0.0,0.0,0.0,-10.0,-155.884572681,140.276842164,1.03799137275,-100.0,-1.0395258983,80.0,1.0471975512,-100.0,-1.0471975512,80.0,22075796.2237,0.0,0.0,0.0,0.0,0.0,0.0
1402757082181713362,3,-15.1460953932,-7.1377884924,22.5523457152,2.38304939926,56.2086281073,-3.84635974695,-0.114762240186,0.0,0.190499286103,0.0,0.900678001845,0.0,-2.84801556864,0.0,-0.201202487187,0.0,0.0349976346634,0.0,-0.138048427793,0.0,0.0663824112106,0.0,-0.017413473744,0.0,0.0,0.0,0.0,-10.0,-155.884572681,140.276842164,1.03645691077,-100.0,-1.0395258983,80.0,1.0471975512,-100.0,-1.0471975512,80.0,22075796.2237,0.0,0.0,0.0,0.0,0.0,0.0
1402757082201508762,3,-15.1460953932,-7.1377884924,22.5523457152,2.38304939926,56.2086281073,-3.84635974695,-0.114762240186,0.0,0.190499286103,0.0,0.900678001845,0.0,-2.84801556864,0.0,-0.201202487187,0.0,0.0349976346634,0.0,-0.138048427793,0.0,0.0663824112106,0.0,-0.017413473744,0.0,0.0,0.0,0.0,-10.0,-155.884572681,140.276842164,1.03645691077,-100.0,-1.0395258983,80.0,1.0471975512,-100.0,-1.0471975512,80.0,22075796.2237,0.0,0.0,0.0,0.0,0.0,0.0
1402757082221889620,3,-15.1977826895,-7.1377884924,22.644577904,2.38304939926,56.5312225228,-3.84635974695,-0.102872217267,0.0,0.178270797692,0.0,0.906337982391,0.0,-2.855585753,0.0,-0.226741130594,0.0,0.0386523080966,0.0,-0.0640860737899,0.0,0.065206547862,0.0,0.00357228920882,0.0,0.0,0.0,0.0,-10.0,-155.884572681,140.276842164,1.03492292563,-100.0,-1.0395258983,80.0,1.0471975512,-100.0,-1.0471975512,80.0,22075796.2237,0.0,0.0,0.0,0.0,0.0,0.0
1402757082241849262,3,-15.1977826895,-7.1377884924,22.644577904,2.38304939926,56.5312225228,-3.84635974695,-0.102872217267,0.0,0.178270797692,0.0,0.906337982391,0.0,-2.855585753,0.0,-0.226741130594,0.0,0.0386523080966,0.0,-0.0640860737899,0.0,0.065206547862,0.0,0.00357228920882,0.0,0.0,0.0,0.0,-10.0,-155.884572681,140.276842164,1.03492292563,-100.0,-1.0395258983,80.0,1.0471975512,-100.0,-1.0471975512,80.0,22075796.2237,0.0,0.0,0.0,0.0,0.0,0.0
1402757082261670220,3,-15.2546991294,-7.1377884924,22.7404093672,2.38304939926,56.8592253462,-3.84635974695,-0.101326082674,0.0,0.172692703911,0.0,0.912308715391,0.0,-2.86511724554,0.0,-0.243422477354,0.0,0.0405477995518,0.0,-0.0171114892677,0.0,0.0647963076589,0.0,0.0171476624469,0.0,0.0,0.0,0.0,-10.0,-155.884572681,140.276842164,1.03645691077,-100.0,-1.0395258983,80.0,1.0471975512,-100.0,-1.0471975512,80.0,22075796.2237,0.0,0.0,0.0,0.0,0.0,0.0
1402757082282165231,3,-15.2546991294,-7.1377884924,22.7404093672,2.38304939926,56.8592253462,-3.84635974695,-0.101326082674,0.0,0.172692703911,0.0,0.912308715391,0.0,-2.86511724554,0.0,-0.243422477354,0.0,0.0405477995518,0.0,-0.0171114892677,0.0,0.0647963076589,0.0,0.0171476624469,0.0,0.0,0.0,0.0,-10.0,-155.884572681,140.276842164,1.03492292563,-100.0,-1.0395258983,80.0,1.0471975512,-100.0,-1.0471975512,80.0,22075796.2237,0.0,0.0,0.0,0.0,0.0,0.0
1402757082301981718,3,-15.309310685,-7.1377884924,22.833680135,2.38304939926,57.2019304716,-3.84635974695,-0.0954325781427,0.0,0.150184081234,0.0,0.929592173962,0.0,-2.87675063358,0.0,-0.265799603676,0.0,0.0392457328168,0.0,0.0170423305249,0.0,0.0642509998538,0.0,0.00539289937081,0.0,0.0,0.0,0.0,-10.0,-155.884572681,140.276842164,1.03492292563,-100.0,-1.0395258983,80.0,1.0471975512,-100.0,-1.0471975512,80.0,22075796.2237,0.0,0.0,0.0,0.0,0.0,0.0
1402757082321738241,3,-15.309310685,-7.1377884924,22.833680135,2.38304939926,57.2019304716,-3.84635974695,-0.0954325781427,0.0,0.150184081234,0.0,0.929592173962,0.0,-2.87675063358,0.0,-0.265799603676,0.0,0.0392457328168,0.0,0.0170423305249,0.0,0.0642509998538,0.0,0.00539289937081,0.0,0.0,0.0,0.0,-10.0,-155.884572681,140.276842164,1.03492292563,-100.0,-1.0395258983,80.0,1.0471975512,-100.0,-1.0471975512,80.0,22075796.2237,0.0,0.0,0.0,0.0,0.0,0.0
1402757082342107653,3,-15.3611065908,-7.1377884924,22.9294408171,2.38304939926,57.5519087379,-3.84635974695,-0.0762628747282,0.0,0.133153990458,0.0,0.932973155579,0.0,-2.88642794457,0.0,-0.283452647758,0.0,0.036601860454,0.0,0.0781731609972,0.0,0.0625570101893,0.0,0.0288346450598,0.0,0.0,0.0,0.0,-10.0,-155.884572681,140.276842164,1.03492292563,-100.0,-1.03799143632,80.0,1.0471975512,-100.0,-1.0471975512,80.0,22075796.2237,0.0,0.0,0.0,0.0,0.0,0.0
1402757082361685369,3,-15.3611065908,-7.1377884924,22.9294408171,2.38304939926,57.5519087379,-3.84635974695,-0.0762628747282,0.0,0.133153990458,0.0,0.932973155579,0.0,-2.88642794457,0.0,-0.283452647758,0.0,0.036601860454,0.0,0.0781731609972,0.0,0.0625570101893,0.0,0.0288346450598,0.0,0.0,0.0,0.0,-10.0,-155.884572681,140.276842164,1.03492292563,-100.0,-1.0395258983,80.0,1.0471975512,-100.0,-1.0471975512,80.0,22075796.2237,0.0,0.0,0.0,0.0,0.0,0.0
1402757082381653641,3,-15.4196209587,-7.1377884924,23.0234857089,2.38304939926,57.8704602405,-3.84635974695,-0.0798115243886,0.0,0.130315275564,0.0,0.951300664019,0.0,-2.89950049209,0.0,-0.29905249048,0.0,0.0343955384541,0.0,0.0552916162161,0.0,0.0626314918349,0.0,0.0264331081706,0.0,0.0,0.0,0.0,-10.0,-155.884572681,140.276842164,1.03338846366,-100.0,-1.0395258983,80.0,1.0471975512,-100.0,-1.0471975512,80.0,22075796.2237,0.0,0.0,0.0,0.0,0.0,0.0
1402757082401839866,3,-15.4196209587,-7.1377884924,23.0234857089,2.38304939926,57.8704602405,-3.84635974695,-0.0798115243886,0.0,0.130315275564,0.0,0.951300664019,0.0,-2.89950049209,0.0,-0.29905249048,0.0,0.0343955384541,0.0,0.0552916162161,0.0,0.0626314918349,0.0,0.0264331081706,0.0,0.0,0.0,0.0,-10.0,-155.884572681,140.276842164,1.03492292563,-100.0,-1.0395258983,80.0,1.0471975512,-100.0,-1.0471975512,80.0,22075796.2237,0.0,0.0,0.0,0.0,0.0,0.0
1402757082421796807,3,-15.4227254543,-7.1377884924,23.0282628709,2.38304939926,57.9083232726,-3.84635974695,-0.0716504021019,0.0,0.112432255963,0.0,0.949965485753,0.0,-2.91174968233,0.0,-0.310246791306,0.0,0.030540503816,0.0,0.0816592194922,0.0,0.0624733998515,0.0,0.0100671250443,0.0,0.0,0.0,0.0,-10.0,-155.884572681,140.276842164,1.03338846366,-100.0,-1.0395258983,80.0,1.0471975512,-100.0,-1.0471975512,80.0,22075796.2237,0.0,0.0,0.0,0.0,0.0,0.0
1402757082441851586,3,-15.4227254543,-7.1377884924,23.0282628709,2.38304939926,57.9083232726,-3.84635974695,-0.0716504021019,0.0,0.112432255963,0.0,0.949965485753,0.0,-2.91174968233,0.0,-0.310246791306,0.0,0.030540503816,0.0,0.0816592194922,0.0,0.0624733998515,0.0,0.0100671250443,0.0,0.0,0.0,0.0,-10.0,-155.884572681,140.276842164,1.03338846366,-100.0,-1.0395258983,80.0,1.0471975512,-100.0,-1.0471975512,80.0,22075796.2237,0.0,0.0,0.0,0.0,0.0,0.0
1402757082462147349,3,-15.4667108406,-7.1377884924,23.1139196914,2.38304939926,58.2144531335,-3.84635974695,-0.0481250667039,0.0,0.107189085296,0.0,0.95679939483,0.0,-2.92162320806,0.0,-0.320134383976,0.0,0.0265086957225,0.0,0.0984995072469,0.0,0.0605654610404,0.0,0.0449089411607,0.0,0.0,0.0,0.0,-10.0,-155.884572681,140.276842164,1.03338846366,-100.0,-1.0395258983,80.0,1.0471975512,-100.0,-1.0471975512,80.0,22075796.2237,0.0,0.0,0.0,0.0,0.0,0.0
1402757082482164215,3,-15.4667108406,-7.1377884924,23.1139196914,2.38304939926,58.2144531335,-3.84635974695,-0.0481250667039,0.0,0.107189085296,0.0,0.95679939483,0.0,-2.92162320806,0.0,-0.320134383976,0.0,0.0265086957225,0.0,0.0984995072469,0.0,0.0605654610404,0.0,0.0449089411607,0.0,0.0,0.0,0.0,-10.0,-155.884572681,140.276842164,1.03338846366,-100.0,-1.0395258983,80.0,1.0471975512,-100.0,-1.0471975512,80.0,22075796.2237,0.0,0.0,0.0,0.0,0.0,0.0
1402757082501948159,3,-15.5181004815,-7.1377884924,23.1972292325,2.38304939926,58.5017770545,-3.84635974695,-0.0532396901169,0.0,0.104591175657,0.0,0.9738632819,0.0,-2.93572431298,0.0,-0.318393211244,0.0,0.0227963934551,0.0,0.105625158652,0.0,0.0614064157498,0.0,0.029437871766,0.0,0.0,0.0,0.0,-10.0,-155.884572681,140.276842164,1.03338846366,-100.0,-1.03799143632,80.0,1.0471975512,-100.0,-1.0471975512,80.0,22075796.2237,0.0,0.0,0.0,0.0,0.0,0.0
1402757082521847633,3,-15.5181004815,-7.1377884924,23.1972292325,2.38304939926,58.5017770545,-3.84635974695,-0.0532396901169,0.0,0.104591175657,0.0,0.9738632819,0.0,-2.93572431298,0.0,-0.318393211244,0.0,0.0227963934551,0.0,0.105625158652,0.0,0.0614064157498,0.0,0.029437871766,0.0,0.0,0.0,0.0,-10.0,-155.884572681,140.276842164,1.03338846366,-100.0,-1.0395258983,80.0,1.0471975512,-100.0,-1.0471975512,80.0,22075796.2237,0.0,0.0,0.0,0.0,0.0,0.0
1402757082542107672,3,-15.5201908474,-7.1377884924,23.2012160738,2.38304939926,58.5411001066,-3.84635974695,-0.0483520672076,0.0,0.0941609503039,0.0,0.985977837821,0.0,-2.94867377769,0.0,-0.324259485614,0.0,0.0186681369838,0.0,0.103838358235,0.0,0.0616343547787,0.0,0.0188855298445,0.0,0.0,0.0,0.0,-10.0,-155.884572681,140.276842164,1.03338846366,-100.0,-1.0395258983,80.0,1.0471975512,-100.0,-1.0471975512,80.0,22075796.2237,0.0,0.0,0.0,0.0,0.0,0.0
1402757082561967429,3,-15.5201908474,-7.1377884924,23.2012160738,2.38304939926,58.5411001066,-3.84635974695,-0.0483520672076,0.0,0.0941609503039,0.0,0.985977837821,0.0,-2.94867377769,0.0,-0.324259485614,0.0,0.0186681369838,0.0,0.103838358235,0.0,0.0616343547787,0.0,0.0188855298445,0.0,0.0,0.0,0.0,-10.0,-155.884572681,140.276842164,1.03338846366,-100.0,-1.0395258983,80.0,1.0471975512,-100.0,-1.0471975512,80.0,22075796.2237,0.0,0.0,0.0,0.0,0.0,0.0
1402757082581766115,3,-15.564282574,-7.1377884924,23.272143212,2.38304939926,58.8086142651,-3.84635974695,-0.0501279982436,0.0,0.0876677808595,0.0,1.00515336646,0.0,-2.963069272,0.0,-0.316875828307,0.0,0.0140336925789,0.0,0.0964588978067,0.0,0.0626696837184,0.0,0.00981955386268,0.0,0.0,0.0,0.0,-10.0,-155.884572681,140.276842164,1.03338846366,-100.0,-1.0395258983,80.0,1.0471975512,-100.0,-1.0471975512,80.0,22075796.2237,0.0,0.0,0.0,0.0,0.0,0.0
1402757082601728441,3,-15.564282574,-7.1377884924,23.272143212,2.38304939926,58.8086142651,-3.84635974695,-0.0501279982436,0.0,0.0876677808595,0.0,1.00515336646,0.0,-2.963069272,0.0,-0.316875828307,0.0,0.0140336925789,0.0,0.0964588978067,0.0,0.0626696837184,0.0,0.00981955386268,0.0,0.0,0.0,0.0,-10.0,-155.884572681,140.276842164,1.03338846366,-100.0,-1.0395258983,80.0,1.0471975512,-100.0,-1.0471975512,80.0,22075796.2237,0.0,0.0,0.0,0.0,0.0,0.0
1402757082621795804,3,-15.6066213815,-7.1377884924,23.341556507,2.38304939926,59.0430100671,-3.84635974695,-0.0548006288113,0.0,0.0927147735417,0.0,1.01501532143,0.0,-2.97606950148,0.0,-0.317649608715,0.0,0.0116241637033,0.0,0.0838443872212,0.0,0.0633225310333,0.0,0.00375380295278,0.0,0.0,0.0,0.0,-10.0,-155.884572681,140.276842164,1.03338846366,-100.0,-1.0395258983,80.0,1.0471975512,-100.0,-1.0471975512,80.0,22075796.2237,0.0,0.0,0.0,0.0,0.0,0.0
1402757082641888094,3,-15.6066213815,-7.1377884924,23.341556507,2.38304939926,59.0430100671,-3.84635974695,-0.0548006288113,0.0,0.0927147735417,0.0,1.01501532143,0.0,-2.97606950148,0.0,-0.317649608715,0.0,0.0116241637033,0.0,0.0838443872212,0.0,0.0633225310333,0.0,0.00375380295278,0.0,0.0,0.0,0.0,-10.0,-155.884572681,140.276842164,1.03338846366,-100.0,-1.0395258983,80.0,1.0471975512,-100.0,-1.0471975512,80.0,22075796.2237,0.0,0.0,0.0,0.0,0.0,0.0
1402757082663251618,3,-15.6383008326,-7.1377884924,23.3977121901,2.38304939926,59.2890715233,-3.84635974695,-0.0393883585196,0.0,0.0668911325006,0.0,1.01381201665,0.0,-2.99236363032,0.0,-0.320991819299,0.0,0.00573603258988,0.0,0.0721415678398,0.0,0.0629827053884,0.0,0.00531681845128,0.0,0.0,0.0,0.0,-10.0,-155.884572681,140.276842164,1.03338846366,-100.0,-1.0395258983,80.0,1.0471975512,-100.0,-1.0471975512,80.0,22075796.2237,0.0,0.0,0.0,0.0,0.0,0.0
1402757082682080339,3,-15.6383008326,-7.1377884924,23.3977121901,2.38304939926,59.2890715233,-3.84635974695,-0.0393883585196,0.0,0.0668911325006,0.0,1.01381201665,0.0,-2.99236363032,0.0,-0.320991819299,0.0,0.00573603258988,0.0,0.0721415678398,0.0,0.0629827053884,0.0,0.00531681845128,0.0,0.0,0.0,0.0,-10.0,-155.884572681,140.276842164,1.03338846366,-100.0,-1.0395258983,80.0,1.0471975512,-100.0,-1.0471975512,80.0,22075796.2237,0.0,0.0,0.0,0.0,0.0,0.0
1402757082701663624,3,-15.673232899,-7.1377884924,23.4648992007,2.38304939926,59.5273288591,-3.84635974695,-0.0266629533239,0.0,0.0676956238455,0.0,1.01591978445,0.0,-3.00095541813,0.0,-0.317017386733,0.0,0.00456145335888,0.0,0.0623820823196,0.0,0.0617773372984,0.0,0.0314909840804,0.0,0.0,0.0,0.0,-10.0,-155.884572681,140.276842164,1.03185400168,-100.0,-1.0395258983,80.0,1.0471975512,-100.0,-1.0471975512,80.0,22075796.2237,0.0,0.0,0.0,0.0,0.0,0.0
1402757082721855995,3,-15.6736264571,-7.1377884924,23.4662825452,2.38304939926,59.5489561323,-3.84635974695,-0.0245587177179,0.0,0.0650563675869,0.0,1.02709738274,0.0,-3.00765580417,0.0,-0.316222970013,0.0,0.00361502114776,0.0,0.0585139522246,0.0,0.0618181466145,0.0,0.013001713432,0.0,0.0,0.0,0.0,-10.0,-155.884572681,140.276842164,1.03338846366,-100.0,-1.0395258983,80.0,1.0471975512,-100.0,-1.0471975512,80.0,22075796.2237,0.0,0.0,0.0,0.0,0.0,0.0
1402757082741939486,3,-15.6736264571,-7.1377884924,23.4662825452,2.38304939926,59.5489561323,-3.84635974695,-0.0245587177179,0.0,0.0650563675869,0.0,1.02709738274,0.0,-3.00765580417,0.0,-0.316222970013,0.0,0.00361502114776,0.0,0.0585139522246,0.0,0.0618181466145,0.0,0.013001713432,0.0,0.0,0.0,0.0,-10.0,-155.884572681,140.276842164,1.03338846366,-100.0,-1.0395258983,80.0,1.0471975512,-100.0,-1.0471975512,80.0,22075796.2237,0.0,0.0,0.0,0.0,0.0,0.0
1402757082762244780,3,-15.6993014604,-7.1377884924,23.5133622124,2.38304939926,59.74658418,-3.84635974695,-0.00545298632789,0.0,0.0421122145692,0.0,1.02171964036,0.0,-3.01378481391,0.0,-0.324487586028,0.0,0.000760158392678,0.0,0.0502856413193,0.0,0.0608710630088,0.0,0.0450043122272,0.0,0.0,0.0,0.0,-10.0,-155.884572681,140.276842164,1.03185400168,-100.0,-1.0395258983,80.0,1.0471975512,-100.0,-1.0471975512,80.0,22075796.2237,0.0,0.0,0.0,0.0,0.0,0.0
1402757082781735007,3,-15.6993014604,-7.1377884924,23.5133622124,2.38304939926,59.74658418,-3.84635974695,-0.00545298632789,0.0,0.0421122145692,0.0,1.02171964036,0.0,-3.01378481391,0.0,-0.324487586028,0.0,0.000760158392678,0.0,0.0502856413193,0.0,0.0608710630088,0.0,0.0450043122272,0.0,0.0,0.0,0.0,-10.0,-155.884572681,140.276842164,1.03185400168,-100.0,-1.0395258983,80.0,1.0471975512,-100.0,-1.0471975512,80.0,22075796.2237,0.0,0.0,0.0,0.0,0.0,0.0
1402757082801841437,3,-15.7373610503,-7.1377884924,23.5734126394,2.38304939926,59.9833030802,-3.84635974695,-0.0126199972512,0.0,0.0347811744219,0.0,1.04748948064,0.0,-3.02757392828,0.0,-0.329507510746,0.0,-0.000701133860337,0.0,0.0124440294233,0.0,0.0615661602222,0.0,0.00358841880367,0.0,0.0,0.0,0.0,-10.0,-155.884572681,140.276842164,1.03031953971,-100.0,-1.0395258983,80.0,1.0471975512,-100.0,-1.0471975512,80.0,22075796.2237,0.0,0.0,0.0,0.0,0.0,0.0
1402757082821859951,3,-15.7373610503,-7.1377884924,23.5734126394,2.38304939926,59.9833030802,-3.84635974695,-0.0126199972512,0.0,0.0347811744219,0.0,1.04748948064,0.0,-3.02757392828,0.0,-0.329507510746,0.0,-0.000701133860337,0.0,0.0124440294233,0.0,0.0615661602222,0.0,0.00358841880367,0.0,0.0,0.0,0.0,-10.0,-155.884572681,140.276842164,1.03031953971,-100.0,-1.0395258983,80.0,1.0471975512,-100.0,-1.0471975512,80.0,22075796.2237,0.0,0.0,0.0,0.0,0.0,0.0
1402757082842259222,3,-15.7376286792,-7.1377884924,23.5743365819,2.38304939926,60.0253071793,-3.84635974695,-0.00318932382815,0.0,0.0272732902596,0.0,1.04798997949,0.0,-3.04060551878,0.0,-0.32838729689,0.0,-0.00102180412888,0.0,-0.00229608257052,0.0,0.060877406739,0.0,0.00591735984346,0.0,0.0,0.0,0.0,-10.0,-155.884572681,140.276842164,1.03031953971,-100.0,-1.0395258983,80.0,1.0471975512,-100.0,-1.0471975512,80.0,22075796.2237,0.0,0.0,0.0,0.0,0.0,0.0
1402757082862795658,3,-15.7376286792,-7.1377884924,23.5743365819,2.38304939926,60.0253071793,-3.84635974695,-0.00318932382815,0.0,0.0272732902596,0.0,1.04798997949,0.0,-3.04060551878,0.0,-0.32838729689,0.0,-0.00102180412888,0.0,-0.00229608257052,0.0,0.060877406739,0.0,0.00591735984346,0.0,0.0,0.0,0.0,-10.0,-155.884572681,140.276842164,1.03031953971,-100.0,-1.03799143632,80.0,1.0471975512,-100.0,-1.0471975512,80.0,22075796.2237,0.0,0.0,0.0,0.0,0.0,0.0
1402757082882040496,3,-15.7611685817,-7.1377884924,23.6250395125,2.38304939926,60.2345607868,-3.84635974695,0.0151153281538,0.0,0.0206391650293,0.0,1.05354050448,0.0,-3.05294218061,0.0,-0.330384357033,0.0,-0.000337783970183,0.0,-0.0327570240645,0.0,0.0584962424258,0.0,0.0183085038751,0.0,0.0,0.0,0.0,-10.0,-155.884572681,140.276842164,1.03031953971,-100.0,-1.0395258983,80.0,1.0471975512,-100.0,-1.0471975512,80.0,22075796.2237,0.0,0.0,0.0,0.0,0.0,0.0
1402757082901838112,3,-15.7611685817,-7.1377884924,23.6250395125,2.38304939926,60.2345607868,-3.84635974695,0.0151153281538,0.0,0.0206391650293,0.0,1.05354050448,0.0,-3.05294218061,0.0,-0.330384357033,0.0,-0.000337783970183,0.0,-0.0327570240645,0.0,0.0584962424258,0.0,0.0183085038751,0.0,0.0,0.0,0.0,-10.0,-155.884572681,140.276842164,1.03031953971,-100.0,-1.03799143632,80.0,1.0471975512,-100.0,-1.0471975512,80.0,22075796.2237,0.0,0.0,0.0,0.0,0.0,0.0
1402757082922305825,3,-15.7867811792,-7.1377884924,23.6737205387,2.38304939926,60.4303111814,-3.84635974695,0.0258786945985,0.0,0.00924305647983,0.0,1.04577726422,0.0,-3.06580898343,0.0,-0.312895127817,0.0,0.00111463696215,0.0,-0.0162058962568,0.0,0.0571638140823,0.0,0.0303628169962,0.0,0.0,0.0,0.0,-10.0,-155.884572681,140.276842164,1.03031953971,-100.0,-1.0395258983,80.0,1.0471975512,-100.0,-1.0471975512,80.0,22075796.2237,0.0,0.0,0.0,0.0,0.0,0.0
1402757082941671017,3,-15.7867811792,-7.1377884924,23.6737205387,2.38304939926,60.4303111814,-3.84635974695,0.0258786945985,0.0,0.00924305647983,0.0,1.04577726422,0.0,-3.06580898343,0.0,-0.312895127817,0.0,0.00111463696215,0.0,-0.0162058962568,0.0,0.0571638140823,0.0,0.0303628169962,0.0,0.0,0.0,0.0,-10.0,-155.884572681,140.276842164,1.03031953971,-100.0,-1.0395258983,80.0,1.0471975512,-100.0,-1.0471975512,80.0,22075796.2237,0.0,0.0,0.0,0.0,0.0,0.0
1402757082963091569,3,-15.8132096012,-7.1377884924,23.7159222178,2.38304939926,60.6030010572,-3.84635974695,0.0255333515252,0.0,-0.000711336708726,0.0,1.03707712681,0.0,-3.07793080974,0.0,-0.300037074746,0.0,0.00268907541618,0.0,-0.026355989809,0.0,0.0568711148853,0.0,0.0330831990619,0.0,0.0,0.0,0.0,-10.0,-155.884572681,140.276842164,1.03031953971,-100.0,-1.0395258983,80.0,1.0471975512,-100.0,-1.0471975512,80.0,22075796.2237,0.0,0.0,0.0,0.0,0.0,0.0
1402757082982258776,3,-15.8132096012,-7.1377884924,23.7159222178,2.38304939926,60.6030010572,-3.84635974695,0.0255333515252,0.0,-0.000711336708726,0.0,1.03707712681,0.0,-3.07793080974,0.0,-0.300037074746,0.0,0.00268907541618,0.0,-0.026355989809,0.0,0.0568711148853,0.0,0.0330831990619,0.0,0.0,0.0,0.0,-10.0,-155.884572681,140.276842164,1.03031953971,-100.0,-1.0395258983,80.0,1.0471975512,-100.0,-1.0471975512,80.0,22075796.2237,0.0,0.0,0.0,0.0,0.0,0.0
1402757083001769663,3,-15.8428072814,-7.1377884924,23.7689431585,2.38304939926,60.8050443918,-3.84635974695,0.0182606648343,0.0,0.000708572931224,0.0,1.07027372195,0.0,-3.09018975878,0.0,-0.301652766684,0.0,0.00581631615281,0.0,-0.0637232508606,0.0,0.0562955873488,0.0,-0.0241033020558,0.0,0.0,0.0,0.0,-10.0,-155.884572681,140.276842164,1.03031953971,-100.0,-1.0395258983,80.0,1.0471975512,-100.0,-1.0471975512,80.0,22075796.2237,0.0,0.0,0.0,0.0,0.0,0.0
1402757083021659123,3,-15.8428072814,-7.1377884924,23.7689431585,2.38304939926,60.8050443918,-3.84635974695,0.0182606648343,0.0,0.000708572931224,0.0,1.07027372195,0.0,-3.09018975878,0.0,-0.301652766684,0.0,0.00581631615281,0.0,-0.0637232508606,0.0,0.0562955873488,0.0,-0.0241033020558,0.0,0.0,0.0,0.0,-10.0,-155.884572681,140.276842164,1.03031953971,-100.0,-1.0395258983,80.0,1.0471975512,-100.0,-1.0471975512,80.0,22075796.2237,0.0,0.0,0.0,0.0,0.0,0.0
1402757083042321002,3,-15.8419095461,-7.1377884924,23.7685677465,2.38304939926,60.8471071042,-3.84635974695,0.0262197736358,0.0,-0.0139461917234,0.0,1.05096873267,0.0,-3.10172871527,0.0,-0.292602744882,0.0,0.00770786006821,0.0,-0.0467588372557,0.0,0.0561158043048,0.0,-0.0144478071121,0.0,0.0,0.0,0.0,-10.0,-155.884572681,140.276842164,1.03031953971,-100.0,-1.0395258983,80.0,1.0471975512,-100.0,-1.0471975512,80.0,22075796.2237,0.0,0.0,0.0,0.0,0.0,0.0
1402757083061822568,3,-15.8419095461,-7.1377884924,23.7685677465,2.38304939926,60.8471071042,-3.84635974695,0.0262197736358,0.0,-0.0139461917234,0.0,1.05096873267,0.0,-3.10172871527,0.0,-0.292602744882,0.0,0.00770786006821,0.0,-0.0467588372557,0.0,0.0561158043048,0.0,-0.0144478071121,0.0,0.0,0.0,0.0,-10.0,-155.884572681,140.276842164,1.03031953971,-100.0,-1.0395258983,80.0,1.0471975512,-100.0,-1.0471975512,80.0,22075796.2237,0.0,0.0,0.0,0.0,0.0,0.0
1402757083081768592,3,-15.8748750739,-7.1377884924,23.8201605084,2.38304939926,61.0441127635,-3.84635974695,0.0158382482791,0.0,-0.0160219965902,0.0,1.0557738059,0.0,-3.11290319593,0.0,-0.279609347606,0.0,0.0102349047145,0.0,-0.0608910149488,0.0,0.0567002389908,0.0,0.00198966743786,0.0,0.0,0.0,0.0,-10.0,-155.884572681,140.276842164,1.03031953971,-100.0,-1.0395258983,80.0,1.0471975512,-100.0,-1.0471975512,80.0,22075796.2237,0.0,0.0,0.0,0.0,0.0,0.0
1402757083102003263,3,-15.8748750739,-7.1377884924,23.8201605084,2.38304939926,61.0441127635,-3.84635974695,0.0158382482791,0.0,-0.0160219965902,0.0,1.0557738059,0.0,-3.11290319593,0.0,-0.279609347606,0.0,0.0102349047145,0.0,-0.0608910149488,0.0,0.0567002389908,0.0,0.00198966743786,0.0,0.0,0.0,0.0,-10.0,-155.884572681,140.276842164,1.03031953971,-100.0,-1.0395258983,80.0,1.0471975512,-100.0,-1.0471975512,80.0,22075796.2237,0.0,0.0,0.0,0.0,0.0,0.0
1402757083122377372,3,-15.9080221354,-7.1377884924,23.8704905081,2.38304939926,61.250220584,-3.84635974695,0.00635996579677,0.0,-0.025870560272,0.0,1.06393659718,0.0,-3.12321396241,0.0,-0.27266669954,0.0,0.0116105100575,0.0,-0.0542367014694,0.0,0.0574796469753,0.0,-0.00695361298949,0.0,0.0,0.0,0.0,-10.0,-155.884572681,140.276842164,1.03031953971,-100.0,-1.0395258983,80.0,1.0471975512,-100.0,-1.0471975512,80.0,22075796.2237,0.0,0.0,0.0,0.0,0.0,0.0
1402757083141738251,3,-15.9080221354,-7.1377884924,23.8704905081,2.38304939926,61.250220584,-3.84635974695,0.00635996579677,0.0,-0.025870560272,0.0,1.06393659718,0.0,-3.12321396241,0.0,-0.27266669954,0.0,0.0116105100575,0.0,-0.0542367014694,0.0,0.0574796469753,0.0,-0.00695361298949,0.0,0.0,0.0,0.0,-10.0,-155.884572681,140.276842164,1.03031953971,-100.0,-1.0395258983,80.0,1.0471975512,-100.0,-1.0471975512,80.0,22075796.2237,0.0,0.0,0.0,0.0,0.0,0.0
1402757083161804041,3,-15.9434221048,-7.1377884924,23.926244255,2.38304939926,61.4961128324,-3.84635974695,0.00541886382299,0.0,-0.049266948132,0.0,1.07707550502,0.0,-3.13283337705,0.0,-0.265211452096,0.0,0.0115718419006,0.0,-0.0229500814564,0.0,0.0581532416198,0.0,0.0107085913919,0.0,0.0,0.0,0.0,-10.0,-155.884572681,140.276842164,1.03031953971,-100.0,-1.0395258983,80.0,1.0471975512,-100.0,-1.0471975512,80.0,22075796.2237,0.0,0.0,0.0,0.0,0.0,0.0
1402757083182121888,3,-15.9434221048,-7.1377884924,23.926244255,2.38304939926,61.4961128324,-3.84635974695,0.00541886382299,0.0,-0.049266948132,0.0,1.07707550502,0.0,-3.13283337705,0.0,-0.265211452096,0.0,0.0115718419006,0.0,-0.0229500814564,0.0,0.0581532416198,0.0,0.0107085913919,0.0,0.0,0.0,0.0,-10.0,-155.884572681,140.276842164,1.03031953971,-100.0,-1.0395258983,80.0,1.0471975512,-100.0,-1.0471975512,80.0,22075796.2237,0.0,0.0,0.0,0.0,0.0,0.0
1402757083201683513,3,-15.9748559288,-7.1377884924,23.9775668197,2.38304939926,61.6992703308,-3.84635974695,-0.00033100562135,0.0,-0.0445427225426,0.0,1.09319862125,0.0,3.13971742176,0.0,-0.26254601351,0.0,0.0141388215379,0.0,-0.0524367377782,0.0,0.0583147517683,0.0,-0.0207556721259,0.0,0.0,0.0,0.0,-10.0,-155.884572681,140.276842164,1.03031953971,-100.0,-1.0395258983,80.0,1.0471975512,-100.0,-1.0471975512,80.0,22075796.2237,0.0,0.0,0.0,0.0,0.0,0.0
1402757083221871534,3,-15.9748559288,-7.1377884924,23.9775668197,2.38304939926,61.6992703308,-3.84635974695,-0.00033100562135,0.0,-0.0445427225426,0.0,1.09319862125,0.0,3.13971742176,0.0,-0.26254601351,0.0,0.0141388215379,0.0,-0.0524367377782,0.0,0.0583147517683,0.0,-0.0207556721259,0.0,0.0,0.0,0.0,-10.0,-155.884572681,140.276842164,1.03031953971,-100.0,-1.0395258983,80.0,1.0471975512,-100.0,-1.0471975512,80.0,22075796.2237,0.0,0.0,0.0,0.0,0.0,0.0
1402757083242087350,3,-15.9749375852,-7.1377884924,23.9756865728,2.38304939926,61.7432004642,-3.84635974695,-0.00581025231572,0.0,-0.0527110027949,0.0,1.11437245406,0.0,3.12982593857,0.0,-0.254763651211,0.0,0.01535175683,0.0,-0.0401362835791,0.0,0.0588323690555,0.0,-0.0397004289084,0.0,0.0,0.0,0.0,-10.0,-155.884572681,140.276842164,1.03031953971,-100.0,-1.0395258983,80.0,1.0471975512,-100.0,-1.0471975512,80.0,22075796.2237,0.0,0.0,0.0,0.0,0.0,0.0
1402757083261712866,3,-15.9749375852,-7.1377884924,23.9756865728,2.38304939926,61.7432004642,-3.84635974695,-0.00581025231572,0.0,-0.0527110027949,0.0,1.11437245406,0.0,3.12982593857,0.0,-0.254763651211,0.0,0.01535175683,0.0,-0.0401362835791,0.0,0.0588323690555,0.0,-0.0397004289084,0.0,0.0,0.0,0.0,-10.0,-155.884572681,140.276842164,1.03031953971,-100.0,-1.0395258983,80.0,1.0471975512,-100.0,-1.0471975512,80.0,22075796.2237,0.0,0.0,0.0,0.0,0.0,0.0
1402757083281686740,3,-16.0059403857,-7.1377884924,24.0274052232,2.38304939926,61.9620515229,-3.84635974695,-0.00247732917607,0.0,-0.0636862687122,0.0,1.11113638016,0.0,3.12027581652,0.0,-0.247677580741,0.0,0.016360880174,0.0,-0.0242084758284,0.0,0.0586945981215,0.0,0.00437802912368,0.0,0.0,0.0,0.0,-10.0,-155.884572681,140.276842164,1.03031953971,-100.0,-1.03799143632,80.0,1.0471975512,-100.0,-1.0471975512,80.0,22075796.2237,0.0,0.0,0.0,0.0,0.0,0.0
1402757083301978749,3,-16.0059403857,-7.1377884924,24.0274052232,2.38304939926,61.9620515229,-3.84635974695,-0.00247732917607,0.0,-0.0636862687122,0.0,1.11113638016,0.0,3.12027581652,0.0,-0.247677580741,0.0,0.016360880174,0.0,-0.0242084758284,0.0,0.0586945981215,0.0,0.00437802912368,0.0,0.0,0.0,0.0,-10.0,-155.884572681,140.276842164,1.03031953971,-100.0,-1.03799143632,80.0,1.0471975512,-100.0,-1.0471975512,80.0,22075796.2237,0.0,0.0,0.0,0.0,0.0,0.0
1402757083322534272,3,-16.0436848569,-7.1377884924,24.0846553743,2.38304939926,62.1880382717,-3.84635974695,-0.0224759099105,0.0,-0.0624954546038,0.0,1.13348748418,0.0,3.11073539171,0.0,-0.244152937289,0.0,0.0178779891402,0.0,-0.0369641738428,0.0,0.059692975588,0.0,-0.0130860046676,0.0,0.0,0.0,0.0,-10.0,-155.884572681,140.276842164,1.03031953971,-100.0,-1.03799143632,80.0,1.0471975512,-100.0,-1.0471975512,80.0,22075796.2237,0.0,0.0,0.0,0.0,0.0,0.0
1402757083341770605,3,-16.0436848569,-7.1377884924,24.0846553743,2.38304939926,62.1880382717,-3.84635974695,-0.0224759099105,0.0,-0.0624954546038,0.0,1.13348748418,0.0,3.11073539171,0.0,-0.244152937289,0.0,0.0178779891402,0.0,-0.0369641738428,0.0,0.059692975588,0.0,-0.0130860046676,0.0,0.0,0.0,0.0,-10.0,-155.884572681,140.276842164,1.03031953971,-100.0,-1.0395258983,80.0,1.0471975512,-100.0,-1.0471975512,80.0,22075796.2237,0.0,0.0,0.0,0.0,0.0,0.0
1402757083361996727,3,-16.0663497067,-7.1377884924,24.1215337756,2.38304939926,62.3729457329,-3.84635974695,-0.0103793736152,0.0,-0.0872729885848,0.0,1.1298301552,0.0,3.10149973365,0.0,-0.237801936414,0.0,0.0180800015851,0.0,-0.00623511082429,0.0,0.0591327183891,0.0,0.00440375943182,0.0,0.0,0.0,0.0,-10.0,-155.884572681,140.276842164,1.03031953971,-100.0,-1.0395258983,80.0,1.0471975512,-100.0,-1.0471975512,80.0,22075796.2237,0.0,0.0,0.0,0.0,0.0,0.0
1402757083381473148,3,-16.0663497067,-7.1377884924,24.1215337756,2.38304939926,62.3729457329,-3.84635974695,-0.0103793736152,0.0,-0.0872729885848,0.0,1.1298301552,0.0,3.10149973365,0.0,-0.237801936414,0.0,0.0180800015851,0.0,-0.00623511082429,0.0,0.0591327183891,0.0,0.00440375943182,0.0,0.0,0.0,0.0,-10.0,-155.884572681,140.276842164,1.03031953971,-100.0,-1.0395258983,80.0,1.0471975512,-100.0,-1.0471975512,80.0,22075796.2237,0.0,0.0,0.0,0.0,0.0,0.0
1402757083402276550,3,-16.0819166073,-7.1377884924,24.1471316589,2.38304939926,62.5256735533,-3.84635974695,-0.00990788379274,0.0,-0.103660144722,0.0,1.140740962,0.0,3.09244796466,0.0,-0.229796641575,0.0,0.0189403433891,0.0,-0.0484984344337,0.0,0.0586482329427,0.0,-0.0329515355554,0.0,0.0,0.0,0.0,-10.0,-155.884572681,140.276842164,1.03031953971,-100.0,-1.0395258983,80.0,1.0471975512,-100.0,-1.0471975512,80.0,22075796.2237,0.0,0.0,0.0,0.0,0.0,0.0
1402757083421725888,3,-16.0819166073,-7.1377884924,24.1471316589,2.38304939926,62.5256735533,-3.84635974695,-0.00990788379274,0.0,-0.103660144722,0.0,1.140740962,0.0,3.09244796466,0.0,-0.229796641575,0.0,0.0189403433891,0.0,-0.0484984344337,0.0,0.0586482329427,0.0,-0.0329515355554,0.0,0.0,0.0,0.0,-10.0,-155.884572681,140.276842164,1.03031953971,-100.0,-1.0395258983,80.0,1.0471975512,-100.0,-1.0471975512,80.0,22075796.2237,0.0,0.0,0.0,0.0,0.0,0.0
1402757083441754218,3,-16.0821503517,-7.1377884924,24.1429638201,2.38304939926,62.5723149957,-3.84635974695,-0.0138103499277,0.0,-0.104184802677,0.0,1.15374724482,0.0,3.08336108964,0.0,-0.22645317022,0.0,0.0203922738365,0.0,-0.0496034191607,0.0,0.0593615435196,0.0,-0.0400270018751,0.0,0.0,0.0,0.0,-10.0,-155.884572681,140.276842164,1.03031953971,-100.0,-1.0395258983,80.0,1.0471975512,-100.0,-1.0471975512,80.0,22075796.2237,0.0,0.0,0.0,0.0,0.0,0.0
1402757083462032541,3,-16.0821503517,-7.1377884924,24.1429638201,2.38304939926,62.5723149957,-3.84635974695,-0.0138103499277,0.0,-0.104184802677,0.0,1.15374724482,0.0,3.08336108964,0.0,-0.22645317022,0.0,0.0203922738365,0.0,-0.0496034191607,0.0,0.0593615435196,0.0,-0.0400270018751,0.0,0.0,0.0,0.0,-10.0,-155.884572681,140.276842164,1.03031953971,-100.0,-1.03799143632,80.0,1.0471975512,-100.0,-1.0471975512,80.0,22075796.2237,0.0,0.0,0.0,0.0,0.0,0.0
1402757083482352492,3,-16.1007969585,-7.1377884924,24.1644012621,2.38304939926,62.694489556,-3.84635974695,-0.0167565760202,0.0,-0.118719597438,0.0,1.12690912857,0.0,3.07504264963,0.0,-0.215090950777,0.0,0.0215049844635,0.0,-0.0264744959246,0.0,0.0603358263206,0.0,0.00662299485166,0.0,0.0,0.0,0.0,-10.0,-155.884572681,140.276842164,1.03031953971,-100.0,-1.03799143632,80.0,1.0471975512,-100.0,-1.0471975512,80.0,22075796.2237,0.0,0.0,0.0,0.0,0.0,0.0
1402757083501741357,3,-16.1007969585,-7.1377884924,24.1644012621,2.38304939926,62.694489556,-3.84635974695,-0.0167565760202,0.0,-0.118719597438,0.0,1.12690912857,0.0,3.07504264963,0.0,-0.215090950777,0.0,0.0215049844635,0.0,-0.0264744959246,0.0,0.0603358263206,0.0,0.00662299485166,0.0,0.0,0.0,0.0,-10.0,-155.884572681,140.276842164,1.03031953971,-100.0,-1.03799143632,80.0,1.0471975512,-100.0,-1.0471975512,80.0,22075796.2237,0.0,0.0,0.0,0.0,0.0,0.0
1402757083521902303,3,-16.1097427984,-7.1377884924,24.1743548367,2.38304939926,62.8005999477,-3.84635974695,-0.0204647574556,0.0,-0.128287587523,0.0,1.15690968315,0.0,3.06701925097,0.0,-0.219864182562,0.0,0.0220540788335,0.0,-0.0443871992648,0.0,0.0609100487491,0.0,-0.00454002119411,0.0,0.0,0.0,0.0,-10.0,-155.884572681,140.276842164,1.03031953971,-100.0,-1.03799143632,80.0,1.0471975512,-100.0,-1.0471975512,80.0,22075796.2237,0.0,0.0,0.0,0.0,0.0,0.0
1402757083541789188,3,-16.1097427984,-7.1377884924,24.1743548367,2.38304939926,62.8005999477,-3.84635974695,-0.0204647574556,0.0,-0.128287587523,0.0,1.15690968315,0.0,3.06701925097,0.0,-0.219864182562,0.0,0.0220540788335,0.0,-0.0443871992648,0.0,0.0609100487491,0.0,-0.00454002119411,0.0,0.0,0.0,0.0,-10.0,-155.884572681,140.276842164,1.03031953971,-100.0,-1.0395258983,80.0,1.0471975512,-100.0,-1.0471975512,80.0,22075796.2237,0.0,0.0,0.0,0.0,0.0,0.0
1402757083562314350,3,-16.1105679257,-7.1377884924,24.1688785811,2.38304939926,62.8473324783,-3.84635974695,-0.0209685667313,0.0,-0.135391699469,0.0,1.15089691091,0.0,3.05843377128,0.0,-0.213587451023,0.0,0.0228676426306,0.0,0.000355853179712,0.0,0.0618019199669,0.0,0.00387624568587,0.0,0.0,0.0,0.0,-10.0,-155.884572681,140.276842164,1.03031953971,-100.0,-1.03799143632,80.0,1.0471975512,-100.0,-1.0471975512,80.0,22075796.2237,0.0,0.0,0.0,0.0,0.0,0.0
1402757083581699767,3,-16.1105679257,-7.1377884924,24.1688785811,2.38304939926,62.8473324783,-3.84635974695,-0.0209685667313,0.0,-0.135391699469,0.0,1.15089691091,0.0,3.05843377128,0.0,-0.213587451023,0.0,0.0228676426306,0.0,0.000355853179712,0.0,0.0618019199669,0.0,0.00387624568587,0.0,0.0,0.0,0.0,-10.0,-155.884572681,140.276842164,1.03031953971,-100.0,-1.03799143632,80.0,1.0471975512,-100.0,-1.0471975512,80.0,22075796.2237,0.0,0.0,0.0,0.0,0.0,0.0
1402757083601970228,3,-16.1132297931,-7.1377884924,24.1647723351,2.38304939926,62.8803212376,-3.84635974695,-0.028066150593,0.0,-0.140627861602,0.0,1.13852929235,0.0,3.04984781646,0.0,-0.208750039513,0.0,0.0241524154561,0.0,0.00189157820233,0.0,0.0625824819735,0.0,0.00357494007808,0.0,0.0,0.0,0.0,-10.0,-155.884572681,140.276842164,1.03031953971,-100.0,-1.0395258983,80.0,1.0471975512,-100.0,-1.0471975512,80.0,22075796.2237,0.0,0.0,0.0,0.0,0.0,0.0
1402757083622234846,3,-16.1132297931,-7.1377884924,24.1647723351,2.38304939926,62.8803212376,-3.84635974695,-0.028066150593,0.0,-0.140627861602,0.0,1.13852929235,0.0,3.04984781646,0.0,-0.208750039513,0.0,0.0241524154561,0.0,0.00189157820233,0.0,0.0625824819735,0.0,0.00357494007808,0.0,0.0,0.0,0.0,-10.0,-155.884572681,140.276842164,1.03031953971,-100.0,-1.0395258983,80.0,1.0471975512,-100.0,-1.0471975512,80.0,22075796.2237,0.0,0.0,0.0,0.0,0.0,0.0
1402757083641719853,3,-16.1117697734,-7.1377884924,24.1611735284,2.38304939926,62.9156236089,-3.84635974695,-0.0302242995876,0.0,-0.130132844572,0.0,1.14645072896,0.0,3.0395828775,0.0,-0.207257497659,0.0,0.0265870287049,0.0,-0.011116329385,0.0,0.0627673565844,0.0,-0.0494325497128,0.0,0.0,0.0,0.0,-10.0,-155.884572681,140.276842164,1.03031953971,-100.0,-1.0395258983,80.0,1.0471975512,-100.0,-1.0471975512,80.0,22075796.2237,0.0,0.0,0.0,0.0,0.0,0.0
1402757083661819374,3,-16.1117697734,-7.1377884924,24.1611735284,2.38304939926,62.9156236089,-3.84635974695,-0.0302242995876,0.0,-0.130132844572,0.0,1.14645072896,0.0,3.0395828775,0.0,-0.207257497659,0.0,0.0265870287049,0.0,-0.011116329385,0.0,0.0627673565844,0.0,-0.0494325497128,0.0,0.0,0.0,0.0,-10.0,-155.884572681,140.276842164,1.03031953971,-100.0,-1.0395258983,80.0,1.0471975512,-100.0,-1.0471975512,80.0,22075796.2237,0.0,0.0,0.0,0.0,0.0,0.0
1402757083682176124,3,-16.1095493729,-7.1377884924,24.1452633697,2.38304939926,62.9145234824,-3.84635974695,-0.0377227231522,0.0,-0.133487161089,0.0,1.1311709066,0.0,3.03132634521,0.0,-0.206193170599,0.0,0.0268123815818,0.0,-0.00188015016545,0.0,0.06434466228,0.0,-0.0148625831204,0.0,0.0,0.0,0.0,-10.0,-155.884572681,140.276842164,1.03031953971,-100.0,-1.03799143632,80.0,1.0471975512,-100.0,-1.0471975512,80.0,22075796.2237,0.0,0.0,0.0,0.0,0.0,0.0
1402757083701847266,3,-16.1095493729,-7.1377884924,24.1452633697,2.38304939926,62.9145234824,-3.84635974695,-0.0377227231522,0.0,-0.133487161089,0.0,1.1311709066,0.0,3.03132634521,0.0,-0.206193170599,0.0,0.0268123815818,0.0,-0.00188015016545,0.0,0.06434466228,0.0,-0.0148625831204,0.0,0.0,0.0,0.0,-10.0,-155.884572681,140.276842164,1.03031953971,-100.0,-1.03799143632,80.0,1.0471975512,-100.0,-1.0471975512,80.0,22075796.2237,0.0,0.0,0.0,0.0,0.0,0.0
1402757083721850283,3,-16.1122643734,-7.1377884924,24.1379586254,2.38304939926,62.943250433,-3.84635974695,-0.0548503677754,0.0,-0.12620555619,0.0,1.14921711941,0.0,3.02310290523,0.0,-0.200945903798,0.0,0.026631518347,0.0,0.0139409298795,0.0,0.0660416121796,0.0,-0.0232719484931,0.0,0.0,0.0,0.0,-10.0,-155.884572681,140.276842164,1.03031953971,-100.0,-1.03799143632,80.0,1.0471975512,-100.0,-1.0471975512,80.0,22075796.2237,0.0,0.0,0.0,0.0,0.0,0.0
1402757083743427504,3,-16.1122643734,-7.1377884924,24.1379586254,2.38304939926,62.943250433,-3.84635974695,-0.0548503677754,0.0,-0.12620555619,0.0,1.14921711941,0.0,3.02310290523,0.0,-0.200945903798,0.0,0.026631518347,0.0,0.0139409298795,0.0,0.0660416121796,0.0,-0.0232719484931,0.0,0.0,0.0,0.0,-10.0,-155.884572681,140.276842164,1.03031953971,-100.0,-1.03799143632,80.0,1.0471975512,-100.0,-1.0471975512,80.0,22075796.2237,0.0,0.0,0.0,0.0,0.0,0.0
1402757083762063521,3,-16.10586974,-7.1377884924,24.111780232,2.38304939926,62.9260853355,-3.84635974695,-0.0592514666158,0.0,-0.142443929858,0.0,1.14829506447,0.0,3.01602704876,0.0,-0.195557156811,0.0,0.0243814054953,0.0,0.0713739726208,0.0,0.0675185953458,0.0,0.00827985134792,0.0,0.0,0.0,0.0,-10.0,-155.884572681,140.276842164,1.03031953971,-100.0,-1.03799143632,80.0,1.0471975512,-100.0,-1.0471975512,80.0,22075796.2237,0.0,0.0,0.0,0.0,0.0,0.0
1402757083781592468,3,-16.10586974,-7.1377884924,24.111780232,2.38304939926,62.9260853355,-3.84635974695,-0.0592514666158,0.0,-0.142443929858,0.0,1.14829506447,0.0,3.01602704876,0.0,-0.195557156811,0.0,0.0243814054953,0.0,0.0713739726208,0.0,0.0675185953458,0.0,0.00827985134792,0.0,0.0,0.0,0.0,-10.0,-155.884572681,140.276842164,1.03031953971,-100.0,-1.0395258983,80.0,1.0471975512,-100.0,-1.0471975512,80.0,22075796.2237,0.0,0.0,0.0,0.0,0.0,0.0
1402757083801779085,3,-16.1023007151,-7.1377884924,24.0978192598,2.38304939926,62.9371816419,-3.84635974695,-0.0668077591646,0.0,-0.144322407538,0.0,1.15580019383,0.0,3.00739068722,0.0,-0.195164777622,0.0,0.0239193314414,0.0,0.0663175617629,0.0,0.068005265342,0.0,0.017162910601,0.0,0.0,0.0,0.0,-10.0,-155.884572681,140.276842164,1.03031953971,-100.0,-1.0395258983,80.0,1.0471975512,-100.0,-1.0471975512,80.0,22075796.2237,0.0,0.0,0.0,0.0,0.0,0.0
1402757083822472994,3,-16.1023007151,-7.1377884924,24.0978192598,2.38304939926,62.9371816419,-3.84635974695,-0.0668077591646,0.0,-0.144322407538,0.0,1.15580019383,0.0,3.00739068722,0.0,-0.195164777622,0.0,0.0239193314414,0.0,0.0663175617629,0.0,0.068005265342,0.0,0.017162910601,0.0,0.0,0.0,0.0,-10.0,-155.884572681,140.276842164,1.03031953971,-100.0,-1.03799143632,80.0,1.0471975512,-100.0,-1.0471975512,80.0,22075796.2237,0.0,0.0,0.0,0.0,0.0,0.0
1402757083841883603,3,-16.1054164607,-7.1377884924,24.091876809,2.38304939926,62.9853755543,-3.84635974695,-0.0811656684096,0.0,-0.141500743843,0.0,1.18737840246,0.0,2.99938787035,0.0,-0.191913212562,0.0,0.0224283876719,0.0,0.0295153575794,0.0,0.0687312590665,0.0,-0.0431751463864,0.0,0.0,0.0,0.0,-10.0,-155.884572681,140.276842164,1.03031953971,-100.0,-1.0395258983,80.0,1.0471975512,-100.0,-1.0471975512,80.0,22075796.2237,0.0,0.0,0.0,0.0,0.0,0.0
1402757083861880083,3,-16.1054164607,-7.1377884924,24.091876809,2.38304939926,62.9853755543,-3.84635974695,-0.0811656684096,0.0,-0.141500743843,0.0,1.18737840246,0.0,2.99938787035,0.0,-0.191913212562,0.0,0.0224283876719,0.0,0.0295153575794,0.0,0.0687312590665,0.0,-0.0431751463864,0.0,0.0,0.0,0.0,-10.0,-155.884572681,140.276842164,1.03031953971,-100.0,-1.0395258983,80.0,1.0471975512,-100.0,-1.0471975512,80.0,22075796.2237,0.0,0.0,0.0,0.0,0.0,0.0
1402757083882313187,3,-16.0923836875,-7.1377884924,24.055471286,2.38304939926,62.9475498605,-3.84635974695,-0.0799698630757,0.0,-0.160717850334,0.0,1.19075827812,0.0,2.99248420315,0.0,-0.184408100652,0.0,0.0194139639454,0.0,0.0350325565499,0.0,0.0683274454073,0.0,-0.0222898629513,0.0,0.0,0.0,0.0,-10.0,-155.884572681,140.276842164,1.03031953971,-100.0,-1.0395258983,80.0,1.0471975512,-100.0,-1.0471975512,80.0,22075796.2237,0.0,0.0,0.0,0.0,0.0,0.0
1402757083901843052,3,-16.0923836875,-7.1377884924,24.055471286,2.38304939926,62.9475498605,-3.84635974695,-0.0799698630757,0.0,-0.160717850334,0.0,1.19075827812,0.0,2.99248420315,0.0,-0.184408100652,0.0,0.0194139639454,0.0,0.0350325565499,0.0,0.0683274454073,0.0,-0.0222898629513,0.0,0.0,0.0,0.0,-10.0,-155.884572681,140.276842164,1.03031953971,-100.0,-1.0395258983,80.0,1.0471975512,-100.0,-1.0471975512,80.0,22075796.2237,0.0,0.0,0.0,0.0,0.0,0.0
1402757083921831844,3,-16.0866849873,-7.1377884924,24.036566429,2.38304939926,62.9518518571,-3.84635974695,-0.078823000658,0.0,-0.16988964118,0.0,1.18049112101,0.0,2.9843262535,0.0,-0.18722096832,0.0,0.0181126703414,0.0,0.0476598469202,0.0,0.0673648585014,0.0,0.0178590067888,0.0,0.0,0.0,0.0,-10.0,-155.884572681,140.276842164,1.03031953971,-100.0,-1.03799143632,80.0,1.0471975512,-100.0,-1.0471975512,80.0,22075796.2237,0.0,0.0,0.0,0.0,0.0,0.0
1402757083942241110,3,-16.0866849873,-7.1377884924,24.036566429,2.38304939926,62.9518518571,-3.84635974695,-0.078823000658,0.0,-0.16988964118,0.0,1.18049112101,0.0,2.9843262535,0.0,-0.18722096832,0.0,0.0181126703414,0.0,0.0476598469202,0.0,0.0673648585014,0.0,0.0178590067888,0.0,0.0,0.0,0.0,-10.0,-155.884572681,140.276842164,1.03031953971,-100.0,-1.03799143632,80.0,1.0471975512,-100.0,-1.0471975512,80.0,22075796.2237,0.0,0.0,0.0,0.0,0.0,0.0
