rosbagTimestamp,header,seq,stamp,secs,nsecs,frame_id,child_frame_id,pose,pose,position,x,y,z,orientation,x,y,z,w,covariance,twist,twist,linear,x,y,z,angular,x,y,z,covariance
1402415883843186906,,189718,,1402415883,810127973,/enu,/base_link,,,,2.39986869256,30.7791398742,-31.9755736349,,0.00112117140741,0.0217716260593,-0.579137511307,0.814938330348,"[0.030520593293929293, -0.005059601572488277, -0.0002874040521307237, 5.079933555346614e-07, 5.064062422582753e-06, 7.88227510087056e-05, -0.005059601572488277, 0.0348059685248517, 0.009832740287980727, 9.540830549863894e-07, 1.728413734473902e-06, 8.509473658806444e-05, -0.0002874040521307237, 0.009832740287980727, 0.21810459303117496, 1.6109058308119631e-06, -5.546158070293253e-06, -5.520191811351649e-06, 5.079933555346614e-07, 9.540830549863894e-07, 1.6109058308119631e-06, 5.208817155227677e-06, -1.9683372564384288e-07, -9.153193883800657e-08, 5.064062422582753e-06, 1.728413734473902e-06, -5.546158070293253e-06, -1.9683372564384288e-07, 4.9236939718065696e-06, 8.182575126283531e-07, 7.88227510087056e-05, 8.509473658806444e-05, -5.520191811351649e-06, -9.153193883800657e-08, 8.182575126283531e-07, 0.00011787012935267684]",,,,-0.23326029461,0.783997857437,0.164814672563,,-0.0356924807683,0.00512355805805,0.0485815641172,"[0.0003837458667727429, -2.382201326447831e-05, -1.1992939747918539e-05, -1.277344573434218e-09, 1.675902957990654e-08, 6.111783576056617e-08, -2.382201326447831e-05, 0.00034264563178986536, 3.714535457726693e-05, -1.944510408708789e-08, -4.7691425504218e-09, 2.8664806935399547e-08, -1.1992939747918539e-05, 3.714535457726693e-05, 0.00022999874464711302, -2.6883456479390605e-09, -2.9795949625046378e-09, 2.6271052742778326e-09, -1.277344573434218e-09, -1.944510408708789e-08, -2.6883456479390605e-09, 2.878952631188588e-09, 8.309330599860183e-12, 1.5094954953758782e-11, 1.675902957990654e-08, -4.7691425504218e-09, -2.9795949625046378e-09, 8.309330599860183e-12, 2.8424093759400024e-09, -7.887423826371032e-13, 6.111783576056617e-08, 2.8664806935399547e-08, 2.6271052742778326e-09, 1.5094954953758782e-11, -7.887423826371032e-13, 2.8881511592731907e-09]"
1402415883843354487,,189719,,1402415883,820127010,/enu,/base_link,,,,2.4065352306,30.7838187518,-31.9737532438,,0.00093865617091,0.0217287415957,-0.578926011417,0.815089966824,"[0.03052427443680102, -0.005059006257274951, -0.00028520534390639356, 4.823217906141656e-07, 5.3356022756240525e-06, 7.89026950548488e-05, -0.005059006257274951, 0.03481009738988288, 0.009833263371411508, 6.652721350297968e-07, 1.757286763289155e-06, 8.515878734315365e-05, -0.00028520534390639356, 0.009833263371411508, 0.218130747140078, 1.6081822535873238e-06, -5.5512819090222025e-06, -5.525672617210277e-06, 4.823217906141656e-07, 6.652721350297968e-07, 1.6081822535873238e-06, 5.248732754889713e-06, -1.9682918328827636e-07, -9.13798494916196e-08, 5.3356022756240525e-06, 1.757286763289155e-06, -5.5512819090222025e-06, -1.9682918328827636e-07, 4.963635177350974e-06, 8.166774026270773e-07, 7.89026950548488e-05, 8.515878734315365e-05, -5.525672617210277e-06, -9.13798494916196e-08, 8.166774026270773e-07, 0.00011789087711489906]",,,,-0.236097141438,0.786589677278,0.163233841846,,-0.0254208409605,-0.0285630106315,0.0482502418594,"[0.0003891734370972728, -2.429551941552888e-05, -1.2016134129383281e-05, -1.2798498195608257e-09, 1.709075475210247e-08, 6.115809891225766e-08, -2.429551941552888e-05, 0.000348502693418687, 3.7654038388177534e-05, -1.9781130063201283e-08, -4.8111113459407335e-09, 2.8669745987089335e-08, -1.2016134129383281e-05, 3.7654038388177534e-05, 0.0002304261391261007, -2.723496604478752e-09, -2.9806296690012305e-09, 2.6171008714534783e-09, -1.2798498195608257e-09, -1.9781130063201283e-08, -2.723496604478752e-09, 2.8789525533313486e-09, 8.309300018559992e-12, 1.5095808846308985e-11, 1.709075475210247e-08, -4.8111113459407335e-09, -2.9806296690012305e-09, 8.309300018559992e-12, 2.8424093075044543e-09, -7.885859398370116e-13, 6.115809891225766e-08, 2.8669745987089335e-08, 2.6171008714534783e-09, 1.5095808846308985e-11, -7.885859398370116e-13, 2.8881412544289437e-09]"
1402415883843383459,,189720,,1402415883,831239938,/enu,/base_link,,,,2.41422404462,30.7892901969,-31.9724459936,,0.00100548827948,0.0217361411009,-0.578672724067,0.815269530637,"[0.030528383018684463, -0.005058301279905422, -0.000282631921258639, 4.5351584817520313e-07, 5.6440398684817905e-06, 7.899868210314113e-05, -0.005058301279905422, 0.03481480676717433, 0.009833788591209806, 3.374378242117758e-07, 1.7897217615524563e-06, 8.5229872276393e-05, -0.000282631921258639, 0.009833788591209806, 0.21816004971145117, 1.605529761026095e-06, -5.556720949450247e-06, -5.531923313601533e-06, 4.5351584817520313e-07, 3.374378242117758e-07, 1.605529761026095e-06, 5.29806136014356e-06, -1.968250524121483e-07, -9.1234274488212e-08, 5.6440398684817905e-06, 1.7897217615524563e-06, -5.556720949450247e-06, -1.968250524121483e-07, 5.012989427569576e-06, 8.150847779631942e-07, 7.899868210314113e-05, 8.5229872276393e-05, -5.531923313601533e-06, -9.1234274488212e-08, 8.150847779631942e-07, 0.00011792120692847418]",,,,-0.233077954347,0.781980944262,0.167038649136,,0.008265724538,0.00755340629104,0.0536622013947,"[0.00039537297379081996, -2.4846902379689572e-05, -1.1964345237070161e-05, -1.2831099798427336e-09, 1.7463598440392792e-08, 6.120444825562235e-08, -2.4846902379689572e-05, 0.00035520296316635645, 3.817243870925552e-05, -2.015876728330914e-08, -4.860384263059532e-09, 2.8673607657319977e-08, -1.1964345237070161e-05, 3.817243870925552e-05, 0.0002309116333974806, -2.755889072532882e-09, -2.973219074744657e-09, 2.619762518995512e-09, -1.2831099798427336e-09, -2.015876728330914e-08, -2.755889072532882e-09, 2.878952474206852e-09, 8.309269264774835e-12, 1.5096668355301532e-11, 1.7463598440392792e-08, -4.860384263059532e-09, -2.973219074744657e-09, 8.309269264774835e-12, 2.8424092380853013e-09, -7.884307374379545e-13, 6.120444825562235e-08, 2.8673607657319977e-08, 2.619762518995512e-09, 1.5096668355301532e-11, -7.884307374379545e-13, 2.8881313468759887e-09]"
1402415883843406424,,189721,,1402415883,841125011,/enu,/base_link,,,,2.41598870759,30.7995995022,-32.0008522178,,0.000441081720515,0.021535418873,-0.578397565353,0.81547059271,"[0.030504588363616723, -0.005061037899638239, -0.0002950582286017011, 4.627830607404488e-07, 4.501010709463276e-06, 7.847622702067015e-05, -0.005061037899638239, 0.03479327336501113, 0.00983714765601596, 1.5167288589791568e-06, 1.7060607678981566e-06, 8.511421145869689e-05, -0.0002950582286017011, 0.00983714765601596, 0.21804980014768524, 1.9037420043023431e-06, -5.593561038847389e-06, -5.526966979171221e-06, 4.627830607404488e-07, 1.5167288589791568e-06, 1.9037420043023431e-06, 5.128550331263773e-06, -1.9681929080030675e-07, -7.91077720374073e-08, 4.501010709463276e-06, 1.7060607678981566e-06, -5.593561038847389e-06, -1.9681929080030675e-07, 4.843060176464168e-06, 7.242502276794983e-07, 7.847622702067015e-05, 8.511421145869689e-05, -5.526966979171221e-06, -7.91077720374073e-08, 7.242502276794983e-07, 0.00011790203416427595]",,,,-0.246306413473,0.790840323047,0.157008505738,,-0.0189047057835,-0.00603240393632,0.0517847062382,"[0.00037135482496014887, -2.1087653277293348e-05, -1.2089972246913436e-05, -1.1599967452408642e-09, 1.6044225556292214e-08, 6.163101857183802e-08, -2.1087653277293348e-05, 0.00033276996049354983, 3.589682551462466e-05, -1.8846569606353748e-08, -4.6028404358269595e-09, 2.8948765140869184e-08, -1.2089972246913436e-05, 3.589682551462466e-05, 0.00022835751006789915, -2.6507578518055762e-09, -3.0102472473418423e-09, 2.557510032301139e-09, -1.1599967452408642e-09, -1.8846569606353748e-08, -2.6507578518055762e-09, 2.878852962826773e-09, 8.307974436847375e-12, 1.51368624302136e-11, 1.6044225556292214e-08, -4.6028404358269595e-09, -3.0102472473418423e-09, 8.307974436847375e-12, 2.842307563974623e-09, -7.914382521303562e-13, 6.163101857183802e-08, 2.8948765140869184e-08, 2.557510032301139e-09, 1.51368624302136e-11, -7.914382521303562e-13, 2.888105658129529e-09]"
1402415883883338653,,189722,,1402415883,852099895,/enu,/base_link,,,,2.42326903898,30.8048694533,-31.9991467289,,0.000580701442135,0.021565710584,-0.578171281714,0.81563015633,"[0.030508523339523533, -0.005060377263124515, -0.00029258731478500565, 4.349633805069977e-07, 4.790177342858561e-06, 7.855999713254747e-05, -0.005060377263124515, 0.03479761743120827, 0.009837675990430407, 1.2103833200420015e-06, 1.7373220315040755e-06, 8.518278733827037e-05, -0.00029258731478500565, 0.009837675990430407, 0.2180783660952355, 1.9016233959149205e-06, -5.599199181742865e-06, -5.533041989651781e-06, 4.349633805069977e-07, 1.2103833200420015e-06, 1.9016233959149205e-06, 5.1766633093317e-06, -1.968154910712479e-07, -7.896678820327206e-08, 4.790177342858561e-06, 1.7373220315040755e-06, -5.599199181742865e-06, -1.968154910712479e-07, 4.8911997163338564e-06, 7.227100082323128e-07, 7.855999713254747e-05, 8.518278733827037e-05, -5.533041989651781e-06, -7.896678820327206e-08, 7.227100082323128e-07, 0.00011793117211311962]",,,,-0.243734615135,0.791464264539,0.158021220572,,0.0167699202833,0.0187078940898,0.0495757620087,"[0.0003771623822223946, -2.1617767609130627e-05, -1.2038421663870228e-05, -1.159874582039939e-09, 1.6404509342256258e-08, 6.167338779150488e-08, -2.1617767609130627e-05, 0.00033907928997101193, 3.638395350563573e-05, -1.921136333265718e-08, -4.648713342328581e-09, 2.894968932587054e-08, -1.2038421663870228e-05, 3.638395350563573e-05, 0.00022882207944416874, -2.6814104871886394e-09, -3.0015973042525873e-09, 2.5647624235185684e-09, -1.159874582039939e-09, -1.921136333265718e-08, -2.6814104871886394e-09, 2.878852888048723e-09, 8.307944421198837e-12, 1.513769650815556e-11, 1.6404509342256258e-08, -4.648713342328581e-09, -3.0015973042525873e-09, 8.307944421198837e-12, 2.8423074978562708e-09, -7.912823474615835e-13, 6.167338779150488e-08, 2.894968932587054e-08, 2.5647624235185684e-09, 1.513769650815556e-11, -7.912823474615835e-13, 2.8880957736849978e-09]"
1402415883883359658,,189723,,1402415883,862099885,/enu,/base_link,,,,2.43006341892,30.8098832698,-31.9977590794,,0.000419050643306,0.0215600769885,-0.577918733426,0.815809368071,"[0.030512102221960553, -0.005059831851719781, -0.000290318670649549, 4.094436973651336e-07, 5.057636402387071e-06, 7.862765883977533e-05, -0.005059831851719781, 0.034801628568619, 0.009838163534977228, 9.268487144279661e-07, 1.765889763174925e-06, 8.524752274179221e-05, -0.000290318670649549, 0.009838163534977228, 0.21810444980532387, 1.8995654369561678e-06, -5.604619574782683e-06, -5.538404070295658e-06, 4.094436973651336e-07, 9.268487144279661e-07, 1.8995654369561678e-06, 5.2165879062607465e-06, -1.9681127938531935e-07, -7.88176600712939e-08, 5.057636402387071e-06, 1.765889763174925e-06, -5.604619574782683e-06, -1.9681127938531935e-07, 4.931152038300861e-06, 7.211568105082695e-07, 7.862765883977533e-05, 8.524752274179221e-05, -5.538404070295658e-06, -7.88176600712939e-08, 7.211568105082695e-07, 0.00011795196291983375]",,,,-0.249228185015,0.795617891378,0.147589805754,,-0.0265256044114,-0.0201697194105,0.0583011556634,"[0.00038250027481711104, -2.2090970637157106e-05, -1.2052503115816946e-05, -1.1630612176361153e-09, 1.6734100889409458e-08, 6.17157411523023e-08, -2.2090970637157106e-05, 0.00034486487218717856, 3.689266155130344e-05, -1.9545623789019274e-08, -4.69106534833555e-09, 2.8942218301976264e-08, -1.2052503115816946e-05, 3.689266155130344e-05, 0.00022924912761087648, -2.7172666000114195e-09, -3.001971086938515e-09, 2.5600019662879022e-09, -1.1630612176361153e-09, -1.9545623789019274e-08, -2.7172666000114195e-09, 2.878852812091039e-09, 8.30791417080854e-12, 1.513853677745657e-11, 1.6734100889409458e-08, -4.69106534833555e-09, -3.001971086938515e-09, 8.30791417080854e-12, 2.842307430516105e-09, -7.911278292012319e-13, 6.17157411523023e-08, 2.8942218301976264e-08, 2.5600019662879022e-09, 1.513853677745657e-11, -7.911278292012319e-13, 2.88808588547123e-09]"
1402415883883394375,,189724,,1402415883,873100042,/enu,/base_link,,,,2.43736179214,30.8153746023,-31.9962433189,,0.000345941057037,0.021565188634,-0.577656107335,0.815995247917,"[0.030516253615333166, -0.005059104335473145, -0.000287893368013771, 3.8112853835771283e-07, 5.3582063494273085e-06, 7.870465132709894e-05, -0.005059104335473145, 0.03480618103695407, 0.009838713539257919, 6.083390047112543e-07, 1.7976726866178976e-06, 8.532264854582187e-05, -0.000287893368013771, 0.009838713539257919, 0.218133167948752, 1.8978298981830482e-06, -5.610529098313499e-06, -5.544889331965888e-06, 3.8112853835771283e-07, 6.083390047112543e-07, 1.8978298981830482e-06, 5.26491952939044e-06, -1.9680743157836699e-07, -7.867413101968894e-08, 5.3582063494273085e-06, 1.7976726866178976e-06, -5.610529098313499e-06, -1.9680743157836699e-07, 4.9795115029568964e-06, 7.195912132855287e-07, 7.870465132709894e-05, 8.532264854582187e-05, -5.544889331965888e-06, -7.867413101968894e-08, 7.195912132855287e-07, 0.00011798131218583351]",,,,-0.246115497554,0.79867069971,0.161182347034,,-0.0121673972748,-0.00746822800168,0.0556504290325,"[0.0003885300035450458, -2.2620612537326156e-05, -1.2042189138427636e-05, -1.1660891826404948e-09, 1.7099928714235844e-08, 6.176212351022233e-08, -2.2620612537326156e-05, 0.0003513916608991289, 3.743800395985674e-05, -1.9916561385846044e-08, -4.738135348475806e-09, 2.8936971372879868e-08, -1.2042189138427636e-05, 3.743800395985674e-05, 0.00022974755404560812, -2.754180482677253e-09, -2.9992955131509128e-09, 2.558856163145702e-09, -1.1660891826404948e-09, -1.9916561385846044e-08, -2.754180482677253e-09, 2.8788527351547375e-09, 8.307883636877753e-12, 1.513938263950299e-11, 1.7099928714235844e-08, -4.738135348475806e-09, -2.9992955131509128e-09, 8.307883636877753e-12, 2.8423073622604535e-09, -7.909746020807123e-13, 6.176212351022233e-08, 2.8936971372879868e-08, 2.558856163145702e-09, 1.513938263950299e-11, -7.909746020807123e-13, 2.88807599498401e-09]"
1402415883922834392,,189725,,1402415883,883099079,/enu,/base_link,,,,2.44503112392,30.8160708866,-31.991996264,,0.000459502634979,0.0219205769788,-0.57731198397,0.816229226582,"[0.03049269451999312, -0.005061879163747314, -0.0003000736662322899, 3.978542911479414e-07, 4.253407335951418e-06, 7.826118271656863e-05, -0.005061879163747314, 0.0347849798895414, 0.00984219375125615, 1.7332351304474135e-06, 1.7099007910825463e-06, 8.519641051858568e-05, -0.0003000736662322899, 0.00984219375125615, 0.2180245037682852, 2.1561143558410636e-06, -5.624212189389256e-06, -5.531141213260524e-06, 3.978542911479414e-07, 1.7332351304474135e-06, 2.1561143558410636e-06, 5.10402874201556e-06, -1.9644672542063986e-07, -6.36903254443271e-08, 4.253407335951418e-06, 1.7099007910825463e-06, -5.624212189389256e-06, -1.9644672542063986e-07, 4.8171051462332685e-06, 6.394039716070566e-07, 7.826118271656863e-05, 8.519641051858568e-05, -5.531141213260524e-06, -6.36903254443271e-08, 6.394039716070566e-07, 0.00011797027697465527]",,,,-0.237575139494,0.79710224237,0.15728577985,,0.0164382420259,-6.78155925401e-05,0.0597371498161,"[0.00036538275516744315, -2.0901429097706947e-05, -1.1459688998820342e-05, -1.0533105520306363e-09, 1.5745249844263768e-08, 6.207121419294852e-08, -2.0901429097706947e-05, 0.00032795320051074795, 3.496853136227791e-05, -1.8607391351105445e-08, -4.4610684280495735e-09, 2.7653818236656627e-08, -1.1459688998820342e-05, 3.496853136227791e-05, 0.00022711825557289255, -2.6398385908322156e-09, -2.9393303971701127e-09, 2.5514870782679294e-09, -1.0533105520306363e-09, -1.8607391351105445e-08, -2.6398385908322156e-09, 2.878756445743107e-09, 8.306478678708398e-12, 1.5174947416706538e-11, 1.5745249844263768e-08, -4.4610684280495735e-09, -2.9393303971701127e-09, 8.306478678708398e-12, 2.8422095899030485e-09, -7.918483057144966e-13, 6.207121419294852e-08, 2.7653818236656627e-08, 2.5514870782679294e-09, 1.5174947416706538e-11, -7.918483057144966e-13, 2.8880534617619827e-09]"
1402415883922859074,,189726,,1402415883,893100023,/enu,/base_link,,,,2.45192526794,30.8209587045,-31.9904843258,,0.000294309198133,0.0219247923913,-0.577060759327,0.816406820713,"[0.030496235104142386, -0.005061257553592525, -0.00029786176196458774, 3.727384651764532e-07, 4.512649515080092e-06, 7.83199448946806e-05, -0.005061257553592525, 0.03478888632474307, 0.009842662361849708, 1.4590285568296584e-06, 1.737957948730544e-06, 8.526262125287474e-05, -0.00029786176196458774, 0.009842662361849708, 0.2180503402930915, 2.1545590424177198e-06, -5.629927996225626e-06, -5.5366024401425015e-06, 3.727384651764532e-07, 1.4590285568296584e-06, 2.1545590424177198e-06, 5.143964098310064e-06, -1.9644289117586988e-07, -6.354563745480436e-08, 4.512649515080092e-06, 1.737957948730544e-06, -5.629927996225626e-06, -1.9644289117586988e-07, 4.857069421217152e-06, 6.378866911462817e-07, 7.83199448946806e-05, 8.526262125287474e-05, -5.5366024401425015e-06, -6.354563745480436e-08, 6.378866911462817e-07, 0.00011799111127836214]",,,,-0.239350954741,0.804229246278,0.152749183857,,-0.0282931034193,-0.0189543841411,0.0580804523528,"[0.00037054289573307025, -2.1366409999476388e-05, -1.1465957289123323e-05, -1.055146134403694e-09, 1.606990322008883e-08, 6.211211570665595e-08, -2.1366409999476388e-05, 0.0003335643761545657, 3.5468276220689896e-05, -1.893677446118181e-08, -4.5018926127507344e-09, 2.7640914486575325e-08, -1.1465957289123323e-05, 3.5468276220689896e-05, 0.0002275462665489281, -2.6761710649081564e-09, -2.939148891280418e-09, 2.5474127606786912e-09, -1.055146134403694e-09, -1.893677446118181e-08, -2.6761710649081564e-09, 2.8787563725722185e-09, 8.306448912816461e-12, 1.5175769817819736e-11, 1.606990322008883e-08, -4.5018926127507344e-09, -2.939148891280418e-09, 8.306448912816461e-12, 2.8422095246792923e-09, -7.916947604422774e-13, 6.211211570665595e-08, 2.7640914486575325e-08, 2.5474127606786912e-09, 1.5175769817819736e-11, -7.916947604422774e-13, 2.8880435899558446e-09]"
1402415883962838825,,189727,,1402415883,904097080,/enu,/base_link,,,,2.45938375225,30.8265711519,-31.9893170764,,0.000326729565014,0.0218442555289,-0.576796861754,0.816595433504,"[0.030500145776348277, -0.005060661630188865, -0.00029534651948460744, 3.448702230113171e-07, 4.803825360335975e-06, 7.838759943373201e-05, -0.005060661630188865, 0.034793350314164785, 0.009843009201299534, 1.151186123725113e-06, 1.769128546743451e-06, 8.533498522679563e-05, -0.00029534651948460744, 0.009843009201299534, 0.21807901073871655, 2.153285504500861e-06, -5.635983075386608e-06, -5.542825385913978e-06, 3.448702230113171e-07, 1.151186123725113e-06, 2.153285504500861e-06, 5.192271471828834e-06, -1.9643941695201114e-07, -6.340655496818201e-08, 4.803825360335975e-06, 1.769128546743451e-06, -5.635983075386608e-06, -1.9643941695201114e-07, 4.9054058435108276e-06, 6.363568595146547e-07, 7.838759943373201e-05, 8.533498522679563e-05, -5.542825385913978e-06, -6.340655496818201e-08, 6.363568595146547e-07, 0.00011802046849322842]",,,,-0.237796224571,0.802362950606,0.156631137139,,0.0124621188395,-0.00912453456558,0.0565342035501,"[0.0003763715262506594, -2.1889251525175135e-05, -1.1446317388042082e-05, -1.0570704642533308e-09, 1.6430261141886214e-08, 6.215748347912136e-08, -2.1889251525175135e-05, 0.0003399160285926338, 3.59741592047744e-05, -1.9303253786968354e-08, -4.548463552382802e-09, 2.762952496568795e-08, -1.1446317388042082e-05, 3.59741592047744e-05, 0.00022802579588036958, -2.708078978649867e-09, -2.935209066057908e-09, 2.537193612709469e-09, -1.0570704642533308e-09, -1.9303253786968354e-08, -2.708078978649867e-09, 2.878756298544246e-09, 8.306418910912339e-12, 1.5176597785141484e-11, 1.6430261141886214e-08, -4.548463552382802e-09, -2.935209066057908e-09, 8.306418910912339e-12, 2.8422094584049467e-09, -7.915424269569786e-13, 6.215748347912136e-08, 2.762952496568795e-08, 2.537193612709469e-09, 1.5176597785141484e-11, -7.915424269569786e-13, 2.8880337154898664e-09]"
1402415883962872444,,189728,,1402415883,914071083,/enu,/base_link,,,,2.46627654356,30.8312992798,-31.9876271177,,0.000350306509234,0.0218267719683,-0.57652292358,0.816789316714,"[0.030503782304471407, -0.005060030548935765, -0.0002931960620566943, 3.194301503591887e-07, 5.07230921160265e-06, 7.84486339418049e-05, -0.005060030548935765, 0.03479734305152106, 0.009843488182870126, 8.671872063413926e-07, 1.7974722856541907e-06, 8.53984655122888e-05, -0.0002931960620566943, 0.009843488182870126, 0.21810471775268622, 2.1516245777252796e-06, -5.641564922564396e-06, -5.548319160626447e-06, 3.194301503591887e-07, 8.671872063413926e-07, 2.1516245777252796e-06, 5.231987586380558e-06, -1.9643551902482357e-07, -6.325918890808726e-08, 5.07230921160265e-06, 1.7974722856541907e-06, -5.641564922564396e-06, -1.9643551902482357e-07, 4.945152209786299e-06, 6.348141841811975e-07, 7.84486339418049e-05, 8.53984655122888e-05, -5.548319160626447e-06, -6.325918890808726e-08, 6.348141841811975e-07, 0.00011804106802334532]",,,,-0.238568425737,0.799812428792,0.151147727581,,0.0051725634903,-0.000730506333032,0.0627193106425,"[0.00038171435535286417, -2.2374272472505715e-05, -1.1412713459024546e-05, -1.0605281678545995e-09, 1.676011010731506e-08, 6.220050856353912e-08, -2.2374272472505715e-05, 0.00034573760451866385, 3.6446638534778664e-05, -1.963853411229752e-08, -4.59220166230291e-09, 2.7612856412898314e-08, -1.1412713459024546e-05, 3.6446638534778664e-05, 0.00022842464374358098, -2.7385076493746667e-09, -2.930610499822951e-09, 2.535099183895041e-09, -1.0605281678545995e-09, -1.963853411229752e-08, -2.7385076493746667e-09, 2.8787562233713282e-09, 8.306388650471518e-12, 1.5177432024421648e-11, 1.676011010731506e-08, -4.59220166230291e-09, -2.930610499822951e-09, 8.306388650471518e-12, 2.842209391108875e-09, -7.913915724920421e-13, 6.220050856353912e-08, 2.7612856412898314e-08, 2.535099183895041e-09, 1.5177432024421648e-11, -7.913915724920421e-13, 2.888023837712505e-09]"
1402415883962956935,,189729,,1402415883,925071954,/enu,/base_link,,,,2.47397549978,30.8367596246,-31.9861631106,,0.000428032898216,0.021687385465,-0.576265674398,0.816974507931,"[0.030507955519545844, -0.005059335732900293, -0.0002908182627608122, 2.9113591164390586e-07, 5.374173042537832e-06, 7.851526470104861e-05, -0.005059335732900293, 0.03480187371746841, 0.009844031282104329, 5.480120652199324e-07, 1.8290247026575644e-06, 8.546594902712202e-05, -0.0002908182627608122, 0.009844031282104329, 0.21813325300212816, 2.1504385289442247e-06, -5.647403917031778e-06, -5.554529243281572e-06, 2.9113591164390586e-07, 5.480120652199324e-07, 2.1504385289442247e-06, 5.280324849438353e-06, -1.9643199543695503e-07, -6.311781310780454e-08, 5.374173042537832e-06, 1.8290247026575644e-06, -5.647403917031778e-06, -1.9643199543695503e-07, 4.993519848064844e-06, 6.332588690942344e-07, 7.851526470104861e-05, 8.546594902712202e-05, -5.554529243281572e-06, -6.311781310780454e-08, 6.332588690942344e-07, 0.00011807044445372115]",,,,-0.239383681391,0.799191161272,0.144000971625,,0.0253845019698,-0.0131006569321,0.0553193307096,"[0.0003877610877203229, -2.290688940593648e-05, -1.1392093977053944e-05, -1.0632538080556996e-09, 1.712714687333277e-08, 6.224569535361327e-08, -2.290688940593648e-05, 0.0003523243542787437, 3.694678074123477e-05, -2.0012394711422675e-08, -4.639981279815421e-09, 2.760191301828303e-08, -1.1392093977053944e-05, 3.694678074123477e-05, 0.00022889503414397338, -2.767511434804051e-09, -2.926648261526501e-09, 2.518143105307509e-09, -1.0632538080556996e-09, -2.0012394711422675e-08, -2.767511434804051e-09, 2.8787561471472635e-09, 8.306358137881112e-12, 1.5178271832967558e-11, 1.712714687333277e-08, -4.639981279815421e-09, -2.926648261526501e-09, 8.306358137881112e-12, 2.84220932278205e-09, -7.912420117363474e-13, 6.224569535361327e-08, 2.760191301828303e-08, 2.518143105307509e-09, 1.5178271832967558e-11, -7.912420117363474e-13, 2.8880139572278887e-09]"
1402415884002816476,,189730,,1402415883,935060024,/enu,/base_link,,,,2.45602355302,30.8268195573,-31.9764522585,,0.00211967871386,0.0208852403155,-0.576515906326,0.816816211551,"[0.03048439627664046, -0.005062135309311009, -0.0003027967624139793, 3.117686245106156e-07, 4.255082072253886e-06, 7.812078633143903e-05, -0.005062135309311009, 0.034780691923526244, 0.009847615288600621, 1.6690976600529328e-06, 1.7348473349775705e-06, 8.532301473862602e-05, -0.0003027967624139793, 0.009847615288600621, 0.2180251900068101, 2.3768548930936948e-06, -5.637282827493659e-06, -5.528307244444908e-06, 3.117686245106156e-07, 1.6690976600529328e-06, 2.3768548930936948e-06, 5.11931903766174e-06, -1.9626196483999706e-07, -4.956680086748949e-08, 4.255082072253886e-06, 1.7348473349775705e-06, -5.637282827493659e-06, -1.9626196483999706e-07, 4.83036191737641e-06, 5.610914822199561e-07, 7.812078633143903e-05, 8.532301473862602e-05, -5.528307244444908e-06, -4.956680086748949e-08, 5.610914822199561e-07, 0.0001180655166303565]",,,,-0.228897123906,0.755071382714,0.142230400259,,-0.0118338510481,0.00921043774435,0.0591842265635,"[0.00035634767478193456, -2.307650685693062e-05, -1.102251580875947e-05, -8.752624640328578e-10, 1.5891290501946126e-08, 5.84897087577973e-08, -2.307650685693062e-05, 0.00032896825990142933, 3.271839302145139e-05, -1.8709790653935954e-08, -4.363857367896503e-09, 2.6398406369876686e-08, -1.102251580875947e-05, 3.271839302145139e-05, 0.00022562370623055238, -2.4099025276242223e-09, -2.831938870044123e-09, 2.2486157166431518e-09, -8.752624640328578e-10, -1.8709790653935954e-08, -2.4099025276242223e-09, 2.8786597344089185e-09, 8.304999641722541e-12, 1.520986651158508e-11, 1.5891290501946126e-08, -4.363857367896503e-09, -2.831938870044123e-09, 8.304999641722541e-12, 2.842111702303809e-09, -7.922653028417116e-13, 5.84897087577973e-08, 2.6398406369876686e-08, 2.2486157166431518e-09, 1.520986651158508e-11, -7.922653028417116e-13, 2.887994136970128e-09]"
1402415884002846594,,189731,,1402415883,945074081,/enu,/base_link,,,,2.46242411995,30.8315134386,-31.9750880623,,0.00192101566392,0.0208371083737,-0.576256457619,0.817000991227,"[0.030487905947547817, -0.005061521348961811, -0.00030064028061945977, 2.866327342699755e-07, 4.515612907132424e-06, 7.816984628373556e-05, -0.005061521348961811, 0.03478460815807219, 0.00984802387320326, 1.393860251624868e-06, 1.7627308969093423e-06, 8.538410143405935e-05, -0.00030064028061945977, 0.00984802387320326, 0.2180511425033366, 2.3758015356333e-06, -5.642957686510989e-06, -5.533636093632109e-06, 2.866327342699755e-07, 1.393860251624868e-06, 2.3758015356333e-06, 5.159358831700824e-06, -1.9625843220758836e-07, -4.942714882490587e-08, 4.515612907132424e-06, 1.7627308969093423e-06, -5.642957686510989e-06, -1.9625843220758836e-07, 4.870432893451321e-06, 5.595822712284691e-07, 7.816984628373556e-05, 8.538410143405935e-05, -5.533636093632109e-06, -4.942714882490587e-08, 5.595822712284691e-07, 0.00011808647190408405]",,,,-0.231990234644,0.75881796316,0.141612898083,,-0.0277383306804,-0.0312134443942,0.0599573807723,"[0.00036152636830890115, -2.3537656150794466e-05, -1.1032840845700544e-05, -8.770189953229486e-10, 1.6216995518262678e-08, 5.8529577458910734e-08, -2.3537656150794466e-05, 0.0003346209610234158, 3.317949777387215e-05, -1.9041108884389648e-08, -4.4041959595215616e-09, 2.6381104352159457e-08, -1.1032840845700544e-05, 3.317949777387215e-05, 0.00022604680317657702, -2.443508216243195e-09, -2.83318593519942e-09, 2.2374235154657084e-09, -8.770189953229486e-10, -1.9041108884389648e-08, -2.443508216243195e-09, 2.8786596619837175e-09, 8.304969862738762e-12, 1.5210683644870075e-11, 1.6216995518262678e-08, -4.4041959595215616e-09, -2.83318593519942e-09, 8.304969862738762e-12, 2.842111637030898e-09, -7.921151092337655e-13, 5.8529577458910734e-08, 2.6381104352159457e-08, 2.2374235154657084e-09, 1.5210683644870075e-11, -7.921151092337655e-13, 2.8879842721391573e-09]"
1402415884002874292,,189732,,1402415883,956063032,/enu,/base_link,,,,2.46949319585,30.8367812524,-31.9736935495,,0.00200145052888,0.0207840393075,-0.575971486371,0.817203074391,"[0.030491926791669493, -0.005060856004160826, -0.00029819442931800074, 2.5879781084616666e-07, 4.8078737417606005e-06, 7.823077072033048e-05, -0.005060856004160826, 0.034788920919685995, 0.009848497638871346, 1.0852329142713353e-06, 1.793653357012304e-06, 8.545075833372331e-05, -0.00029819442931800074, 0.009848497638871346, 0.2180793820612479, 2.3749217419620133e-06, -5.648942148998444e-06, -5.5397944638104045e-06, 2.5879781084616666e-07, 1.0852329142713353e-06, 2.3749217419620133e-06, 5.20759422656247e-06, -1.96255251470377e-07, -4.92932290800594e-08, 4.8078737417606005e-06, 1.793653357012304e-06, -5.648942148998444e-06, -1.96255251470377e-07, 4.918699632549749e-06, 5.580602935744713e-07, 7.823077072033048e-05, 8.545075833372331e-05, -5.5397944638104045e-06, -4.92932290800594e-08, 5.580602935744713e-07, 0.0001181157704342651]",,,,-0.228028169788,0.755744250887,0.145051529238,,0.0166616675606,4.3270948849e-05,0.0610618801609,"[0.0003673663498837884, -2.4064119469656497e-05, -1.0983729032007424e-05, -8.788947873466146e-10, 1.6578481642194644e-08, 5.8574012858634145e-08, -2.4064119469656497e-05, 0.0003410070094166074, 3.36302835499687e-05, -1.9409035117604645e-08, -4.4507309201780675e-09, 2.6362988556739608e-08, -1.0983729032007424e-05, 3.36302835499687e-05, 0.00022651288510448304, -2.4716963235673026e-09, -2.82691636917641e-09, 2.2322836339094643e-09, -8.788947873466146e-10, -1.9409035117604645e-08, -2.4716963235673026e-09, 2.8786595885458195e-09, 8.304939858083467e-12, 1.521150635554194e-11, 1.6578481642194644e-08, -4.4507309201780675e-09, -2.82691636917641e-09, 8.304939858083467e-12, 2.8421115707206956e-09, -7.919662482927046e-13, 5.8574012858634145e-08, 2.6362988556739608e-08, 2.2322836339094643e-09, 1.521150635554194e-11, -7.919662482927046e-13, 2.8879744044266484e-09]"
1402415884002896304,,189733,,1402415883,966062068,/enu,/base_link,,,,2.47613032494,30.8413988657,-31.9723412406,,0.00202286554018,0.0207864934433,-0.575700910028,0.817393596683,"[0.03049566148662454, -0.005060220492974835, -0.000296087767537714, 2.332929955282064e-07, 5.078184196929177e-06, 7.82850486892411e-05, -0.005060220492974835, 0.03479294131396839, 0.009848846886461475, 7.996302804750239e-07, 1.8218766797767911e-06, 8.551075590410695e-05, -0.000296087767537714, 0.009848846886461475, 0.2181054682761887, 2.3736607981357067e-06, -5.654554671077429e-06, -5.545195490112598e-06, 2.332929955282064e-07, 7.996302804750239e-07, 2.3736607981357067e-06, 5.247509862104192e-06, -1.962516644141199e-07, -4.915098101103148e-08, 5.078184196929177e-06, 1.8218766797767911e-06, -5.654554671077429e-06, -1.962516644141199e-07, 4.958647814429288e-06, 5.56525638824569e-07, 7.82850486892411e-05, 8.551075590410695e-05, -5.545195490112598e-06, -4.915098101103148e-08, 5.56525638824569e-07, 0.00011813658785846065]",,,,-0.228636313216,0.754891170276,0.141134198021,,0.00230345659913,0.00236267267609,0.0634917503351,"[0.00037273821614571326, -2.4549051059100732e-05, -1.0935518040118086e-05, -8.81377068943349e-10, 1.691044675610744e-08, 5.861403050378847e-08, -2.4549051059100732e-05, 0.0003468737754298883, 3.406146747117746e-05, -1.9746569358089508e-08, -4.493430906931779e-09, 2.6343657312077703e-08, -1.0935518040118086e-05, 3.406146747117746e-05, 0.000226907934137675, -2.5000419918747047e-09, -2.821371359102347e-09, 2.2326852575226694e-09, -8.81377068943349e-10, -1.9746569358089508e-08, -2.5000419918747047e-09, 2.8786595139898653e-09, 8.304909579032093e-12, 1.5212335322582605e-11, 1.691044675610744e-08, -4.493430906931779e-09, -2.821371359102347e-09, 8.304909579032093e-12, 2.8421115033290114e-09, -7.918188193993867e-13, 5.861403050378847e-08, 2.6343657312077703e-08, 2.2326852575226694e-09, 1.5212335322582605e-11, -7.918188193993867e-13, 2.8879645337546883e-09]"
1402415884042831540,,189734,,1402415883,977061986,/enu,/base_link,,,,2.48297604819,30.8465153934,-31.9708005746,,0.00185492824118,0.0207074351814,-0.575436492226,0.81758217005,"[0.03049973372501162, -0.005059529119056581, -0.00029365735193158295, 2.0500008365583236e-07, 5.381236403965888e-06, 7.833993773089108e-05, -0.005059529119056581, 0.03479752009538239, 0.009849278879092536, 4.795173834145624e-07, 1.853252298389458e-06, 8.558148378213553e-05, -0.00029365735193158295, 0.009849278879092536, 0.21813382602795608, 2.373088768330446e-06, -5.660719617443576e-06, -5.551543481829988e-06, 2.0500008365583236e-07, 4.795173834145624e-07, 2.373088768330446e-06, 5.295838078029146e-06, -1.9624844071461862e-07, -4.901462752620622e-08, 5.381236403965888e-06, 1.853252298389458e-06, -5.660719617443576e-06, -1.9624844071461862e-07, 5.007008736737122e-06, 5.549782098864611e-07, 7.833993773089108e-05, 8.558148378213553e-05, -5.551543481829988e-06, -4.901462752620622e-08, 5.549782098864611e-07, 0.00011816596961027528]",,,,-0.230148077306,0.762407437707,0.133912165892,,-0.0174666948802,-0.0297776273762,0.0556499806485,"[0.0003787977841325859, -2.5069174528928588e-05, -1.0940301584180916e-05, -8.838774199183103e-10, 1.7278015034884753e-08, 5.8657753408213995e-08, -2.5069174528928588e-05, 0.00035346185234745234, 3.457599660204104e-05, -2.0120682235326915e-08, -4.538794587739398e-09, 2.6327443333574135e-08, -1.0940301584180916e-05, 3.457599660204104e-05, 0.00022740824284795658, -2.53542657098086e-09, -2.822085012326886e-09, 2.2183148327277416e-09, -8.838774199183103e-10, -2.0120682235326915e-08, -2.53542657098086e-09, 2.878659438503955e-09, 8.304879013307231e-12, 1.521316988665471e-11, 1.7278015034884753e-08, -4.538794587739398e-09, -2.822085012326886e-09, 8.304879013307231e-12, 2.84211143493216e-09, -7.916726910004663e-13, 5.8657753408213995e-08, 2.6327443333574135e-08, 2.2183148327277416e-09, 1.521316988665471e-11, -7.916726910004663e-13, 2.887954660040618e-09]"
1402415884042862638,,189735,,1402415883,987045049,/enu,/base_link,,,,2.48607156369,30.8592126067,-31.9367167647,,0.00166348572848,0.0199671871492,-0.575249789833,0.817732366701,"[0.03047603048832143, -0.005062427644425658, -0.0003053478337192866, 2.3036219596067608e-07, 4.245629096958801e-06, 7.793288913692817e-05, -0.005062427644425658, 0.034776360041496424, 0.009853042496969737, 1.6000095795243946e-06, 1.7510114111129417e-06, 8.545450935381326e-05, -0.0003053478337192866, 0.009853042496969737, 0.2180263453105716, 2.572904642922451e-06, -5.630015359522238e-06, -5.516577484747242e-06, 2.3036219596067608e-07, 1.6000095795243946e-06, 2.572904642922451e-06, 5.1344033525189e-06, -1.9628723114964132e-07, -3.571670525941492e-08, 4.245629096958801e-06, 1.7510114111129417e-06, -5.630015359522238e-06, -1.9628723114964132e-07, 4.8431221256712626e-06, 4.871775199266027e-07, 7.793288913692817e-05, 8.545450935381326e-05, -5.516577484747242e-06, -3.571670525941492e-08, 4.871775199266027e-07, 0.00011816404969736515]",,,,-0.24384497572,0.755128389911,0.143307374992,,0.0374260643848,0.0164988518293,0.0608409587201,"[0.00035526576362797407, -2.1196779119034844e-05, -1.1388521983303157e-05, -7.81068723581887e-10, 1.5934635350368332e-08, 5.8589812334241646e-08, -2.1196779119034844e-05, 0.00033153933303849543, 3.2351166906020054e-05, -1.8818985236589246e-08, -4.333345865310694e-09, 2.739162372481296e-08, -1.1388521983303157e-05, 3.2351166906020054e-05, 0.0002248728374228318, -2.4061631129299704e-09, -2.8949999338176692e-09, 2.1084058297928384e-09, -7.81068723581887e-10, -1.8818985236589246e-08, -2.4061631129299704e-09, 2.8785628352551256e-09, 8.303461295387133e-12, 1.5242631697171748e-11, 1.5934635350368332e-08, -4.333345865310694e-09, -2.8949999338176692e-09, 8.303461295387133e-12, 2.8420137793040777e-09, -7.925812230667332e-13, 5.8589812334241646e-08, 2.739162372481296e-08, 2.1084058297928384e-09, 1.5242631697171748e-11, -7.925812230667332e-13, 2.887936175903778e-09]"
1402415884042892589,,189736,,1402415883,998051881,/enu,/base_link,,,,2.49309026727,30.8645514565,-31.9352091045,,0.00166587235239,0.0198764493171,-0.574943406187,0.817950017613,"[0.030479939291509054, -0.0050617410903616355, -0.0003029890810428733, 2.026876805327524e-07, 4.534425236981244e-06, 7.798548577945112e-05, -0.0050617410903616355, 0.034780668758181185, 0.009853481304919082, 1.295168298131482e-06, 1.7816081835942126e-06, 8.552371498444527e-05, -0.0003029890810428733, 0.009853481304919082, 0.2180545252159634, 2.5724608115273083e-06, -5.636265690347439e-06, -5.5227848525006485e-06, 2.026876805327524e-07, 1.295168298131482e-06, 2.5724608115273083e-06, 5.182797205785537e-06, -1.9628434039603534e-07, -3.5587003521895384e-08, 4.534425236981244e-06, 1.7816081835942126e-06, -5.636265690347439e-06, -1.9628434039603534e-07, 4.891548881387347e-06, 4.856767715427457e-07, 7.798548577945112e-05, 8.552371498444527e-05, -5.5227848525006485e-06, -3.5587003521895384e-08, 4.856767715427457e-07, 0.00011819352498717935]",,,,-0.244538225923,0.760565042093,0.148400917431,,0.00893053978249,-0.0137638362698,0.0655902334499,"[0.00036103281095311007, -2.1713279137826986e-05, -1.137852073231707e-05, -7.834089817958723e-10, 1.629368318067866e-08, 5.863629237623116e-08, -2.1713279137826986e-05, 0.0003378511093805055, 3.280892293879669e-05, -1.9185153027374856e-08, -4.379444369726605e-09, 2.736538493907988e-08, -1.137852073231707e-05, 3.280892293879669e-05, 0.00022534915265471421, -2.435790541275334e-09, -2.892677590442164e-09, 2.096398248701084e-09, -7.834089817958723e-10, -1.9185153027374856e-08, -2.435790541275334e-09, 2.8785627632747385e-09, 8.303431487291208e-12, 1.5243443879405783e-11, 1.629368318067866e-08, -4.379444369726605e-09, -2.892677590442164e-09, 8.303431487291208e-12, 2.842013713925807e-09, -7.924343277103429e-13, 5.863629237623116e-08, 2.736538493907988e-08, 2.096398248701084e-09, 1.5243443879405783e-11, -7.924343277103429e-13, 2.887926316310772e-09]"
1402415884042915752,,189737,,1402415884,8060932,/enu,/base_link,,,,2.49951672182,30.8693875019,-31.9338612229,,0.00189325487682,0.0197869078234,-0.574670135824,0.818143709171,"[0.030483646271452648, -0.005061134496570599, -0.0003008762988891472, 1.77327122019494e-07, 4.801801395661075e-06, 7.803869671576513e-05, -0.005061134496570599, 0.03478464508039722, 0.009853845791048789, 1.0128265728190911e-06, 1.80950968004977e-06, 8.558161269880168e-05, -0.0003008762988891472, 0.009853845791048789, 0.21808035088936928, 2.57130359535097e-06, -5.64191598033404e-06, -5.528020219360258e-06, 1.77327122019494e-07, 1.0128265728190911e-06, 2.57130359535097e-06, 5.2227941194209e-06, -1.9628104579328827e-07, -3.544899038501866e-08, 4.801801395661075e-06, 1.80950968004977e-06, -5.64191598033404e-06, -1.9628104579328827e-07, 4.93157991297183e-06, 4.841632625064898e-07, 7.803869671576513e-05, 8.558161269880168e-05, -5.528020219360258e-06, -3.544899038501866e-08, 4.841632625064898e-07, 0.00011821444054657865]",,,,-0.241323336299,0.75209810588,0.146025882065,,0.0465932246705,0.0109764612014,0.064927567337,"[0.00036634075790542775, -2.2201440941515678e-05, -1.1325287077638426e-05, -7.8524958229844e-10, 1.6624122454728635e-08, 5.867691895242157e-08, -2.2201440941515678e-05, 0.00034367931778562415, 3.3180407936700374e-05, -1.952222236203563e-08, -4.42296356769841e-09, 2.73413395573142e-08, -1.1325287077638426e-05, 3.3180407936700374e-05, 0.00022571283466398589, -2.455539319912963e-09, -2.8848139921527006e-09, 2.0894463721039325e-09, -7.8524958229844e-10, -1.952222236203563e-08, -2.455539319912963e-09, 2.878562690399835e-09, 8.303401450450313e-12, 1.524426233194454e-11, 1.6624122454728635e-08, -4.42296356769841e-09, -2.8848139921527006e-09, 8.303401450450313e-12, 2.842013647488707e-09, -7.922889081667695e-13, 5.867691895242157e-08, 2.73413395573142e-08, 2.0894463721039325e-09, 1.524426233194454e-11, -7.922889081667695e-13, 2.887916453231845e-09]"
1402415884082847618,,189738,,1402415884,18050909,/enu,/base_link,,,,2.50588267269,30.8742470907,-31.9325426889,,0.0017984532921,0.0198290507184,-0.574396984767,0.818334698155,"[0.030487364606252263, -0.005060444755867634, -0.00029884627738132165, 1.518389204311351e-07, 5.073100617263081e-06, 7.80887258214309e-05, -0.005060444755867634, 0.03478868336571996, 0.009854163144778888, 7.262731301269989e-07, 1.8375368663297498e-06, 8.56431182306962e-05, -0.00029884627738132165, 0.009854163144778888, 0.2181062265794572, 2.5703017879201865e-06, -5.6477081239521015e-06, -5.533465744298931e-06, 1.518389204311351e-07, 7.262731301269989e-07, 2.5703017879201865e-06, 5.262636598031942e-06, -1.962777248029955e-07, -3.530977518414207e-08, 5.073100617263081e-06, 1.8375368663297498e-06, -5.6477081239521015e-06, -1.962777248029955e-07, 4.971457154531611e-06, 4.826381826087569e-07, 7.80887258214309e-05, 8.56431182306962e-05, -5.533465744298931e-06, -3.530977518414207e-08, 4.826381826087569e-07, 0.00011823519426952517]",,,,-0.242403241804,0.758359979153,0.140944031631,,-0.0212217032408,-0.00448622673392,0.063270872215,"[0.00037172891542292273, -2.267991013893789e-05, -1.1306229317340026e-05, -7.876154590725917e-10, 1.6956297943801543e-08, 5.87173707570386e-08, -2.267991013893789e-05, 0.0003495469723596259, 3.363787455124126e-05, -1.9859892400838198e-08, -4.4643920034586865e-09, 2.731645579101695e-08, -1.1306229317340026e-05, 3.363787455124126e-05, 0.0002261235472545419, -2.4881143307140344e-09, -2.8823481657622764e-09, 2.0922153589634344e-09, -7.876154590725917e-10, -1.9859892400838198e-08, -2.4881143307140344e-09, 2.878562616367421e-09, 8.303371169009821e-12, 1.5245086402522438e-11, 1.6956297943801543e-08, -4.4643920034586865e-09, -2.8823481657622764e-09, 8.303371169009821e-12, 2.8420135800089902e-09, -7.921448341712004e-13, 5.87173707570386e-08, 2.731645579101695e-08, 2.0922153589634344e-09, 1.5245086402522438e-11, -7.921448341712004e-13, 2.8879065875196974e-09]"
1402415884082887516,,189739,,1402415884,29086112,/enu,/base_link,,,,2.51285586039,30.8795238466,-31.9310123814,,0.00187458421817,0.0197631212717,-0.574084644645,0.818555267379,"[0.030491610507503063, -0.005059739104594235, -0.00029651390800828096, 1.234586584399818e-07, 5.379019110948956e-06, 7.814789154925773e-05, -0.005059739104594235, 0.034793181529563504, 0.00985456413860346, 4.0332071557542187e-07, 1.8688087777558278e-06, 8.570761185675409e-05, -0.00029651390800828096, 0.00985456413860346, 0.21813472433134123, 2.5696284160348076e-06, -5.653737164420556e-06, -5.539691330792603e-06, 1.234586584399818e-07, 4.0332071557542187e-07, 2.5696284160348076e-06, 5.311275430134325e-06, -1.962747830903536e-07, -3.517688554056178e-08, 5.379019110948956e-06, 1.8688087777558278e-06, -5.653737164420556e-06, -1.962747830903536e-07, 5.020130908654761e-06, 4.811001827644228e-07, 7.814789154925773e-05, 8.570761185675409e-05, -5.539691330792603e-06, -3.517688554056178e-08, 4.811001827644228e-07, 0.00011826490314422235]",,,,-0.240929358491,0.755564952073,0.143121524837,,0.0172141160094,-0.00238772049145,0.0670261158755,"[0.0003778354116642746, -2.3218141554420916e-05, -1.126768478120438e-05, -7.914841764114052e-10, 1.7326101305299303e-08, 5.876397858069942e-08, -2.3218141554420916e-05, 0.00035621509655356457, 3.4095630524325905e-05, -2.023703023315975e-08, -4.512701477947517e-09, 2.7288305634576243e-08, -1.126768478120438e-05, 3.4095630524325905e-05, 0.00022659297045722604, -2.5159227768205077e-09, -2.877226132253671e-09, 2.0849722183278362e-09, -7.914841764114052e-10, -2.023703023315975e-08, -2.5159227768205077e-09, 2.8785625414894175e-09, 8.30334062113756e-12, 1.524591600338e-11, 1.7326101305299303e-08, -4.512701477947517e-09, -2.877226132253671e-09, 8.30334062113756e-12, 2.842013511561318e-09, -7.920020878528346e-13, 5.876397858069942e-08, 2.7288305634576243e-08, 2.0849722183278362e-09, 1.524591600338e-11, -7.920020878528346e-13, 2.8878967190255785e-09]"
1402415884082915339,,189740,,1402415884,39042949,/enu,/base_link,,,,2.5288548925,30.9094153009,-31.8904219456,,0.000109651960483,0.0190449852526,-0.573680029175,0.818858046696,"[0.030467714395087636, -0.005062746696779508, -0.00030781431735667333, 1.4715187344632896e-07, 4.208486170853778e-06, 7.768719552842901e-05, -0.005062746696779508, 0.03477218621959807, 0.009858477651314524, 1.5297804007238894e-06, 1.7531947465861316e-06, 8.565132578111656e-05, -0.00030781431735667333, 0.009858477651314524, 0.2180277024454156, 2.748192380969598e-06, -5.605088195231746e-06, -5.488156822311926e-06, 1.4715187344632896e-07, 1.5297804007238894e-06, 2.748192380969598e-06, 5.145399825719696e-06, -1.967963520952049e-07, -3.150835246515415e-08, 4.208486170853778e-06, 1.7531947465861316e-06, -5.605088195231746e-06, -1.967963520952049e-07, 4.8517495753383765e-06, 4.0980912725149424e-07, 7.768719552842901e-05, 8.565132578111656e-05, -5.488156822311926e-06, -3.150835246515415e-08, 4.0980912725149424e-07, 0.00011826173134068433]",,,,-0.280350692153,0.780705473079,0.150370361667,,0.00484274935298,0.0164963197958,0.0715546792407,"[0.00035892180346872043, -1.6365902266215426e-05, -1.2367517910320545e-05, -7.331230359555469e-10, 1.5893806845240322e-08, 6.09300397810252e-08, -1.6365902266215426e-05, 0.00033544854897038935, 3.3143714529099196e-05, -1.891765156820887e-08, -4.3593948587955914e-09, 3.014414336455424e-08, -1.2367517910320545e-05, 3.3143714529099196e-05, 0.0002245715274679345, -2.536968970670246e-09, -3.0756344705759492e-09, 2.058609404489363e-09, -7.331230359555469e-10, -1.891765156820887e-08, -2.536968970670246e-09, 2.8784640504682653e-09, 8.301960457060331e-12, 1.52757216203712e-11, 1.5893806845240322e-08, -4.3593948587955914e-09, -3.0756344705759492e-09, 8.301960457060331e-12, 2.8419142504244937e-09, -7.980289368206814e-13, 6.09300397810252e-08, 3.014414336455424e-08, 2.058609404489363e-09, 1.52757216203712e-11, -7.980289368206814e-13, 2.887877779282283e-09]"
1402415884082943953,,189741,,1402415884,50026893,/enu,/base_link,,,,2.53573901516,30.915174936,-31.8887630015,,4.22826260272e-05,0.0190718136287,-0.57333363369,0.819099999155,"[0.030471669019233507, -0.005062023748975209, -0.00030558915549924894, 1.1954169824200561e-07, 4.497584957669511e-06, 7.773656098047114e-05, -0.005062023748975209, 0.034776474620386195, 0.009858819955624265, 1.2245117495585067e-06, 1.7835123120429907e-06, 8.571514899730743e-05, -0.00030558915549924894, 0.009858819955624265, 0.21805581772496563, 2.747906319369858e-06, -5.61116612796433e-06, -5.4943538835424365e-06, 1.1954169824200561e-07, 1.2245117495585067e-06, 2.747906319369858e-06, 5.19359170496537e-06, -1.9679357139352017e-07, -3.1378275769247486e-08, 4.497584957669511e-06, 1.7835123120429907e-06, -5.61116612796433e-06, -1.9679357139352017e-07, 4.899976594203163e-06, 4.083217056390692e-07, 7.773656098047114e-05, 8.571514899730743e-05, -5.4943538835424365e-06, -3.1378275769247486e-08, 4.083217056390692e-07, 0.00011829101373771178]",,,,-0.282390056468,0.784466106085,0.145045803809,,-0.0138229242402,-0.00371562181298,0.0742054446307,"[0.0003646980246417461, -1.6884225179391975e-05, -1.2380270578363965e-05, -7.368100421718449e-10, 1.6252700727023576e-08, 6.097997608709592e-08, -1.6884225179391975e-05, 0.00034174247394626274, 3.3654919568270705e-05, -1.9283289225608977e-08, -4.405721002268094e-09, 3.010510232515049e-08, -1.2380270578363965e-05, 3.3654919568270705e-05, 0.0002250636520168317, -2.5726427083405998e-09, -3.0750683575315445e-09, 2.0601571009756392e-09, -7.368100421718449e-10, -1.9283289225608977e-08, -2.5726427083405998e-09, 2.878463979338762e-09, 8.301930647312966e-12, 1.527652835140408e-11, 1.6252700727023576e-08, -4.405721002268094e-09, -3.0750683575315445e-09, 8.301930647312966e-12, 2.841914185088891e-09, -7.978841344221019e-13, 6.097997608709592e-08, 3.010510232515049e-08, 2.0601571009756392e-09, 1.527652835140408e-11, -7.978841344221019e-13, 2.8878679251540513e-09]"
1402415884082965871,,189742,,1402415884,60015916,/enu,/base_link,,,,2.54215123182,30.92046878,-31.8873414715,,0.000235378249815,0.0190885734398,-0.573010467678,0.819325683042,"[0.030475332040883818, -0.00506137613170599, -0.0003035374248516262, 9.422329468876376e-08, 4.765061902303942e-06, 7.778561759154575e-05, -0.00506137613170599, 0.03478041565981283, 0.009859109785308639, 9.41953075050379e-07, 1.8111602238880348e-06, 8.576894456284551e-05, -0.0003035374248516262, 0.009859109785308639, 0.21808151859981006, 2.7469393768186993e-06, -5.616700914607398e-06, -5.4996029879724664e-06, 9.422329468876376e-08, 9.41953075050379e-07, 2.7469393768186993e-06, 5.233427778935234e-06, -1.9679039167190644e-07, -3.123976894312986e-08, 4.765061902303942e-06, 1.8111602238880348e-06, -5.616700914607398e-06, -1.9679039167190644e-07, 4.939849032686658e-06, 4.0682137286737157e-07, 7.778561759154575e-05, 8.576894456284551e-05, -5.4996029879724664e-06, -3.123976894312986e-08, 4.0682137286737157e-07, 0.00011831177791666073]",,,,-0.277889771914,0.78001361399,0.146817571423,,0.0288099098389,0.0242276607495,0.0765248693975,"[0.00037001508964189646, -1.7377197423611686e-05, -1.2341586224304188e-05, -7.404734578076708e-10, 1.6582895933522876e-08, 6.102494920023608e-08, -1.7377197423611686e-05, 0.0003475597350931325, 3.407131792173816e-05, -1.9619923719778812e-08, -4.450304153084374e-09, 3.0067435262439563e-08, -1.2341586224304188e-05, 3.407131792173816e-05, 0.00022543719476994452, -2.5972421162187365e-09, -3.0680098415054916e-09, 2.06551985952072e-09, -7.404734578076708e-10, -1.9619923719778812e-08, -2.5972421162187365e-09, 2.8784639071063686e-09, 8.301900515483679e-12, 1.5277341239410504e-11, 1.6582895933522876e-08, -4.450304153084374e-09, -3.0680098415054916e-09, 8.301900515483679e-12, 2.8419141186198553e-09, -7.977408094340613e-13, 6.102494920023608e-08, 3.0067435262439563e-08, 2.06551985952072e-09, 1.5277341239410504e-11, -7.977408094340613e-13, 2.8878580683041067e-09]"
1402415884122838052,,189743,,1402415884,71044921,/enu,/base_link,,,,2.54920859827,30.926320285,-31.8858447873,,0.000215403712536,0.018997981558,-0.572672141744,0.819564303986,"[0.030479525360238863, -0.005060660416458115, -0.00030124255701547667, 6.60575446563341e-08, 5.066291268366226e-06, 7.78344788926059e-05, -0.005060660416458115, 0.03478487700906026, 0.009859562246299754, 6.238108026785207e-07, 1.842012870223397e-06, 8.58318037997798e-05, -0.00030124255701547667, 0.009859562246299754, 0.21810956756981292, 2.746731298142367e-06, -5.6227360137093575e-06, -5.505593248491062e-06, 6.60575446563341e-08, 6.238108026785207e-07, 2.746731298142367e-06, 5.2820130568520714e-06, -1.9678758592842459e-07, -3.110762128986003e-08, 5.066291268366226e-06, 1.842012870223397e-06, -5.6227360137093575e-06, -1.9678758592842459e-07, 4.988470850507151e-06, 4.053082146365986e-07, 7.78344788926059e-05, 8.58318037997798e-05, -5.505593248491062e-06, -3.110762128986003e-08, 4.053082146365986e-07, 0.00011834144940460253]",,,,-0.282541359816,0.78417596757,0.145440639009,,0.00550543016874,-0.0161962212974,0.0724383219765,"[0.00037603116681330674, -1.7905006497417634e-05, -1.236568325068415e-05, -7.453633981706403e-10, 1.694905710965153e-08, 6.107493715586864e-08, -1.7905006497417634e-05, 0.0003541194955123183, 3.457243886577039e-05, -1.9994041407524148e-08, -4.4984418371217e-09, 3.0029074000326036e-08, -1.236568325068415e-05, 3.457243886577039e-05, 0.00022592265922930974, -2.6290066016736514e-09, -3.0685083524020676e-09, 2.052155345299734e-09, -7.453633981706403e-10, -1.9994041407524148e-08, -2.6290066016736514e-09, 2.8784638338462624e-09, 8.301870157116411e-12, 1.5278159723952978e-11, 1.694905710965153e-08, -4.4984418371217e-09, -3.0685083524020676e-09, 8.301870157116411e-12, 2.841914051185479e-09, -7.975988246967301e-13, 6.107493715586864e-08, 3.0029074000326036e-08, 2.052155345299734e-09, 1.5278159723952978e-11, -7.975988246967301e-13, 2.8878482079053506e-09]"
1402415884122867031,,189744,,1402415884,81008911,/enu,/base_link,,,,2.55578215035,30.9316455944,-31.8845289875,,0.000425166443919,0.0189388432428,-0.572360943302,0.819782953002,"[0.030483324712497702, -0.005059974132867693, -0.00029924815640398515, 4.041535294782623e-08, 5.3433534828744726e-06, 7.788226983991038e-05, -0.005059974132867693, 0.03478893362502105, 0.009859850471383434, 3.310902045238982e-07, 1.8699794768005835e-06, 8.588520052713742e-05, -0.00029924815640398515, 0.009859850471383434, 0.21813544540964522, 2.745811021478528e-06, -5.628243245413647e-06, -5.51099149694088e-06, 4.041535294782623e-08, 3.310902045238982e-07, 2.745811021478528e-06, 5.3216452688203145e-06, -1.9678435660790635e-07, -3.096666384723915e-08, 5.3433534828744726e-06, 1.8699794768005835e-06, -5.628243245413647e-06, -1.9678435660790635e-07, 5.028140880202647e-06, 4.037821760594385e-07, 7.788226983991038e-05, 8.588520052713742e-05, -5.51099149694088e-06, -3.096666384723915e-08, 4.037821760594385e-07, 0.00011836199446554004]",,,,-0.278477363938,0.780803316688,0.152269378554,,0.0404069209296,0.0137351209776,0.0740950595388,"[0.00038152982999183435, -1.840318761715075e-05, -1.2333575926902684e-05, -7.498756488332065e-10, 1.728363545697094e-08, 6.111925018998671e-08, -1.840318761715075e-05, 0.0003601337858086532, 3.49792111709059e-05, -2.0335836888058788e-08, -4.543984511268307e-09, 2.9992550449079867e-08, -1.2333575926902684e-05, 3.49792111709059e-05, 0.00022628850019096208, -2.6510025773482674e-09, -3.062300429326068e-09, 2.047620639182705e-09, -7.498756488332065e-10, -2.0335836888058788e-08, -2.6510025773482674e-09, 2.8784637595380566e-09, 8.301839516471559e-12, 1.5278984462612137e-11, 1.728363545697094e-08, -4.543984511268307e-09, -3.062300429326068e-09, 8.301839516471559e-12, 2.841913982625521e-09, -7.974583601245827e-13, 6.111925018998671e-08, 2.9992550449079867e-08, 2.047620639182705e-09, 1.5278984462612137e-11, -7.974583601245827e-13, 2.887838344762613e-09]"
1402415884122891149,,189745,,1402415884,92030048,/enu,/base_link,,,,2.57770483341,30.908657159,-31.9065665815,,0.0013393510918,0.021340571665,-0.5715533272,0.820286279482,"[0.030459844276401974, -0.005062881050335586, -0.00031013714961171786, 6.246472150176587e-08, 4.185116039937665e-06, 7.754292528950949e-05, -0.005062881050335586, 0.034768409314896324, 0.009863854483936702, 1.4257199871649336e-06, 1.7495866644929355e-06, 8.588514985786387e-05, -0.00031013714961171786, 0.009863854483936702, 0.21803179375389714, 2.8966145699418453e-06, -5.563401707835176e-06, -5.451428186621484e-06, 6.246472150176587e-08, 1.4257199871649336e-06, 2.8966145699418453e-06, 5.161717288381198e-06, -1.9764589784802333e-07, -3.2394640212948104e-08, 4.185116039937665e-06, 1.7495866644929355e-06, -5.563401707835176e-06, -1.9764589784802333e-07, 4.865982902800702e-06, 3.355561920380472e-07, 7.754292528950949e-05, 8.588514985786387e-05, -5.451428186621484e-06, -3.2394640212948104e-08, 3.355561920380472e-07, 0.00011837028152012924]",,,,-0.221870317827,0.793964582906,0.140326434159,,0.0127936993263,0.00567565773855,0.0776300515663,"[0.00036129012831576253, -2.131871671704521e-05, -9.96930831289396e-06, -6.734084432975193e-10, 1.5954932822483763e-08, 6.20856091062264e-08, -2.131871671704521e-05, 0.0003330141232161674, 3.2798245531623536e-05, -1.8957637682831776e-08, -4.221612236857907e-09, 2.4794272567628827e-08, -9.96930831289396e-06, 3.2798245531623536e-05, 0.00022383431819738103, -2.599561082682531e-09, -2.7742964059418872e-09, 2.294475897722378e-09, -6.734084432975193e-10, -1.8957637682831776e-08, -2.599561082682531e-09, 2.8783641282920085e-09, 8.300492657160539e-12, 1.5306616758385408e-11, 1.5954932822483763e-08, -4.221612236857907e-09, -2.7742964059418872e-09, 8.300492657160539e-12, 2.841813633282985e-09, -8.057821087767085e-13, 6.20856091062264e-08, 2.4794272567628827e-08, 2.294475897722378e-09, 1.5306616758385408e-11, -8.057821087767085e-13, 2.88782037603466e-09]"
1402415884139113058,,189746,,1402415884,102004051,/enu,/base_link,,,,2.58424140891,30.9136099283,-31.9053959329,,0.00128153180417,0.0212781449795,-0.57121840417,0.820521256861,"[0.03046351822377863, -0.0050622300371531825, -0.000308036440641048, 3.7386130385784256e-08, 4.448004882875005e-06, 7.757959787884575e-05, -0.0050622300371531825, 0.03477234579394667, 0.00986415391216654, 1.1477802869394048e-06, 1.776841969036429e-06, 8.59398249290281e-05, -0.000308036440641048, 0.00986415391216654, 0.21805720171001491, 2.89614128664261e-06, -5.5689970175016816e-06, -5.4567595745173585e-06, 3.7386130385784256e-08, 1.1477802869394048e-06, 2.89614128664261e-06, 5.20143463505024e-06, -1.9764276189457524e-07, -3.225455697590859e-08, 4.448004882875005e-06, 1.776841969036429e-06, -5.5689970175016816e-06, -1.9764276189457524e-07, 4.905738027642873e-06, 3.3407434475725657e-07, 7.757959787884575e-05, 8.59398249290281e-05, -5.4567595745173585e-06, -3.225455697590859e-08, 3.3407434475725657e-07, 0.00011839093829281909]",,,,-0.222566467249,0.798641377017,0.139401890884,,-0.00355257140085,-0.0176288213062,0.0788449974981,"[0.00036650429740775416, -2.1802247958457622e-05, -9.941869509843206e-06, -6.782720477351007e-10, 1.6280789278462893e-08, 6.21264500766563e-08, -2.1802247958457622e-05, 0.0003387304693286188, 3.32599225281836e-05, -1.9290884403414853e-08, -4.26510232336339e-09, 2.4748564525280248e-08, -9.941869509843206e-06, 3.32599225281836e-05, 0.0002242404226328453, -2.630527643154051e-09, -2.7720863656633864e-09, 2.283618458325321e-09, -6.782720477351007e-10, -1.9290884403414853e-08, -2.630527643154051e-09, 2.8783640577101757e-09, 8.300462688807518e-12, 1.530741863276409e-11, 1.6280789278462893e-08, -4.26510232336339e-09, -2.7720863656633864e-09, 8.300462688807518e-12, 2.8418135678892325e-09, -8.056389095804061e-13, 6.21264500766563e-08, 2.4748564525280248e-08, 2.283618458325321e-09, 1.530741863276409e-11, -8.056389095804061e-13, 2.8878105255255173e-09]"
1402415884139190255,,189747,,1402415884,112994909,/enu,/base_link,,,,2.59195708929,30.9186607623,-31.9036023829,,0.00154360163895,0.0212610992193,-0.570870168662,0.820763567348,"[0.030467620526085114, -0.005061513598545946, -0.00030586622506633895, 9.47971312121492e-09, 4.744086706004216e-06, 7.76288867737726e-05, -0.005061513598545946, 0.034776699037014594, 0.009864449061496663, 8.348549996833352e-07, 1.8072103297698904e-06, 8.599987751518114e-05, -0.00030586622506633895, 0.009864449061496663, 0.21808523252104964, 2.8958261441808024e-06, -5.574924414981341e-06, -5.4627409211172394e-06, 9.47971312121492e-09, 8.348549996833352e-07, 2.8958261441808024e-06, 5.249684928067454e-06, -1.9763998758262467e-07, -3.212049361729044e-08, 4.744086706004216e-06, 1.8072103297698904e-06, -5.574924414981341e-06, -1.9763998758262467e-07, 4.954026292355977e-06, 3.325792785985873e-07, 7.76288867737726e-05, 8.599987751518114e-05, -5.4627409211172394e-06, -3.212049361729044e-08, 3.325792785985873e-07, 0.00011842028264536551]",,,,-0.217105141194,0.793356289727,0.143284919986,,0.0397429494616,0.024009983679,0.0757524790306,"[0.0003724128841733564, -2.2357269686551556e-05, -9.83277252860096e-06, -6.823688976243535e-10, 1.6644500438050984e-08, 6.2170369362985e-08, -2.2357269686551556e-05, 0.0003452130967479201, 3.3706539191211e-05, -1.9662584071374188e-08, -4.31453157374032e-09, 2.470224270027614e-08, -9.83277252860096e-06, 3.3706539191211e-05, 0.0002246903080249135, -2.6557881200265193e-09, -2.760099946057338e-09, 2.28823386326421e-09, -6.823688976243535e-10, -1.9662584071374188e-08, -2.6557881200265193e-09, 2.8783639861177363e-09, 8.300432497825676e-12, 1.530822606548745e-11, 1.6644500438050984e-08, -4.31453157374032e-09, -2.760099946057338e-09, 8.300432497825676e-12, 2.8418135014891038e-09, -8.054970031658452e-13, 6.2170369362985e-08, 2.470224270027614e-08, 2.28823386326421e-09, 1.530822606548745e-11, -8.054970031658452e-13, 2.8878006728307384e-09]"
