rosbagTimestamp,transforms,-,header,seq,stamp,secs,nsecs,frame_id,child_frame_id,transform,translation,x,y,z,rotation,x,y,z,w
1402415883843216015,,errorv,,0,,1402415883,768184900,/enu,/base_link,,,2.37671950537,30.7743439827,-31.9782612875,,0.000424007870016,0.0213324660171,-0.579842099782,0.814449437001
1402415883843235946,,errorv,,0,,1402415883,778307914,/enu,/base_link,,,2.38356021203,30.7793814575,-31.9768735193,,0.000492024100951,0.0213532041379,-0.579654853354,0.814582131874
1402415883843261111,,errorv,,0,,1402415883,789257049,/enu,/base_link,,,2.38593183452,30.7691329597,-31.978449293,,0.00121298360953,0.0216529034601,-0.579574046483,0.814630962514
1402415883843329292,,errorv,,0,,1402415883,799158096,/enu,/base_link,,,2.39263344287,30.7738618086,-31.9770579487,,0.00126000532477,0.0216355725072,-0.579370214088,0.814776330914
1402415883857661179,,errorv,,0,,1402415883,857522202,base_link,/z_drive,,,0.0,0.0,0.0,,0.0,0.0,0.0,1.0
1402415883857691459,,errorv,,0,,1402415883,857546836,/z_drive,port,,,-0.3,0.3048,0.0,,0.0,0.0,0.0,1.0
1402415883857805817,,errorv,,0,,1402415883,857553113,/z_drive,starboard,,,-0.3,-0.3048,0.0,,0.0,0.0,0.0,1.0
1402415883863123666,,errorv,,0,,1402415883,962885544,base_link,imu,,,0.13,0.0,-0.1,,1.0,0.0,0.0,0.0
1402415883863154424,,errorv,,0,,1402415883,962934434,/base_link,/gps,,,-0.84,0.0,-0.14,,0.0,0.0,0.0,1.0
1402415883877636743,,errorv,,0,,1402415883,877479501,base_link,/z_drive,,,0.0,0.0,0.0,,0.0,0.0,0.0,1.0
1402415883877665144,,errorv,,0,,1402415883,877504441,/z_drive,port,,,-0.3,0.3048,0.0,,0.0,0.0,0.0,1.0
1402415883877910192,,errorv,,0,,1402415883,877511778,/z_drive,starboard,,,-0.3,-0.3048,0.0,,0.0,0.0,0.0,1.0
1402415883883099811,,errorv,,0,,1402415883,810127973,/enu,/base_link,,,2.39986869256,30.7791398742,-31.9755736349,,0.00112117140741,0.0217716260593,-0.579137511307,0.814938330348
1402415883883180158,,errorv,,0,,1402415883,820127010,/enu,/base_link,,,2.4065352306,30.7838187518,-31.9737532438,,0.00093865617091,0.0217287415957,-0.578926011417,0.815089966824
1402415883883294163,,errorv,,0,,1402415883,831239938,/enu,/base_link,,,2.41422404462,30.7892901969,-31.9724459936,,0.00100548827948,0.0217361411009,-0.578672724067,0.815269530637
1402415883883316706,,errorv,,0,,1402415883,841125011,/enu,/base_link,,,2.41598870759,30.7995995022,-32.0008522178,,0.000441081720515,0.021535418873,-0.578397565353,0.81547059271
1402415883897718603,,errorv,,0,,1402415883,897479064,base_link,/z_drive,,,0.0,0.0,0.0,,0.0,0.0,0.0,1.0
1402415883897748177,,errorv,,0,,1402415883,897518588,/z_drive,port,,,-0.3,0.3048,0.0,,0.0,0.0,0.0,1.0
1402415883897772119,,errorv,,0,,1402415883,897524339,/z_drive,starboard,,,-0.3,-0.3048,0.0,,0.0,0.0,0.0,1.0
1402415883917807254,,errorv,,0,,1402415883,917464046,base_link,/z_drive,,,0.0,0.0,0.0,,0.0,0.0,0.0,1.0
1402415883917841344,,errorv,,0,,1402415883,917485878,/z_drive,port,,,-0.3,0.3048,0.0,,0.0,0.0,0.0,1.0
1402415883917866844,,errorv,,0,,1402415883,917497834,/z_drive,starboard,,,-0.3,-0.3048,0.0,,0.0,0.0,0.0,1.0
1402415883923243663,,errorv,,0,,1402415883,852099895,/enu,/base_link,,,2.42326903898,30.8048694533,-31.9991467289,,0.000580701442135,0.021565710584,-0.578171281714,0.81563015633
1402415883923279092,,errorv,,0,,1402415883,862099885,/enu,/base_link,,,2.43006341892,30.8098832698,-31.9977590794,,0.000419050643306,0.0215600769885,-0.577918733426,0.815809368071
1402415883923302802,,errorv,,0,,1402415883,873100042,/enu,/base_link,,,2.43736179214,30.8153746023,-31.9962433189,,0.000345941057037,0.021565188634,-0.577656107335,0.815995247917
1402415883923328636,,errorv,,0,,1402415883,883099079,/enu,/base_link,,,2.44503112392,30.8160708866,-31.991996264,,0.000459502634979,0.0219205769788,-0.57731198397,0.816229226582
1402415883923353576,,errorv,,0,,1402415883,893100023,/enu,/base_link,,,2.45192526794,30.8209587045,-31.9904843258,,0.000294309198133,0.0219247923913,-0.577060759327,0.816406820713
1402415883937837904,,errorv,,0,,1402415883,937526022,base_link,/z_drive,,,0.0,0.0,0.0,,0.0,0.0,0.0,1.0
1402415883937999413,,errorv,,0,,1402415883,937546629,/z_drive,port,,,-0.3,0.3048,0.0,,0.0,0.0,0.0,1.0
1402415883938024065,,errorv,,0,,1402415883,937550610,/z_drive,starboard,,,-0.3,-0.3048,0.0,,0.0,0.0,0.0,1.0
1402415883958772301,,errorv,,0,,1402415883,957474696,base_link,/z_drive,,,0.0,0.0,0.0,,0.0,0.0,0.0,1.0
1402415883958798464,,errorv,,0,,1402415883,957493512,/z_drive,port,,,-0.3,0.3048,0.0,,0.0,0.0,0.0,1.0
1402415883958829958,,errorv,,0,,1402415883,957500139,/z_drive,starboard,,,-0.3,-0.3048,0.0,,0.0,0.0,0.0,1.0
1402415883963117719,,errorv,,0,,1402415883,904097080,/enu,/base_link,,,2.45938375225,30.8265711519,-31.9893170764,,0.000326729565014,0.0218442555289,-0.576796861754,0.816595433504
1402415883963148795,,errorv,,0,,1402415883,914071083,/enu,/base_link,,,2.46627654356,30.8312992798,-31.9876271177,,0.000350306509234,0.0218267719683,-0.57652292358,0.816789316714
1402415883963171320,,errorv,,0,,1402415883,925071954,/enu,/base_link,,,2.47397549978,30.8367596246,-31.9861631106,,0.000428032898216,0.021687385465,-0.576265674398,0.816974507931
1402415883963252928,,errorv,,0,,1402415884,62987894,base_link,imu,,,0.13,0.0,-0.1,,1.0,0.0,0.0,0.0
1402415883963267797,,errorv,,0,,1402415884,63031536,/base_link,/gps,,,-0.84,0.0,-0.14,,0.0,0.0,0.0,1.0
1402415883971266386,,errorv,,0,,1402415883,935060024,/enu,/base_link,,,2.45602355302,30.8268195573,-31.9764522585,,0.00211967871386,0.0208852403155,-0.576515906326,0.816816211551
1402415883971317146,,errorv,,0,,1402415883,945074081,/enu,/base_link,,,2.46242411995,30.8315134386,-31.9750880623,,0.00192101566392,0.0208371083737,-0.576256457619,0.817000991227
1402415883977850738,,errorv,,0,,1402415883,977564525,base_link,/z_drive,,,0.0,0.0,0.0,,0.0,0.0,0.0,1.0
1402415883977979337,,errorv,,0,,1402415883,977583403,/z_drive,port,,,-0.3,0.3048,0.0,,0.0,0.0,0.0,1.0
1402415883978009675,,errorv,,0,,1402415883,977589822,/z_drive,starboard,,,-0.3,-0.3048,0.0,,0.0,0.0,0.0,1.0
1402415883997754343,,errorv,,0,,1402415883,997511472,base_link,/z_drive,,,0.0,0.0,0.0,,0.0,0.0,0.0,1.0
1402415883997784161,,errorv,,0,,1402415883,997533487,/z_drive,port,,,-0.3,0.3048,0.0,,0.0,0.0,0.0,1.0
1402415883997804597,,errorv,,0,,1402415883,997543697,/z_drive,starboard,,,-0.3,-0.3048,0.0,,0.0,0.0,0.0,1.0
1402415884011033819,,errorv,,0,,1402415883,956063032,/enu,/base_link,,,2.46949319585,30.8367812524,-31.9736935495,,0.00200145052888,0.0207840393075,-0.575971486371,0.817203074391
1402415884011069311,,errorv,,0,,1402415883,966062068,/enu,/base_link,,,2.47613032494,30.8413988657,-31.9723412406,,0.00202286554018,0.0207864934433,-0.575700910028,0.817393596683
1402415884017770486,,errorv,,0,,1402415884,17445136,base_link,/z_drive,,,0.0,0.0,0.0,,0.0,0.0,0.0,1.0
1402415884017836577,,errorv,,0,,1402415884,17492508,/z_drive,port,,,-0.3,0.3048,0.0,,0.0,0.0,0.0,1.0
1402415884017961238,,errorv,,0,,1402415884,17498114,/z_drive,starboard,,,-0.3,-0.3048,0.0,,0.0,0.0,0.0,1.0
1402415884037786456,,errorv,,0,,1402415884,37432038,base_link,/z_drive,,,0.0,0.0,0.0,,0.0,0.0,0.0,1.0
1402415884037817868,,errorv,,0,,1402415884,37494716,/z_drive,port,,,-0.3,0.3048,0.0,,0.0,0.0,0.0,1.0
1402415884037856486,,errorv,,0,,1402415884,37503647,/z_drive,starboard,,,-0.3,-0.3048,0.0,,0.0,0.0,0.0,1.0
1402415884051220732,,errorv,,0,,1402415883,977061986,/enu,/base_link,,,2.48297604819,30.8465153934,-31.9708005746,,0.00185492824118,0.0207074351814,-0.575436492226,0.81758217005
1402415884051338444,,errorv,,0,,1402415883,987045049,/enu,/base_link,,,2.48607156369,30.8592126067,-31.9367167647,,0.00166348572848,0.0199671871492,-0.575249789833,0.817732366701
1402415884051365175,,errorv,,0,,1402415883,998051881,/enu,/base_link,,,2.49309026727,30.8645514565,-31.9352091045,,0.00166587235239,0.0198764493171,-0.574943406187,0.817950017613
1402415884051387986,,errorv,,0,,1402415884,8060932,/enu,/base_link,,,2.49951672182,30.8693875019,-31.9338612229,,0.00189325487682,0.0197869078234,-0.574670135824,0.818143709171
1402415884057669453,,errorv,,0,,1402415884,57493297,base_link,/z_drive,,,0.0,0.0,0.0,,0.0,0.0,0.0,1.0
1402415884057703661,,errorv,,0,,1402415884,57511450,/z_drive,port,,,-0.3,0.3048,0.0,,0.0,0.0,0.0,1.0
1402415884057728820,,errorv,,0,,1402415884,57521193,/z_drive,starboard,,,-0.3,-0.3048,0.0,,0.0,0.0,0.0,1.0
1402415884063298644,,errorv,,0,,1402415884,163087005,base_link,imu,,,0.13,0.0,-0.1,,1.0,0.0,0.0,0.0
1402415884063385395,,errorv,,0,,1402415884,163135251,/base_link,/gps,,,-0.84,0.0,-0.14,,0.0,0.0,0.0,1.0
1402415884077794476,,errorv,,0,,1402415884,77588554,base_link,/z_drive,,,0.0,0.0,0.0,,0.0,0.0,0.0,1.0
1402415884077950683,,errorv,,0,,1402415884,77616778,/z_drive,port,,,-0.3,0.3048,0.0,,0.0,0.0,0.0,1.0
1402415884077977138,,errorv,,0,,1402415884,77624976,/z_drive,starboard,,,-0.3,-0.3048,0.0,,0.0,0.0,0.0,1.0
1402415884091104550,,errorv,,0,,1402415884,18050909,/enu,/base_link,,,2.50588267269,30.8742470907,-31.9325426889,,0.0017984532921,0.0198290507184,-0.574396984767,0.818334698155
1402415884091137464,,errorv,,0,,1402415884,29086112,/enu,/base_link,,,2.51285586039,30.8795238466,-31.9310123814,,0.00187458421817,0.0197631212717,-0.574084644645,0.818555267379
1402415884091335979,,errorv,,0,,1402415884,39042949,/enu,/base_link,,,2.5288548925,30.9094153009,-31.8904219456,,0.000109651960483,0.0190449852526,-0.573680029175,0.818858046696
1402415884091365161,,errorv,,0,,1402415884,50026893,/enu,/base_link,,,2.53573901516,30.915174936,-31.8887630015,,4.22826260272e-05,0.0190718136287,-0.57333363369,0.819099999155
1402415884091387769,,errorv,,0,,1402415884,60015916,/enu,/base_link,,,2.54215123182,30.92046878,-31.8873414715,,0.000235378249815,0.0190885734398,-0.573010467678,0.819325683042
1402415884097783606,,errorv,,0,,1402415884,97549458,base_link,/z_drive,,,0.0,0.0,0.0,,0.0,0.0,0.0,1.0
1402415884097917506,,errorv,,0,,1402415884,97659360,/z_drive,port,,,-0.3,0.3048,0.0,,0.0,0.0,0.0,1.0
1402415884097948318,,errorv,,0,,1402415884,97672076,/z_drive,starboard,,,-0.3,-0.3048,0.0,,0.0,0.0,0.0,1.0
1402415884117641339,,errorv,,0,,1402415884,117494105,base_link,/z_drive,,,0.0,0.0,0.0,,0.0,0.0,0.0,1.0
1402415884117714311,,errorv,,0,,1402415884,117522364,/z_drive,port,,,-0.3,0.3048,0.0,,0.0,0.0,0.0,1.0
1402415884117781506,,errorv,,0,,1402415884,117556039,/z_drive,starboard,,,-0.3,-0.3048,0.0,,0.0,0.0,0.0,1.0
1402415884131072920,,errorv,,0,,1402415884,71044921,/enu,/base_link,,,2.54920859827,30.926320285,-31.8858447873,,0.000215403712536,0.018997981558,-0.572672141744,0.819564303986
1402415884131100898,,errorv,,0,,1402415884,81008911,/enu,/base_link,,,2.55578215035,30.9316455944,-31.8845289875,,0.000425166443919,0.0189388432428,-0.572360943302,0.819782953002
1402415884131171419,,errorv,,0,,1402415884,92030048,/enu,/base_link,,,2.57770483341,30.908657159,-31.9065665815,,0.0013393510918,0.021340571665,-0.5715533272,0.820286279482
1402415884137686377,,errorv,,0,,1402415884,137511206,base_link,/z_drive,,,0.0,0.0,0.0,,0.0,0.0,0.0,1.0
1402415884137797506,,errorv,,0,,1402415884,137531240,/z_drive,port,,,-0.3,0.3048,0.0,,0.0,0.0,0.0,1.0
1402415884137827200,,errorv,,0,,1402415884,137541667,/z_drive,starboard,,,-0.3,-0.3048,0.0,,0.0,0.0,0.0,1.0
1402415884139248226,,errorv,,0,,1402415884,102004051,/enu,/base_link,,,2.58424140891,30.9136099283,-31.9053959329,,0.00128153180417,0.0212781449795,-0.57121840417,0.820521256861
1402415884139279669,,errorv,,0,,1402415884,112994909,/enu,/base_link,,,2.59195708929,30.9186607623,-31.9036023829,,0.00154360163895,0.0212610992193,-0.570870168662,0.820763567348
1402415884157743208,,errorv,,0,,1402415884,157515057,base_link,/z_drive,,,0.0,0.0,0.0,,0.0,0.0,0.0,1.0
1402415884157772341,,errorv,,0,,1402415884,157534789,/z_drive,port,,,-0.3,0.3048,0.0,,0.0,0.0,0.0,1.0
1402415884157801642,,errorv,,0,,1402415884,157615497,/z_drive,starboard,,,-0.3,-0.3048,0.0,,0.0,0.0,0.0,1.0
1402415884163397804,,errorv,,0,,1402415884,263192966,base_link,imu,,,0.13,0.0,-0.1,,1.0,0.0,0.0,0.0
1402415884163481266,,errorv,,0,,1402415884,263245505,/base_link,/gps,,,-0.84,0.0,-0.14,,0.0,0.0,0.0,1.0
1402415884177809121,,errorv,,0,,1402415884,177495714,base_link,/z_drive,,,0.0,0.0,0.0,,0.0,0.0,0.0,1.0
1402415884177835933,,errorv,,0,,1402415884,177609557,/z_drive,port,,,-0.3,0.3048,0.0,,0.0,0.0,0.0,1.0
1402415884177965020,,errorv,,0,,1402415884,177618156,/z_drive,starboard,,,-0.3,-0.3048,0.0,,0.0,0.0,0.0,1.0
1402415884179040104,,errorv,,0,,1402415884,122988939,/enu,/base_link,,,2.59835746001,30.9235006125,-31.9023482389,,0.00156769178527,0.0212296445504,-0.570521567155,0.821006690561
1402415884179157695,,errorv,,0,,1402415884,132988929,/enu,/base_link,,,2.57767083788,30.9242115339,-31.9280406501,,0.00276487760503,0.0198074704432,-0.57060842662,0.820978710465
1402415884197680927,,errorv,,0,,1402415884,197490955,base_link,/z_drive,,,0.0,0.0,0.0,,0.0,0.0,0.0,1.0
1402415884197703666,,errorv,,0,,1402415884,197513155,/z_drive,port,,,-0.3,0.3048,0.0,,0.0,0.0,0.0,1.0
1402415884197859315,,errorv,,0,,1402415884,197523030,/z_drive,starboard,,,-0.3,-0.3048,0.0,,0.0,0.0,0.0,1.0
1402415884217663809,,errorv,,0,,1402415884,217486220,base_link,/z_drive,,,0.0,0.0,0.0,,0.0,0.0,0.0,1.0
1402415884217690963,,errorv,,0,,1402415884,217504741,/z_drive,port,,,-0.3,0.3048,0.0,,0.0,0.0,0.0,1.0
1402415884217716607,,errorv,,0,,1402415884,217515337,/z_drive,starboard,,,-0.3,-0.3048,0.0,,0.0,0.0,0.0,1.0
1402415884219192579,,errorv,,0,,1402415884,143991947,/enu,/base_link,,,2.58460903924,30.9295826697,-31.9269564868,,0.00272804874428,0.0198019994891,-0.570220694649,0.821248316869
1402415884219258285,,errorv,,0,,1402415884,153990030,/enu,/base_link,,,2.59091967387,30.9343281471,-31.9258985698,,0.00299534827694,0.019633944838,-0.569862800333,0.821499802127
1402415884219317889,,errorv,,0,,1402415884,164992094,/enu,/base_link,,,2.59771647162,30.9396010325,-31.9245970237,,0.0031742772502,0.0196258121302,-0.569472096536,0.821770212851
1402415884219341205,,errorv,,0,,1402415884,174963951,/enu,/base_link,,,2.60396306971,30.9441942503,-31.9231158629,,0.00319063479118,0.0195441185896,-0.569097999149,0.822031212694
1402415884237667789,,errorv,,0,,1402415884,237491581,base_link,/z_drive,,,0.0,0.0,0.0,,0.0,0.0,0.0,1.0
1402415884237794134,,errorv,,0,,1402415884,237528703,/z_drive,port,,,-0.3,0.3048,0.0,,0.0,0.0,0.0,1.0
1402415884237822211,,errorv,,0,,1402415884,237567597,/z_drive,starboard,,,-0.3,-0.3048,0.0,,0.0,0.0,0.0,1.0
1402415884257673480,,errorv,,0,,1402415884,257516189,base_link,/z_drive,,,0.0,0.0,0.0,,0.0,0.0,0.0,1.0
1402415884257703782,,errorv,,0,,1402415884,257528510,/z_drive,port,,,-0.3,0.3048,0.0,,0.0,0.0,0.0,1.0
1402415884257773637,,errorv,,0,,1402415884,257532543,/z_drive,starboard,,,-0.3,-0.3048,0.0,,0.0,0.0,0.0,1.0
1402415884259294138,,errorv,,0,,1402415884,185961961,/enu,/base_link,,,2.61498292489,30.9761758851,-31.8871285836,,0.00173095911239,0.0181090350417,-0.568894642867,0.822209189895
1402415884259455398,,errorv,,0,,1402415884,195966005,/enu,/base_link,,,2.62114711033,30.9815687801,-31.8861093829,,0.00186991737494,0.0179482938419,-0.568493146311,0.822490063621
1402415884259477376,,errorv,,0,,1402415884,206965923,/enu,/base_link,,,2.62789355765,30.9872621575,-31.8845628838,,0.0022571148895,0.0178301217146,-0.568077813455,0.822778578994
1402415884259499114,,errorv,,0,,1402415884,216964006,/enu,/base_link,,,2.63430492491,30.9926417496,-31.8835329353,,0.00232380462167,0.0177601482601,-0.567677068541,0.823056451842
1402415884263487703,,errorv,,0,,1402415884,363290692,base_link,imu,,,0.13,0.0,-0.1,,1.0,0.0,0.0,0.0
1402415884263605208,,errorv,,0,,1402415884,363349871,/base_link,/gps,,,-0.84,0.0,-0.14,,0.0,0.0,0.0,1.0
1402415884277746447,,errorv,,0,,1402415884,277561146,base_link,/z_drive,,,0.0,0.0,0.0,,0.0,0.0,0.0,1.0
1402415884277776828,,errorv,,0,,1402415884,277600569,/z_drive,port,,,-0.3,0.3048,0.0,,0.0,0.0,0.0,1.0
1402415884277810354,,errorv,,0,,1402415884,277610399,/z_drive,starboard,,,-0.3,-0.3048,0.0,,0.0,0.0,0.0,1.0
1402415884297822867,,errorv,,0,,1402415884,297681814,base_link,/z_drive,,,0.0,0.0,0.0,,0.0,0.0,0.0,1.0
1402415884297852093,,errorv,,0,,1402415884,297697258,/z_drive,port,,,-0.3,0.3048,0.0,,0.0,0.0,0.0,1.0
1402415884297874085,,errorv,,0,,1402415884,297701682,/z_drive,starboard,,,-0.3,-0.3048,0.0,,0.0,0.0,0.0,1.0
1402415884299141776,,errorv,,0,,1402415884,226937055,/enu,/base_link,,,2.64053695958,30.9979440337,-31.8824279684,,0.0024297387406,0.0176334929138,-0.567293899691,0.82332301539
1402415884299196313,,errorv,,0,,1402415884,237914085,/enu,/base_link,,,2.64724332265,31.003722009,-31.8810936499,,0.00274428688584,0.0175330840629,-0.566863457001,0.823620592852
1402415884299227742,,errorv,,0,,1402415884,247922897,/enu,/base_link,,,2.65356410733,31.0091061678,-31.8799774036,,0.0027767812133,0.0174449275996,-0.566452278769,0.823905200775
1402415884299264099,,errorv,,0,,1402415884,257931947,/enu,/base_link,,,2.6596420924,31.0142282049,-31.8784742334,,0.00306490889078,0.0172899696106,-0.566075234789,0.824166543754
1402415884299318864,,errorv,,0,,1402415884,268919944,/enu,/base_link,,,2.66638882145,31.0202036346,-31.8772864946,,0.00311905733915,0.0172252697497,-0.56562560088,0.824476343622
1402415884317793464,,errorv,,0,,1402415884,317509984,base_link,/z_drive,,,0.0,0.0,0.0,,0.0,0.0,0.0,1.0
1402415884317819352,,errorv,,0,,1402415884,317544890,/z_drive,port,,,-0.3,0.3048,0.0,,0.0,0.0,0.0,1.0
1402415884317838559,,errorv,,0,,1402415884,317554334,/z_drive,starboard,,,-0.3,-0.3048,0.0,,0.0,0.0,0.0,1.0
1402415884337828676,,errorv,,0,,1402415884,337655723,base_link,/z_drive,,,0.0,0.0,0.0,,0.0,0.0,0.0,1.0
1402415884337862051,,errorv,,0,,1402415884,337677025,/z_drive,port,,,-0.3,0.3048,0.0,,0.0,0.0,0.0,1.0
1402415884337905045,,errorv,,0,,1402415884,337685012,/z_drive,starboard,,,-0.3,-0.3048,0.0,,0.0,0.0,0.0,1.0
1402415884339009102,,errorv,,0,,1402415884,278928041,/enu,/base_link,,,2.68101333017,31.0537165555,-31.8092341348,,0.00157140283219,0.0157896343048,-0.565541174876,0.824567400315
1402415884339108781,,errorv,,0,,1402415884,289894104,/enu,/base_link,,,2.68765554616,31.059953061,-31.8074942274,,0.00176037016288,0.0157153435636,-0.565071529058,0.824890353999
1402415884339135451,,errorv,,0,,1402415884,299896001,/enu,/base_link,,,2.69392761453,31.0660822416,-31.8065770084,,0.00183125814137,0.0155543794601,-0.564644500295,0.825185613095
1402415884350874104,,errorv,,0,,1402415884,309878110,/enu,/base_link,,,2.70024652256,31.0720229052,-31.8053289797,,0.00210963763636,0.0153736792195,-0.564228732522,0.825472674783
1402415884350908143,,errorv,,0,,1402415884,320892095,/enu,/base_link,,,2.72440034834,31.1093541914,-31.6936703954,,-8.15377466752e-05,0.0142029495936,-0.564087177102,0.825593075433
1402415884357782385,,errorv,,0,,1402415884,357542316,base_link,/z_drive,,,0.0,0.0,0.0,,0.0,0.0,0.0,1.0
1402415884357807367,,errorv,,0,,1402415884,357563617,/z_drive,port,,,-0.3,0.3048,0.0,,0.0,0.0,0.0,1.0
1402415884357869518,,errorv,,0,,1402415884,357568300,/z_drive,starboard,,,-0.3,-0.3048,0.0,,0.0,0.0,0.0,1.0
1402415884363589474,,errorv,,0,,1402415884,463386106,base_link,imu,,,0.13,0.0,-0.1,,1.0,0.0,0.0,0.0
1402415884363671299,,errorv,,0,,1402415884,463450148,/base_link,/gps,,,-0.84,0.0,-0.14,,0.0,0.0,0.0,1.0
1402415884377726050,,errorv,,0,,1402415884,377529431,base_link,/z_drive,,,0.0,0.0,0.0,,0.0,0.0,0.0,1.0
1402415884377757105,,errorv,,0,,1402415884,377549747,/z_drive,port,,,-0.3,0.3048,0.0,,0.0,0.0,0.0,1.0
1402415884377807514,,errorv,,0,,1402415884,377557484,/z_drive,starboard,,,-0.3,-0.3048,0.0,,0.0,0.0,0.0,1.0
1402415884387119404,,errorv,,0,,1402415884,330881118,/enu,/base_link,,,2.7305617942,31.1159739282,-31.6922675765,,3.50356115323e-05,0.0139729372329,-0.563649998639,0.82589553506
1402415884387142089,,errorv,,0,,1402415884,341873884,/enu,/base_link,,,2.73747618313,31.1232666134,-31.6907416464,,0.000136244958463,0.0138104270466,-0.563228294497,0.826185900279
1402415884397678452,,errorv,,0,,1402415884,397503679,base_link,/z_drive,,,0.0,0.0,0.0,,0.0,0.0,0.0,1.0
1402415884397708300,,errorv,,0,,1402415884,397523502,/z_drive,port,,,-0.3,0.3048,0.0,,0.0,0.0,0.0,1.0
1402415884397802837,,errorv,,0,,1402415884,397533108,/z_drive,starboard,,,-0.3,-0.3048,0.0,,0.0,0.0,0.0,1.0
1402415884417758454,,errorv,,0,,1402415884,417503215,base_link,/z_drive,,,0.0,0.0,0.0,,0.0,0.0,0.0,1.0
1402415884417789641,,errorv,,0,,1402415884,417539235,/z_drive,port,,,-0.3,0.3048,0.0,,0.0,0.0,0.0,1.0
1402415884417810611,,errorv,,0,,1402415884,417610382,/z_drive,starboard,,,-0.3,-0.3048,0.0,,0.0,0.0,0.0,1.0
1402415884427226507,,errorv,,0,,1402415884,351861000,/enu,/base_link,,,2.74383096386,31.1298209971,-31.6890192839,,0.000256006689336,0.0136220380254,-0.562818948824,0.826467909471
1402415884427279737,,errorv,,0,,1402415884,362881898,/enu,/base_link,,,2.7611798687,31.1713397412,-31.6256441771,,-0.00191871106561,0.0122964955555,-0.562671396305,0.826586967309
1402415884427326421,,errorv,,0,,1402415884,372859001,/enu,/base_link,,,2.76783842942,31.1786532437,-31.6240126673,,-0.00192676135736,0.0121879300178,-0.562259151855,0.826869027179
1402415884427398615,,errorv,,0,,1402415884,383876085,/enu,/base_link,,,2.77472912364,31.1865802121,-31.6218772488,,-0.0016526642252,0.0119667932833,-0.561819359949,0.827171730263
1402415884437800204,,errorv,,0,,1402415884,437598821,base_link,/z_drive,,,0.0,0.0,0.0,,0.0,0.0,0.0,1.0
1402415884437832423,,errorv,,0,,1402415884,437620094,/z_drive,port,,,-0.3,0.3048,0.0,,0.0,0.0,0.0,1.0
1402415884438008463,,errorv,,0,,1402415884,437628141,/z_drive,starboard,,,-0.3,-0.3048,0.0,,0.0,0.0,0.0,1.0
1402415884457748851,,errorv,,0,,1402415884,457508151,base_link,/z_drive,,,0.0,0.0,0.0,,0.0,0.0,0.0,1.0
1402415884457779147,,errorv,,0,,1402415884,457527408,/z_drive,port,,,-0.3,0.3048,0.0,,0.0,0.0,0.0,1.0
1402415884457801437,,errorv,,0,,1402415884,457535614,/z_drive,starboard,,,-0.3,-0.3048,0.0,,0.0,0.0,0.0,1.0
1402415884463744290,,errorv,,0,,1402415884,563492492,base_link,imu,,,0.13,0.0,-0.1,,1.0,0.0,0.0,0.0
1402415884463769401,,errorv,,0,,1402415884,563550594,/base_link,/gps,,,-0.84,0.0,-0.14,,0.0,0.0,0.0,1.0
1402415884467104275,,errorv,,0,,1402415884,393886089,/enu,/base_link,,,2.78107650658,31.1939826571,-31.6202599567,,-0.00136594186504,0.0117608567497,-0.561424082208,0.827443542708
1402415884467129854,,errorv,,0,,1402415884,403848886,/enu,/base_link,,,2.78383845864,31.2029601306,-31.5674855722,,-0.00143726311798,0.0111151103035,-0.561120994626,0.827657911209
1402415884467379250,,errorv,,0,,1402415884,414848089,/enu,/base_link,,,2.79097563038,31.2114614923,-31.5658780228,,-0.00122068165369,0.0109562192383,-0.560699331395,0.827946091826
1402415884467446657,,errorv,,0,,1402415884,424820899,/enu,/base_link,,,2.79735830917,31.218840598,-31.5638786679,,-0.00115264164366,0.01069033763,-0.560306176984,0.828215778727
1402415884477713385,,errorv,,0,,1402415884,477519222,base_link,/z_drive,,,0.0,0.0,0.0,,0.0,0.0,0.0,1.0
1402415884477740000,,errorv,,0,,1402415884,477537316,/z_drive,port,,,-0.3,0.3048,0.0,,0.0,0.0,0.0,1.0
1402415884477761428,,errorv,,0,,1402415884,477545999,/z_drive,starboard,,,-0.3,-0.3048,0.0,,0.0,0.0,0.0,1.0
1402415884497689377,,errorv,,0,,1402415884,497503669,base_link,/z_drive,,,0.0,0.0,0.0,,0.0,0.0,0.0,1.0
1402415884497721445,,errorv,,0,,1402415884,497526444,/z_drive,port,,,-0.3,0.3048,0.0,,0.0,0.0,0.0,1.0
1402415884497745028,,errorv,,0,,1402415884,497535072,/z_drive,starboard,,,-0.3,-0.3048,0.0,,0.0,0.0,0.0,1.0
1402415884507171435,,errorv,,0,,1402415884,434822082,/enu,/base_link,,,2.79054167439,31.2289955128,-31.5745057396,,-0.000947459501888,0.00987659152631,-0.559987968509,0.828441325856
1402415884507244028,,errorv,,0,,1402415884,445818901,/enu,/base_link,,,2.79740418136,31.2375423178,-31.5726680012,,-0.000771752468439,0.00969983564403,-0.559552120842,0.828738041632
1402415884507272701,,errorv,,0,,1402415884,455822944,/enu,/base_link,,,2.80383144016,31.2451469514,-31.5708165744,,-0.000730824771475,0.00942411633236,-0.559138214097,0.8290205724
1402415884507294044,,errorv,,0,,1402415884,466823101,/enu,/base_link,,,2.8105745341,31.2536200481,-31.568877173,,-0.000342039344816,0.00917551534147,-0.558697747732,0.829320516813
1402415884507333878,,errorv,,0,,1402415884,476820945,/enu,/base_link,,,2.81676875399,31.2613340017,-31.5671240068,,-0.000192854147113,0.00893407063622,-0.558287139689,0.829599671436
1402415884517699075,,errorv,,0,,1402415884,517521355,base_link,/z_drive,,,0.0,0.0,0.0,,0.0,0.0,0.0,1.0
1402415884517763152,,errorv,,0,,1402415884,517539166,/z_drive,port,,,-0.3,0.3048,0.0,,0.0,0.0,0.0,1.0
1402415884517842339,,errorv,,0,,1402415884,517548292,/z_drive,starboard,,,-0.3,-0.3048,0.0,,0.0,0.0,0.0,1.0
1402415884537783953,,errorv,,0,,1402415884,537506122,base_link,/z_drive,,,0.0,0.0,0.0,,0.0,0.0,0.0,1.0
1402415884537810670,,errorv,,0,,1402415884,537530751,/z_drive,port,,,-0.3,0.3048,0.0,,0.0,0.0,0.0,1.0
1402415884537855436,,errorv,,0,,1402415884,537541770,/z_drive,starboard,,,-0.3,-0.3048,0.0,,0.0,0.0,0.0,1.0
1402415884547120055,,errorv,,0,,1402415884,486818075,/enu,/base_link,,,2.82769413379,31.2574521066,-31.5388346234,,0.000562683715806,0.00941957641805,-0.55778738725,0.829930229352
1402415884547182751,,errorv,,0,,1402415884,497819900,/enu,/base_link,,,2.83466215587,31.2658893462,-31.5370753923,,0.000600268030664,0.00925673567991,-0.557297746381,0.830260907427
1402415884547235058,,errorv,,0,,1402415884,507818937,/enu,/base_link,,,2.84103318413,31.273430669,-31.535227679,,0.000862982367496,0.00896996134597,-0.55684929358,0.830564662922
1402415884555418157,,errorv,,0,,1402415884,517828941,/enu,/base_link,,,2.84722654322,31.2812554094,-31.5338412128,,0.00115619607186,0.00876287308321,-0.556401817857,0.830866350475
1402415884555447490,,errorv,,0,,1402415884,528776884,/enu,/base_link,,,2.85402726181,31.2895082555,-31.5317987682,,0.00133516053636,0.00857416188435,-0.555904784955,0.831200680437
1402415884557663938,,errorv,,0,,1402415884,557528391,base_link,/z_drive,,,0.0,0.0,0.0,,0.0,0.0,0.0,1.0
1402415884557900151,,errorv,,0,,1402415884,557546896,/z_drive,port,,,-0.3,0.3048,0.0,,0.0,0.0,0.0,1.0
1402415884557923634,,errorv,,0,,1402415884,557621141,/z_drive,starboard,,,-0.3,-0.3048,0.0,,0.0,0.0,0.0,1.0
1402415884563750694,,errorv,,0,,1402415884,663542556,base_link,imu,,,0.13,0.0,-0.1,,1.0,0.0,0.0,0.0
1402415884563838663,,errorv,,0,,1402415884,663658558,/base_link,/gps,,,-0.84,0.0,-0.14,,0.0,0.0,0.0,1.0
1402415884577708530,,errorv,,0,,1402415884,577509889,base_link,/z_drive,,,0.0,0.0,0.0,,0.0,0.0,0.0,1.0
1402415884577736151,,errorv,,0,,1402415884,577531902,/z_drive,port,,,-0.3,0.3048,0.0,,0.0,0.0,0.0,1.0
1402415884577756420,,errorv,,0,,1402415884,577542212,/z_drive,starboard,,,-0.3,-0.3048,0.0,,0.0,0.0,0.0,1.0
1402415884595069164,,errorv,,0,,1402415884,538768053,/enu,/base_link,,,2.86605305965,31.2657722879,-31.5314406382,,0.00302497418792,0.0102594006056,-0.555177530698,0.831663095032
1402415884595097602,,errorv,,0,,1402415884,548768997,/enu,/base_link,,,2.87264411812,31.2728968938,-31.5298135348,,0.00330204825632,0.0101544864899,-0.55471752843,0.83197021974
1402415884597772167,,errorv,,0,,1402415884,597518202,base_link,/z_drive,,,0.0,0.0,0.0,,0.0,0.0,0.0,1.0
1402415884597797148,,errorv,,0,,1402415884,597644663,/z_drive,port,,,-0.3,0.3048,0.0,,0.0,0.0,0.0,1.0
1402415884597862853,,errorv,,0,,1402415884,597658859,/z_drive,starboard,,,-0.3,-0.3048,0.0,,0.0,0.0,0.0,1.0
1402415884617705839,,errorv,,0,,1402415884,617471725,base_link,/z_drive,,,0.0,0.0,0.0,,0.0,0.0,0.0,1.0
1402415884617734969,,errorv,,0,,1402415884,617503353,/z_drive,port,,,-0.3,0.3048,0.0,,0.0,0.0,0.0,1.0
1402415884617759130,,errorv,,0,,1402415884,617513201,/z_drive,starboard,,,-0.3,-0.3048,0.0,,0.0,0.0,0.0,1.0
1402415884635342431,,errorv,,0,,1402415884,559772968,/enu,/base_link,,,2.87971058986,31.2808478264,-31.5281412596,,0.00369782040244,0.00988359117803,-0.554208970703,0.832310673692
1402415884635371301,,errorv,,0,,1402415884,569767951,/enu,/base_link,,,2.88611200292,31.2879225485,-31.5264010519,,0.00397689213977,0.00975731818597,-0.553755449007,0.832612684125
1402415884635435625,,errorv,,0,,1402415884,580749988,/enu,/base_link,,,2.89336429971,31.295949628,-31.5248074005,,0.00405581930879,0.00958513648767,-0.55322929296,0.832963999762
1402415884635459043,,errorv,,0,,1402415884,590739011,/enu,/base_link,,,2.89996194674,31.3031798963,-31.5232359896,,0.00449705400887,0.009406239905,-0.552764618438,0.833272209881
1402415884637784755,,errorv,,0,,1402415884,637520322,base_link,/z_drive,,,0.0,0.0,0.0,,0.0,0.0,0.0,1.0
1402415884637809583,,errorv,,0,,1402415884,637535975,/z_drive,port,,,-0.3,0.3048,0.0,,0.0,0.0,0.0,1.0
1402415884637887360,,errorv,,0,,1402415884,637545282,/z_drive,starboard,,,-0.3,-0.3048,0.0,,0.0,0.0,0.0,1.0
1402415884657712024,,errorv,,0,,1402415884,657464543,base_link,/z_drive,,,0.0,0.0,0.0,,0.0,0.0,0.0,1.0
1402415884657772851,,errorv,,0,,1402415884,657477272,/z_drive,port,,,-0.3,0.3048,0.0,,0.0,0.0,0.0,1.0
1402415884657843272,,errorv,,0,,1402415884,657482797,/z_drive,starboard,,,-0.3,-0.3048,0.0,,0.0,0.0,0.0,1.0
1402415884663850974,,errorv,,0,,1402415884,763656348,base_link,imu,,,0.13,0.0,-0.1,,1.0,0.0,0.0,0.0
1402415884663965645,,errorv,,0,,1402415884,763751186,/base_link,/gps,,,-0.84,0.0,-0.14,,0.0,0.0,0.0,1.0
1402415884675233729,,errorv,,0,,1402415884,600743055,/enu,/base_link,,,2.90627856859,31.3103344921,-31.5215341086,,0.00465342191461,0.00928603632149,-0.55224702804,0.833615819917
1402415884675310925,,errorv,,0,,1402415884,611759901,/enu,/base_link,,,2.913443272,31.3185004413,-31.5201027958,,0.00488478273982,0.00915308286607,-0.55169928088,0.833978574934
1402415884675338529,,errorv,,0,,1402415884,621742010,/enu,/base_link,,,2.91990885781,31.3257530794,-31.5185612759,,0.00525073620169,0.00904815245543,-0.551197282309,0.834309365093
1402415884675358369,,errorv,,0,,1402415884,632730960,/enu,/base_link,,,2.92700852411,31.3337703124,-31.516914523,,0.00557296830025,0.0088805225085,-0.550633994629,0.834680946412
1402415884677684947,,errorv,,0,,1402415884,677498076,base_link,/z_drive,,,0.0,0.0,0.0,,0.0,0.0,0.0,1.0
1402415884677731969,,errorv,,0,,1402415884,677516873,/z_drive,port,,,-0.3,0.3048,0.0,,0.0,0.0,0.0,1.0
1402415884677800011,,errorv,,0,,1402415884,677524838,/z_drive,starboard,,,-0.3,-0.3048,0.0,,0.0,0.0,0.0,1.0
1402415884697633652,,errorv,,0,,1402415884,697471603,base_link,/z_drive,,,0.0,0.0,0.0,,0.0,0.0,0.0,1.0
1402415884697762177,,errorv,,0,,1402415884,697486655,/z_drive,port,,,-0.3,0.3048,0.0,,0.0,0.0,0.0,1.0
1402415884697785021,,errorv,,0,,1402415884,697492210,/z_drive,starboard,,,-0.3,-0.3048,0.0,,0.0,0.0,0.0,1.0
1402415884715230458,,errorv,,0,,1402415884,642740964,/enu,/base_link,,,2.93335713627,31.34101075,-31.5152613306,,0.00587105934715,0.00883733218893,-0.550110212853,0.835024661873
1402415884715244363,,errorv,,0,,1402415884,653728961,/enu,/base_link,,,2.94058010186,31.3491728836,-31.5137896112,,0.00602702126213,0.00877414401441,-0.549528156455,0.835407382464
1402415884715322460,,errorv,,0,,1402415884,663747072,/enu,/base_link,,,2.94710914693,31.356450312,-31.5120614262,,0.00633140744114,0.00863832281984,-0.548991344595,0.83575941288
1402415884715346615,,errorv,,0,,1402415884,673754930,/enu,/base_link,,,2.95366696627,31.3637455855,-31.5104269559,,0.00660551572998,0.00864662014826,-0.548477381008,0.836094591326
1402415884717616828,,errorv,,0,,1402415884,717465392,base_link,/z_drive,,,0.0,0.0,0.0,,0.0,0.0,0.0,1.0
1402415884717684602,,errorv,,0,,1402415884,717491177,/z_drive,port,,,-0.3,0.3048,0.0,,0.0,0.0,0.0,1.0
1402415884717818803,,errorv,,0,,1402415884,717537483,/z_drive,starboard,,,-0.3,-0.3048,0.0,,0.0,0.0,0.0,1.0
1402415884737752622,,errorv,,0,,1402415884,737573463,base_link,/z_drive,,,0.0,0.0,0.0,,0.0,0.0,0.0,1.0
1402415884737819307,,errorv,,0,,1402415884,737590163,/z_drive,port,,,-0.3,0.3048,0.0,,0.0,0.0,0.0,1.0
1402415884737887892,,errorv,,0,,1402415884,737598264,/z_drive,starboard,,,-0.3,-0.3048,0.0,,0.0,0.0,0.0,1.0
1402415884755063202,,errorv,,0,,1402415884,684731960,/enu,/base_link,,,2.96064959961,31.3718898966,-31.5088704303,,0.00668209989212,0.00858089041945,-0.547888977743,0.836480355973
1402415884755137594,,errorv,,0,,1402415884,694753885,/enu,/base_link,,,2.9671819187,31.3794588215,-31.5075964567,,0.00682912067654,0.00863643451571,-0.547377588795,0.836813330674
1402415884755167055,,errorv,,0,,1402415884,705715894,/enu,/base_link,,,2.97419546188,31.387343982,-31.505524046,,0.00684944189702,0.00859812662485,-0.546810827995,0.837184015466
1402415884755317185,,errorv,,0,,1402415884,715717077,/enu,/base_link,,,2.98063631381,31.3948313898,-31.5040516799,,0.00717370047793,0.00854554059774,-0.546293511103,0.837519499167
1402415884755332401,,errorv,,0,,1402415884,726712942,/enu,/base_link,,,2.98777278685,31.402974547,-31.5024121435,,0.00722571669781,0.00863350045807,-0.545713405445,0.837896253008
1402415884757634221,,errorv,,0,,1402415884,757484486,base_link,/z_drive,,,0.0,0.0,0.0,,0.0,0.0,0.0,1.0
1402415884757666670,,errorv,,0,,1402415884,757500272,/z_drive,port,,,-0.3,0.3048,0.0,,0.0,0.0,0.0,1.0
1402415884757733519,,errorv,,0,,1402415884,757507413,/z_drive,starboard,,,-0.3,-0.3048,0.0,,0.0,0.0,0.0,1.0
1402415884763953494,,errorv,,0,,1402415884,863759340,base_link,imu,,,0.13,0.0,-0.1,,1.0,0.0,0.0,0.0
1402415884764031406,,errorv,,0,,1402415884,863839379,/base_link,/gps,,,-0.84,0.0,-0.14,,0.0,0.0,0.0,1.0
1402415884777668021,,errorv,,0,,1402415884,777482086,base_link,/z_drive,,,0.0,0.0,0.0,,0.0,0.0,0.0,1.0
1402415884777802411,,errorv,,0,,1402415884,777506701,/z_drive,port,,,-0.3,0.3048,0.0,,0.0,0.0,0.0,1.0
1402415884777833054,,errorv,,0,,1402415884,777516263,/z_drive,starboard,,,-0.3,-0.3048,0.0,,0.0,0.0,0.0,1.0
1402415884795060228,,errorv,,0,,1402415884,736716032,/enu,/base_link,,,2.99398235792,31.4103297045,-31.5008045391,,0.00730493782396,0.00860308329923,-0.545179452712,0.838243394953
1402415884795128120,,errorv,,0,,1402415884,747689008,/enu,/base_link,,,3.00104052128,31.4185008891,-31.4991098528,,0.00752990573091,0.00864179292702,-0.54463106968,0.838597411082
1402415884795192052,,errorv,,0,,1402415884,757745981,/enu,/base_link,,,3.00736758609,31.4260081273,-31.4974467253,,0.0074196481104,0.00880659918727,-0.544109612414,0.838935112098
1402415884797634817,,errorv,,0,,1402415884,797490628,base_link,/z_drive,,,0.0,0.0,0.0,,0.0,0.0,0.0,1.0
1402415884797709244,,errorv,,0,,1402415884,797502788,/z_drive,port,,,-0.3,0.3048,0.0,,0.0,0.0,0.0,1.0
1402415884797738314,,errorv,,0,,1402415884,797506955,/z_drive,starboard,,,-0.3,-0.3048,0.0,,0.0,0.0,0.0,1.0
1402415884807239209,,errorv,,0,,1402415884,768688917,/enu,/base_link,,,3.01428002704,31.4341984023,-31.4957662576,,0.00754342705857,0.008970403855,-0.543532657239,0.839306189109
1402415884807284901,,errorv,,0,,1402415884,778695106,/enu,/base_link,,,3.02050844357,31.4418564212,-31.4943977712,,0.00747815361276,0.00906985512824,-0.543019986091,0.839637487046
1402415884817620260,,errorv,,0,,1402415884,817487679,base_link,/z_drive,,,0.0,0.0,0.0,,0.0,0.0,0.0,1.0
1402415884817698139,,errorv,,0,,1402415884,817504845,/z_drive,port,,,-0.3,0.3048,0.0,,0.0,0.0,0.0,1.0
1402415884817727578,,errorv,,0,,1402415884,817509571,/z_drive,starboard,,,-0.3,-0.3048,0.0,,0.0,0.0,0.0,1.0
1402415884837638317,,errorv,,0,,1402415884,837482242,base_link,/z_drive,,,0.0,0.0,0.0,,0.0,0.0,0.0,1.0
1402415884837655548,,errorv,,0,,1402415884,837494509,/z_drive,port,,,-0.3,0.3048,0.0,,0.0,0.0,0.0,1.0
1402415884837677149,,errorv,,0,,1402415884,837498696,/z_drive,starboard,,,-0.3,-0.3048,0.0,,0.0,0.0,0.0,1.0
1402415884847027500,,errorv,,0,,1402415884,789685010,/enu,/base_link,,,3.02750119965,31.4501188638,-31.4926732601,,0.00751108801925,0.00910645397075,-0.542482668454,0.839984053706
1402415884847053568,,errorv,,0,,1402415884,799698114,/enu,/base_link,,,3.03352700919,31.457646262,-31.4910266923,,0.00760971110662,0.00927459593267,-0.542002686454,0.840291117437
1402415884857660725,,errorv,,0,,1402415884,857505760,base_link,/z_drive,,,0.0,0.0,0.0,,0.0,0.0,0.0,1.0
1402415884857685320,,errorv,,0,,1402415884,857542449,/z_drive,port,,,-0.3,0.3048,0.0,,0.0,0.0,0.0,1.0
1402415884857751554,,errorv,,0,,1402415884,857554720,/z_drive,starboard,,,-0.3,-0.3048,0.0,,0.0,0.0,0.0,1.0
1402415884864050515,,errorv,,0,,1402415884,963851681,base_link,imu,,,0.13,0.0,-0.1,,1.0,0.0,0.0,0.0
1402415884864093224,,errorv,,0,,1402415884,963930630,/base_link,/gps,,,-0.84,0.0,-0.14,,0.0,0.0,0.0,1.0
1402415884877684736,,errorv,,0,,1402415884,877460797,base_link,/z_drive,,,0.0,0.0,0.0,,0.0,0.0,0.0,1.0
1402415884877709498,,errorv,,0,,1402415884,877489740,/z_drive,port,,,-0.3,0.3048,0.0,,0.0,0.0,0.0,1.0
1402415884877730332,,errorv,,0,,1402415884,877499361,/z_drive,starboard,,,-0.3,-0.3048,0.0,,0.0,0.0,0.0,1.0
1402415884887251022,,errorv,,0,,1402415884,809689044,/enu,/base_link,,,3.03966595932,31.4653246707,-31.489702438,,0.00739529461809,0.0093564199214,-0.541496423229,0.840618457241
1402415884887276047,,errorv,,0,,1402415884,820688009,/enu,/base_link,,,3.04660630738,31.4735753849,-31.4877598263,,0.00746076118135,0.00949513471003,-0.540989025948,0.840942954821
1402415884887291286,,errorv,,0,,1402415884,831686019,/enu,/base_link,,,3.05338326647,31.48193908,-31.4859734535,,0.00724260462413,0.00957281974045,-0.540443239034,0.841294842004
1402415884887470218,,errorv,,0,,1402415884,841689109,/enu,/base_link,,,3.05954742395,31.4895412209,-31.4842722185,,0.00732881798376,0.00967801731747,-0.539999906781,0.841577521732
1402415884897635076,,errorv,,0,,1402415884,897502601,base_link,/z_drive,,,0.0,0.0,0.0,,0.0,0.0,0.0,1.0
1402415884897710984,,errorv,,0,,1402415884,897519018,/z_drive,port,,,-0.3,0.3048,0.0,,0.0,0.0,0.0,1.0
1402415884897879894,,errorv,,0,,1402415884,897549389,/z_drive,starboard,,,-0.3,-0.3048,0.0,,0.0,0.0,0.0,1.0
1402415884917765076,,errorv,,0,,1402415884,917526028,base_link,/z_drive,,,0.0,0.0,0.0,,0.0,0.0,0.0,1.0
1402415884917883615,,errorv,,0,,1402415884,917605430,/z_drive,port,,,-0.3,0.3048,0.0,,0.0,0.0,0.0,1.0
1402415884917996756,,errorv,,0,,1402415884,917746195,/z_drive,starboard,,,-0.3,-0.3048,0.0,,0.0,0.0,0.0,1.0
1402415884927163622,,errorv,,0,,1402415884,852684974,/enu,/base_link,,,3.06629293045,31.4978416823,-31.4823500317,,0.00706685588631,0.00987032996525,-0.539510446912,0.841891390743
1402415884927220912,,errorv,,0,,1402415884,862652063,/enu,/base_link,,,3.07242256085,31.50562442,-31.4809164523,,0.00687723501655,0.010036159895,-0.539062942565,0.842177607804
1402415884927278327,,errorv,,0,,1402415884,873648881,/enu,/base_link,,,3.07911236812,31.5139967682,-31.478873234,,0.00676390524786,0.0101888215582,-0.538594142078,0.842476579864
1402415884927297008,,errorv,,0,,1402415884,883652925,/enu,/base_link,,,3.08512838809,31.5216961959,-31.4771888221,,0.0064909282629,0.0104034573032,-0.538147577171,0.842761425975
1402415884937696292,,errorv,,0,,1402415884,937501667,base_link,/z_drive,,,0.0,0.0,0.0,,0.0,0.0,0.0,1.0
1402415884937723876,,errorv,,0,,1402415884,937520215,/z_drive,port,,,-0.3,0.3048,0.0,,0.0,0.0,0.0,1.0
1402415884937893215,,errorv,,0,,1402415884,937529051,/z_drive,starboard,,,-0.3,-0.3048,0.0,,0.0,0.0,0.0,1.0
1402415884957612996,,errorv,,0,,1402415884,957479062,base_link,/z_drive,,,0.0,0.0,0.0,,0.0,0.0,0.0,1.0
1402415884957710541,,errorv,,0,,1402415884,957497587,/z_drive,port,,,-0.3,0.3048,0.0,,0.0,0.0,0.0,1.0
1402415884957796414,,errorv,,0,,1402415884,957535519,/z_drive,starboard,,,-0.3,-0.3048,0.0,,0.0,0.0,0.0,1.0
1402415884964176666,,errorv,,0,,1402415885,63952902,base_link,imu,,,0.13,0.0,-0.1,,1.0,0.0,0.0,0.0
1402415884964228902,,errorv,,0,,1402415885,64019267,/base_link,/gps,,,-0.84,0.0,-0.14,,0.0,0.0,0.0,1.0
1402415884967223039,,errorv,,0,,1402415884,894650936,/enu,/base_link,,,3.09192360476,31.5302035902,-31.4753756602,,0.00637677016092,0.0105855784176,-0.537686358738,0.84305436477
1402415884967275225,,errorv,,0,,1402415884,904623031,/enu,/base_link,,,3.09792202445,31.5379912001,-31.4737003914,,0.0060648625464,0.0107065254262,-0.537281827288,0.843313005842
1402415884967360664,,errorv,,0,,1402415884,915647983,/enu,/base_link,,,3.10473840181,31.546558089,-31.4717123214,,0.0058518257199,0.0108169537663,-0.536852404201,0.843586537203
1402415884967374543,,errorv,,0,,1402415884,925642013,/enu,/base_link,,,3.11073675121,31.5543723698,-31.4700548867,,0.00562066802534,0.011040628337,-0.536455491107,0.84383767318
1402415884977740140,,errorv,,0,,1402415884,977527238,base_link,/z_drive,,,0.0,0.0,0.0,,0.0,0.0,0.0,1.0
1402415884977849006,,errorv,,0,,1402415884,977633111,/z_drive,port,,,-0.3,0.3048,0.0,,0.0,0.0,0.0,1.0
1402415884977879875,,errorv,,0,,1402415884,977679898,/z_drive,starboard,,,-0.3,-0.3048,0.0,,0.0,0.0,0.0,1.0
1402415884997684988,,errorv,,0,,1402415884,997517629,base_link,/z_drive,,,0.0,0.0,0.0,,0.0,0.0,0.0,1.0
1402415884997711832,,errorv,,0,,1402415884,997536055,/z_drive,port,,,-0.3,0.3048,0.0,,0.0,0.0,0.0,1.0
1402415884997733041,,errorv,,0,,1402415884,997545182,/z_drive,starboard,,,-0.3,-0.3048,0.0,,0.0,0.0,0.0,1.0
1402415885007084923,,errorv,,0,,1402415884,936660051,/enu,/base_link,,,3.1175498809,31.5630095785,-31.468028438,,0.005212324674,0.0111677111843,-0.536021546868,0.844114337748
1402415885007139951,,errorv,,0,,1402415884,946625947,/enu,/base_link,,,3.12348178529,31.5706726605,-31.4660214676,,0.00511002975686,0.0112957160222,-0.535607452324,0.844376072263
1402415885007233411,,errorv,,0,,1402415884,957643032,/enu,/base_link,,,3.13011549929,31.5792262513,-31.4639667973,,0.00481544015888,0.011426992933,-0.535171308795,0.844652535432
1402415885007258900,,errorv,,0,,1402415884,967648029,/enu,/base_link,,,3.13616554171,31.5871427268,-31.4623584855,,0.00477698172931,0.0115402623802,-0.534795670476,0.84488910138
1402415885007283526,,errorv,,0,,1402415884,978647947,/enu,/base_link,,,3.14291530092,31.5960228626,-31.4606555026,,0.00432661288445,0.0117478365024,-0.534334055804,0.845180682201
1402415885017712084,,errorv,,0,,1402415885,17529942,base_link,/z_drive,,,0.0,0.0,0.0,,0.0,0.0,0.0,1.0
1402415885017740368,,errorv,,0,,1402415885,17548120,/z_drive,port,,,-0.3,0.3048,0.0,,0.0,0.0,0.0,1.0
1402415885018004782,,errorv,,0,,1402415885,17557989,/z_drive,starboard,,,-0.3,-0.3048,0.0,,0.0,0.0,0.0,1.0
1402415885037617348,,errorv,,0,,1402415885,37454486,base_link,/z_drive,,,0.0,0.0,0.0,,0.0,0.0,0.0,1.0
1402415885037657391,,errorv,,0,,1402415885,37470390,/z_drive,port,,,-0.3,0.3048,0.0,,0.0,0.0,0.0,1.0
1402415885037682754,,errorv,,0,,1402415885,37479599,/z_drive,starboard,,,-0.3,-0.3048,0.0,,0.0,0.0,0.0,1.0
1402415885047074924,,errorv,,0,,1402415884,988609075,/enu,/base_link,,,3.14885779563,31.6037810076,-31.4587886036,,0.00416398080157,0.0118828314059,-0.533943161993,0.845426613813
1402415885047093938,,errorv,,0,,1402415884,999619960,/enu,/base_link,,,3.15561391799,31.6126239012,-31.4569101697,,0.0038573683717,0.012115902831,-0.533474153388,0.845720789194
1402415885047107650,,errorv,,0,,1402415885,9596109,/enu,/base_link,,,3.16151736068,31.6207422919,-31.4554213406,,0.00348160421386,0.0122800712385,-0.533037955941,0.84599504479
1402415885057693060,,errorv,,0,,1402415885,57513024,base_link,/z_drive,,,0.0,0.0,0.0,,0.0,0.0,0.0,1.0
1402415885057715947,,errorv,,0,,1402415885,57550181,/z_drive,port,,,-0.3,0.3048,0.0,,0.0,0.0,0.0,1.0
1402415885057741747,,errorv,,0,,1402415885,57561260,/z_drive,starboard,,,-0.3,-0.3048,0.0,,0.0,0.0,0.0,1.0
1402415885059179512,,errorv,,0,,1402415885,20597934,/enu,/base_link,,,3.16793454231,31.6292195938,-31.452887984,,0.00337237759358,0.0123785843077,-0.532592651312,0.846274462269
1402415885059206088,,errorv,,0,,1402415885,30599117,/enu,/base_link,,,3.17415127114,31.6375682162,-31.4517077766,,0.00312003046517,0.0124482507073,-0.53219188964,0.846526490469
1402415885064224471,,errorv,,0,,1402415885,164048079,base_link,imu,,,0.13,0.0,-0.1,,1.0,0.0,0.0,0.0
1402415885064285840,,errorv,,0,,1402415885,164113691,/base_link,/gps,,,-0.84,0.0,-0.14,,0.0,0.0,0.0,1.0
1402415885077858893,,errorv,,0,,1402415885,77506845,base_link,/z_drive,,,0.0,0.0,0.0,,0.0,0.0,0.0,1.0
1402415885077924721,,errorv,,0,,1402415885,77537903,/z_drive,port,,,-0.3,0.3048,0.0,,0.0,0.0,0.0,1.0
1402415885078050671,,errorv,,0,,1402415885,77546882,/z_drive,starboard,,,-0.3,-0.3048,0.0,,0.0,0.0,0.0,1.0
1402415885097860481,,errorv,,0,,1402415885,97532901,base_link,/z_drive,,,0.0,0.0,0.0,,0.0,0.0,0.0,1.0
1402415885098030582,,errorv,,0,,1402415885,97566071,/z_drive,port,,,-0.3,0.3048,0.0,,0.0,0.0,0.0,1.0
1402415885098061624,,errorv,,0,,1402415885,97573662,/z_drive,starboard,,,-0.3,-0.3048,0.0,,0.0,0.0,0.0,1.0
1402415885099067868,,errorv,,0,,1402415885,41599988,/enu,/base_link,,,3.18084198205,31.6463478151,-31.4496150478,,0.00293364484255,0.0126081955687,-0.531754656743,0.846799511198
1402415885099137077,,errorv,,0,,1402415885,51598072,/enu,/base_link,,,3.1867443674,31.6545880448,-31.4481150239,,0.0025889510431,0.0128162119321,-0.531319345356,0.84707071446
1402415885117710217,,errorv,,0,,1402415885,117491923,base_link,/z_drive,,,0.0,0.0,0.0,,0.0,0.0,0.0,1.0
1402415885117782576,,errorv,,0,,1402415885,117509950,/z_drive,port,,,-0.3,0.3048,0.0,,0.0,0.0,0.0,1.0
1402415885117858362,,errorv,,0,,1402415885,117517270,/z_drive,starboard,,,-0.3,-0.3048,0.0,,0.0,0.0,0.0,1.0
1402415885137636062,,errorv,,0,,1402415885,137422718,base_link,/z_drive,,,0.0,0.0,0.0,,0.0,0.0,0.0,1.0
1402415885137666086,,errorv,,0,,1402415885,137469316,/z_drive,port,,,-0.3,0.3048,0.0,,0.0,0.0,0.0,1.0
1402415885137823288,,errorv,,0,,1402415885,137478728,/z_drive,starboard,,,-0.3,-0.3048,0.0,,0.0,0.0,0.0,1.0
1402415885139009761,,errorv,,0,,1402415885,62597990,/enu,/base_link,,,3.19338127329,31.6634385892,-31.4461210067,,0.00224209026849,0.0129474476646,-0.530823291202,0.847380652451
1402415885139225560,,errorv,,0,,1402415885,72597980,/enu,/base_link,,,3.19935112822,31.6713845923,-31.4440522809,,0.0021703555121,0.0131641446154,-0.530399624775,0.847642750746
1402415885139248100,,errorv,,0,,1402415885,83597898,/enu,/base_link,,,3.20590216651,31.6805150559,-31.4423730103,,0.00180830252773,0.0133166624945,-0.529942357364,0.847927175183
1402415885139304460,,errorv,,0,,1402415885,93595981,/enu,/base_link,,,3.21190394443,31.6886658899,-31.440554929,,0.00168631180319,0.0135017731256,-0.529506485683,0.84819675789
1402415885157703044,,errorv,,0,,1402415885,157463867,base_link,/z_drive,,,0.0,0.0,0.0,,0.0,0.0,0.0,1.0
1402415885157731401,,errorv,,0,,1402415885,157481971,/z_drive,port,,,-0.3,0.3048,0.0,,0.0,0.0,0.0,1.0
1402415885157834465,,errorv,,0,,1402415885,157523423,/z_drive,starboard,,,-0.3,-0.3048,0.0,,0.0,0.0,0.0,1.0
1402415885164359327,,errorv,,0,,1402415885,264151534,base_link,imu,,,0.13,0.0,-0.1,,1.0,0.0,0.0,0.0
1402415885164389874,,errorv,,0,,1402415885,264204318,/base_link,/gps,,,-0.84,0.0,-0.14,,0.0,0.0,0.0,1.0
1402415885177617377,,errorv,,0,,1402415885,177470895,base_link,/z_drive,,,0.0,0.0,0.0,,0.0,0.0,0.0,1.0
1402415885177647471,,errorv,,0,,1402415885,177488034,/z_drive,port,,,-0.3,0.3048,0.0,,0.0,0.0,0.0,1.0
1402415885177724032,,errorv,,0,,1402415885,177497392,/z_drive,starboard,,,-0.3,-0.3048,0.0,,0.0,0.0,0.0,1.0
1402415885179310196,,errorv,,0,,1402415885,103570938,/enu,/base_link,,,3.21810139097,31.6970245162,-31.4389930538,,0.00137123020182,0.0136661594242,-0.529071782502,0.848465912559
1402415885179340681,,errorv,,0,,1402415885,114571094,/enu,/base_link,,,3.22480853345,31.7060524575,-31.4370017385,,0.00134176988131,0.013836789754,-0.528594918979,0.848760363432
1402415885179366538,,errorv,,0,,1402415885,125570058,/enu,/base_link,,,3.2313202891,31.7149759021,-31.4346623183,,0.000986295282987,0.0141004380332,-0.528087341413,0.84907241429
1402415885179409310,,errorv,,0,,1402415885,135570049,/enu,/base_link,,,3.23740141477,31.7232591628,-31.4328192776,,0.000730413482621,0.01428333165,-0.52761616772,0.849362485923
1402415885197715778,,errorv,,0,,1402415885,197531691,base_link,/z_drive,,,0.0,0.0,0.0,,0.0,0.0,0.0,1.0
1402415885197744412,,errorv,,0,,1402415885,197549483,/z_drive,port,,,-0.3,0.3048,0.0,,0.0,0.0,0.0,1.0
1402415885197768323,,errorv,,0,,1402415885,197559105,/z_drive,starboard,,,-0.3,-0.3048,0.0,,0.0,0.0,0.0,1.0
1402415885217645982,,errorv,,0,,1402415885,217508697,base_link,/z_drive,,,0.0,0.0,0.0,,0.0,0.0,0.0,1.0
1402415885217766864,,errorv,,0,,1402415885,217526341,/z_drive,port,,,-0.3,0.3048,0.0,,0.0,0.0,0.0,1.0
1402415885217881315,,errorv,,0,,1402415885,217598853,/z_drive,starboard,,,-0.3,-0.3048,0.0,,0.0,0.0,0.0,1.0
1402415885219188173,,errorv,,0,,1402415885,146573066,/enu,/base_link,,,3.24406181965,31.7324585913,-31.4309244936,,0.000652531745924,0.0144579703208,-0.527130614305,0.84966102462
1402415885219210893,,errorv,,0,,1402415885,156572103,/enu,/base_link,,,3.24995700072,31.7407158434,-31.429052889,,0.000365258247742,0.0147264074153,-0.526664841556,0.849945377174
1402415885219231857,,errorv,,0,,1402415885,167572021,/enu,/base_link,,,3.25683659748,31.7499878242,-31.4272473288,,0.000330078551841,0.0149305145561,-0.526172657535,0.850246614369
1402415885219280494,,errorv,,0,,1402415885,177546024,/enu,/base_link,,,3.26279875444,31.7584294097,-31.4254979816,,0.000129312599788,0.0151154183572,-0.525686301955,0.850544190118
1402415885237648716,,errorv,,0,,1402415885,237507073,base_link,/z_drive,,,0.0,0.0,0.0,,0.0,0.0,0.0,1.0
1402415885237760042,,errorv,,0,,1402415885,237524791,/z_drive,port,,,-0.3,0.3048,0.0,,0.0,0.0,0.0,1.0
1402415885237787640,,errorv,,0,,1402415885,237569100,/z_drive,starboard,,,-0.3,-0.3048,0.0,,0.0,0.0,0.0,1.0
1402415885257719294,,errorv,,0,,1402415885,257495954,base_link,/z_drive,,,0.0,0.0,0.0,,0.0,0.0,0.0,1.0
1402415885257744601,,errorv,,0,,1402415885,257525199,/z_drive,port,,,-0.3,0.3048,0.0,,0.0,0.0,0.0,1.0
1402415885257809606,,errorv,,0,,1402415885,257539572,/z_drive,starboard,,,-0.3,-0.3048,0.0,,0.0,0.0,0.0,1.0
1402415885259045301,,errorv,,0,,1402415885,188544034,/enu,/base_link,,,3.26929244519,31.7675096112,-31.4234076715,,5.92943725976e-05,0.0152812447711,-0.525179588248,0.850854206154
1402415885259111143,,errorv,,0,,1402415885,198544025,/enu,/base_link,,,3.27549699307,31.7760247489,-31.4218364831,,-8.13610049875e-05,0.015584534215,-0.524718719397,0.851132998531
1402415885259169434,,errorv,,0,,1402415885,209544897,/enu,/base_link,,,3.28181799063,31.7852484146,-31.4198183323,,-0.000392554934018,0.0157795932639,-0.52417751183,0.851462733435
1402415885259227304,,errorv,,0,,1402415885,220541954,/enu,/base_link,,,3.28855742538,31.7946516781,-31.4179927686,,-0.000384360470142,0.0159840261929,-0.523646950862,0.851785321561
1402415885259261553,,errorv,,0,,1402415885,230545997,/enu,/base_link,,,3.29464710995,31.8030289763,-31.4160473199,,-0.000516449791599,0.0161510907082,-0.523127733823,0.852101079481
1402415885264505783,,errorv,,0,,1402415885,364248330,base_link,imu,,,0.13,0.0,-0.1,,1.0,0.0,0.0,0.0
1402415885264531524,,errorv,,0,,1402415885,364298993,/base_link,/gps,,,-0.84,0.0,-0.14,,0.0,0.0,0.0,1.0
1402415885277637181,,errorv,,0,,1402415885,277481577,base_link,/z_drive,,,0.0,0.0,0.0,,0.0,0.0,0.0,1.0
1402415885277671763,,errorv,,0,,1402415885,277496335,/z_drive,port,,,-0.3,0.3048,0.0,,0.0,0.0,0.0,1.0
1402415885277695861,,errorv,,0,,1402415885,277500777,/z_drive,starboard,,,-0.3,-0.3048,0.0,,0.0,0.0,0.0,1.0
1402415885297671930,,errorv,,0,,1402415885,297488034,base_link,/z_drive,,,0.0,0.0,0.0,,0.0,0.0,0.0,1.0
1402415885297700094,,errorv,,0,,1402415885,297500980,/z_drive,port,,,-0.3,0.3048,0.0,,0.0,0.0,0.0,1.0
1402415885297768682,,errorv,,0,,1402415885,297507218,/z_drive,starboard,,,-0.3,-0.3048,0.0,,0.0,0.0,0.0,1.0
1402415885299051888,,errorv,,0,,1402415885,241543054,/enu,/base_link,,,3.30121321411,31.8122023388,-31.4139329937,,-0.000404517250843,0.0163649064147,-0.522572084868,0.852437940451
1402415885299082390,,errorv,,0,,1402415885,251542091,/enu,/base_link,,,3.30714107296,31.8206998259,-31.4120879699,,-0.000640615385636,0.0165605099538,-0.522051744367,0.852752786759
1402415885299104781,,errorv,,0,,1402415885,261543035,/enu,/base_link,,,3.31304447549,31.8292822126,-31.4103086404,,-0.000683695050421,0.0167437787786,-0.521561245357,0.853049263393
1402415885311254222,,errorv,,0,,1402415885,272541999,/enu,/base_link,,,3.31954661093,31.8387167987,-31.4083654042,,-0.000752789193987,0.0170187965106,-0.520992317801,0.853391351413
1402415885311276549,,errorv,,0,,1402415885,283543109,/enu,/base_link,,,3.32605289465,31.8481756642,-31.4063768345,,-0.000997568618395,0.0172551125786,-0.520429839057,0.853729493789
1402415885317709405,,errorv,,0,,1402415885,317500456,base_link,/z_drive,,,0.0,0.0,0.0,,0.0,0.0,0.0,1.0
1402415885317819253,,errorv,,0,,1402415885,317518182,/z_drive,port,,,-0.3,0.3048,0.0,,0.0,0.0,0.0,1.0
1402415885317849006,,errorv,,0,,1402415885,317526726,/z_drive,starboard,,,-0.3,-0.3048,0.0,,0.0,0.0,0.0,1.0
1402415885337740138,,errorv,,0,,1402415885,337512399,base_link,/z_drive,,,0.0,0.0,0.0,,0.0,0.0,0.0,1.0
1402415885337871406,,errorv,,0,,1402415885,337531285,/z_drive,port,,,-0.3,0.3048,0.0,,0.0,0.0,0.0,1.0
1402415885337942461,,errorv,,0,,1402415885,337540433,/z_drive,starboard,,,-0.3,-0.3048,0.0,,0.0,0.0,0.0,1.0
1402415885350998946,,errorv,,0,,1402415885,293543100,/enu,/base_link,,,3.33191789918,31.8567190248,-31.404471934,,-0.00106212248486,0.0174519251727,-0.519910940501,0.854041518985
1402415885351047946,,errorv,,0,,1402415885,304541110,/enu,/base_link,,,3.33826051443,31.8661943144,-31.40249848,,-0.00118169882178,0.017602476487,-0.519310515852,0.854403502179
1402415885357770823,,errorv,,0,,1402415885,357514025,base_link,/z_drive,,,0.0,0.0,0.0,,0.0,0.0,0.0,1.0
1402415885357892382,,errorv,,0,,1402415885,357532071,/z_drive,port,,,-0.3,0.3048,0.0,,0.0,0.0,0.0,1.0
1402415885358014406,,errorv,,0,,1402415885,357541072,/z_drive,starboard,,,-0.3,-0.3048,0.0,,0.0,0.0,0.0,1.0
1402415885364541256,,errorv,,0,,1402415885,464351173,base_link,imu,,,0.13,0.0,-0.1,,1.0,0.0,0.0,0.0
1402415885364570108,,errorv,,0,,1402415885,464362455,/base_link,/gps,,,-0.84,0.0,-0.14,,0.0,0.0,0.0,1.0
1402415885377735661,,errorv,,0,,1402415885,377506311,base_link,/z_drive,,,0.0,0.0,0.0,,0.0,0.0,0.0,1.0
1402415885377759235,,errorv,,0,,1402415885,377523300,/z_drive,port,,,-0.3,0.3048,0.0,,0.0,0.0,0.0,1.0
1402415885377867951,,errorv,,0,,1402415885,377527694,/z_drive,starboard,,,-0.3,-0.3048,0.0,,0.0,0.0,0.0,1.0
1402415885391066097,,errorv,,0,,1402415885,314542055,/enu,/base_link,,,3.34427784331,31.8746906842,-31.4004127697,,-0.00115928067165,0.0177639822561,-0.518785267665,0.854719218841
1402415885394852970,,errorv,,0,,1402415885,325545072,/enu,/base_link,,,3.35087431458,31.8844122209,-31.3987122435,,-0.00130218233754,0.0179920439267,-0.518220836509,0.855056580165
1402415885394898784,,errorv,,0,,1402415885,335545063,/enu,/base_link,,,3.3565585999,31.8929283162,-31.3967108855,,-0.00144640949446,0.0181214397627,-0.517684476344,0.85537845675
1402415885394923744,,errorv,,0,,1402415885,346541881,/enu,/base_link,,,3.36309655341,31.9024170609,-31.3944872811,,-0.00141839052431,0.018344589032,-0.517124533721,0.85571238208
1402415885397610773,,errorv,,0,,1402415885,397475508,base_link,/z_drive,,,0.0,0.0,0.0,,0.0,0.0,0.0,1.0
1402415885397639575,,errorv,,0,,1402415885,397490691,/z_drive,port,,,-0.3,0.3048,0.0,,0.0,0.0,0.0,1.0
1402415885397835110,,errorv,,0,,1402415885,397495383,/z_drive,starboard,,,-0.3,-0.3048,0.0,,0.0,0.0,0.0,1.0
1402415885417625365,,errorv,,0,,1402415885,417486477,base_link,/z_drive,,,0.0,0.0,0.0,,0.0,0.0,0.0,1.0
1402415885417698561,,errorv,,0,,1402415885,417499990,/z_drive,port,,,-0.3,0.3048,0.0,,0.0,0.0,0.0,1.0
1402415885417797334,,errorv,,0,,1402415885,417504410,/z_drive,starboard,,,-0.3,-0.3048,0.0,,0.0,0.0,0.0,1.0
1402415885431240610,,errorv,,0,,1402415885,356543064,/enu,/base_link,,,3.36871231834,31.9111362923,-31.3926166447,,-0.00145440868123,0.018470962005,-0.51661113643,0.856019650461
1402415885431268408,,errorv,,0,,1402415885,367544889,/enu,/base_link,,,3.37534467313,31.9208762449,-31.3906706359,,-0.00149408778159,0.0186349687399,-0.516046998305,0.856356234976
1402415885431326801,,errorv,,0,,1402415885,377546072,/enu,/base_link,,,3.38091468311,31.9294161309,-31.3882487916,,-0.0017790025652,0.0187574953261,-0.515512979975,0.856674593411
1402415885431404785,,errorv,,0,,1402415885,388464927,/enu,/base_link,,,3.38726336946,31.9391097399,-31.3862641787,,-0.00171293866065,0.0188460205722,-0.514933009337,0.857021522043
1402415885437745886,,errorv,,0,,1402415885,437517604,base_link,/z_drive,,,0.0,0.0,0.0,,0.0,0.0,0.0,1.0
1402415885437816150,,errorv,,0,,1402415885,437531451,/z_drive,port,,,-0.3,0.3048,0.0,,0.0,0.0,0.0,1.0
1402415885437844842,,errorv,,0,,1402415885,437535645,/z_drive,starboard,,,-0.3,-0.3048,0.0,,0.0,0.0,0.0,1.0
1402415885457745547,,errorv,,0,,1402415885,457471011,base_link,/z_drive,,,0.0,0.0,0.0,,0.0,0.0,0.0,1.0
1402415885457798133,,errorv,,0,,1402415885,457593387,/z_drive,port,,,-0.3,0.3048,0.0,,0.0,0.0,0.0,1.0
1402415885457822625,,errorv,,0,,1402415885,457606848,/z_drive,starboard,,,-0.3,-0.3048,0.0,,0.0,0.0,0.0,1.0
1402415885464647500,,errorv,,0,,1402415885,564442706,base_link,imu,,,0.13,0.0,-0.1,,1.0,0.0,0.0,0.0
1402415885464674834,,errorv,,0,,1402415885,564464213,/base_link,/gps,,,-0.84,0.0,-0.14,,0.0,0.0,0.0,1.0
1402415885471059324,,errorv,,0,,1402415885,398540973,/enu,/base_link,,,3.3930080327,31.9480186287,-31.384367775,,-0.00190833998455,0.0190055630689,-0.514401390463,0.857336781143
1402415885471131178,,errorv,,0,,1402415885,409466028,/enu,/base_link,,,3.39931326328,31.9577818531,-31.3823857712,,-0.00219625055342,0.0191596648926,-0.513819455467,0.857681555654
1402415885471155966,,errorv,,0,,1402415885,419543981,/enu,/base_link,,,3.40512648313,31.9665036038,-31.3800972804,,-0.0024806000845,0.0193333665279,-0.513260690539,0.85801138169
1402415885471238729,,errorv,,0,,1402415885,430437088,/enu,/base_link,,,3.41124776172,31.9761424859,-31.3778217262,,-0.00265945207664,0.0193901042104,-0.512674011684,0.858360244255
1402415885471261527,,errorv,,0,,1402415885,440439939,/enu,/base_link,,,3.41673987103,31.9849980322,-31.3757771808,,-0.00275595701458,0.0194927549743,-0.512111554901,0.858693305285
1402415885477700769,,errorv,,0,,1402415885,477471713,base_link,/z_drive,,,0.0,0.0,0.0,,0.0,0.0,0.0,1.0
1402415885477777168,,errorv,,0,,1402415885,477489042,/z_drive,port,,,-0.3,0.3048,0.0,,0.0,0.0,0.0,1.0
1402415885477802164,,errorv,,0,,1402415885,477496905,/z_drive,starboard,,,-0.3,-0.3048,0.0,,0.0,0.0,0.0,1.0
1402415885497627707,,errorv,,0,,1402415885,497476190,base_link,/z_drive,,,0.0,0.0,0.0,,0.0,0.0,0.0,1.0
1402415885497786184,,errorv,,0,,1402415885,497490206,/z_drive,port,,,-0.3,0.3048,0.0,,0.0,0.0,0.0,1.0
1402415885497809200,,errorv,,0,,1402415885,497494631,/z_drive,starboard,,,-0.3,-0.3048,0.0,,0.0,0.0,0.0,1.0
1402415885511076260,,errorv,,0,,1402415885,451440095,/enu,/base_link,,,3.42309477202,31.9947887706,-31.3735830801,,-0.00303526690802,0.0196081995832,-0.511471952055,0.859070863157
1402415885511103832,,errorv,,0,,1402415885,461450099,/enu,/base_link,,,3.42878139848,32.0039416758,-31.371851895,,-0.00323530815545,0.0196409284223,-0.510899868488,0.859409734114
1402415885511127870,,errorv,,0,,1402415885,472436904,/enu,/base_link,,,3.43509972369,32.0137360717,-31.3695268751,,-0.00332687347387,0.0197481019615,-0.510270690079,0.859780650648
1402415885517631116,,errorv,,0,,1402415885,517498840,base_link,/z_drive,,,0.0,0.0,0.0,,0.0,0.0,0.0,1.0
1402415885517796726,,errorv,,0,,1402415885,517518732,/z_drive,port,,,-0.3,0.3048,0.0,,0.0,0.0,0.0,1.0
1402415885517873681,,errorv,,0,,1402415885,517558407,/z_drive,starboard,,,-0.3,-0.3048,0.0,,0.0,0.0,0.0,1.0
1402415885519422302,,errorv,,0,,1402415885,483445882,/enu,/base_link,,,3.44110937333,32.0235246249,-31.3670611943,,-0.00358569912389,0.0197746832922,-0.509632317332,0.860157547077
1402415885519446850,,errorv,,0,,1402415885,493439912,/enu,/base_link,,,3.44674387239,32.0325454824,-31.3650863297,,-0.00371509900185,0.0198449378233,-0.509034334317,0.860509397374
