rosbagTimestamp,control_method,x_current,x_desired,y_current,y_desired,z_current,z_desired,x_velocity_current,x_velocity_desired,y_velocity_current,y_velocity_desired,z_velocity_current,z_velocity_desired,yaw_current,yaw_desired,yaw_velocity_current,yaw_velocity_desired,roll_current,roll_desired,roll_velocity_current,roll_velocity_desired,pitch_current,pitch_desired,pitch_velocity_current,pitch_velocity_desired,required_force_x,required_force_y,required_moment_z,resultant_force_x,resultant_force_y,resultant_moment_z,current_port_servo_angle,current_port_thruster_force,current_starboard_servo_angle,current_starboard_thruster_force,estimated_port_servo_angle,estimated_port_thruster_force,estimated_starboard_servo_angle,estimated_starboard_thruster_force,cost_value,step,user_defined_1,user_defined_2,user_defined_3,user_defined_4,user_defined_5
1402752813486513923,3,-9.50364898984,-0.00591572024346,9.40473189979,-0.122189614607,-2.15826828657,0.10862951003,-0.0104956152452,0.0,-0.0118136246147,0.0,0.0699954175267,0.0,-1.76128659419,0.0,-0.00179136927594,0.0,8.77148067326e-05,0.0,-0.00783047348652,0.0,0.0728931573691,0.0,-0.00235517556948,0.0,0.0,0.0,0.0,25.0,-0.0,7.62,0.00230154196664,0.0,0.00230154196664,0.0,-0.0,0.0,-0.0,25.0,63407.2000001,0.0,0.0,0.0,0.0,0.0,0.0
1402752813506291688,3,-9.50364898984,-0.00591572024346,9.40473189979,-0.122189614607,-2.15826828657,0.10862951003,-0.0104956152452,0.0,-0.0118136246147,0.0,0.0699954175267,0.0,-1.76128659419,0.0,-0.00179136927594,0.0,8.77148067326e-05,0.0,-0.00783047348652,0.0,0.0728931573691,0.0,-0.00235517556948,0.0,0.0,0.0,0.0,25.0,-0.0,7.62,0.00230154196664,0.0,0.00230154196664,0.0,-0.0,0.0,-0.0,25.0,63407.2000001,0.0,0.0,0.0,0.0,0.0,0.0
1402752813526277433,3,-9.50407514055,-0.00591572024346,9.40416988351,-0.122189614607,-2.15536115924,0.10862951003,-0.010430508355,0.0,-0.0118403724693,0.0,0.0711072703252,0.0,-1.76138236727,0.0,-0.000719722157927,0.0,0.000122520528615,0.0,-0.0111061659949,0.0,0.0726960786803,0.0,-0.000674464411914,0.0,0.0,0.0,0.0,25.0,-0.0,7.62,0.00230154196664,0.0,0.00230154196664,0.0,-0.0,0.0,-0.0,25.0,63407.2000001,0.0,0.0,0.0,0.0,0.0,0.0
1402752813546268197,3,-9.50407514055,-0.00591572024346,9.40416988351,-0.122189614607,-2.15536115924,0.10862951003,-0.010430508355,0.0,-0.0118403724693,0.0,0.0711072703252,0.0,-1.76138236727,0.0,-0.000719722157927,0.0,0.000122520528615,0.0,-0.0111061659949,0.0,0.0726960786803,0.0,-0.000674464411914,0.0,0.0,0.0,0.0,25.0,-0.0,7.62,0.00230154196664,0.0,0.00230154196664,0.0,-0.0,0.0,-0.0,25.0,63407.2000001,0.0,0.0,0.0,0.0,0.0,0.0
1402752813566352134,3,-9.50409374125,-0.00591572024346,9.4014251515,-0.122189614607,-2.16090554212,0.10862951003,-0.00783666366054,0.0,-0.020487841222,0.0,0.0683310265144,0.0,-1.76148501813,0.0,0.00103118960031,0.0,-0.000424110836952,0.0,-0.00502141978073,0.0,0.07334621495,0.0,-0.000624597861986,0.0,0.0,0.0,0.0,25.0,-0.0,7.62,0.00230154196664,0.0,0.00230154196664,0.0,-0.0,0.0,-0.0,25.0,63407.2000001,0.0,0.0,0.0,0.0,0.0,0.0
1402752813586956095,3,-9.50409374125,-0.00591572024346,9.4014251515,-0.122189614607,-2.16090554212,0.10862951003,-0.00783666366054,0.0,-0.020487841222,0.0,0.0683310265144,0.0,-1.76148501813,0.0,0.00103118960031,0.0,-0.000424110836952,0.0,-0.00502141978073,0.0,0.07334621495,0.0,-0.000624597861986,0.0,0.0,0.0,0.0,25.0,-0.0,7.62,0.00230154196664,0.0,0.00230154196664,0.0,-0.0,0.0,-0.0,25.0,63407.2000001,0.0,0.0,0.0,0.0,0.0,0.0
1402752813606281287,3,-9.50158083305,-0.00591572024346,9.40293369342,-0.122189614607,-2.1556285526,0.10862951003,0.000688615045036,0.0,-0.0131157196871,0.0,0.0685800041106,0.0,-1.76162339873,0.0,-0.00417010233223,0.0,-0.00110680147865,0.0,-0.00488547822317,0.0,0.0720793682454,0.0,0.00244113424832,0.0,0.0,0.0,0.0,25.0,-0.0,7.62,0.00230154196664,0.0,0.00230154196664,0.0,-0.0,0.0,-0.0,25.0,63407.2000001,0.0,0.0,0.0,0.0,0.0,0.0
1402752813626354556,3,-9.50158083305,-0.00591572024346,9.40293369342,-0.122189614607,-2.1556285526,0.10862951003,0.000688615045036,0.0,-0.0131157196871,0.0,0.0685800041106,0.0,-1.76162339873,0.0,-0.00417010233223,0.0,-0.00110680147865,0.0,-0.00488547822317,0.0,0.0720793682454,0.0,0.00244113424832,0.0,0.0,0.0,0.0,25.0,-0.0,7.62,0.00230154196664,0.0,0.00230154196664,0.0,-0.0,0.0,-0.0,25.0,63407.2000001,0.0,0.0,0.0,0.0,0.0,0.0
1402752813646930970,3,-9.50320989388,-0.00591572024346,9.40205110568,-0.122189614607,-2.15871458385,0.10862951003,-0.00297021422514,0.0,-0.0151413997342,0.0,0.0659675534031,0.0,-1.76166746957,0.0,-0.00858117559261,0.0,-0.000493106721332,0.0,-0.00468460623477,0.0,0.0721043142385,0.0,0.00114779133685,0.0,0.0,0.0,0.0,25.0,-0.0,7.62,0.00230154196664,0.0,0.00230154196664,0.0,-0.0,0.0,-0.0,25.0,63407.2000001,0.0,0.0,0.0,0.0,0.0,0.0
1402752813666226430,3,-9.50320989388,-0.00591572024346,9.40205110568,-0.122189614607,-2.15871458385,0.10862951003,-0.00297021422514,0.0,-0.0151413997342,0.0,0.0659675534031,0.0,-1.76166746957,0.0,-0.00858117559261,0.0,-0.000493106721332,0.0,-0.00468460623477,0.0,0.0721043142385,0.0,0.00114779133685,0.0,0.0,0.0,0.0,25.0,-0.0,7.62,0.00230154196664,0.0,0.00230154196664,0.0,-0.0,0.0,-0.0,25.0,63407.2000001,0.0,0.0,0.0,0.0,0.0,0.0
1402752813686330813,3,-9.50264213386,-0.00591572024346,9.39980410316,-0.122189614607,-2.1480488707,0.10862951003,-0.0026784550114,0.0,-0.0142679079783,0.0,0.0681450885688,0.0,-1.76190137189,0.0,-0.00505378100968,0.0,-0.000505903980494,0.0,-0.005769315125,0.0,0.0717465813989,0.0,0.0042554428636,0.0,0.0,0.0,0.0,25.0,-0.0,7.62,0.00230154196664,0.0,0.00230154196664,0.0,-0.0,0.0,-0.0,25.0,63407.2000001,0.0,0.0,0.0,0.0,0.0,0.0
1402752813706704615,3,-9.50264213386,-0.00591572024346,9.39980410316,-0.122189614607,-2.1480488707,0.10862951003,-0.0026784550114,0.0,-0.0142679079783,0.0,0.0681450885688,0.0,-1.76190137189,0.0,-0.00505378100968,0.0,-0.000505903980494,0.0,-0.005769315125,0.0,0.0717465813989,0.0,0.0042554428636,0.0,0.0,0.0,0.0,25.0,-0.0,7.62,0.00230154196664,0.0,0.00230154196664,0.0,-0.0,0.0,-0.0,25.0,63407.2000001,0.0,0.0,0.0,0.0,0.0,0.0
1402752813726718715,3,-9.50064568478,-0.00591572024346,9.39792478107,-0.122189614607,-2.1374006379,0.10862951003,0.000250698657272,0.0,-0.0139359590237,0.0,0.0711402867542,0.0,-1.76204276613,0.0,-0.00395214553635,0.0,-0.000895511988075,0.0,-0.00587911297792,0.0,0.0713620931069,0.0,-0.00212032661796,0.0,0.0,0.0,0.0,25.0,-0.0,7.62,0.00230154196664,0.0,0.00230154196664,0.0,-0.0,0.0,-0.0,25.0,63407.2000001,0.0,0.0,0.0,0.0,0.0,0.0
1402752813746323291,3,-9.50064568478,-0.00591572024346,9.39792478107,-0.122189614607,-2.1374006379,0.10862951003,0.000250698657272,0.0,-0.0139359590237,0.0,0.0711402867542,0.0,-1.76204276613,0.0,-0.00395214553635,0.0,-0.000895511988075,0.0,-0.00587911297792,0.0,0.0713620931069,0.0,-0.00212032661796,0.0,0.0,0.0,0.0,25.0,-0.0,7.62,0.00230154196664,0.0,0.00230154196664,0.0,-0.0,0.0,-0.0,25.0,63407.2000001,0.0,0.0,0.0,0.0,0.0,0.0
1402752813766920548,3,-9.50098914682,-0.00591572024346,9.4002393762,-0.122189614607,-2.15281452282,0.10862951003,-0.00103475687847,0.0,-0.0167815560558,0.0,0.0643227958249,0.0,-1.7621895282,0.0,0.000487766196187,0.0,-0.000807230655152,0.0,-0.00586493043329,0.0,0.0716554174903,0.0,0.00432165251232,0.0,0.0,0.0,0.0,25.0,-0.0,7.62,0.00230154196664,0.0,0.00230154196664,0.0,-0.0,0.0,-0.0,25.0,63407.2000001,0.0,0.0,0.0,0.0,0.0,0.0
1402752813786258364,3,-9.50101654993,-0.00591572024346,9.39984846284,-0.122189614607,-2.15143499724,0.10862951003,-0.00116945696778,0.0,-0.0169516176855,0.0,0.0642648449124,0.0,-1.76225072921,0.0,-0.00302506668117,0.0,-0.000865641164539,0.0,-0.00478859819163,0.0,0.071534963912,0.0,-0.00172088564984,0.0,0.0,0.0,0.0,25.0,-0.0,7.62,0.00230154196664,0.0,0.00230154196664,0.0,-0.0,0.0,-0.0,25.0,63407.2000001,0.0,0.0,0.0,0.0,0.0,0.0
1402752813806123733,3,-9.50101654993,-0.00591572024346,9.39984846284,-0.122189614607,-2.15143499724,0.10862951003,-0.00116945696778,0.0,-0.0169516176855,0.0,0.0642648449124,0.0,-1.76225072921,0.0,-0.00302506668117,0.0,-0.000865641164539,0.0,-0.00478859819163,0.0,0.071534963912,0.0,-0.00172088564984,0.0,0.0,0.0,0.0,25.0,-0.0,7.62,0.00230154196664,0.0,0.00230154196664,0.0,-0.0,0.0,-0.0,25.0,63407.2000001,0.0,0.0,0.0,0.0,0.0,0.0
1402752813826389315,3,-9.50109607055,-0.00591572024346,9.39956628088,-0.122189614607,-2.15030854381,0.10862951003,-0.000931524443116,0.0,-0.0166167121165,0.0,0.0635160921934,0.0,-1.7623616229,0.0,-0.00354121671,0.0,-0.000808602331431,0.0,-0.00849273234701,0.0,0.0714164084012,0.0,-0.000513558568945,0.0,0.0,0.0,0.0,25.0,-0.0,7.62,0.00230154196664,0.0,0.00230154196664,0.0,-0.0,0.0,-0.0,25.0,63407.2000001,0.0,0.0,0.0,0.0,0.0,0.0
1402752813846285001,3,-9.50109607055,-0.00591572024346,9.39956628088,-0.122189614607,-2.15030854381,0.10862951003,-0.000931524443116,0.0,-0.0166167121165,0.0,0.0635160921934,0.0,-1.7623616229,0.0,-0.00354121671,0.0,-0.000808602331431,0.0,-0.00849273234701,0.0,0.0714164084012,0.0,-0.000513558568945,0.0,0.0,0.0,0.0,25.0,-0.0,7.62,0.00230154196664,0.0,0.00230154196664,0.0,-0.0,0.0,-0.0,25.0,63407.2000001,0.0,0.0,0.0,0.0,0.0,0.0
1402752813866792941,3,-9.50081575653,-0.00591572024346,9.40004945986,-0.122189614607,-2.15576842676,0.10862951003,-0.00121742795285,0.0,-0.0194616522602,0.0,0.0612621968244,0.0,-1.76244352941,0.0,-0.000775490647089,0.0,-0.000748547364469,0.0,-0.00101632784168,0.0,0.071517967887,0.0,0.00437718941894,0.0,0.0,0.0,0.0,25.0,-0.0,7.62,0.00230154196664,0.0,0.00230154196664,0.0,-0.0,0.0,-0.0,25.0,63407.2000001,0.0,0.0,0.0,0.0,0.0,0.0
1402752813886218849,3,-9.50081575653,-0.00591572024346,9.40004945986,-0.122189614607,-2.15576842676,0.10862951003,-0.00121742795285,0.0,-0.0194616522602,0.0,0.0612621968244,0.0,-1.76244352941,0.0,-0.000775490647089,0.0,-0.000748547364469,0.0,-0.00101632784168,0.0,0.071517967887,0.0,0.00437718941894,0.0,0.0,0.0,0.0,25.0,-0.0,7.62,0.00230154196664,0.0,0.00230154196664,0.0,-0.0,0.0,-0.0,25.0,63407.2000001,0.0,0.0,0.0,0.0,0.0,0.0
1402752813906232147,3,-9.5012592199,-0.00591572024346,9.39921978477,-0.122189614607,-2.14949827084,0.10862951003,-0.00408023480012,0.0,-0.0173270879485,0.0,0.0631176702145,0.0,-1.76260837935,0.0,-0.00759151438094,0.0,-0.000323367703346,0.0,-0.0025769658729,0.0,0.0712484545689,0.0,-0.00249477589185,0.0,0.0,0.0,0.0,25.0,-0.0,7.62,0.00230154196664,0.0,0.00230154196664,0.0,-0.0,0.0,-0.0,25.0,63407.2000001,0.0,0.0,0.0,0.0,0.0,0.0
1402752813926400353,3,-9.5012592199,-0.00591572024346,9.39921978477,-0.122189614607,-2.14949827084,0.10862951003,-0.00408023480012,0.0,-0.0173270879485,0.0,0.0631176702145,0.0,-1.76260837935,0.0,-0.00759151438094,0.0,-0.000323367703346,0.0,-0.0025769658729,0.0,0.0712484545689,0.0,-0.00249477589185,0.0,0.0,0.0,0.0,25.0,-0.0,7.62,0.00230154196664,0.0,0.00230154196664,0.0,-0.0,0.0,-0.0,25.0,63407.2000001,0.0,0.0,0.0,0.0,0.0,0.0
1402752813946915035,3,-9.49892102391,-0.00591572024346,9.39795353563,-0.122189614607,-2.14616829085,0.10862951003,0.000926847554574,0.0,-0.0191896599079,0.0,0.0646230333829,0.0,-1.76277409781,0.0,-0.000540116982239,0.0,-0.000929500633711,0.0,-0.000650589593348,0.0,0.071348967184,0.0,0.00451522469046,0.0,0.0,0.0,0.0,25.0,-0.0,7.62,0.00230154196664,0.0,0.00230154196664,0.0,-0.0,0.0,-0.0,25.0,63407.2000001,0.0,0.0,0.0,0.0,0.0,0.0
1402752813966048292,3,-9.49892102391,-0.00591572024346,9.39795353563,-0.122189614607,-2.14616829085,0.10862951003,0.000926847554574,0.0,-0.0191896599079,0.0,0.0646230333829,0.0,-1.76277409781,0.0,-0.000540116982239,0.0,-0.000929500633711,0.0,-0.000650589593348,0.0,0.071348967184,0.0,0.00451522469046,0.0,0.0,0.0,0.0,25.0,-0.0,7.62,0.00230154196664,0.0,0.00230154196664,0.0,-0.0,0.0,-0.0,25.0,63407.2000001,0.0,0.0,0.0,0.0,0.0,0.0
1402752813986221003,3,-9.49925292614,-0.00591572024346,9.40035839685,-0.122189614607,-2.15778659762,0.10862951003,-0.00211748421042,0.0,-0.0189851742826,0.0,0.0608508748672,0.0,-1.76279520002,0.0,0.00352674680844,0.0,-0.000711920095102,0.0,0.00125690238213,0.0,0.0716051485148,0.0,0.0021552293064,0.0,0.0,0.0,0.0,25.0,-0.0,7.62,0.00230154196664,0.0,0.00230154196664,0.0,-0.0,0.0,-0.0,25.0,63407.2000001,0.0,0.0,0.0,0.0,0.0,0.0
1402752814006332800,3,-9.49925292614,-0.00591572024346,9.40035839685,-0.122189614607,-2.15778659762,0.10862951003,-0.00211748421042,0.0,-0.0189851742826,0.0,0.0608508748672,0.0,-1.76279520002,0.0,0.00352674680844,0.0,-0.000711920095102,0.0,0.00125690238213,0.0,0.0716051485148,0.0,0.0021552293064,0.0,0.0,0.0,0.0,25.0,-0.0,7.62,0.00230154196664,0.0,0.00230154196664,0.0,-0.0,0.0,-0.0,25.0,63407.2000001,0.0,0.0,0.0,0.0,0.0,0.0
1402752814026199834,3,-9.49941958793,-0.00591572024346,9.39963957161,-0.122189614607,-2.15534508541,0.10862951003,-0.00194543240036,0.0,-0.0195718049647,0.0,0.0623566530338,0.0,-1.76292086129,0.0,-0.00138616328856,0.0,-0.000594329501522,0.0,0.0032705716619,0.0,0.0715603331815,0.0,-0.00193870435111,0.0,0.0,0.0,0.0,25.0,-0.0,7.62,0.00230154196664,0.0,0.00230154196664,0.0,-0.0,0.0,-0.0,25.0,63407.2000001,0.0,0.0,0.0,0.0,0.0,0.0
1402752814046335795,3,-9.49941958793,-0.00591572024346,9.39963957161,-0.122189614607,-2.15534508541,0.10862951003,-0.00194543240036,0.0,-0.0195718049647,0.0,0.0623566530338,0.0,-1.76292086129,0.0,-0.00138616328856,0.0,-0.000594329501522,0.0,0.0032705716619,0.0,0.0715603331815,0.0,-0.00193870435111,0.0,0.0,0.0,0.0,25.0,-0.0,7.62,0.00230154196664,0.0,0.00230154196664,25.0,-0.0,0.0,-0.0,25.0,63407.2000001,0.0,0.0,0.0,0.0,0.0,0.0
1402752814066206230,3,-9.49689117593,-0.00591572024346,9.40352532143,-0.122189614607,-2.16366267812,0.10862951003,0.00355638372916,0.0,-0.0151377299493,0.0,0.0593455130014,0.0,-1.7631510738,0.0,-0.00749269830253,0.0,-0.000961054214131,0.0,0.00256925857502,0.0,0.0711526081565,0.0,-0.00203654833515,0.0,0.0,0.0,0.0,25.0,-0.0,7.62,0.00230154196664,0.0,0.00230154196664,25.0,-0.0,0.0,-0.0,25.0,63407.2000001,0.0,0.0,0.0,0.0,0.0,0.0
1402752814086104906,3,-9.49689117593,-0.00591572024346,9.40352532143,-0.122189614607,-2.16366267812,0.10862951003,0.00355638372916,0.0,-0.0151377299493,0.0,0.0593455130014,0.0,-1.7631510738,0.0,-0.00749269830253,0.0,-0.000961054214131,0.0,0.00256925857502,0.0,0.0711526081565,0.0,-0.00203654833515,0.0,0.0,0.0,0.0,25.0,-0.0,7.62,0.00230154196664,0.0,0.00230154196664,25.0,-0.0,0.0,-0.0,25.0,63407.2000001,0.0,0.0,0.0,0.0,0.0,0.0
1402752814106557688,3,-9.50267078028,-0.00591572024346,9.40158337874,-0.122189614607,-2.15260566283,0.10862951003,-0.0157431223661,0.0,-0.0119856747996,0.0,0.0640503897437,0.0,-1.76302963355,0.0,-0.0052001591428,0.0,0.00166341561174,0.0,-0.00127616081143,0.0,0.0710342830065,0.0,-0.00337456647713,0.0,0.0,0.0,0.0,25.0,-0.0,7.62,0.00230154196664,0.0,0.00230154196664,25.0,-0.0,0.0,-0.0,25.0,63407.2000001,0.0,0.0,0.0,0.0,0.0,0.0
1402752814126490202,3,-9.50267078028,-0.00591572024346,9.40158337874,-0.122189614607,-2.15260566283,0.10862951003,-0.0157431223661,0.0,-0.0119856747996,0.0,0.0640503897437,0.0,-1.76302963355,0.0,-0.0052001591428,0.0,0.00166341561174,0.0,-0.00127616081143,0.0,0.0710342830065,0.0,-0.00337456647713,0.0,0.0,0.0,0.0,25.0,-0.0,7.62,0.00230154196664,0.0,0.00230154196664,25.0,-0.0,0.0,-0.0,25.0,63407.2000001,0.0,0.0,0.0,0.0,0.0,0.0
1402752814146526389,3,-9.49964919518,-0.00591572024346,9.3966303649,-0.122189614607,-2.15411792072,0.10862951003,-0.00677969570286,0.0,-0.0272350443024,0.0,0.0643538650457,0.0,-1.76350025451,0.0,-0.00209840405401,0.0,0.000157367726778,0.0,0.000799800802178,0.0,0.0724827776487,0.0,0.000964248581953,0.0,0.0,0.0,0.0,25.0,-0.0,7.62,0.00230154196664,0.0,0.00230154196664,25.0,-0.0,0.0,-0.0,25.0,63407.2000001,0.0,0.0,0.0,0.0,0.0,0.0
1402752814166202143,3,-9.49964919518,-0.00591572024346,9.3966303649,-0.122189614607,-2.15411792072,0.10862951003,-0.00677969570286,0.0,-0.0272350443024,0.0,0.0643538650457,0.0,-1.76350025451,0.0,-0.00209840405401,0.0,0.000157367726778,0.0,0.000799800802178,0.0,0.0724827776487,0.0,0.000964248581953,0.0,0.0,0.0,0.0,25.0,-0.0,7.62,0.00230154196664,0.0,0.00230154196664,25.0,-0.0,0.0,-0.0,25.0,63407.2000001,0.0,0.0,0.0,0.0,0.0,0.0
1402752814186199937,3,-9.49744688425,-0.00591572024346,9.39960453819,-0.122189614607,-2.15696080842,0.10862951003,-0.00526838642503,0.0,-0.0226088785655,0.0,0.0642601771601,0.0,-1.76372352689,0.0,-0.00215048699152,0.0,9.14184062458e-05,0.0,-0.000516422807488,0.0,0.0719301112924,0.0,-0.00577130880446,0.0,0.0,0.0,0.0,25.0,-0.0,7.62,0.00230154196664,0.0,0.00230154196664,25.0,-0.0,0.0,-0.0,25.0,63407.2000001,0.0,0.0,0.0,0.0,0.0,0.0
1402752814206072235,3,-9.49744688425,-0.00591572024346,9.39960453819,-0.122189614607,-2.15696080842,0.10862951003,-0.00526838642503,0.0,-0.0226088785655,0.0,0.0642601771601,0.0,-1.76372352689,0.0,-0.00215048699152,0.0,9.14184062458e-05,0.0,-0.000516422807488,0.0,0.0719301112924,0.0,-0.00577130880446,0.0,0.0,0.0,0.0,25.0,-0.0,7.62,0.00230154196664,0.0,0.000767318410122,25.0,-0.0,0.0,-0.0,25.0,63407.2,0.0,0.0,0.0,0.0,0.0,0.0
1402752814227169848,3,-9.49768808821,-0.00591572024346,9.39869634314,-0.122189614607,-2.15431227533,0.10862951003,-0.00495867336382,0.0,-0.023554293306,0.0,0.0657968889011,0.0,-1.76380280353,0.0,-0.00169090230953,0.0,0.000176136479212,0.0,0.00106181331892,0.0,0.0718852806542,0.0,-0.00114914673254,0.0,0.0,0.0,0.0,25.0,-0.0,7.62,0.00230154196664,0.0,0.000767318410122,25.0,-0.0,0.0,-0.0,25.0,63407.2,0.0,0.0,0.0,0.0,0.0,0.0
1402752814246308426,3,-9.49768808821,-0.00591572024346,9.39869634314,-0.122189614607,-2.15431227533,0.10862951003,-0.00495867336382,0.0,-0.023554293306,0.0,0.0657968889011,0.0,-1.76380280353,0.0,-0.00169090230953,0.0,0.000176136479212,0.0,0.00106181331892,0.0,0.0718852806542,0.0,-0.00114914673254,0.0,0.0,0.0,0.0,25.0,-0.0,7.62,0.00230154196664,0.0,0.000767318410122,25.0,-0.0,0.0,-0.0,25.0,63407.2,0.0,0.0,0.0,0.0,0.0,0.0
1402752814265977932,3,-9.49657656765,-0.00591572024346,9.40428573285,-0.122189614607,-2.15370481046,0.10862951003,-0.00737915709104,0.0,-0.0123663003293,0.0,0.0670739205653,0.0,-1.76376491657,0.0,0.000913543037457,0.0,0.000932823075969,0.0,-0.000915660623547,0.0,0.07062684682,0.0,-0.00952715438446,0.0,0.0,0.0,0.0,25.0,-0.0,7.62,0.00230154196664,0.0,0.000767318410122,25.0,-0.0,0.0,-0.0,25.0,63407.2,0.0,0.0,0.0,0.0,0.0,0.0
1402752814286000343,3,-9.49657656765,-0.00591572024346,9.40428573285,-0.122189614607,-2.15370481046,0.10862951003,-0.00737915709104,0.0,-0.0123663003293,0.0,0.0670739205653,0.0,-1.76376491657,0.0,0.000913543037457,0.0,0.000932823075969,0.0,-0.000915660623547,0.0,0.07062684682,0.0,-0.00952715438446,0.0,0.0,0.0,0.0,25.0,-0.0,7.62,0.00230154196664,0.0,0.000767318410122,25.0,-0.0,0.0,-0.0,25.0,63407.2,0.0,0.0,0.0,0.0,0.0,0.0
1402752814306151923,3,-9.49670286973,-0.00591572024346,9.3999053615,-0.122189614607,-2.16309795155,0.10862951003,-0.0067838696323,0.0,-0.0335565726772,0.0,0.0665934320936,0.0,-1.76358814442,0.0,-0.00309589156452,0.0,0.000647162068779,0.0,-0.00246080570374,0.0,0.0723415469001,0.0,-0.00306465524735,0.0,0.0,0.0,0.0,25.0,-0.0,7.62,0.00230154196664,0.0,0.000767318410122,25.0,-0.0,0.0,-0.0,25.0,63407.2,0.0,0.0,0.0,0.0,0.0,0.0
1402752814326131979,3,-9.49670286973,-0.00591572024346,9.3999053615,-0.122189614607,-2.16309795155,0.10862951003,-0.0067838696323,0.0,-0.0335565726772,0.0,0.0665934320936,0.0,-1.76358814442,0.0,-0.00309589156452,0.0,0.000647162068779,0.0,-0.00246080570374,0.0,0.0723415469001,0.0,-0.00306465524735,0.0,0.0,0.0,0.0,25.0,-0.0,7.62,0.00230154196664,0.0,0.000767318410122,25.0,-0.0,0.0,-0.0,25.0,63407.2,0.0,0.0,0.0,0.0,0.0,0.0
1402752814346136579,3,-9.49567499897,-0.00591572024346,9.40038266864,-0.122189614607,-2.15997281145,0.10862951003,-0.00765315018657,0.0,-0.0318631491099,0.0,0.0655355106577,0.0,-1.76355719574,0.0,0.00648108684888,0.0,0.000648125867459,0.0,0.00141684531052,0.0,0.0719380636297,0.0,0.00472550249578,0.0,0.0,0.0,0.0,25.0,-0.0,7.62,0.00230154196664,0.0,0.000767318410122,25.0,-0.0,0.0,-0.0,25.0,63407.2,0.0,0.0,0.0,0.0,0.0,0.0
1402752814366173844,3,-9.49567499897,-0.00591572024346,9.40038266864,-0.122189614607,-2.15997281145,0.10862951003,-0.00765315018657,0.0,-0.0318631491099,0.0,0.0655355106577,0.0,-1.76355719574,0.0,0.00648108684888,0.0,0.000648125867459,0.0,0.00141684531052,0.0,0.0719380636297,0.0,0.00472550249578,0.0,0.0,0.0,0.0,25.0,-0.0,7.62,0.00230154196664,0.0,0.000767318410122,25.0,-0.0,0.0,-0.0,25.0,63407.2,0.0,0.0,0.0,0.0,0.0,0.0
1402752814386559753,3,-9.49299701122,-0.00591572024346,9.40913697863,-0.122189614607,-2.16309609837,0.10862951003,-0.00433132634701,0.0,-0.0144721954884,0.0,0.0656536650547,0.0,-1.76368810246,0.0,0.00813788706183,0.0,0.000761637197155,0.0,0.000677803483829,0.0,0.0698127617829,0.0,0.00499057128483,0.0,0.0,0.0,0.0,25.0,-0.0,7.62,0.00230154196664,0.0,0.000767318410122,25.0,-0.0,0.0,-0.0,25.0,63407.2,0.0,0.0,0.0,0.0,0.0,0.0
1402752814406139405,3,-9.49299701122,-0.00591572024346,9.40913697863,-0.122189614607,-2.16309609837,0.10862951003,-0.00433132634701,0.0,-0.0144721954884,0.0,0.0656536650547,0.0,-1.76368810246,0.0,0.00813788706183,0.0,0.000761637197155,0.0,0.000677803483829,0.0,0.0698127617829,0.0,0.00499057128483,0.0,0.0,0.0,0.0,25.0,-0.0,7.62,0.00230154196664,0.0,0.000767318410122,25.0,-0.0,0.0,-0.0,25.0,63407.2,0.0,0.0,0.0,0.0,0.0,0.0
1402752814427081709,3,-9.49315754555,-0.00591572024346,9.40841756135,-0.122189614607,-2.16018398286,0.10862951003,-0.00385928764947,0.0,-0.0165872033992,0.0,0.0681409965551,0.0,-1.76341965664,0.0,0.00680109908619,0.0,0.000592460941979,0.0,0.0052869345716,0.0,0.0698846632499,0.0,0.00553993208645,0.0,0.0,0.0,0.0,25.0,-0.0,7.62,0.00230154196664,0.0,0.000767318410122,25.0,-0.0,0.0,-0.0,25.0,63407.2,0.0,0.0,0.0,0.0,0.0,0.0
1402752814446093964,3,-9.49315754555,-0.00591572024346,9.40841756135,-0.122189614607,-2.16018398286,0.10862951003,-0.00385928764947,0.0,-0.0165872033992,0.0,0.0681409965551,0.0,-1.76341965664,0.0,0.00680109908619,0.0,0.000592460941979,0.0,0.0052869345716,0.0,0.0698846632499,0.0,0.00553993208645,0.0,0.0,0.0,0.0,25.0,-0.0,7.62,0.00230154196664,0.0,0.000767318410122,25.0,-0.0,0.0,-0.0,25.0,63407.2,0.0,0.0,0.0,0.0,0.0,0.0
1402752814466213967,3,-9.4904261093,-0.00591572024346,9.40664265638,-0.122189614607,-2.15595083345,0.10862951003,0.00025784835422,0.0,-0.0224247470105,0.0,0.0695638733512,0.0,-1.76304658447,0.0,0.00558930562762,0.0,-9.34899368474e-05,0.0,0.00239387020861,0.0,0.0702924647175,0.0,-0.0018192621467,0.0,0.0,0.0,0.0,25.0,-0.0,7.62,0.00230154196664,0.0,0.000767318410122,25.0,-0.0,0.0,-0.0,25.0,63407.2,0.0,0.0,0.0,0.0,0.0,0.0
1402752814486151707,3,-9.4904261093,-0.00591572024346,9.40664265638,-0.122189614607,-2.15595083345,0.10862951003,0.00025784835422,0.0,-0.0224247470105,0.0,0.0695638733512,0.0,-1.76304658447,0.0,0.00558930562762,0.0,-9.34899368474e-05,0.0,0.00239387020861,0.0,0.0702924647175,0.0,-0.0018192621467,0.0,0.0,0.0,0.0,25.0,-0.0,7.62,0.00230154196664,0.0,0.000767318410122,25.0,-0.0,0.0,-0.0,25.0,63407.2,0.0,0.0,0.0,0.0,0.0,0.0
1402752814506148551,3,-9.49593904305,-0.00591572024346,9.4003876582,-0.122189614607,-2.15454363923,0.10862951003,-0.0143771309188,0.0,-0.0369228166189,0.0,0.0691304595562,0.0,-1.76279487273,0.0,0.00727072425773,0.0,0.0014722350689,0.0,0.0026515599941,0.0,0.0718511505008,0.0,0.0093911575988,0.0,0.0,0.0,0.0,25.0,-0.0,7.62,0.00230154196664,0.0,0.000767318410122,25.0,-0.0,0.0,-0.0,25.0,63407.2,0.0,0.0,0.0,0.0,0.0,0.0
1402752814526201832,3,-9.49593904305,-0.00591572024346,9.4003876582,-0.122189614607,-2.15454363923,0.10862951003,-0.0143771309188,0.0,-0.0369228166189,0.0,0.0691304595562,0.0,-1.76279487273,0.0,0.00727072425773,0.0,0.0014722350689,0.0,0.0026515599941,0.0,0.0718511505008,0.0,0.0093911575988,0.0,0.0,0.0,0.0,25.0,-0.0,7.62,0.00230154196664,0.0,0.000767318410122,25.0,-0.0,0.0,-0.0,25.0,63407.2,0.0,0.0,0.0,0.0,0.0,0.0
1402752814546211959,3,-9.49659980033,-0.00591572024346,9.3987272042,-0.122189614607,-2.15160582079,0.10862951003,-0.016433142977,0.0,-0.0391194243487,0.0,0.069073328258,0.0,-1.76239709513,0.0,0.0147836574699,0.0,0.0013847113745,0.0,-0.00286927187452,0.0,0.0719203070476,0.0,0.00246591737082,0.0,0.0,0.0,0.0,25.0,-0.0,7.62,0.00230154196664,0.0,0.00230154196664,25.0,-0.0,0.0,-0.0,25.0,63407.2000001,0.0,0.0,0.0,0.0,0.0,0.0
1402752814566798775,3,-9.49659980033,-0.00591572024346,9.3987272042,-0.122189614607,-2.15160582079,0.10862951003,-0.016433142977,0.0,-0.0391194243487,0.0,0.069073328258,0.0,-1.76239709513,0.0,0.0147836574699,0.0,0.0013847113745,0.0,-0.00286927187452,0.0,0.0719203070476,0.0,0.00246591737082,0.0,0.0,0.0,0.0,25.0,-0.0,7.62,0.00230154196664,0.0,0.000767318410122,25.0,-0.0,0.0,-0.0,25.0,63407.2,0.0,0.0,0.0,0.0,0.0,0.0
1402752814586335442,3,-9.48949474485,-0.00591572024346,9.39983254237,-0.122189614607,-2.15408903868,0.10862951003,0.00180704357075,0.0,-0.0420778134814,0.0,0.0679789579078,0.0,-1.76182532559,0.0,0.0108634297962,0.0,-0.00102656864002,0.0,0.00572079305429,0.0,0.0718194574796,0.0,0.000191074825068,0.0,0.0,0.0,0.0,25.0,-0.0,7.62,0.00230154196664,0.0,0.00230154196664,25.0,-0.0,0.0,-0.0,25.0,63407.2000001,0.0,0.0,0.0,0.0,0.0,0.0
1402752814606057951,3,-9.48949474485,-0.00591572024346,9.39983254237,-0.122189614607,-2.15408903868,0.10862951003,0.00180704357075,0.0,-0.0420778134814,0.0,0.0679789579078,0.0,-1.76182532559,0.0,0.0108634297962,0.0,-0.00102656864002,0.0,0.00572079305429,0.0,0.0718194574796,0.0,0.000191074825068,0.0,0.0,0.0,0.0,25.0,-0.0,7.62,0.00230154196664,0.0,0.000767318410122,25.0,-0.0,0.0,-0.0,25.0,63407.2,0.0,0.0,0.0,0.0,0.0,0.0
1402752814626099179,3,-9.49507070359,-0.00591572024346,9.39744070847,-0.122189614607,-2.16934156583,0.10862951003,-0.0128195546138,0.0,-0.0543113598096,0.0,0.0617329186471,0.0,-1.76144692716,0.0,0.0154027344719,0.0,0.000227333585409,0.0,0.00679182891818,0.0,0.073314836118,0.0,0.0029001838083,0.0,0.0,0.0,0.0,25.0,-0.0,7.62,0.00230154196664,0.0,0.000767318410122,25.0,-0.0,0.0,-0.0,25.0,63407.2,0.0,0.0,0.0,0.0,0.0,0.0
1402752814646101277,3,-9.48978525141,-0.00591572024346,9.40495269054,-0.122189614607,-2.15906223312,0.10862951003,-0.00379204253565,0.0,-0.0339427314366,0.0,0.0655338106827,0.0,-1.76162301125,0.0,0.0130457444374,0.0,-0.00017603174124,0.0,0.00403957861128,0.0,0.0709133999458,0.0,0.0031874119003,0.0,0.0,0.0,0.0,25.0,-0.0,7.62,0.00230154196664,0.0,0.000767318410122,25.0,-0.0,0.0,-0.0,25.0,63407.2,0.0,0.0,0.0,0.0,0.0,0.0
1402752814666389231,3,-9.48987966657,-0.00591572024346,9.40394918551,-0.122189614607,-2.15716084689,0.10862951003,-0.00281620389448,0.0,-0.035720885466,0.0,0.066464691866,0.0,-1.76123143584,0.0,0.0121708610389,0.0,-0.000294711005473,0.0,0.00650246688606,0.0,0.0710330935811,0.0,0.00604601676382,0.0,0.0,0.0,0.0,25.0,-0.0,7.62,0.00230154196664,0.0,0.000767318410122,25.0,-0.0,0.0,-0.0,25.0,63407.2,0.0,0.0,0.0,0.0,0.0,0.0
1402752814686098197,3,-9.48987966657,-0.00591572024346,9.40394918551,-0.122189614607,-2.15716084689,0.10862951003,-0.00281620389448,0.0,-0.035720885466,0.0,0.066464691866,0.0,-1.76123143584,0.0,0.0121708610389,0.0,-0.000294711005473,0.0,0.00650246688606,0.0,0.0710330935811,0.0,0.00604601676382,0.0,0.0,0.0,0.0,25.0,-0.0,7.62,0.00230154196664,0.0,0.000767318410122,25.0,-0.0,0.0,-0.0,25.0,63407.2,0.0,0.0,0.0,0.0,0.0,0.0
1402752814706230781,3,-9.49240089969,-0.00591572024346,9.40026553666,-0.122189614607,-2.16851411074,0.10862951003,-0.0128342018984,0.0,-0.0521201372137,0.0,0.0629511408179,0.0,-1.76081984859,0.0,0.0158293410509,0.0,0.000300291619241,0.0,0.00575267219448,0.0,0.0729984564986,0.0,-0.00481722412831,0.0,0.0,0.0,0.0,25.0,-0.0,7.62,0.00230154196664,0.0,0.000767318410122,25.0,-0.0,0.0,-0.0,25.0,63407.2,0.0,0.0,0.0,0.0,0.0,0.0
1402752814726685739,3,-9.49240089969,-0.00591572024346,9.40026553666,-0.122189614607,-2.16851411074,0.10862951003,-0.0128342018984,0.0,-0.0521201372137,0.0,0.0629511408179,0.0,-1.76081984859,0.0,0.0158293410509,0.0,0.000300291619241,0.0,0.00575267219448,0.0,0.0729984564986,0.0,-0.00481722412831,0.0,0.0,0.0,0.0,25.0,-0.0,7.62,0.00230154196664,0.0,0.000767318410122,25.0,-0.0,0.0,-0.0,25.0,63407.2,0.0,0.0,0.0,0.0,0.0,0.0
1402752814746019770,3,-9.49231716365,-0.00591572024346,9.40309479104,-0.122189614607,-2.16372253035,0.10862951003,-0.0145959046457,0.0,-0.045059842992,0.0,0.0660625898973,0.0,-1.76042641194,0.0,0.0163501124895,0.0,0.000822772867822,0.0,0.00993900272112,0.0,0.0722092274543,0.0,0.00472958270791,0.0,0.0,0.0,0.0,25.0,-0.0,7.62,0.00230154196664,0.0,0.000767318410122,25.0,-0.0,0.0,-0.0,25.0,63407.2,0.0,0.0,0.0,0.0,0.0,0.0
1402752814766154728,3,-9.49231716365,-0.00591572024346,9.40309479104,-0.122189614607,-2.16372253035,0.10862951003,-0.0145959046457,0.0,-0.045059842992,0.0,0.0660625898973,0.0,-1.76042641194,0.0,0.0163501124895,0.0,0.000822772867822,0.0,0.00993900272112,0.0,0.0722092274543,0.0,0.00472958270791,0.0,0.0,0.0,0.0,25.0,-0.0,7.62,0.00230154196664,0.0,0.00230154196664,25.0,-0.0,0.0,-0.0,25.0,63407.2000001,0.0,0.0,0.0,0.0,0.0,0.0
1402752814786121147,3,-9.49331583549,-0.00591572024346,9.40388502275,-0.122189614607,-2.16976784358,0.10862951003,-0.0195407948214,0.0,-0.0466496255185,0.0,0.0633063384413,0.0,-1.75987532643,0.0,0.0182262410612,0.0,0.00123981155914,0.0,-0.000803225633906,0.0,0.0724535601682,0.0,0.00213736427612,0.0,0.0,0.0,0.0,25.0,-0.0,7.62,0.00230154196664,0.0,0.000767318410122,25.0,-0.0,0.0,-0.0,25.0,63407.2,0.0,0.0,0.0,0.0,0.0,0.0
1402752814806040588,3,-9.49331583549,-0.00591572024346,9.40388502275,-0.122189614607,-2.16976784358,0.10862951003,-0.0195407948214,0.0,-0.0466496255185,0.0,0.0633063384413,0.0,-1.75987532643,0.0,0.0182262410612,0.0,0.00123981155914,0.0,-0.000803225633906,0.0,0.0724535601682,0.0,0.00213736427612,0.0,0.0,0.0,0.0,25.0,-0.0,7.62,0.00230154196664,0.0,0.000767318410122,25.0,-0.0,0.0,-0.0,25.0,63407.2,0.0,0.0,0.0,0.0,0.0,0.0
1402752814826095249,3,-9.49233713319,-0.00591572024346,9.39830523165,-0.122189614607,-2.15872313713,0.10862951003,-0.0197453309083,0.0,-0.0562513767989,0.0,0.0687990697112,0.0,-1.75898861892,0.0,0.0267453675897,0.0,0.000827729084622,0.0,-0.000423598620051,0.0,0.0731690123526,0.0,-0.00117740156137,0.0,0.0,0.0,0.0,25.0,-0.0,7.62,0.00230154196664,0.0,0.000767318410122,25.0,-0.0,0.0,-0.0,25.0,63407.2,0.0,0.0,0.0,0.0,0.0,0.0
1402752814846120522,3,-9.49233713319,-0.00591572024346,9.39830523165,-0.122189614607,-2.15872313713,0.10862951003,-0.0197453309083,0.0,-0.0562513767989,0.0,0.0687990697112,0.0,-1.75898861892,0.0,0.0267453675897,0.0,0.000827729084622,0.0,-0.000423598620051,0.0,0.0731690123526,0.0,-0.00117740156137,0.0,0.0,0.0,0.0,25.0,-0.0,7.62,0.00230154196664,0.0,0.000767318410122,25.0,-0.0,0.0,-0.0,25.0,63407.2,0.0,0.0,0.0,0.0,0.0,0.0
1402752814866343647,3,-9.48901273734,-0.00591572024346,9.40111183108,-0.122189614607,-2.16603734714,0.10862951003,-0.0110834600564,0.0,-0.0562397169845,0.0,0.0671641487003,0.0,-1.75812210419,0.0,0.0203697170457,0.0,-0.000169739123717,0.0,0.00148240754954,0.0,0.0728556911611,0.0,0.0022128177732,0.0,0.0,0.0,0.0,25.0,-0.0,7.62,0.00230154196664,0.0,0.000767318410122,25.0,-0.0,0.0,-0.0,25.0,63407.2,0.0,0.0,0.0,0.0,0.0,0.0
1402752814887548303,3,-9.48901273734,-0.00591572024346,9.40111183108,-0.122189614607,-2.16603734714,0.10862951003,-0.0110834600564,0.0,-0.0562397169845,0.0,0.0671641487003,0.0,-1.75812210419,0.0,0.0203697170457,0.0,-0.000169739123717,0.0,0.00148240754954,0.0,0.0728556911611,0.0,0.0022128177732,0.0,0.0,0.0,0.0,25.0,-0.0,7.62,0.00230154196664,0.0,0.000767318410122,25.0,-0.0,0.0,-0.0,25.0,63407.2,0.0,0.0,0.0,0.0,0.0,0.0
1402752814906163188,3,-9.48848245701,-0.00591572024346,9.40252217711,-0.122189614607,-2.17170319503,0.10862951003,-0.0140436349221,0.0,-0.0573207403993,0.0,0.0655935423223,0.0,-1.7574400739,0.0,0.0232748934705,0.0,1.49679577732e-05,0.0,-0.00722437605769,0.0,0.0728164159987,0.0,-0.000414494697012,0.0,0.0,0.0,0.0,25.0,-0.0,7.62,0.00230154196664,0.0,0.000767318410122,25.0,-0.0,0.0,-0.0,25.0,63407.2,0.0,0.0,0.0,0.0,0.0,0.0
1402752814926092340,3,-9.48848245701,-0.00591572024346,9.40252217711,-0.122189614607,-2.17170319503,0.10862951003,-0.0140436349221,0.0,-0.0573207403993,0.0,0.0655935423223,0.0,-1.7574400739,0.0,0.0232748934705,0.0,1.49679577732e-05,0.0,-0.00722437605769,0.0,0.0728164159987,0.0,-0.000414494697012,0.0,0.0,0.0,0.0,25.0,-0.0,7.62,0.00230154196664,0.0,0.000767318410122,25.0,-0.0,0.0,-0.0,25.0,63407.2,0.0,0.0,0.0,0.0,0.0,0.0
1402752814946721135,3,-9.48919669179,-0.00591572024346,9.40004891301,-0.122189614607,-2.16886921594,0.10862951003,-0.0142416244337,0.0,-0.0599691545341,0.0,0.0676782582944,0.0,-1.7565839274,0.0,0.0278784056859,0.0,-2.94777892473e-05,0.0,-0.00307277964681,0.0,0.0727094354695,0.0,0.0043197663853,0.0,0.0,0.0,0.0,25.0,-0.0,7.62,0.00230154196664,0.0,0.000767318410122,25.0,-0.0,0.0,-0.0,25.0,63407.2,0.0,0.0,0.0,0.0,0.0,0.0
1402752814966156055,3,-9.48919669179,-0.00591572024346,9.40004891301,-0.122189614607,-2.16886921594,0.10862951003,-0.0142416244337,0.0,-0.0599691545341,0.0,0.0676782582944,0.0,-1.7565839274,0.0,0.0278784056859,0.0,-2.94777892473e-05,0.0,-0.00307277964681,0.0,0.0727094354695,0.0,0.0043197663853,0.0,0.0,0.0,0.0,25.0,-0.0,7.62,0.00230154196664,0.0,0.000767318410122,25.0,-0.0,0.0,-0.0,25.0,63407.2,0.0,0.0,0.0,0.0,0.0,0.0
1402752814986212108,3,-9.48588894258,-0.00591572024346,9.40079007218,-0.122189614607,-2.16438043428,0.10862951003,-0.00934223116856,0.0,-0.0592687800075,0.0,0.0704354513716,0.0,-1.7558684697,0.0,0.020019701052,0.0,-0.000547661518509,0.0,-0.0105108505442,0.0,0.0720935124618,0.0,0.00416406540723,0.0,0.0,0.0,0.0,25.0,-0.0,7.62,0.00230154196664,0.0,0.000767318410122,25.0,-0.0,0.0,-0.0,25.0,63407.2,0.0,0.0,0.0,0.0,0.0,0.0
1402752815006271194,3,-9.48588894258,-0.00591572024346,9.40079007218,-0.122189614607,-2.16438043428,0.10862951003,-0.00934223116856,0.0,-0.0592687800075,0.0,0.0704354513716,0.0,-1.7558684697,0.0,0.020019701052,0.0,-0.000547661518509,0.0,-0.0105108505442,0.0,0.0720935124618,0.0,0.00416406540723,0.0,0.0,0.0,0.0,25.0,-0.0,7.62,0.00230154196664,0.0,0.000767318410122,25.0,-0.0,0.0,-0.0,25.0,63407.2,0.0,0.0,0.0,0.0,0.0,0.0
1402752815026057834,3,-9.48923062297,-0.00591572024346,9.40286675307,-0.122189614607,-2.17552528925,0.10862951003,-0.0243983047765,0.0,-0.0620466513116,0.0,0.0678805404686,0.0,-1.75497832602,0.0,0.0293247123049,0.0,0.00126395845372,0.0,-0.00831404945763,0.0,0.0721372548384,0.0,-0.000658670251524,0.0,0.0,0.0,0.0,25.0,-0.0,7.62,0.00230154196664,0.0,0.00230154196664,25.0,-0.0,0.0,-0.0,25.0,63407.2000001,0.0,0.0,0.0,0.0,0.0,0.0
1402752815046293890,3,-9.48923062297,-0.00591572024346,9.40286675307,-0.122189614607,-2.17552528925,0.10862951003,-0.0243983047765,0.0,-0.0620466513116,0.0,0.0678805404686,0.0,-1.75497832602,0.0,0.0293247123049,0.0,0.00126395845372,0.0,-0.00831404945763,0.0,0.0721372548384,0.0,-0.000658670251524,0.0,0.0,0.0,0.0,25.0,-0.0,7.62,0.00230154196664,0.0,0.000767318410122,25.0,-0.0,0.0,-0.0,25.0,63407.2,0.0,0.0,0.0,0.0,0.0,0.0
1402752815067132739,3,-9.4853630936,-0.00591572024346,9.40500497275,-0.122189614607,-2.17847604039,0.10862951003,-0.0125845188496,0.0,-0.0601113226936,0.0,0.0670581214371,0.0,-1.75374694017,0.0,0.0218136400136,0.0,1.52458615675e-05,0.0,-0.00671394175491,0.0,0.0711907503112,0.0,0.00231194920205,0.0,0.0,0.0,0.0,25.0,-0.0,7.62,0.00230154196664,0.0,0.000767318410122,25.0,-0.0,0.0,-0.0,25.0,63407.2,0.0,0.0,0.0,0.0,0.0,0.0
1402752815086321492,3,-9.4853630936,-0.00591572024346,9.40500497275,-0.122189614607,-2.17847604039,0.10862951003,-0.0125845188496,0.0,-0.0601113226936,0.0,0.0670581214371,0.0,-1.75374694017,0.0,0.0218136400136,0.0,1.52458615675e-05,0.0,-0.00671394175491,0.0,0.0711907503112,0.0,0.00231194920205,0.0,0.0,0.0,0.0,25.0,-0.0,7.62,0.00230154196664,0.0,0.000767318410122,25.0,-0.0,0.0,-0.0,25.0,63407.2,0.0,0.0,0.0,0.0,0.0,0.0
1402752815106377742,3,-9.48380111527,-0.00591572024346,9.40202777029,-0.122189614607,-2.17203339606,0.10862951003,-0.0104147456398,0.0,-0.0657473400658,0.0,0.0687069037862,0.0,-1.75297624329,0.0,0.0304573410787,0.0,-0.000442722943751,0.0,-0.0058705477689,0.0,0.0714298663832,0.0,0.0037692040701,0.0,0.0,0.0,0.0,25.0,-0.0,7.62,0.00230154196664,0.0,0.000767318410122,25.0,-0.0,0.0,-0.0,25.0,63407.2,0.0,0.0,0.0,0.0,0.0,0.0
1402752815126084832,3,-9.48400765544,-0.00591572024346,9.40053883972,-0.122189614607,-2.17043303692,0.10862951003,-0.00938690712442,0.0,-0.0666882989661,0.0,0.0681287126874,0.0,-1.75258915057,0.0,0.0207101366469,0.0,-0.000521503231155,0.0,-0.010947673294,0.0,0.0712001192375,0.0,0.00304959053855,0.0,0.0,0.0,0.0,25.0,-0.0,7.62,0.00230154196664,0.0,0.00230154196664,25.0,-0.0,0.0,-0.0,25.0,63407.2000001,0.0,0.0,0.0,0.0,0.0,0.0
1402752815146341143,3,-9.48400765544,-0.00591572024346,9.40053883972,-0.122189614607,-2.17043303692,0.10862951003,-0.00938690712442,0.0,-0.0666882989661,0.0,0.0681287126874,0.0,-1.75258915057,0.0,0.0207101366469,0.0,-0.000521503231155,0.0,-0.010947673294,0.0,0.0712001192375,0.0,0.00304959053855,0.0,0.0,0.0,0.0,25.0,-0.0,7.62,0.00230154196664,0.0,0.000767318410122,25.0,-0.0,0.0,-0.0,25.0,63407.2,0.0,0.0,0.0,0.0,0.0,0.0
1402752815166065071,3,-9.48426991018,-0.00591572024346,9.39918188104,-0.122189614607,-2.1690934976,0.10862951003,-0.00959928307882,0.0,-0.068109330604,0.0,0.0690453689134,0.0,-1.75215739744,0.0,0.0230912847504,0.0,-0.000513774123603,0.0,-0.0051028864786,0.0,0.0710734181143,0.0,0.0012402677866,0.0,0.0,0.0,0.0,25.0,-0.0,7.62,0.00230154196664,0.0,0.000767318410122,25.0,-0.0,0.0,-0.0,25.0,63407.2,0.0,0.0,0.0,0.0,0.0,0.0
1402752815186792063,3,-9.48426991018,-0.00591572024346,9.39918188104,-0.122189614607,-2.1690934976,0.10862951003,-0.00959928307882,0.0,-0.068109330604,0.0,0.0690453689134,0.0,-1.75215739744,0.0,0.0230912847504,0.0,-0.000513774123603,0.0,-0.0051028864786,0.0,0.0710734181143,0.0,0.0012402677866,0.0,0.0,0.0,0.0,25.0,-0.0,7.62,0.00230154196664,0.0,0.000767318410122,25.0,-0.0,0.0,-0.0,25.0,63407.2,0.0,0.0,0.0,0.0,0.0,0.0
1402752815206100671,3,-9.48681188177,-0.00591572024346,9.40412130626,-0.122189614607,-2.18579185976,0.10862951003,-0.0180962669572,0.0,-0.0644123510202,0.0,0.0619242950106,0.0,-1.7511693656,0.0,0.0267756795395,0.0,0.000864469684365,0.0,0.00187490608038,0.0,0.0705288635121,0.0,0.00522454885225,0.0,0.0,0.0,0.0,25.0,-0.0,7.62,0.00230154196664,0.0,0.000767318410122,25.0,-0.0,0.0,-0.0,25.0,63407.2,0.0,0.0,0.0,0.0,0.0,0.0
1402752815226091499,3,-9.48681188177,-0.00591572024346,9.40412130626,-0.122189614607,-2.18579185976,0.10862951003,-0.0180962669572,0.0,-0.0644123510202,0.0,0.0619242950106,0.0,-1.7511693656,0.0,0.0267756795395,0.0,0.000864469684365,0.0,0.00187490608038,0.0,0.0705288635121,0.0,0.00522454885225,0.0,0.0,0.0,0.0,25.0,-0.0,7.62,0.00230154196664,0.0,0.000767318410122,25.0,-0.0,0.0,-0.0,25.0,63407.2,0.0,0.0,0.0,0.0,0.0,0.0
1402752815246204059,3,-9.48576260222,-0.00591572024346,9.39945215109,-0.122189614607,-2.18043048302,0.10862951003,-0.0161400100153,0.0,-0.0735983739816,0.0,0.0633774214918,0.0,-1.75001994395,0.0,0.0239707535465,0.0,0.000289062873981,0.0,0.0010498097674,0.0,0.0711898103975,0.0,-0.00310376019662,0.0,0.0,0.0,0.0,25.0,-0.0,7.62,0.00230154196664,0.0,0.000767318410122,25.0,-0.0,0.0,-0.0,25.0,63407.2,0.0,0.0,0.0,0.0,0.0,0.0
1402752815266049604,3,-9.48576260222,-0.00591572024346,9.39945215109,-0.122189614607,-2.18043048302,0.10862951003,-0.0161400100153,0.0,-0.0735983739816,0.0,0.0633774214918,0.0,-1.75001994395,0.0,0.0239707535465,0.0,0.000289062873981,0.0,0.0010498097674,0.0,0.0711898103975,0.0,-0.00310376019662,0.0,0.0,0.0,0.0,25.0,-0.0,7.62,0.00230154196664,0.0,0.000767318410122,25.0,-0.0,0.0,-0.0,25.0,63407.2,0.0,0.0,0.0,0.0,0.0,0.0
1402752815287564002,3,-9.48264646709,-0.00591572024346,9.40650950289,-0.122189614607,-2.17679693219,0.10862951003,-0.010069525161,0.0,-0.0522743113131,0.0,0.0632910811834,0.0,-1.7491052962,0.0,0.0242382690149,0.0,0.000282114872969,0.0,-0.00333065021744,0.0,0.0684211028206,0.0,-1.36553416031e-05,0.0,0.0,0.0,0.0,25.0,-0.0,7.62,0.00230154196664,0.0,0.000767318410122,25.0,-0.0,0.0,-0.0,25.0,63407.2,0.0,0.0,0.0,0.0,0.0,0.0
1402752815306416120,3,-9.48264646709,-0.00591572024346,9.40650950289,-0.122189614607,-2.17679693219,0.10862951003,-0.010069525161,0.0,-0.0522743113131,0.0,0.0632910811834,0.0,-1.7491052962,0.0,0.0242382690149,0.0,0.000282114872969,0.0,-0.00333065021744,0.0,0.0684211028206,0.0,-1.36553416031e-05,0.0,0.0,0.0,0.0,25.0,-0.0,7.62,0.00230154196664,0.0,0.00230154196664,25.0,-0.0,0.0,-0.0,25.0,63407.2000001,0.0,0.0,0.0,0.0,0.0,0.0
1402752815326271245,3,-9.48353539385,-0.00591572024346,9.39979867181,-0.122189614607,-2.16931970209,0.10862951003,-0.014431659626,0.0,-0.0658824092639,0.0,0.0653786803288,0.0,-1.74785275298,0.0,0.0284507870552,0.0,0.000599586105862,0.0,0.000550343243666,0.0,0.0698280877429,0.0,-0.00712005953433,0.0,0.0,0.0,0.0,25.0,-0.0,7.62,0.00230154196664,0.0,0.000767318410122,25.0,-0.0,0.0,-0.0,25.0,63407.2,0.0,0.0,0.0,0.0,0.0,0.0
1402752815346121099,3,-9.48353539385,-0.00591572024346,9.39979867181,-0.122189614607,-2.16931970209,0.10862951003,-0.014431659626,0.0,-0.0658824092639,0.0,0.0653786803288,0.0,-1.74785275298,0.0,0.0284507870552,0.0,0.000599586105862,0.0,0.000550343243666,0.0,0.0698280877429,0.0,-0.00712005953433,0.0,0.0,0.0,0.0,25.0,-0.0,7.62,0.00230154196664,0.0,0.000767318410122,25.0,-0.0,0.0,-0.0,25.0,63407.2,0.0,0.0,0.0,0.0,0.0,0.0
1402752815366042247,3,-9.4841330154,-0.00591572024346,9.39707806327,-0.122189614607,-2.16658676751,0.10862951003,-0.0140961947504,0.0,-0.0678746632406,0.0,0.0655985745071,0.0,-1.7465362133,0.0,0.034014009357,0.0,0.000563741429537,0.0,0.000115228501801,0.0,0.0698434864746,0.0,0.0030216893853,0.0,0.0,0.0,0.0,25.0,-0.0,7.62,0.00230154196664,0.0,0.000767318410122,25.0,-0.0,0.0,-0.0,25.0,63407.2,0.0,0.0,0.0,0.0,0.0,0.0
1402752815386129904,3,-9.4841330154,-0.00591572024346,9.39707806327,-0.122189614607,-2.16658676751,0.10862951003,-0.0140961947504,0.0,-0.0678746632406,0.0,0.0655985745071,0.0,-1.7465362133,0.0,0.034014009357,0.0,0.000563741429537,0.0,0.000115228501801,0.0,0.0698434864746,0.0,0.0030216893853,0.0,0.0,0.0,0.0,25.0,-0.0,7.62,0.00230154196664,0.0,0.000767318410122,25.0,-0.0,0.0,-0.0,25.0,63407.2,0.0,0.0,0.0,0.0,0.0,0.0
1402752815406750513,3,-9.48495983461,-0.00591572024346,9.40068210362,-0.122189614607,-2.17970881092,0.10862951003,-0.0191880683582,0.0,-0.0652810197726,0.0,0.0605033292016,0.0,-1.74525572164,0.0,0.0330440255292,0.0,0.00127779084897,0.0,-0.000746574992269,0.0,0.0696167527478,0.0,-0.00934229560028,0.0,0.0,0.0,0.0,25.0,-0.0,7.62,0.00230154196664,0.0,0.000767318410122,25.0,-0.0,0.0,-0.0,25.0,63407.2,0.0,0.0,0.0,0.0,0.0,0.0
1402752815426316207,3,-9.48495983461,-0.00591572024346,9.40068210362,-0.122189614607,-2.17970881092,0.10862951003,-0.0191880683582,0.0,-0.0652810197726,0.0,0.0605033292016,0.0,-1.74525572164,0.0,0.0330440255292,0.0,0.00127779084897,0.0,-0.000746574992269,0.0,0.0696167527478,0.0,-0.00934229560028,0.0,0.0,0.0,0.0,25.0,-0.0,7.62,0.00230154196664,0.0,0.000767318410122,25.0,-0.0,0.0,-0.0,25.0,63407.2,0.0,0.0,0.0,0.0,0.0,0.0
1402752815446698657,3,-9.48511649296,-0.00591572024346,9.39704033996,-0.122189614607,-2.18254736607,0.10862951003,-0.0192695778379,0.0,-0.0764702639312,0.0,0.0595887589784,0.0,-1.74395719374,0.0,0.0357358095156,0.0,0.0010332692898,0.0,0.00321362030605,0.0,0.0707654696535,0.0,0.00164841224268,0.0,0.0,0.0,0.0,25.0,-0.0,7.62,0.00230154196664,0.0,0.000767318410122,25.0,-0.0,0.0,-0.0,25.0,63407.2,0.0,0.0,0.0,0.0,0.0,0.0
1402752815466249634,3,-9.48511649296,-0.00591572024346,9.39704033996,-0.122189614607,-2.18254736607,0.10862951003,-0.0192695778379,0.0,-0.0764702639312,0.0,0.0595887589784,0.0,-1.74395719374,0.0,0.0357358095156,0.0,0.0010332692898,0.0,0.00321362030605,0.0,0.0707654696535,0.0,0.00164841224268,0.0,0.0,0.0,0.0,25.0,-0.0,7.62,0.00230154196664,0.0,0.000767318410122,25.0,-0.0,0.0,-0.0,25.0,63407.2,0.0,0.0,0.0,0.0,0.0,0.0
1402752815486223310,3,-9.48538009313,-0.00591572024346,9.39629788364,-0.122189614607,-2.17325466711,0.10862951003,-0.0237648927303,0.0,-0.0726554667139,0.0,0.063835550133,0.0,-1.7425666079,0.0,0.03489730279,0.0,0.00174905826752,0.0,0.0027646941548,0.0,0.0702603990604,0.0,-0.000776768440161,0.0,0.0,0.0,0.0,25.0,-0.0,7.62,0.00230154196664,0.0,0.000767318410122,25.0,-0.0,0.0,-0.0,25.0,63407.2,0.0,0.0,0.0,0.0,0.0,0.0
1402752815506840440,3,-9.48538009313,-0.00591572024346,9.39629788364,-0.122189614607,-2.17325466711,0.10862951003,-0.0237648927303,0.0,-0.0726554667139,0.0,0.063835550133,0.0,-1.7425666079,0.0,0.03489730279,0.0,0.00174905826752,0.0,0.0027646941548,0.0,0.0702603990604,0.0,-0.000776768440161,0.0,0.0,0.0,0.0,25.0,-0.0,7.62,0.00230154196664,0.0,0.00230154196664,25.0,-0.0,0.0,-0.0,25.0,63407.2000001,0.0,0.0,0.0,0.0,0.0,0.0
1402752815526100474,3,-9.48635572537,-0.00591572024346,9.39330884732,-0.122189614607,-2.17066210929,0.10862951003,-0.0247178808736,0.0,-0.0743882417841,0.0,0.0649271424071,0.0,-1.74117773546,0.0,0.0327316564305,0.0,0.0017861280524,0.0,0.00155317844008,0.0,0.0704399711245,0.0,-0.00783066644473,0.0,0.0,0.0,0.0,25.0,-0.0,7.62,0.00230154196664,0.0,0.00230154196664,25.0,-0.0,0.0,-0.0,25.0,63407.2000001,0.0,0.0,0.0,0.0,0.0,0.0
1402752815546174087,3,-9.48635572537,-0.00591572024346,9.39330884732,-0.122189614607,-2.17066210929,0.10862951003,-0.0247178808736,0.0,-0.0743882417841,0.0,0.0649271424071,0.0,-1.74117773546,0.0,0.0327316564305,0.0,0.0017861280524,0.0,0.00155317844008,0.0,0.0704399711245,0.0,-0.00783066644473,0.0,0.0,0.0,0.0,25.0,-0.0,7.62,0.00230154196664,0.0,0.00230154196664,25.0,-0.0,0.0,-0.0,25.0,63407.2000001,0.0,0.0,0.0,0.0,0.0,0.0
1402752815566547873,3,-9.48208927816,-0.00591572024346,9.40230854885,-0.122189614607,-2.17809429541,0.10862951003,-0.0130518325831,0.0,-0.0551829753746,0.0,0.0629305249772,0.0,-1.73995516216,0.0,0.0362498044263,0.0,0.000698209570039,0.0,0.00728453542246,0.0,0.0681355209481,0.0,0.0038319434023,0.0,0.0,0.0,0.0,25.0,-0.0,7.62,0.00230154196664,0.0,0.00230154196664,25.0,-0.0,0.0,-0.0,25.0,63407.2000001,0.0,0.0,0.0,0.0,0.0,0.0
1402752815585997352,3,-9.48208927816,-0.00591572024346,9.40230854885,-0.122189614607,-2.17809429541,0.10862951003,-0.0130518325831,0.0,-0.0551829753746,0.0,0.0629305249772,0.0,-1.73995516216,0.0,0.0362498044263,0.0,0.000698209570039,0.0,0.00728453542246,0.0,0.0681355209481,0.0,0.0038319434023,0.0,0.0,0.0,0.0,25.0,-0.0,7.62,0.00230154196664,0.0,0.000767318410122,25.0,-0.0,0.0,-0.0,25.0,63407.2,0.0,0.0,0.0,0.0,0.0,0.0
1402752815606254175,3,-9.48046976513,-0.00591572024346,9.3950343679,-0.122189614607,-2.164677306,0.10862951003,-0.00906479708507,0.0,-0.0652644084149,0.0,0.0676533666008,0.0,-1.73832529703,0.0,0.0401109426869,0.0,-0.000222732253154,0.0,0.000358772483084,0.0,0.0694078561941,0.0,0.00312412855529,0.0,0.0,0.0,0.0,25.0,-0.0,7.62,0.00230154196664,0.0,0.000767318410122,25.0,-0.0,0.0,-0.0,25.0,63407.2,0.0,0.0,0.0,0.0,0.0,0.0
1402752815626156028,3,-9.48046976513,-0.00591572024346,9.3950343679,-0.122189614607,-2.164677306,0.10862951003,-0.00906479708507,0.0,-0.0652644084149,0.0,0.0676533666008,0.0,-1.73832529703,0.0,0.0401109426869,0.0,-0.000222732253154,0.0,0.000358772483084,0.0,0.0694078561941,0.0,0.00312412855529,0.0,0.0,0.0,0.0,25.0,-0.0,7.62,0.00230154196664,0.0,0.00230154196664,25.0,-0.0,0.0,-0.0,25.0,63407.2000001,0.0,0.0,0.0,0.0,0.0,0.0
1402752815646161938,3,-9.48255821608,-0.00591572024346,9.39368830451,-0.122189614607,-2.17356151619,0.10862951003,-0.0156994406623,0.0,-0.0718090343982,0.0,0.0651411242812,0.0,-1.73643605977,0.0,0.0362868331739,0.0,0.000565053197405,0.0,0.00513545952916,0.0,0.0703080890891,0.0,-0.000245152540692,0.0,0.0,0.0,0.0,25.0,-0.0,7.62,0.00230154196664,0.0,0.00230154196664,25.0,-0.0,0.0,-0.0,25.0,63407.2000001,0.0,0.0,0.0,0.0,0.0,0.0
1402752815666161792,3,-9.48255821608,-0.00591572024346,9.39368830451,-0.122189614607,-2.17356151619,0.10862951003,-0.0156994406623,0.0,-0.0718090343982,0.0,0.0651411242812,0.0,-1.73643605977,0.0,0.0362868331739,0.0,0.000565053197405,0.0,0.00513545952916,0.0,0.0703080890891,0.0,-0.000245152540692,0.0,0.0,0.0,0.0,25.0,-0.0,7.62,0.00230154196664,0.0,0.00230154196664,25.0,-0.0,0.0,-0.0,25.0,63407.2000001,0.0,0.0,0.0,0.0,0.0,0.0
1402752815686664405,3,-9.48331546172,-0.00591572024346,9.39210704754,-0.122189614607,-2.17123881386,0.10862951003,-0.0188673184109,0.0,-0.0736200404634,0.0,0.0655222312017,0.0,-1.73518521241,0.0,0.0377701526245,0.0,0.000834475637798,0.0,0.0010197447675,0.0,0.0705488567175,0.0,0.0026855784391,0.0,0.0,0.0,0.0,25.0,-0.0,7.62,0.00230154196664,0.0,0.000767318410122,25.0,-0.0,0.0,-0.0,25.0,63407.2,0.0,0.0,0.0,0.0,0.0,0.0
1402752815706234566,3,-9.48370277416,-0.00591572024346,9.39070815207,-0.122189614607,-2.1700046578,0.10862951003,-0.0190241948686,0.0,-0.0747239231683,0.0,0.0666029556193,0.0,-1.73445032801,0.0,0.037065066549,0.0,0.000878121440732,0.0,0.0022982258509,0.0,0.070601011756,0.0,0.000278972681294,0.0,0.0,0.0,0.0,25.0,-0.0,7.62,0.00230154196664,0.0,0.000767318410122,25.0,-0.0,0.0,-0.0,25.0,63407.2,0.0,0.0,0.0,0.0,0.0,0.0
1402752815726014063,3,-9.48370277416,-0.00591572024346,9.39070815207,-0.122189614607,-2.1700046578,0.10862951003,-0.0190241948686,0.0,-0.0747239231683,0.0,0.0666029556193,0.0,-1.73445032801,0.0,0.037065066549,0.0,0.000878121440732,0.0,0.0022982258509,0.0,0.070601011756,0.0,0.000278972681294,0.0,0.0,0.0,0.0,25.0,-0.0,7.62,0.00230154196664,0.0,0.000767318410122,25.0,-0.0,0.0,-0.0,25.0,63407.2,0.0,0.0,0.0,0.0,0.0,0.0
1402752815746188353,3,-9.4825300972,-0.00591572024346,9.39365320851,-0.122189614607,-2.17557688326,0.10862951003,-0.0162334685844,0.0,-0.0701788155031,0.0,0.0646995160674,0.0,-1.73375831318,0.0,0.0360470209188,0.0,0.000558811698365,0.0,0.00560723209877,0.0,0.0700817274036,0.0,0.00263366609326,0.0,0.0,0.0,0.0,25.0,-0.0,7.62,0.00230154196664,0.0,0.000767318410122,25.0,-0.0,0.0,-0.0,25.0,63407.2,0.0,0.0,0.0,0.0,0.0,0.0
1402752815766277510,3,-9.4825300972,-0.00591572024346,9.39365320851,-0.122189614607,-2.17557688326,0.10862951003,-0.0162334685844,0.0,-0.0701788155031,0.0,0.0646995160674,0.0,-1.73375831318,0.0,0.0360470209188,0.0,0.000558811698365,0.0,0.00560723209877,0.0,0.0700817274036,0.0,0.00263366609326,0.0,0.0,0.0,0.0,25.0,-0.0,7.62,0.00230154196664,0.0,0.000767318410122,25.0,-0.0,0.0,-0.0,25.0,63407.2,0.0,0.0,0.0,0.0,0.0,0.0
1402752815786209511,3,-9.4854413925,-0.00591572024346,9.39112014126,-0.122189614607,-2.1720943112,0.10862951003,-0.0251463935497,0.0,-0.0703463185998,0.0,0.0649174536163,0.0,-1.73205994069,0.0,0.0395865874778,0.0,0.00165778258907,0.0,-0.000255887928084,0.0,0.0702132273519,0.0,0.00199216618589,0.0,0.0,0.0,0.0,25.0,-0.0,7.62,0.00230154196664,0.0,0.00230154196664,25.0,-0.0,0.0,-0.0,25.0,63407.2000001,0.0,0.0,0.0,0.0,0.0,0.0
1402752815806078495,3,-9.4854413925,-0.00591572024346,9.39112014126,-0.122189614607,-2.1720943112,0.10862951003,-0.0251463935497,0.0,-0.0703463185998,0.0,0.0649174536163,0.0,-1.73205994069,0.0,0.0395865874778,0.0,0.00165778258907,0.0,-0.000255887928084,0.0,0.0702132273519,0.0,0.00199216618589,0.0,0.0,0.0,0.0,25.0,-0.0,7.62,0.00230154196664,0.0,0.000767318410122,25.0,-0.0,0.0,-0.0,25.0,63407.2,0.0,0.0,0.0,0.0,0.0,0.0
1402752815826761767,3,-9.4864577458,-0.00591572024346,9.38834729956,-0.122189614607,-2.16953273945,0.10862951003,-0.0250352594751,0.0,-0.0709789059376,0.0,0.0663661486023,0.0,-1.7304999435,0.0,0.0370969241701,0.0,0.00145855497166,0.0,-0.00164083380488,0.0,0.0702356906681,0.0,0.0030637383768,0.0,0.0,0.0,0.0,25.0,-0.0,7.62,0.00230154196664,0.0,0.000767318410122,25.0,-0.0,0.0,-0.0,25.0,63407.2,0.0,0.0,0.0,0.0,0.0,0.0
1402752815846157633,3,-9.4864577458,-0.00591572024346,9.38834729956,-0.122189614607,-2.16953273945,0.10862951003,-0.0250352594751,0.0,-0.0709789059376,0.0,0.0663661486023,0.0,-1.7304999435,0.0,0.0370969241701,0.0,0.00145855497166,0.0,-0.00164083380488,0.0,0.0702356906681,0.0,0.0030637383768,0.0,0.0,0.0,0.0,25.0,-0.0,7.62,0.00230154196664,0.0,0.000767318410122,25.0,-0.0,0.0,-0.0,25.0,63407.2,0.0,0.0,0.0,0.0,0.0,0.0
1402752815866659815,3,-9.4858997121,-0.00591572024346,9.3913621636,-0.122189614607,-2.17649662012,0.10862951003,-0.0226617982629,0.0,-0.0632316133557,0.0,0.0634872567377,0.0,-1.72886880459,0.0,0.0384868585109,0.0,0.00116467656651,0.0,-0.000508250846783,0.0,0.0692284558063,0.0,0.00382893035496,0.0,0.0,0.0,0.0,25.0,-0.0,7.62,0.00230154196664,0.0,0.000767318410122,25.0,-0.0,0.0,-0.0,25.0,63407.2,0.0,0.0,0.0,0.0,0.0,0.0
1402752815886144025,3,-9.4858997121,-0.00591572024346,9.3913621636,-0.122189614607,-2.17649662012,0.10862951003,-0.0226617982629,0.0,-0.0632316133557,0.0,0.0634872567377,0.0,-1.72886880459,0.0,0.0384868585109,0.0,0.00116467656651,0.0,-0.000508250846783,0.0,0.0692284558063,0.0,0.00382893035496,0.0,0.0,0.0,0.0,25.0,-0.0,7.62,0.00230154196664,0.0,0.000767318410122,25.0,-0.0,0.0,-0.0,25.0,63407.2,0.0,0.0,0.0,0.0,0.0,0.0
1402752815906117788,3,-9.48444784857,-0.00591572024346,9.38426897719,-0.122189614607,-2.16528279589,0.10862951003,-0.0177387826709,0.0,-0.0714728581821,0.0,0.0671459324252,0.0,-1.72741748643,0.0,0.0406924111942,0.0,0.000407876603931,0.0,-0.00136523752093,0.0,0.0698614208531,0.0,-0.00103720617844,0.0,0.0,0.0,0.0,25.0,-0.0,7.62,0.00230154196664,0.0,0.000767318410122,25.0,-0.0,0.0,-0.0,25.0,63407.2,0.0,0.0,0.0,0.0,0.0,0.0
1402752815926056929,3,-9.48444784857,-0.00591572024346,9.38426897719,-0.122189614607,-2.16528279589,0.10862951003,-0.0177387826709,0.0,-0.0714728581821,0.0,0.0671459324252,0.0,-1.72741748643,0.0,0.0406924111942,0.0,0.000407876603931,0.0,-0.00136523752093,0.0,0.0698614208531,0.0,-0.00103720617844,0.0,0.0,0.0,0.0,25.0,-0.0,7.62,0.00230154196664,0.0,0.000767318410122,25.0,-0.0,0.0,-0.0,25.0,63407.2,0.0,0.0,0.0,0.0,0.0,0.0
1402752815946792560,3,-9.48735123885,-0.00591572024346,9.38707400278,-0.122189614607,-2.16616644762,0.10862951003,-0.0277362189943,0.0,-0.0605797725571,0.0,0.0672941515615,0.0,-1.72553610514,0.0,0.0441435963581,0.0,0.00193848401902,0.0,-0.000528141662784,0.0,0.0685893284375,0.0,-0.00740924928613,0.0,0.0,0.0,0.0,25.0,-0.0,7.62,0.00230154196664,0.0,0.000767318410122,25.0,-0.0,0.0,-0.0,25.0,63407.2,0.0,0.0,0.0,0.0,0.0,0.0
1402752815966107556,3,-9.48735123885,-0.00591572024346,9.38707400278,-0.122189614607,-2.16616644762,0.10862951003,-0.0277362189943,0.0,-0.0605797725571,0.0,0.0672941515615,0.0,-1.72553610514,0.0,0.0441435963581,0.0,0.00193848401902,0.0,-0.000528141662784,0.0,0.0685893284375,0.0,-0.00740924928613,0.0,0.0,0.0,0.0,25.0,-0.0,7.62,0.00230154196664,0.0,0.00230154196664,25.0,-0.0,0.0,-0.0,25.0,63407.2000001,0.0,0.0,0.0,0.0,0.0,0.0
1402752815986178577,3,-9.48590195437,-0.00591572024346,9.37984004675,-0.122189614607,-2.16026236437,0.10862951003,-0.0205519173197,0.0,-0.0733685747876,0.0,0.0679269633949,0.0,-1.72399675895,0.0,0.0481789799898,0.0,0.000667775025502,0.0,-0.00218531865791,0.0,0.06997434952,0.0,0.00168638340481,0.0,0.0,0.0,0.0,25.0,-0.0,7.62,0.00230154196664,0.0,0.000767318410122,25.0,-0.0,0.0,-0.0,25.0,63407.2,0.0,0.0,0.0,0.0,0.0,0.0
1402752816006469488,3,-9.48590195437,-0.00591572024346,9.37984004675,-0.122189614607,-2.16026236437,0.10862951003,-0.0205519173197,0.0,-0.0733685747876,0.0,0.0679269633949,0.0,-1.72399675895,0.0,0.0481789799898,0.0,0.000667775025502,0.0,-0.00218531865791,0.0,0.06997434952,0.0,0.00168638340481,0.0,0.0,0.0,0.0,25.0,-0.0,7.62,0.00230154196664,0.0,0.000767318410122,25.0,-0.0,0.0,-0.0,25.0,63407.2,0.0,0.0,0.0,0.0,0.0,0.0
1402752816026140382,3,-9.48525379585,-0.00591572024346,9.37642294912,-0.122189614607,-2.15956994192,0.10862951003,-0.0185316252307,0.0,-0.0788249185054,0.0,0.0675509482668,0.0,-1.72229402258,0.0,0.0504761621747,0.0,0.000268527399842,0.0,-0.00176322593176,0.0,0.0705061205482,0.0,0.00434026669155,0.0,0.0,0.0,0.0,25.0,-0.0,7.62,0.00230154196664,0.0,0.000767318410122,25.0,-0.0,0.0,-0.0,25.0,63407.2,0.0,0.0,0.0,0.0,0.0,0.0
1402752816046088414,3,-9.48525379585,-0.00591572024346,9.37642294912,-0.122189614607,-2.15956994192,0.10862951003,-0.0185316252307,0.0,-0.0788249185054,0.0,0.0675509482668,0.0,-1.72229402258,0.0,0.0504761621747,0.0,0.000268527399842,0.0,-0.00176322593176,0.0,0.0705061205482,0.0,0.00434026669155,0.0,0.0,0.0,0.0,25.0,-0.0,7.62,0.00230154196664,0.0,0.000767318410122,25.0,-0.0,0.0,-0.0,25.0,63407.2,0.0,0.0,0.0,0.0,0.0,0.0
1402752816066773382,3,-9.48606900376,-0.00591572024346,9.37310067665,-0.122189614607,-2.15664247848,0.10862951003,-0.0187436106781,0.0,-0.0802437601501,0.0,0.0685050739416,0.0,-1.72053559978,0.0,0.0451657154694,0.0,0.000561348583036,0.0,-0.00484394489864,0.0,0.070448912355,0.0,-0.0078064807238,0.0,0.0,0.0,0.0,25.0,-0.0,7.62,0.00230154196664,0.0,0.000767318410122,25.0,-0.0,0.0,-0.0,25.0,63407.2,0.0,0.0,0.0,0.0,0.0,0.0
1402752816086301775,3,-9.48606900376,-0.00591572024346,9.37310067665,-0.122189614607,-2.15664247848,0.10862951003,-0.0187436106781,0.0,-0.0802437601501,0.0,0.0685050739416,0.0,-1.72053559978,0.0,0.0451657154694,0.0,0.000561348583036,0.0,-0.00484394489864,0.0,0.070448912355,0.0,-0.0078064807238,0.0,0.0,0.0,0.0,25.0,-0.0,7.62,0.00230154196664,0.0,0.000767318410122,25.0,-0.0,0.0,-0.0,25.0,63407.2,0.0,0.0,0.0,0.0,0.0,0.0
1402752816106100077,3,-9.48952881988,-0.00591572024346,9.37259801856,-0.122189614607,-2.15236486154,0.10862951003,-0.028432205779,0.0,-0.0745014219252,0.0,0.0696971167239,0.0,-1.71856268303,0.0,0.0411620652267,0.0,0.00215420040897,0.0,0.000792719499471,0.0,0.0696474397878,0.0,-0.00262587897102,0.0,0.0,0.0,0.0,25.0,-0.0,7.62,0.00230154196664,0.0,0.000767318410122,25.0,-0.0,0.0,-0.0,25.0,63407.2,0.0,0.0,0.0,0.0,0.0,0.0
1402752816127620446,3,-9.48952881988,-0.00591572024346,9.37259801856,-0.122189614607,-2.15236486154,0.10862951003,-0.028432205779,0.0,-0.0745014219252,0.0,0.0696971167239,0.0,-1.71856268303,0.0,0.0411620652267,0.0,0.00215420040897,0.0,0.000792719499471,0.0,0.0696474397878,0.0,-0.00262587897102,0.0,0.0,0.0,0.0,25.0,-0.0,7.62,0.00230154196664,0.0,0.00230154196664,25.0,-0.0,0.0,-0.0,25.0,63407.2000001,0.0,0.0,0.0,0.0,0.0,0.0
1402752816146373194,3,-9.48929882567,-0.00591572024346,9.36897179189,-0.122189614607,-2.15004749606,0.10862951003,-0.0248051817779,0.0,-0.0761821113128,0.0,0.0684743073762,0.0,-1.71687307156,0.0,0.0404895372914,0.0,0.0016849072528,0.0,-0.00540470402431,0.0,0.0697437528013,0.0,-0.00166817984166,0.0,0.0,0.0,0.0,25.0,-0.0,7.62,0.00230154196664,0.0,0.000767318410122,25.0,-0.0,0.0,-0.0,25.0,63407.2,0.0,0.0,0.0,0.0,0.0,0.0
1402752816166249940,3,-9.48929882567,-0.00591572024346,9.36897179189,-0.122189614607,-2.15004749606,0.10862951003,-0.0248051817779,0.0,-0.0761821113128,0.0,0.0684743073762,0.0,-1.71687307156,0.0,0.0404895372914,0.0,0.0016849072528,0.0,-0.00540470402431,0.0,0.0697437528013,0.0,-0.00166817984166,0.0,0.0,0.0,0.0,25.0,-0.0,7.62,0.00230154196664,0.0,0.00230154196664,25.0,-0.0,0.0,-0.0,25.0,63407.2000001,0.0,0.0,0.0,0.0,0.0,0.0
1402752816186183964,3,-9.49452911568,-0.00591572024346,9.36148021776,-0.122189614607,-2.14729058932,0.10862951003,-0.0388168646925,0.0,-0.086360763921,0.0,0.0687804704295,0.0,-1.71425014645,0.0,0.0508245512332,0.0,0.00296764844502,0.0,0.00405897733702,0.0,0.071016461212,0.0,-0.00283803742673,0.0,0.0,0.0,0.0,25.0,-0.0,7.62,0.00230154196664,0.0,0.000767318410122,25.0,-0.0,0.0,-0.0,25.0,63407.2,0.0,0.0,0.0,0.0,0.0,0.0
1402752816206286267,3,-9.49452911568,-0.00591572024346,9.36148021776,-0.122189614607,-2.14729058932,0.10862951003,-0.0388168646925,0.0,-0.086360763921,0.0,0.0687804704295,0.0,-1.71425014645,0.0,0.0508245512332,0.0,0.00296764844502,0.0,0.00405897733702,0.0,0.071016461212,0.0,-0.00283803742673,0.0,0.0,0.0,0.0,25.0,-0.0,7.62,0.00230154196664,0.0,0.000767318410122,25.0,-0.0,0.0,-0.0,25.0,63407.2,0.0,0.0,0.0,0.0,0.0,0.0
1402752816226323552,3,-9.49244148328,-0.00591572024346,9.356817059,-0.122189614607,-2.1413990871,0.10862951003,-0.0272812598644,0.0,-0.0861599025584,0.0,0.0700420220166,0.0,-1.71212943604,0.0,0.0464855251386,0.0,0.00142244257676,0.0,0.0043498989101,0.0,0.0706776841992,0.0,0.00327451757058,0.0,0.0,0.0,0.0,25.0,-0.0,7.62,0.00230154196664,0.0,0.000767318410122,25.0,-0.0,0.0,-0.0,25.0,63407.2,0.0,0.0,0.0,0.0,0.0,0.0
1402752816246847307,3,-9.49244148328,-0.00591572024346,9.356817059,-0.122189614607,-2.1413990871,0.10862951003,-0.0272812598644,0.0,-0.0861599025584,0.0,0.0700420220166,0.0,-1.71212943604,0.0,0.0464855251386,0.0,0.00142244257676,0.0,0.0043498989101,0.0,0.0706776841992,0.0,0.00327451757058,0.0,0.0,0.0,0.0,25.0,-0.0,7.62,0.00230154196664,0.0,0.000767318410122,25.0,-0.0,0.0,-0.0,25.0,63407.2,0.0,0.0,0.0,0.0,0.0,0.0
