rosbagTimestamp,transforms,-,header,seq,stamp,secs,nsecs,frame_id,child_frame_id,transform,translation,x,y,z,rotation,x,y,z,w
1402414658065106162,,errorv,,0,,1402414658,64758205,base_link,/z_drive,,,0.0,0.0,0.0,,0.0,0.0,0.0,1.0
1402414658065149691,,errorv,,0,,1402414658,64786409,/z_drive,port,,,-0.3,0.3048,0.0,,0.0,0.0,0.0,1.0
1402414658065183437,,errorv,,0,,1402414658,64936610,/z_drive,starboard,,,-0.3,-0.3048,0.0,,0.0,0.0,0.0,1.0
1402414658071013189,,errorv,,0,,1402414657,993895053,/enu,/base_link,,,0.309705219682,25.0172583623,-12.7021102271,,-0.00507707838018,0.017526605083,0.0640356448761,0.99778077631
1402414658071043459,,errorv,,0,,1402414658,3895044,/enu,/base_link,,,0.307349004624,25.0186157305,-12.7012014445,,-0.0055212012904,0.0174818625475,0.065379414702,0.997692053166
1402414658071162832,,errorv,,0,,1402414658,13869047,/enu,/base_link,,,0.305008194489,25.0202472228,-12.7007797182,,-0.00596154411593,0.0174704458984,0.0667103303334,0.997601611536
1402414658071195947,,errorv,,0,,1402414658,23864984,/enu,/base_link,,,0.30264213252,25.0216636338,-12.6999656988,,-0.00636031487042,0.0174439789669,0.0680147536077,0.997511527394
1402414658085006580,,errorv,,0,,1402414658,84799567,base_link,/z_drive,,,0.0,0.0,0.0,,0.0,0.0,0.0,1.0
1402414658085036358,,errorv,,0,,1402414658,84821524,/z_drive,port,,,-0.3,0.3048,0.0,,0.0,0.0,0.0,1.0
1402414658085064940,,errorv,,0,,1402414658,84828387,/z_drive,starboard,,,-0.3,-0.3048,0.0,,0.0,0.0,0.0,1.0
1402414658090621140,,errorv,,0,,1402414658,190396434,/base_link,/gps,,,-0.84,0.0,-0.14,,0.0,0.0,0.0,1.0
1402414658090653405,,errorv,,0,,1402414658,190440968,base_link,imu,,,0.13,0.0,-0.1,,1.0,0.0,0.0,0.0
1402414658105055336,,errorv,,0,,1402414658,104756823,base_link,/z_drive,,,0.0,0.0,0.0,,0.0,0.0,0.0,1.0
1402414658105078029,,errorv,,0,,1402414658,104775433,/z_drive,port,,,-0.3,0.3048,0.0,,0.0,0.0,0.0,1.0
1402414658105138930,,errorv,,0,,1402414658,104785386,/z_drive,starboard,,,-0.3,-0.3048,0.0,,0.0,0.0,0.0,1.0
1402414658111034280,,errorv,,0,,1402414658,34866094,/enu,/base_link,,,0.31649430763,25.0930351436,-12.1385430268,,-0.0113539988958,0.0213020019846,0.0669411516712,0.997464883409
1402414658111118869,,errorv,,0,,1402414658,44843912,/enu,/base_link,,,0.314731650903,25.0955615198,-12.1372077075,,-0.0117126251986,0.0212813479314,0.0682726397748,0.997370926636
1402414658111147170,,errorv,,0,,1402414658,55284976,/enu,/base_link,,,0.313003887198,25.0981912867,-12.1357931684,,-0.0120485245365,0.0212858083938,0.069694664786,0.997268469931
1402414658111257716,,errorv,,0,,1402414658,65861940,/enu,/base_link,,,0.311163991741,25.1006164995,-12.1339309621,,-0.0123205710038,0.0212945192624,0.0710830599829,0.997166959723
1402414658125036487,,errorv,,0,,1402414658,124781500,base_link,/z_drive,,,0.0,0.0,0.0,,0.0,0.0,0.0,1.0
1402414658125053411,,errorv,,0,,1402414658,124799293,/z_drive,port,,,-0.3,0.3048,0.0,,0.0,0.0,0.0,1.0
1402414658125063103,,errorv,,0,,1402414658,124809103,/z_drive,starboard,,,-0.3,-0.3048,0.0,,0.0,0.0,0.0,1.0
1402414658144958740,,errorv,,0,,1402414658,144755869,base_link,/z_drive,,,0.0,0.0,0.0,,0.0,0.0,0.0,1.0
1402414658145116222,,errorv,,0,,1402414658,144787488,/z_drive,port,,,-0.3,0.3048,0.0,,0.0,0.0,0.0,1.0
1402414658145146035,,errorv,,0,,1402414658,144825209,/z_drive,starboard,,,-0.3,-0.3048,0.0,,0.0,0.0,0.0,1.0
1402414658151087742,,errorv,,0,,1402414658,75841903,/enu,/base_link,,,0.309731038935,25.1032207683,-12.1327743885,,-0.0125547836058,0.0212883583094,0.072402023708,0.997069270498
1402414658151127765,,errorv,,0,,1402414658,85820913,/enu,/base_link,,,0.290592664822,25.1114142565,-11.9793440553,,-0.0140862777695,0.0180901173818,0.0743114284218,0.996971482058
1402414658151146595,,errorv,,0,,1402414658,96839904,/enu,/base_link,,,0.287939329352,25.1142171898,-11.9771828929,,-0.0142893976676,0.0181053063292,0.0757733808152,0.996858267637
1402414658151166977,,errorv,,0,,1402414658,106822013,/enu,/base_link,,,0.285437796217,25.1169369813,-11.9755717941,,-0.0143863755001,0.018109750341,0.0771067991362,0.996754538826
1402414658165017061,,errorv,,0,,1402414658,164793959,base_link,/z_drive,,,0.0,0.0,0.0,,0.0,0.0,0.0,1.0
1402414658165064721,,errorv,,0,,1402414658,164816759,/z_drive,port,,,-0.3,0.3048,0.0,,0.0,0.0,0.0,1.0
1402414658165096099,,errorv,,0,,1402414658,164823358,/z_drive,starboard,,,-0.3,-0.3048,0.0,,0.0,0.0,0.0,1.0
1402414658185025666,,errorv,,0,,1402414658,184760920,base_link,/z_drive,,,0.0,0.0,0.0,,0.0,0.0,0.0,1.0
1402414658185083172,,errorv,,0,,1402414658,184785223,/z_drive,port,,,-0.3,0.3048,0.0,,0.0,0.0,0.0,1.0
1402414658185097963,,errorv,,0,,1402414658,184792037,/z_drive,starboard,,,-0.3,-0.3048,0.0,,0.0,0.0,0.0,1.0
1402414658190736966,,errorv,,0,,1402414658,290502711,/base_link,/gps,,,-0.84,0.0,-0.14,,0.0,0.0,0.0,1.0
1402414658190891547,,errorv,,0,,1402414658,290542904,base_link,imu,,,0.13,0.0,-0.1,,1.0,0.0,0.0,0.0
1402414658191085389,,errorv,,0,,1402414658,116821050,/enu,/base_link,,,0.283134116441,25.1195598002,-11.9737867378,,-0.0144670628362,0.0181116615827,0.078449152658,0.996648585137
1402414658191233725,,errorv,,0,,1402414658,127821922,/enu,/base_link,,,0.280490945804,25.1227763337,-11.9723786251,,-0.014600886778,0.0181251370564,0.0799057560868,0.996530663681
1402414658191263536,,errorv,,0,,1402414658,137824058,/enu,/base_link,,,0.274207724503,25.100652157,-12.0342924952,,-0.0160743109788,0.0164922428758,0.0815549832258,0.996402733418
1402414658191303948,,errorv,,0,,1402414658,148808002,/enu,/base_link,,,0.271031253798,25.1039380353,-12.032645977,,-0.0160661874505,0.0165386143382,0.0830385994991,0.996279550553
1402414658205146756,,errorv,,0,,1402414658,204821186,base_link,/z_drive,,,0.0,0.0,0.0,,0.0,0.0,0.0,1.0
1402414658205209863,,errorv,,0,,1402414658,204842829,/z_drive,port,,,-0.3,0.3048,0.0,,0.0,0.0,0.0,1.0
1402414658205237993,,errorv,,0,,1402414658,204849989,/z_drive,starboard,,,-0.3,-0.3048,0.0,,0.0,0.0,0.0,1.0
1402414658224999332,,errorv,,0,,1402414658,224772000,base_link,/z_drive,,,0.0,0.0,0.0,,0.0,0.0,0.0,1.0
1402414658225069001,,errorv,,0,,1402414658,224854135,/z_drive,port,,,-0.3,0.3048,0.0,,0.0,0.0,0.0,1.0
1402414658225094957,,errorv,,0,,1402414658,224893799,/z_drive,starboard,,,-0.3,-0.3048,0.0,,0.0,0.0,0.0,1.0
1402414658231039606,,errorv,,0,,1402414658,158795118,/enu,/base_link,,,0.268318779102,25.1068033044,-12.0309248414,,-0.0160513103231,0.0165654452332,0.0843962160729,0.996165257462
1402414658231148663,,errorv,,0,,1402414658,168797016,/enu,/base_link,,,0.265495659127,25.1097587474,-12.0293300528,,-0.0160145058109,0.0166007193685,0.0857505493143,0.996049594655
1402414658231183849,,errorv,,0,,1402414658,179795980,/enu,/base_link,,,0.262460319344,25.1131854359,-12.0278954067,,-0.0159644646386,0.0166361893441,0.0872506767427,0.995919521086
1402414658231210326,,errorv,,0,,1402414658,189781904,/enu,/base_link,,,0.276819593543,25.1222970594,-11.9167946009,,-0.0177638168919,0.0189367151439,0.0871180107069,0.995859578374
1402414658245045026,,errorv,,0,,1402414658,244808162,base_link,/z_drive,,,0.0,0.0,0.0,,0.0,0.0,0.0,1.0
1402414658245079153,,errorv,,0,,1402414658,244836165,/z_drive,port,,,-0.3,0.3048,0.0,,0.0,0.0,0.0,1.0
1402414658245105533,,errorv,,0,,1402414658,244847843,/z_drive,starboard,,,-0.3,-0.3048,0.0,,0.0,0.0,0.0,1.0
1402414658265923489,,errorv,,0,,1402414658,265519848,base_link,/z_drive,,,0.0,0.0,0.0,,0.0,0.0,0.0,1.0
1402414658265953664,,errorv,,0,,1402414658,265541011,/z_drive,port,,,-0.3,0.3048,0.0,,0.0,0.0,0.0,1.0
1402414658265978234,,errorv,,0,,1402414658,265546091,/z_drive,starboard,,,-0.3,-0.3048,0.0,,0.0,0.0,0.0,1.0
1402414658271294576,,errorv,,0,,1402414658,199781894,/enu,/base_link,,,0.274586381274,25.1257566058,-11.9152292237,,-0.0176551753384,0.0189621598779,0.0884711900347,0.995741723446
1402414658271322041,,errorv,,0,,1402414658,209770917,/enu,/base_link,,,0.272025481105,25.129169034,-11.9135927744,,-0.0175667101842,0.0189847082802,0.089827141654,0.995621452243
1402414658271344354,,errorv,,0,,1402414658,219768047,/enu,/base_link,,,0.26955577308,25.1326065656,-11.9119980511,,-0.0174446775721,0.01901682409,0.0912126094012,0.995497013312
1402414658271424083,,errorv,,0,,1402414658,230772018,/enu,/base_link,,,0.266862029366,25.1363597139,-11.9101089764,,-0.0172987832664,0.0190693312415,0.0927162326302,0.995359639985
1402414658271450748,,errorv,,0,,1402414658,240777015,/enu,/base_link,,,0.264532677482,25.139690556,-11.9082446409,,-0.017126134706,0.0191005478043,0.0940675143468,0.995235232158
1402414658284997757,,errorv,,0,,1402414658,284794934,base_link,/z_drive,,,0.0,0.0,0.0,,0.0,0.0,0.0,1.0
1402414658285023952,,errorv,,0,,1402414658,284810279,/z_drive,port,,,-0.3,0.3048,0.0,,0.0,0.0,0.0,1.0
1402414658285059571,,errorv,,0,,1402414658,284814944,/z_drive,starboard,,,-0.3,-0.3048,0.0,,0.0,0.0,0.0,1.0
1402414658290775375,,errorv,,0,,1402414658,390601802,/base_link,/gps,,,-0.84,0.0,-0.14,,0.0,0.0,0.0,1.0
1402414658290861606,,errorv,,0,,1402414658,390643702,base_link,imu,,,0.13,0.0,-0.1,,1.0,0.0,0.0,0.0
1402414658304987178,,errorv,,0,,1402414658,304755302,base_link,/z_drive,,,0.0,0.0,0.0,,0.0,0.0,0.0,1.0
1402414658305015358,,errorv,,0,,1402414658,304770798,/z_drive,port,,,-0.3,0.3048,0.0,,0.0,0.0,0.0,1.0
1402414658305145568,,errorv,,0,,1402414658,304778050,/z_drive,starboard,,,-0.3,-0.3048,0.0,,0.0,0.0,0.0,1.0
1402414658311090492,,errorv,,0,,1402414658,250802040,/enu,/base_link,,,0.261879898597,25.1430712558,-11.9065017823,,-0.0169460572051,0.0191420893576,0.0954327851182,0.995107529408
1402414658311116576,,errorv,,0,,1402414658,260768890,/enu,/base_link,,,0.259465553637,25.1464542335,-11.9047543014,,-0.0167355997451,0.0191744505717,0.0967696325805,0.994981355783
1402414658311180949,,errorv,,0,,1402414658,270754098,/enu,/base_link,,,0.265745381092,25.1650412617,-11.7334900032,,-0.0175660060187,0.0205554305481,0.0969587304871,0.994921059326
1402414658319289430,,errorv,,0,,1402414658,281752109,/enu,/base_link,,,0.263314739268,25.1691123009,-11.7313470054,,-0.0173272209507,0.0205684219727,0.0984702780826,0.994776513477
1402414658319312377,,errorv,,0,,1402414658,291753053,/enu,/base_link,,,0.26109362701,25.1726730176,-11.7291603472,,-0.0170820683161,0.0205760870901,0.0997935623689,0.994648718137
1402414658325133790,,errorv,,0,,1402414658,324859855,base_link,/z_drive,,,0.0,0.0,0.0,,0.0,0.0,0.0,1.0
1402414658325248851,,errorv,,0,,1402414658,324887650,/z_drive,port,,,-0.3,0.3048,0.0,,0.0,0.0,0.0,1.0
1402414658325278304,,errorv,,0,,1402414658,324899156,/z_drive,starboard,,,-0.3,-0.3048,0.0,,0.0,0.0,0.0,1.0
1402414658345167023,,errorv,,0,,1402414658,344838208,base_link,/z_drive,,,0.0,0.0,0.0,,0.0,0.0,0.0,1.0
1402414658345198162,,errorv,,0,,1402414658,344861841,/z_drive,port,,,-0.3,0.3048,0.0,,0.0,0.0,0.0,1.0
1402414658345230282,,errorv,,0,,1402414658,344868467,/z_drive,starboard,,,-0.3,-0.3048,0.0,,0.0,0.0,0.0,1.0
1402414658359112208,,errorv,,0,,1402414658,301723003,/enu,/base_link,,,0.258827603407,25.1764261855,-11.7273428426,,-0.0168146894508,0.0205683104471,0.101150820453,0.994516325832
1402414658359136960,,errorv,,0,,1402414658,311726093,/enu,/base_link,,,0.256377090499,25.1800904415,-11.7252548387,,-0.0165670441219,0.02053570165,0.102519713954,0.994380976416
1402414658365072897,,errorv,,0,,1402414658,364812213,base_link,/z_drive,,,0.0,0.0,0.0,,0.0,0.0,0.0,1.0
1402414658365102366,,errorv,,0,,1402414658,364856788,/z_drive,port,,,-0.3,0.3048,0.0,,0.0,0.0,0.0,1.0
1402414658365210572,,errorv,,0,,1402414658,364867009,/z_drive,starboard,,,-0.3,-0.3048,0.0,,0.0,0.0,0.0,1.0
1402414658384952232,,errorv,,0,,1402414658,384758990,base_link,/z_drive,,,0.0,0.0,0.0,,0.0,0.0,0.0,1.0
1402414658385038771,,errorv,,0,,1402414658,384781957,/z_drive,port,,,-0.3,0.3048,0.0,,0.0,0.0,0.0,1.0
1402414658385061738,,errorv,,0,,1402414658,384791047,/z_drive,starboard,,,-0.3,-0.3048,0.0,,0.0,0.0,0.0,1.0
1402414658390986784,,errorv,,0,,1402414658,490697838,/base_link,/gps,,,-0.84,0.0,-0.14,,0.0,0.0,0.0,1.0
1402414658391020081,,errorv,,0,,1402414658,490741738,base_link,imu,,,0.13,0.0,-0.1,,1.0,0.0,0.0,0.0
1402414658399075639,,errorv,,0,,1402414658,322727918,/enu,/base_link,,,0.26702747259,25.2294264875,-11.3995640768,,-0.0205713564986,0.0221154605364,0.101505202713,0.994376397306
1402414658399226327,,errorv,,0,,1402414658,332727909,/enu,/base_link,,,0.264684374188,25.2340482578,-11.3969567527,,-0.0202912828163,0.0221171429996,0.102830251582,0.994245963123
1402414658399256870,,errorv,,0,,1402414658,342725992,/enu,/base_link,,,0.262578921905,25.2386869796,-11.3944173551,,-0.0200045304503,0.0220935239855,0.104162460561,0.994113613612
1402414658399297729,,errorv,,0,,1402414658,353702068,/enu,/base_link,,,0.287368310197,25.2185090938,-11.4300264974,,-0.0172222610484,0.024978588661,0.104679135636,0.994043129042
1402414658405060903,,errorv,,0,,1402414658,404824477,base_link,/z_drive,,,0.0,0.0,0.0,,0.0,0.0,0.0,1.0
1402414658405091314,,errorv,,0,,1402414658,404851364,/z_drive,port,,,-0.3,0.3048,0.0,,0.0,0.0,0.0,1.0
1402414658405115083,,errorv,,0,,1402414658,404856473,/z_drive,starboard,,,-0.3,-0.3048,0.0,,0.0,0.0,0.0,1.0
1402414658425108420,,errorv,,0,,1402414658,424774459,base_link,/z_drive,,,0.0,0.0,0.0,,0.0,0.0,0.0,1.0
1402414658425131600,,errorv,,0,,1402414658,424799929,/z_drive,port,,,-0.3,0.3048,0.0,,0.0,0.0,0.0,1.0
1402414658425159922,,errorv,,0,,1402414658,424813566,/z_drive,starboard,,,-0.3,-0.3048,0.0,,0.0,0.0,0.0,1.0
1402414658439107368,,errorv,,0,,1402414658,363697052,/enu,/base_link,,,0.285871381092,25.2229855492,-11.4279814759,,-0.0169102274808,0.0249550542918,0.105950694386,0.993914352362
1402414658439312176,,errorv,,0,,1402414658,373698949,/enu,/base_link,,,0.284541202139,25.227103489,-11.4252609773,,-0.0166437122591,0.0249027994467,0.107269902131,0.993778650162
1402414658439340442,,errorv,,0,,1402414658,384715080,/enu,/base_link,,,0.282768962544,25.2318083676,-11.4225614591,,-0.0163565054007,0.0248249075369,0.1086771375,0.993632461467
1402414658439365420,,errorv,,0,,1402414658,394670009,/enu,/base_link,,,0.280635017817,25.2081587922,-11.4770268725,,-0.0133675199239,0.0247923725323,0.110854211157,0.993437462322
1402414658445012223,,errorv,,0,,1402414658,444799265,base_link,/z_drive,,,0.0,0.0,0.0,,0.0,0.0,0.0,1.0
1402414658445115594,,errorv,,0,,1402414658,444834369,/z_drive,port,,,-0.3,0.3048,0.0,,0.0,0.0,0.0,1.0
1402414658445287930,,errorv,,0,,1402414658,444846553,/z_drive,starboard,,,-0.3,-0.3048,0.0,,0.0,0.0,0.0,1.0
1402414658465021602,,errorv,,0,,1402414658,464794567,base_link,/z_drive,,,0.0,0.0,0.0,,0.0,0.0,0.0,1.0
1402414658465132091,,errorv,,0,,1402414658,464820895,/z_drive,port,,,-0.3,0.3048,0.0,,0.0,0.0,0.0,1.0
1402414658465257685,,errorv,,0,,1402414658,464972784,/z_drive,starboard,,,-0.3,-0.3048,0.0,,0.0,0.0,0.0,1.0
1402414658479119737,,errorv,,0,,1402414658,404809951,/enu,/base_link,,,0.279328934172,25.2119195509,-11.4745701606,,-0.0130572844137,0.0247076982703,0.11215037323,0.993298208372
1402414658479144598,,errorv,,0,,1402414658,415685892,/enu,/base_link,,,0.277952337,25.2161258742,-11.4721704201,,-0.0127147725445,0.0246388324324,0.113517440753,0.993149058873
1402414658479287139,,errorv,,0,,1402414658,425672054,/enu,/base_link,,,0.276551239515,25.2198186441,-11.4696639277,,-0.0124750547445,0.0245296348438,0.114754325815,0.993012645806
1402414658479313991,,errorv,,0,,1402414658,435687065,/enu,/base_link,,,0.282340973834,25.2077533926,-11.4630571198,,-0.0111257161849,0.0250831642274,0.115823390959,0.992890726827
1402414658485116352,,errorv,,0,,1402414658,484793243,base_link,/z_drive,,,0.0,0.0,0.0,,0.0,0.0,0.0,1.0
1402414658485137396,,errorv,,0,,1402414658,484816909,/z_drive,port,,,-0.3,0.3048,0.0,,0.0,0.0,0.0,1.0
1402414658485165774,,errorv,,0,,1402414658,484826494,/z_drive,starboard,,,-0.3,-0.3048,0.0,,0.0,0.0,0.0,1.0
1402414658490970624,,errorv,,0,,1402414658,590756374,/base_link,/gps,,,-0.84,0.0,-0.14,,0.0,0.0,0.0,1.0
1402414658491035719,,errorv,,0,,1402414658,590861669,base_link,imu,,,0.13,0.0,-0.1,,1.0,0.0,0.0,0.0
1402414658505029076,,errorv,,0,,1402414658,504766162,base_link,/z_drive,,,0.0,0.0,0.0,,0.0,0.0,0.0,1.0
1402414658505084930,,errorv,,0,,1402414658,504790327,/z_drive,port,,,-0.3,0.3048,0.0,,0.0,0.0,0.0,1.0
1402414658505148765,,errorv,,0,,1402414658,504801092,/z_drive,starboard,,,-0.3,-0.3048,0.0,,0.0,0.0,0.0,1.0
1402414658519083798,,errorv,,0,,1402414658,445669889,/enu,/base_link,,,0.280934524148,25.211092898,-11.460245382,,-0.0108414396001,0.0249616253252,0.117069788535,0.992750746694
1402414658519190123,,errorv,,0,,1402414658,456655979,/enu,/base_link,,,0.279752082948,25.2150915716,-11.4576952189,,-0.0105551296861,0.0248407901312,0.118391490883,0.992600110452
1402414658519215154,,errorv,,0,,1402414658,466645956,/enu,/base_link,,,0.278456516237,25.2186622825,-11.4551978183,,-0.0102976368916,0.0247337871112,0.119584510117,0.992462464474
1402414658519288717,,errorv,,0,,1402414658,476650953,/enu,/base_link,,,0.277428852326,25.2223131947,-11.4528301243,,-0.00998567867338,0.0246158726927,0.120778802783,0.99232395206
1402414658525163584,,errorv,,0,,1402414658,524863783,base_link,/z_drive,,,0.0,0.0,0.0,,0.0,0.0,0.0,1.0
1402414658525193952,,errorv,,0,,1402414658,524886095,/z_drive,port,,,-0.3,0.3048,0.0,,0.0,0.0,0.0,1.0
1402414658525211129,,errorv,,0,,1402414658,524894133,/z_drive,starboard,,,-0.3,-0.3048,0.0,,0.0,0.0,0.0,1.0
1402414658545092939,,errorv,,0,,1402414658,544783665,base_link,/z_drive,,,0.0,0.0,0.0,,0.0,0.0,0.0,1.0
1402414658545143019,,errorv,,0,,1402414658,544903281,/z_drive,port,,,-0.3,0.3048,0.0,,0.0,0.0,0.0,1.0
1402414658545215605,,errorv,,0,,1402414658,544917889,/z_drive,starboard,,,-0.3,-0.3048,0.0,,0.0,0.0,0.0,1.0
1402414658559127676,,errorv,,0,,1402414658,486644029,/enu,/base_link,,,0.276295647431,25.2258724638,-11.4503212017,,-0.00973920103675,0.0244619401393,0.121992320523,0.992181755114
1402414658559192023,,errorv,,0,,1402414658,497651100,/enu,/base_link,,,0.275121763426,25.2298667782,-11.4476621655,,-0.0094177533294,0.0243282017752,0.123292017616,0.992027480926
1402414658559220500,,errorv,,0,,1402414658,507633924,/enu,/base_link,,,0.273860170358,25.2336051781,-11.4453900399,,-0.00916012042051,0.0242109837818,0.124472785083,0.991885298929
1402414658559243860,,errorv,,0,,1402414658,517669916,/enu,/base_link,,,0.272761366898,25.2372147304,-11.4428164254,,-0.00891118215136,0.0241007023369,0.125649917947,0.991741823813
1402414658565065237,,errorv,,0,,1402414658,564839679,base_link,/z_drive,,,0.0,0.0,0.0,,0.0,0.0,0.0,1.0
1402414658565085337,,errorv,,0,,1402414658,564859508,/z_drive,port,,,-0.3,0.3048,0.0,,0.0,0.0,0.0,1.0
1402414658565097268,,errorv,,0,,1402414658,564864816,/z_drive,starboard,,,-0.3,-0.3048,0.0,,0.0,0.0,0.0,1.0
1402414658584949492,,errorv,,0,,1402414658,584753547,base_link,/z_drive,,,0.0,0.0,0.0,,0.0,0.0,0.0,1.0
1402414658585037262,,errorv,,0,,1402414658,584772758,/z_drive,port,,,-0.3,0.3048,0.0,,0.0,0.0,0.0,1.0
1402414658585238668,,errorv,,0,,1402414658,584779242,/z_drive,starboard,,,-0.3,-0.3048,0.0,,0.0,0.0,0.0,1.0
1402414658591041648,,errorv,,0,,1402414658,690854171,/base_link,/gps,,,-0.84,0.0,-0.14,,0.0,0.0,0.0,1.0
1402414658591227911,,errorv,,0,,1402414658,691014506,base_link,imu,,,0.13,0.0,-0.1,,1.0,0.0,0.0,0.0
1402414658599162019,,errorv,,0,,1402414658,527658939,/enu,/base_link,,,0.271556955734,25.2408576756,-11.4403664777,,-0.00866281142785,0.0239524135853,0.126787047137,0.991602885363
1402414658599191620,,errorv,,0,,1402414658,538630008,/enu,/base_link,,,0.252973254657,25.1384232095,-11.8350313522,,0.000554466724586,0.0211951696617,0.133074547331,0.990879216758
1402414658599215451,,errorv,,0,,1402414658,548628091,/enu,/base_link,,,0.251501131449,25.140209871,-11.8331277758,,0.000802061494303,0.0210809713172,0.134214278555,0.990727751089
1402414658599240316,,errorv,,0,,1402414658,558618068,/enu,/base_link,,,0.250246196297,25.142178291,-11.8316178548,,0.00103884311446,0.0209821156085,0.135347448306,0.990575458946
1402414658599261672,,errorv,,0,,1402414658,568589925,/enu,/base_link,,,0.248938155556,25.1438198767,-11.8295186734,,0.00123911399498,0.0208794625485,0.136505635421,0.990418459106
1402414658605013397,,errorv,,0,,1402414658,604808797,base_link,/z_drive,,,0.0,0.0,0.0,,0.0,0.0,0.0,1.0
1402414658605104115,,errorv,,0,,1402414658,604829576,/z_drive,port,,,-0.3,0.3048,0.0,,0.0,0.0,0.0,1.0
1402414658605181885,,errorv,,0,,1402414658,604840315,/z_drive,starboard,,,-0.3,-0.3048,0.0,,0.0,0.0,0.0,1.0
1402414658625257966,,errorv,,0,,1402414658,624791696,base_link,/z_drive,,,0.0,0.0,0.0,,0.0,0.0,0.0,1.0
1402414658625298744,,errorv,,0,,1402414658,624812547,/z_drive,port,,,-0.3,0.3048,0.0,,0.0,0.0,0.0,1.0
1402414658625323704,,errorv,,0,,1402414658,624825042,/z_drive,starboard,,,-0.3,-0.3048,0.0,,0.0,0.0,0.0,1.0
1402414658639099023,,errorv,,0,,1402414658,578588008,/enu,/base_link,,,0.247766757787,25.1456175408,-11.8277064645,,0.00142614182228,0.0207708369253,0.137645884364,0.990262666655
1402414658639126354,,errorv,,0,,1402414658,589591979,/enu,/base_link,,,0.24634338431,25.1475021998,-11.8256230529,,0.00167948226508,0.0206725025951,0.138926410558,0.990085490968
1402414658639159022,,errorv,,0,,1402414658,599594116,/enu,/base_link,,,0.245004916294,25.1492288123,-11.8237015075,,0.00183860872143,0.0205994093647,0.140053954103,0.989927862923
1402414658645131897,,errorv,,0,,1402414658,644824617,base_link,/z_drive,,,0.0,0.0,0.0,,0.0,0.0,0.0,1.0
1402414658645161700,,errorv,,0,,1402414658,644842574,/z_drive,port,,,-0.3,0.3048,0.0,,0.0,0.0,0.0,1.0
1402414658645186251,,errorv,,0,,1402414658,644856814,/z_drive,starboard,,,-0.3,-0.3048,0.0,,0.0,0.0,0.0,1.0
1402414658647427294,,errorv,,0,,1402414658,609589099,/enu,/base_link,,,0.243658493955,25.1509403235,-11.8217587731,,0.00198846729185,0.0205302186048,0.141145304818,0.989773993925
1402414658647453182,,errorv,,0,,1402414658,619589090,/enu,/base_link,,,0.242533101074,25.1527537541,-11.8199926699,,0.00218045740063,0.0204935159249,0.142279005119,0.989612017971
1402414658664968990,,errorv,,0,,1402414658,664789057,base_link,/z_drive,,,0.0,0.0,0.0,,0.0,0.0,0.0,1.0
1402414658665053775,,errorv,,0,,1402414658,664813158,/z_drive,port,,,-0.3,0.3048,0.0,,0.0,0.0,0.0,1.0
1402414658665077657,,errorv,,0,,1402414658,664821361,/z_drive,starboard,,,-0.3,-0.3048,0.0,,0.0,0.0,0.0,1.0
1402414658685191702,,errorv,,0,,1402414658,684903126,base_link,/z_drive,,,0.0,0.0,0.0,,0.0,0.0,0.0,1.0
1402414658685223172,,errorv,,0,,1402414658,684928775,/z_drive,port,,,-0.3,0.3048,0.0,,0.0,0.0,0.0,1.0
1402414658685248040,,errorv,,0,,1402414658,684938585,/z_drive,starboard,,,-0.3,-0.3048,0.0,,0.0,0.0,0.0,1.0
1402414658687035376,,errorv,,0,,1402414658,629590988,/enu,/base_link,,,0.241248271953,25.1543665231,-11.817967048,,0.00229242556377,0.0204517938145,0.143449550371,0.989443629225
1402414658687092814,,errorv,,0,,1402414658,640594005,/enu,/base_link,,,0.265538294181,25.1960432874,-11.6384231223,,-0.00208264031831,0.0226186755602,0.142062206208,0.989597083511
1402414658691147569,,errorv,,0,,1402414658,790962809,/base_link,/gps,,,-0.84,0.0,-0.14,,0.0,0.0,0.0,1.0
1402414658691314804,,errorv,,0,,1402414658,791128882,base_link,imu,,,0.13,0.0,-0.1,,1.0,0.0,0.0,0.0
1402414658705081558,,errorv,,0,,1402414658,704768747,base_link,/z_drive,,,0.0,0.0,0.0,,0.0,0.0,0.0,1.0
1402414658705146169,,errorv,,0,,1402414658,704788922,/z_drive,port,,,-0.3,0.3048,0.0,,0.0,0.0,0.0,1.0
1402414658705203840,,errorv,,0,,1402414658,704799441,/z_drive,starboard,,,-0.3,-0.3048,0.0,,0.0,0.0,0.0,1.0
1402414658725091175,,errorv,,0,,1402414658,724796454,base_link,/z_drive,,,0.0,0.0,0.0,,0.0,0.0,0.0,1.0
1402414658725120305,,errorv,,0,,1402414658,724812849,/z_drive,port,,,-0.3,0.3048,0.0,,0.0,0.0,0.0,1.0
1402414658725189042,,errorv,,0,,1402414658,724823373,/z_drive,starboard,,,-0.3,-0.3048,0.0,,0.0,0.0,0.0,1.0
1402414658727073570,,errorv,,0,,1402414658,650589942,/enu,/base_link,,,0.264693830949,25.1986598477,-11.6361591943,,-0.00199243424935,0.0226015312305,0.143201347726,0.989433461634
1402414658727136580,,errorv,,0,,1402414658,660556077,/enu,/base_link,,,0.263588709466,25.2013664143,-11.6341569834,,-0.00191272748148,0.0225896098358,0.144312177111,0.989272483464
1402414658727202023,,errorv,,0,,1402414658,670552968,/enu,/base_link,,,0.262761000326,25.2039297571,-11.6318537917,,-0.00185041985704,0.02257612897,0.145450672428,0.989106160246
1402414658727389075,,errorv,,0,,1402414658,680557012,/enu,/base_link,,,0.261809835334,25.2064482399,-11.6294848319,,-0.00178541508849,0.022569102295,0.146599268101,0.988936854661
1402414658745137355,,errorv,,0,,1402414658,744787138,base_link,/z_drive,,,0.0,0.0,0.0,,0.0,0.0,0.0,1.0
1402414658745202824,,errorv,,0,,1402414658,744812000,/z_drive,port,,,-0.3,0.3048,0.0,,0.0,0.0,0.0,1.0
1402414658745274199,,errorv,,0,,1402414658,744823020,/z_drive,starboard,,,-0.3,-0.3048,0.0,,0.0,0.0,0.0,1.0
1402414658765110276,,errorv,,0,,1402414658,764763880,base_link,/z_drive,,,0.0,0.0,0.0,,0.0,0.0,0.0,1.0
1402414658765140025,,errorv,,0,,1402414658,764782217,/z_drive,port,,,-0.3,0.3048,0.0,,0.0,0.0,0.0,1.0
1402414658765209396,,errorv,,0,,1402414658,764792169,/z_drive,starboard,,,-0.3,-0.3048,0.0,,0.0,0.0,0.0,1.0
1402414658767085293,,errorv,,0,,1402414658,691557884,/enu,/base_link,,,0.275600595825,25.207597028,-11.5909262978,,-0.00229633371512,0.0233397752544,0.14719319638,0.988829684365
1402414658767115281,,errorv,,0,,1402414658,701558113,/enu,/base_link,,,0.274984427218,25.2102799856,-11.5885389438,,-0.00230395431971,0.02336714889,0.148325869323,0.988659751703
1402414658767173742,,errorv,,0,,1402414658,711558103,/enu,/base_link,,,0.274188629469,25.2129828279,-11.5862004569,,-0.00227876505763,0.0234351300176,0.149451916614,0.988488607183
1402414658767219345,,errorv,,0,,1402414658,721529006,/enu,/base_link,,,0.273445474485,25.2157328606,-11.5839937474,,-0.00224303495927,0.0234955527052,0.150598440527,0.988313228439
1402414658785165531,,errorv,,0,,1402414658,784788527,base_link,/z_drive,,,0.0,0.0,0.0,,0.0,0.0,0.0,1.0
1402414658785197144,,errorv,,0,,1402414658,784806757,/z_drive,port,,,-0.3,0.3048,0.0,,0.0,0.0,0.0,1.0
1402414658785225218,,errorv,,0,,1402414658,784817250,/z_drive,starboard,,,-0.3,-0.3048,0.0,,0.0,0.0,0.0,1.0
1402414658791242054,,errorv,,0,,1402414658,891069413,/base_link,/gps,,,-0.84,0.0,-0.14,,0.0,0.0,0.0,1.0
1402414658791405214,,errorv,,0,,1402414658,891228553,base_link,imu,,,0.13,0.0,-0.1,,1.0,0.0,0.0,0.0
1402414658805127800,,errorv,,0,,1402414658,804766199,base_link,/z_drive,,,0.0,0.0,0.0,,0.0,0.0,0.0,1.0
1402414658805153300,,errorv,,0,,1402414658,804784663,/z_drive,port,,,-0.3,0.3048,0.0,,0.0,0.0,0.0,1.0
1402414658805196674,,errorv,,0,,1402414658,804795290,/z_drive,starboard,,,-0.3,-0.3048,0.0,,0.0,0.0,0.0,1.0
1402414658807090591,,errorv,,0,,1402414658,732526063,/enu,/base_link,,,0.292047629676,25.2218744863,-11.5470637495,,-0.00350029387529,0.0245765320561,0.150927373008,0.988233105139
1402414658807114410,,errorv,,0,,1402414658,742531061,/enu,/base_link,,,0.29142719373,25.2251038226,-11.5451447823,,-0.00353217735063,0.0246605035956,0.152046717815,0.988059299277
1402414658807134890,,errorv,,0,,1402414658,753519058,/enu,/base_link,,,0.29091418222,25.2282410261,-11.5423247732,,-0.00359730736267,0.0247480601735,0.153291569879,0.987864508676
1402414658807145889,,errorv,,0,,1402414658,763499021,/enu,/base_link,,,0.290386407292,25.2312359582,-11.5400134256,,-0.00366154290193,0.0248117059022,0.154392824208,0.987691160326
1402414658825119027,,errorv,,0,,1402414658,824781112,base_link,/z_drive,,,0.0,0.0,0.0,,0.0,0.0,0.0,1.0
1402414658825207920,,errorv,,0,,1402414658,824801571,/z_drive,port,,,-0.3,0.3048,0.0,,0.0,0.0,0.0,1.0
1402414658825339140,,errorv,,0,,1402414658,824812432,/z_drive,starboard,,,-0.3,-0.3048,0.0,,0.0,0.0,0.0,1.0
1402414658845057717,,errorv,,0,,1402414658,844762024,base_link,/z_drive,,,0.0,0.0,0.0,,0.0,0.0,0.0,1.0
1402414658845175196,,errorv,,0,,1402414658,844779514,/z_drive,port,,,-0.3,0.3048,0.0,,0.0,0.0,0.0,1.0
1402414658845251715,,errorv,,0,,1402414658,844789975,/z_drive,starboard,,,-0.3,-0.3048,0.0,,0.0,0.0,0.0,1.0
1402414658847064918,,errorv,,0,,1402414658,774513006,/enu,/base_link,,,0.289953103401,25.2345574459,-11.5375727849,,-0.00367760469598,0.0249114128488,0.155567823726,0.987504201993
1402414658847091443,,errorv,,0,,1402414658,784511089,/enu,/base_link,,,0.289348705803,25.2373199605,-11.5350479499,,-0.00363348656206,0.0249927383906,0.156582799185,0.987341879899
1402414658847145535,,errorv,,0,,1402414658,794475078,/enu,/base_link,,,0.288942633743,25.2402094856,-11.5328195522,,-0.003538824226,0.0251107815858,0.15754002705,0.987186945441
1402414658847208109,,errorv,,0,,1402414658,805515050,/enu,/base_link,,,0.288350532526,25.2432088394,-11.530115813,,-0.00352857864822,0.0252400194956,0.158584087152,0.987016503333
1402414658865076546,,errorv,,0,,1402414658,864812455,base_link,/z_drive,,,0.0,0.0,0.0,,0.0,0.0,0.0,1.0
1402414658865102485,,errorv,,0,,1402414658,864831509,/z_drive,port,,,-0.3,0.3048,0.0,,0.0,0.0,0.0,1.0
1402414658865125932,,errorv,,0,,1402414658,864837585,/z_drive,starboard,,,-0.3,-0.3048,0.0,,0.0,0.0,0.0,1.0
1402414658884976294,,errorv,,0,,1402414658,884718081,base_link,/z_drive,,,0.0,0.0,0.0,,0.0,0.0,0.0,1.0
1402414658885001075,,errorv,,0,,1402414658,884757754,/z_drive,port,,,-0.3,0.3048,0.0,,0.0,0.0,0.0,1.0
1402414658885072300,,errorv,,0,,1402414658,884767310,/z_drive,starboard,,,-0.3,-0.3048,0.0,,0.0,0.0,0.0,1.0
1402414658887104296,,errorv,,0,,1402414658,815489053,/enu,/base_link,,,0.288051590462,25.2459404841,-11.5276934698,,-0.00377135971059,0.0253045464596,0.159469452712,0.986871293749
1402414658887350844,,errorv,,0,,1402414658,826492071,/enu,/base_link,,,0.287748621409,25.2488718095,-11.5249389415,,-0.00425996021419,0.0253203728466,0.160397437512,0.986718497596
1402414658887413782,,errorv,,0,,1402414658,836491107,/enu,/base_link,,,0.287450212583,25.2515600541,-11.5225538807,,-0.00464101081172,0.0253538721836,0.161094371712,0.98660237461
1402414658887474266,,errorv,,0,,1402414658,846520900,/enu,/base_link,,,0.287258746508,25.2541836886,-11.5201244804,,-0.00479798028954,0.0253882905352,0.161698633386,0.98650188345
1402414658887496094,,errorv,,0,,1402414658,857475996,/enu,/base_link,,,0.287077971832,25.2569096276,-11.517333509,,-0.00488731373113,0.0254331910183,0.162283951417,0.986404169736
1402414658891370782,,errorv,,0,,1402414658,991174852,/base_link,/gps,,,-0.84,0.0,-0.14,,0.0,0.0,0.0,1.0
1402414658891504124,,errorv,,0,,1402414658,991326612,base_link,imu,,,0.13,0.0,-0.1,,1.0,0.0,0.0,0.0
1402414658905147921,,errorv,,0,,1402414658,904829524,base_link,/z_drive,,,0.0,0.0,0.0,,0.0,0.0,0.0,1.0
1402414658905218745,,errorv,,0,,1402414658,904857898,/z_drive,port,,,-0.3,0.3048,0.0,,0.0,0.0,0.0,1.0
1402414658905276039,,errorv,,0,,1402414658,904866663,/z_drive,starboard,,,-0.3,-0.3048,0.0,,0.0,0.0,0.0,1.0
1402414658925052391,,errorv,,0,,1402414658,924760926,base_link,/z_drive,,,0.0,0.0,0.0,,0.0,0.0,0.0,1.0
1402414658925082202,,errorv,,0,,1402414658,924785241,/z_drive,port,,,-0.3,0.3048,0.0,,0.0,0.0,0.0,1.0
1402414658925108396,,errorv,,0,,1402414658,924796080,/z_drive,starboard,,,-0.3,-0.3048,0.0,,0.0,0.0,0.0,1.0
1402414658927119036,,errorv,,0,,1402414658,867449045,/enu,/base_link,,,0.286981163171,25.2594314627,-11.514963156,,-0.00502818177512,0.025402832575,0.162744031409,0.986328441102
1402414658927172887,,errorv,,0,,1402414658,878447055,/enu,/base_link,,,0.287053039296,25.2621419433,-11.5122870676,,-0.00531829605145,0.0253587645679,0.163165018202,0.986258498377
1402414658927234859,,errorv,,0,,1402414658,888447999,/enu,/base_link,,,0.285211600651,25.1729010288,-11.687170733,,0.00143373154317,0.0231099355363,0.165453225805,0.985945792305
1402414658935368801,,errorv,,0,,1402414658,898444890,/enu,/base_link,,,0.285310342289,25.1739041414,-11.685154444,,0.000930655233352,0.0229955162311,0.165675522468,0.985911741166
1402414658935522443,,errorv,,0,,1402414658,909446954,/enu,/base_link,,,0.285370215034,25.1748667724,-11.6827340394,,0.000495118030042,0.0227781514617,0.165880679377,0.985882605021
1402414658945048610,,errorv,,0,,1402414658,944785994,base_link,/z_drive,,,0.0,0.0,0.0,,0.0,0.0,0.0,1.0
1402414658945119655,,errorv,,0,,1402414658,944808094,/z_drive,port,,,-0.3,0.3048,0.0,,0.0,0.0,0.0,1.0
1402414658945147730,,errorv,,0,,1402414658,944818040,/z_drive,starboard,,,-0.3,-0.3048,0.0,,0.0,0.0,0.0,1.0
1402414658965037506,,errorv,,0,,1402414658,964741522,base_link,/z_drive,,,0.0,0.0,0.0,,0.0,0.0,0.0,1.0
1402414658965066826,,errorv,,0,,1402414658,964758774,/z_drive,port,,,-0.3,0.3048,0.0,,0.0,0.0,0.0,1.0
1402414658965092889,,errorv,,0,,1402414658,964768947,/z_drive,starboard,,,-0.3,-0.3048,0.0,,0.0,0.0,0.0,1.0
1402414658975227862,,errorv,,0,,1402414658,919445037,/enu,/base_link,,,0.285433347811,25.1756477237,-11.6804514599,,0.000200268745444,0.0226403824339,0.16600333711,0.985865236756
1402414658975253778,,errorv,,0,,1402414658,930449008,/enu,/base_link,,,0.285591304199,25.176416746,-11.6779095635,,-0.000158038549016,0.0224710602565,0.166064681643,0.985858787041
1402414658985122568,,errorv,,0,,1402414658,984758764,base_link,/z_drive,,,0.0,0.0,0.0,,0.0,0.0,0.0,1.0
1402414658985171488,,errorv,,0,,1402414658,984776859,/z_drive,port,,,-0.3,0.3048,0.0,,0.0,0.0,0.0,1.0
1402414658985225006,,errorv,,0,,1402414658,984786412,/z_drive,starboard,,,-0.3,-0.3048,0.0,,0.0,0.0,0.0,1.0
1402414658991448441,,errorv,,0,,1402414659,91269873,/base_link,/gps,,,-0.84,0.0,-0.14,,0.0,0.0,0.0,1.0
1402414658991637369,,errorv,,0,,1402414659,91448075,base_link,imu,,,0.13,0.0,-0.1,,1.0,0.0,0.0,0.0
1402414659005053462,,errorv,,0,,1402414659,4754920,base_link,/z_drive,,,0.0,0.0,0.0,,0.0,0.0,0.0,1.0
1402414659005107827,,errorv,,0,,1402414659,4773025,/z_drive,port,,,-0.3,0.3048,0.0,,0.0,0.0,0.0,1.0
1402414659005228734,,errorv,,0,,1402414659,4783334,/z_drive,starboard,,,-0.3,-0.3048,0.0,,0.0,0.0,0.0,1.0
1402414659015234069,,errorv,,0,,1402414658,940448999,/enu,/base_link,,,0.27914607797,24.9822408865,-12.190804774,,0.0124762711353,0.0178741016071,0.16921406725,0.985338245779
1402414659015287008,,errorv,,0,,1402414658,950444936,/enu,/base_link,,,0.278893232835,24.9801403426,-12.1894550634,,0.0119160703433,0.0176247204251,0.169173073529,0.985356710887
1402414659015364746,,errorv,,0,,1402414658,960448026,/enu,/base_link,,,0.278900215966,24.9778585072,-12.1878640124,,0.0112895504851,0.0172786091994,0.16906242503,0.985389208464
1402414659015386661,,errorv,,0,,1402414658,971451044,/enu,/base_link,,,0.279093494079,24.9755097201,-12.1865278783,,0.0106429634572,0.0168784425726,0.168833019281,0.985442670634
1402414659025115521,,errorv,,0,,1402414659,24843506,base_link,/z_drive,,,0.0,0.0,0.0,,0.0,0.0,0.0,1.0
1402414659025197191,,errorv,,0,,1402414659,24942288,/z_drive,port,,,-0.3,0.3048,0.0,,0.0,0.0,0.0,1.0
1402414659025214260,,errorv,,0,,1402414659,24956262,/z_drive,starboard,,,-0.3,-0.3048,0.0,,0.0,0.0,0.0,1.0
1402414659045107119,,errorv,,0,,1402414659,44740732,base_link,/z_drive,,,0.0,0.0,0.0,,0.0,0.0,0.0,1.0
1402414659045248730,,errorv,,0,,1402414659,44759508,/z_drive,port,,,-0.3,0.3048,0.0,,0.0,0.0,0.0,1.0
1402414659045276710,,errorv,,0,,1402414659,44769485,/z_drive,starboard,,,-0.3,-0.3048,0.0,,0.0,0.0,0.0,1.0
1402414659055306327,,errorv,,0,,1402414658,981448888,/enu,/base_link,,,0.279334132452,24.9730611627,-12.1850324794,,0.010235596052,0.0164778791368,0.168499182552,0.985510901793
1402414659055500838,,errorv,,0,,1402414658,991487979,/enu,/base_link,,,0.279661083297,24.9707848336,-12.1840225518,,0.0098421614708,0.0162057902936,0.168136903385,0.98558129342
1402414659055525074,,errorv,,0,,1402414659,1365900,/enu,/base_link,,,0.279838468547,24.9682515017,-12.1826481382,,0.00947124942039,0.015824300951,0.167719949254,0.985662166037
1402414659055548603,,errorv,,0,,1402414659,12367963,/enu,/base_link,,,0.280272255929,24.9653002957,-12.1810428544,,0.00910908581581,0.0154360540637,0.167234500843,0.985754216079
1402414659065289186,,errorv,,0,,1402414659,64788356,base_link,/z_drive,,,0.0,0.0,0.0,,0.0,0.0,0.0,1.0
1402414659065317087,,errorv,,0,,1402414659,64805085,/z_drive,port,,,-0.3,0.3048,0.0,,0.0,0.0,0.0,1.0
1402414659065338181,,errorv,,0,,1402414659,64811505,/z_drive,starboard,,,-0.3,-0.3048,0.0,,0.0,0.0,0.0,1.0
1402414659085111295,,errorv,,0,,1402414659,84827885,base_link,/z_drive,,,0.0,0.0,0.0,,0.0,0.0,0.0,1.0
1402414659085136356,,errorv,,0,,1402414659,84861528,/z_drive,port,,,-0.3,0.3048,0.0,,0.0,0.0,0.0,1.0
1402414659085160468,,errorv,,0,,1402414659,84872559,/z_drive,starboard,,,-0.3,-0.3048,0.0,,0.0,0.0,0.0,1.0
1402414659091564898,,errorv,,0,,1402414659,191365711,/base_link,/gps,,,-0.84,0.0,-0.14,,0.0,0.0,0.0,1.0
1402414659091746050,,errorv,,0,,1402414659,191552769,base_link,imu,,,0.13,0.0,-0.1,,1.0,0.0,0.0,0.0
1402414659095542858,,errorv,,0,,1402414659,22447109,/enu,/base_link,,,0.280555293315,24.9624079108,-12.1795105956,,0.00874405600679,0.015009063059,0.16671024126,0.985852912442
1402414659095604526,,errorv,,0,,1402414659,32368898,/enu,/base_link,,,0.281125960846,24.9597671371,-12.1784199361,,0.00830865036568,0.0146592865904,0.16613935451,0.985958308717
1402414659095633077,,errorv,,0,,1402414659,43450117,/enu,/base_link,,,0.28188291484,24.9566638451,-12.1771624099,,0.00793843488766,0.0144304331865,0.165487457753,0.986074360876
1402414659095654409,,errorv,,0,,1402414659,53360939,/enu,/base_link,,,0.282425129227,24.9535609726,-12.1756050149,,0.00774860441509,0.0140880441713,0.164789111472,0.986197766618
1402414659104970264,,errorv,,0,,1402414659,104802952,base_link,/z_drive,,,0.0,0.0,0.0,,0.0,0.0,0.0,1.0
1402414659105198096,,errorv,,0,,1402414659,104824298,/z_drive,port,,,-0.3,0.3048,0.0,,0.0,0.0,0.0,1.0
1402414659105223989,,errorv,,0,,1402414659,104968632,/z_drive,starboard,,,-0.3,-0.3048,0.0,,0.0,0.0,0.0,1.0
1402414659124979007,,errorv,,0,,1402414659,124755578,base_link,/z_drive,,,0.0,0.0,0.0,,0.0,0.0,0.0,1.0
1402414659125006257,,errorv,,0,,1402414659,124769520,/z_drive,port,,,-0.3,0.3048,0.0,,0.0,0.0,0.0,1.0
1402414659125103199,,errorv,,0,,1402414659,124773895,/z_drive,starboard,,,-0.3,-0.3048,0.0,,0.0,0.0,0.0,1.0
1402414659135201371,,errorv,,0,,1402414659,63347101,/enu,/base_link,,,0.283241157851,24.9506338837,-12.1745794927,,0.00760157414449,0.0137899710595,0.164048905837,0.98632652264
1402414659135227201,,errorv,,0,,1402414659,74341058,/enu,/base_link,,,0.284103592739,24.9471668879,-12.1731449336,,0.00725152486778,0.0135514420079,0.16320230104,0.986472900156
1402414659135249288,,errorv,,0,,1402414659,84359884,/enu,/base_link,,,0.324219812804,24.9797546545,-12.1884169712,,0.00280503694444,0.0158077385122,0.161573103082,0.986730145243
1402414659135293298,,errorv,,0,,1402414659,94350099,/enu,/base_link,,,0.325539206332,24.9773326182,-12.1870478567,,0.00251032243086,0.0155625832344,0.160714491323,0.986875046074
1402414659135315704,,errorv,,0,,1402414659,105366945,/enu,/base_link,,,0.326985700036,24.9745792343,-12.1856622067,,0.00233064927132,0.0152018784936,0.159751723323,0.98703741462
1402414659145253604,,errorv,,0,,1402414659,144795378,base_link,/z_drive,,,0.0,0.0,0.0,,0.0,0.0,0.0,1.0
1402414659145277427,,errorv,,0,,1402414659,144818917,/z_drive,port,,,-0.3,0.3048,0.0,,0.0,0.0,0.0,1.0
1402414659145301824,,errorv,,0,,1402414659,144828824,/z_drive,starboard,,,-0.3,-0.3048,0.0,,0.0,0.0,0.0,1.0
1402414659165095043,,errorv,,0,,1402414659,164768594,base_link,/z_drive,,,0.0,0.0,0.0,,0.0,0.0,0.0,1.0
1402414659165118617,,errorv,,0,,1402414659,164792914,/z_drive,port,,,-0.3,0.3048,0.0,,0.0,0.0,0.0,1.0
1402414659165144247,,errorv,,0,,1402414659,164803202,/z_drive,starboard,,,-0.3,-0.3048,0.0,,0.0,0.0,0.0,1.0
1402414659175904359,,errorv,,0,,1402414659,115376949,/enu,/base_link,,,0.328405515226,24.971962778,-12.1843148796,,0.00215702717979,0.0150587484892,0.158803197609,0.987193053945
1402414659175932425,,errorv,,0,,1402414659,125344991,/enu,/base_link,,,0.329991108132,24.9692598144,-12.1830286674,,0.00194646791302,0.0149625950914,0.157850576669,0.98734772368
1402414659175958214,,errorv,,0,,1402414659,136323928,/enu,/base_link,,,0.315665431525,25.0520171492,-11.9849420457,,-0.00360922313497,0.0144523074572,0.158311742825,0.987276808398
1402414659183336079,,errorv,,0,,1402414659,146344900,/enu,/base_link,,,0.317049975575,25.0504036777,-11.9836528974,,-0.00363173509731,0.0142742684357,0.157201622308,0.987456685483
1402414659183371806,,errorv,,0,,1402414659,156342983,/enu,/base_link,,,0.318593726701,25.0485520947,-11.9820824358,,-0.00377220774272,0.0142896603948,0.15606232056,0.987636637714
1402414659185040109,,errorv,,0,,1402414659,184799706,base_link,/z_drive,,,0.0,0.0,0.0,,0.0,0.0,0.0,1.0
1402414659185064924,,errorv,,0,,1402414659,184821503,/z_drive,port,,,-0.3,0.3048,0.0,,0.0,0.0,0.0,1.0
1402414659185084820,,errorv,,0,,1402414659,184829224,/z_drive,starboard,,,-0.3,-0.3048,0.0,,0.0,0.0,0.0,1.0
1402414659191665729,,errorv,,0,,1402414659,291475024,/base_link,/gps,,,-0.84,0.0,-0.14,,0.0,0.0,0.0,1.0
1402414659191833578,,errorv,,0,,1402414659,291655703,base_link,imu,,,0.13,0.0,-0.1,,1.0,0.0,0.0,0.0
1402414659204957736,,errorv,,0,,1402414659,204767792,base_link,/z_drive,,,0.0,0.0,0.0,,0.0,0.0,0.0,1.0
1402414659205029879,,errorv,,0,,1402414659,204787646,/z_drive,port,,,-0.3,0.3048,0.0,,0.0,0.0,0.0,1.0
1402414659205105567,,errorv,,0,,1402414659,204797821,/z_drive,starboard,,,-0.3,-0.3048,0.0,,0.0,0.0,0.0,1.0
1402414659223080484,,errorv,,0,,1402414659,167325973,/enu,/base_link,,,0.320228460805,25.0465679746,-11.9805716989,,-0.00399180820712,0.0142827513317,0.154777762033,0.9878379993
1402414659223104056,,errorv,,0,,1402414659,177297115,/enu,/base_link,,,0.322007725593,25.0446175159,-11.9790817538,,-0.0039497253514,0.0143230223029,0.15355585105,0.988028264429
1402414659224994925,,errorv,,0,,1402414659,224748544,base_link,/z_drive,,,0.0,0.0,0.0,,0.0,0.0,0.0,1.0
1402414659225050000,,errorv,,0,,1402414659,224765263,/z_drive,port,,,-0.3,0.3048,0.0,,0.0,0.0,0.0,1.0
1402414659225076141,,errorv,,0,,1402414659,224775436,/z_drive,starboard,,,-0.3,-0.3048,0.0,,0.0,0.0,0.0,1.0
1402414659244978623,,errorv,,0,,1402414659,244765486,base_link,/z_drive,,,0.0,0.0,0.0,,0.0,0.0,0.0,1.0
1402414659245003469,,errorv,,0,,1402414659,244786482,/z_drive,port,,,-0.3,0.3048,0.0,,0.0,0.0,0.0,1.0
1402414659245066991,,errorv,,0,,1402414659,244796632,/z_drive,starboard,,,-0.3,-0.3048,0.0,,0.0,0.0,0.0,1.0
1402414659263273425,,errorv,,0,,1402414659,187311887,/enu,/base_link,,,0.372929635934,25.1476879557,-11.6014567725,,-0.00952558243506,0.0185823473127,0.151104712135,0.988297184868
1402414659263290275,,errorv,,0,,1402414659,198307991,/enu,/base_link,,,0.375660513822,25.1469124214,-11.5993360152,,-0.00961978377978,0.0187612883858,0.149663186248,0.988512217679
1402414659263300106,,errorv,,0,,1402414659,208287954,/enu,/base_link,,,0.378063337487,25.1459002779,-11.5970281507,,-0.00963751336702,0.0187911129566,0.1483364364,0.988711441244
1402414659263308749,,errorv,,0,,1402414659,219295978,/enu,/base_link,,,0.381113984962,25.1449741313,-11.5949539121,,-0.00944015441517,0.0190045930655,0.146772428333,0.9889426491
1402414659265488042,,errorv,,0,,1402414659,264849961,base_link,/z_drive,,,0.0,0.0,0.0,,0.0,0.0,0.0,1.0
1402414659265516301,,errorv,,0,,1402414659,264865347,/z_drive,port,,,-0.3,0.3048,0.0,,0.0,0.0,0.0,1.0
1402414659265537674,,errorv,,0,,1402414659,264869729,/z_drive,starboard,,,-0.3,-0.3048,0.0,,0.0,0.0,0.0,1.0
1402414659285052499,,errorv,,0,,1402414659,284818144,base_link,/z_drive,,,0.0,0.0,0.0,,0.0,0.0,0.0,1.0
1402414659285080512,,errorv,,0,,1402414659,284840369,/z_drive,port,,,-0.3,0.3048,0.0,,0.0,0.0,0.0,1.0
1402414659285171563,,errorv,,0,,1402414659,284877110,/z_drive,starboard,,,-0.3,-0.3048,0.0,,0.0,0.0,0.0,1.0
1402414659291809353,,errorv,,0,,1402414659,391571199,/base_link,/gps,,,-0.84,0.0,-0.14,,0.0,0.0,0.0,1.0
1402414659291940827,,errorv,,0,,1402414659,391754886,base_link,imu,,,0.13,0.0,-0.1,,1.0,0.0,0.0,0.0
1402414659303279200,,errorv,,0,,1402414659,229295015,/enu,/base_link,,,0.383719737081,25.1438957093,-11.5927391957,,-0.00944024937788,0.0189959970262,0.145355616545,0.989152050257
1402414659303335303,,errorv,,0,,1402414659,239298105,/enu,/base_link,,,0.386396816687,25.1428055698,-11.5906808855,,-0.00932879949487,0.0190561905321,0.14384942273,0.989372113354
1402414659303394765,,errorv,,0,,1402414659,250297069,/enu,/base_link,,,0.389628691793,25.1416034359,-11.588470851,,-0.00936648112731,0.0192972959948,0.142201770159,0.98960524451
1402414659303418886,,errorv,,0,,1402414659,260268926,/enu,/base_link,,,0.392515408788,25.1406098195,-11.5867433856,,-0.0093134845483,0.0193980765003,0.140688863307,0.98981999241
1402414659304963848,,errorv,,0,,1402414659,304759881,base_link,/z_drive,,,0.0,0.0,0.0,,0.0,0.0,0.0,1.0
1402414659304987339,,errorv,,0,,1402414659,304776338,/z_drive,port,,,-0.3,0.3048,0.0,,0.0,0.0,0.0,1.0
1402414659305041668,,errorv,,0,,1402414659,304786490,/z_drive,starboard,,,-0.3,-0.3048,0.0,,0.0,0.0,0.0,1.0
1402414659325133407,,errorv,,0,,1402414659,324802049,base_link,/z_drive,,,0.0,0.0,0.0,,0.0,0.0,0.0,1.0
1402414659325156804,,errorv,,0,,1402414659,324853079,/z_drive,port,,,-0.3,0.3048,0.0,,0.0,0.0,0.0,1.0
1402414659325188459,,errorv,,0,,1402414659,324858620,/z_drive,starboard,,,-0.3,-0.3048,0.0,,0.0,0.0,0.0,1.0
1402414659343329568,,errorv,,0,,1402414659,270270109,/enu,/base_link,,,0.398961515457,25.2792756009,-11.3876708478,,-0.0183374488924,0.0215097444624,0.142163375768,0.989439560282
1402414659343359514,,errorv,,0,,1402414659,280272006,/enu,/base_link,,,0.402059086235,25.2799724899,-11.3855090206,,-0.0182228287244,0.0216749455997,0.140447539963,0.989683087541
1402414659343372508,,errorv,,0,,1402414659,291277885,/enu,/base_link,,,0.405632377902,25.2807948193,-11.3833349713,,-0.0181608040373,0.0219586669832,0.138560002593,0.989944002367
1402414659343393758,,errorv,,0,,1402414659,301259994,/enu,/base_link,,,0.408850327141,25.2812116522,-11.380778055,,-0.0180890846662,0.0221147656245,0.136865100938,0.990177593315
1402414659345175059,,errorv,,0,,1402414659,344866410,base_link,/z_drive,,,0.0,0.0,0.0,,0.0,0.0,0.0,1.0
1402414659345202777,,errorv,,0,,1402414659,344889935,/z_drive,port,,,-0.3,0.3048,0.0,,0.0,0.0,0.0,1.0
1402414659345266952,,errorv,,0,,1402414659,344898552,/z_drive,starboard,,,-0.3,-0.3048,0.0,,0.0,0.0,0.0,1.0
1402414659365051535,,errorv,,0,,1402414659,364767259,base_link,/z_drive,,,0.0,0.0,0.0,,0.0,0.0,0.0,1.0
1402414659365075531,,errorv,,0,,1402414659,364797653,/z_drive,port,,,-0.3,0.3048,0.0,,0.0,0.0,0.0,1.0
1402414659365139896,,errorv,,0,,1402414659,364807832,/z_drive,starboard,,,-0.3,-0.3048,0.0,,0.0,0.0,0.0,1.0
1402414659383191921,,errorv,,0,,1402414659,311244010,/enu,/base_link,,,0.412183772789,25.281763126,-11.3786104987,,-0.0177999628688,0.0223808925121,0.13508366073,0.990421456541
1402414659383267074,,errorv,,0,,1402414659,322243928,/enu,/base_link,,,0.415237793728,25.4148644395,-11.1358656765,,-0.0258631801498,0.0240013019697,0.135976196176,0.990083586113
1402414659383293664,,errorv,,0,,1402414659,332246065,/enu,/base_link,,,0.419033460006,25.4170580243,-11.1332639243,,-0.0257510213619,0.024204018031,0.134135185148,0.990332672649
1402414659383319853,,errorv,,0,,1402414659,342216014,/enu,/base_link,,,0.422491805259,25.4191411471,-11.1305276198,,-0.0255849106613,0.0244105577347,0.132273896558,0.990582229452
1402414659383350374,,errorv,,0,,1402414659,353231906,/enu,/base_link,,,0.447652330517,25.462612699,-10.9753127575,,-0.0276780827163,0.0264470110228,0.130346941812,0.99072910228
1402414659385124480,,errorv,,0,,1402414659,384763439,base_link,/z_drive,,,0.0,0.0,0.0,,0.0,0.0,0.0,1.0
1402414659385153511,,errorv,,0,,1402414659,384781118,/z_drive,port,,,-0.3,0.3048,0.0,,0.0,0.0,0.0,1.0
1402414659385239263,,errorv,,0,,1402414659,384789701,/z_drive,starboard,,,-0.3,-0.3048,0.0,,0.0,0.0,0.0,1.0
1402414659391875070,,errorv,,0,,1402414659,491677688,/base_link,/gps,,,-0.84,0.0,-0.14,,0.0,0.0,0.0,1.0
1402414659392014559,,errorv,,0,,1402414659,491822244,base_link,imu,,,0.13,0.0,-0.1,,1.0,0.0,0.0,0.0
1402414659405056358,,errorv,,0,,1402414659,404785760,base_link,/z_drive,,,0.0,0.0,0.0,,0.0,0.0,0.0,1.0
1402414659405184550,,errorv,,0,,1402414659,404802476,/z_drive,port,,,-0.3,0.3048,0.0,,0.0,0.0,0.0,1.0
1402414659405204901,,errorv,,0,,1402414659,404807080,/z_drive,starboard,,,-0.3,-0.3048,0.0,,0.0,0.0,0.0,1.0
1402414659423026955,,errorv,,0,,1402414659,363218069,/enu,/base_link,,,0.451682036921,25.465273841,-10.9723468557,,-0.0276446137852,0.0265062683874,0.128373207863,0.99098613137
1402414659423054032,,errorv,,0,,1402414659,373215913,/enu,/base_link,,,0.455806094266,25.4679144164,-10.9693718756,,-0.0275097639807,0.0267141601741,0.126382492018,0.991240148624
1402414659423076889,,errorv,,0,,1402414659,384264945,/enu,/base_link,,,0.460450595317,25.4707556412,-10.9660524951,,-0.0273261169945,0.0269035600397,0.124117058,0.9915263172
1402414659425004666,,errorv,,0,,1402414659,424782736,base_link,/z_drive,,,0.0,0.0,0.0,,0.0,0.0,0.0,1.0
1402414659425030191,,errorv,,0,,1402414659,424809915,/z_drive,port,,,-0.3,0.3048,0.0,,0.0,0.0,0.0,1.0
1402414659425142873,,errorv,,0,,1402414659,424852220,/z_drive,starboard,,,-0.3,-0.3048,0.0,,0.0,0.0,0.0,1.0
1402414659431273489,,errorv,,0,,1402414659,394227981,/enu,/base_link,,,0.464621881106,25.4733924799,-10.963217386,,-0.027200237071,0.0271129207355,0.122070487351,0.991778116693
1402414659431327141,,errorv,,0,,1402414659,404249906,/enu,/base_link,,,0.46902514727,25.475555477,-10.9595890259,,-0.0267585309445,0.0273452908147,0.119951012573,0.992042323026
1402414659445062124,,errorv,,0,,1402414659,444774759,base_link,/z_drive,,,0.0,0.0,0.0,,0.0,0.0,0.0,1.0
1402414659445145696,,errorv,,0,,1402414659,444794904,/z_drive,port,,,-0.3,0.3048,0.0,,0.0,0.0,0.0,1.0
1402414659445163126,,errorv,,0,,1402414659,444804211,/z_drive,starboard,,,-0.3,-0.3048,0.0,,0.0,0.0,0.0,1.0
1402414659465020985,,errorv,,0,,1402414659,464799025,base_link,/z_drive,,,0.0,0.0,0.0,,0.0,0.0,0.0,1.0
1402414659465101047,,errorv,,0,,1402414659,464820065,/z_drive,port,,,-0.3,0.3048,0.0,,0.0,0.0,0.0,1.0
1402414659465211840,,errorv,,0,,1402414659,464854377,/z_drive,starboard,,,-0.3,-0.3048,0.0,,0.0,0.0,0.0,1.0
1402414659471104072,,errorv,,0,,1402414659,414212942,/enu,/base_link,,,0.473119450729,25.4783211678,-10.956909547,,-0.0267074418719,0.0273738736082,0.117822618269,0.992297946293
1402414659471133576,,errorv,,0,,1402414659,424201965,/enu,/base_link,,,0.477452792396,25.4806607402,-10.9535352943,,-0.0264744072465,0.0275667606974,0.115614195862,0.992558581234
1402414659485075482,,errorv,,0,,1402414659,484808330,base_link,/z_drive,,,0.0,0.0,0.0,,0.0,0.0,0.0,1.0
1402414659485136520,,errorv,,0,,1402414659,484837131,/z_drive,port,,,-0.3,0.3048,0.0,,0.0,0.0,0.0,1.0
1402414659485163659,,errorv,,0,,1402414659,484846963,/z_drive,starboard,,,-0.3,-0.3048,0.0,,0.0,0.0,0.0,1.0
1402414659491964310,,errorv,,0,,1402414659,591776623,/base_link,/gps,,,-0.84,0.0,-0.14,,0.0,0.0,0.0,1.0
1402414659492108137,,errorv,,0,,1402414659,591928525,base_link,imu,,,0.13,0.0,-0.1,,1.0,0.0,0.0,0.0
1402414659504998472,,errorv,,0,,1402414659,504773097,base_link,/z_drive,,,0.0,0.0,0.0,,0.0,0.0,0.0,1.0
1402414659505069897,,errorv,,0,,1402414659,504793440,/z_drive,port,,,-0.3,0.3048,0.0,,0.0,0.0,0.0,1.0
1402414659505106510,,errorv,,0,,1402414659,504833319,/z_drive,starboard,,,-0.3,-0.3048,0.0,,0.0,0.0,0.0,1.0
1402414659511062172,,errorv,,0,,1402414659,435198068,/enu,/base_link,,,0.482388955439,25.483482109,-10.9501376287,,-0.0262477453926,0.0277134483357,0.11317234818,0.992841900934
1402414659511170673,,errorv,,0,,1402414659,445187091,/enu,/base_link,,,0.486905970179,25.4858837072,-10.9467956307,,-0.0258729754183,0.0278967361306,0.110920465968,0.993100705611
1402414659511195500,,errorv,,0,,1402414659,455179929,/enu,/base_link,,,0.491464988519,25.4883433582,-10.9434514669,,-0.0258132250486,0.0279453838794,0.108653634595,0.993351458761
1402414659511220360,,errorv,,0,,1402414659,466197013,/enu,/base_link,,,0.496463352819,25.4909764714,-10.9397518484,,-0.0254623798188,0.0279991784666,0.106082518913,0.993636861434
1402414659525110632,,errorv,,0,,1402414659,524810722,base_link,/z_drive,,,0.0,0.0,0.0,,0.0,0.0,0.0,1.0
1402414659525141903,,errorv,,0,,1402414659,524831637,/z_drive,port,,,-0.3,0.3048,0.0,,0.0,0.0,0.0,1.0
1402414659525168120,,errorv,,0,,1402414659,524840758,/z_drive,starboard,,,-0.3,-0.3048,0.0,,0.0,0.0,0.0,1.0
1402414659545085755,,errorv,,0,,1402414659,544758880,base_link,/z_drive,,,0.0,0.0,0.0,,0.0,0.0,0.0,1.0
1402414659545118292,,errorv,,0,,1402414659,544782843,/z_drive,port,,,-0.3,0.3048,0.0,,0.0,0.0,0.0,1.0
1402414659545144739,,errorv,,0,,1402414659,544791791,/z_drive,starboard,,,-0.3,-0.3048,0.0,,0.0,0.0,0.0,1.0
1402414659551089497,,errorv,,0,,1402414659,476183891,/enu,/base_link,,,0.501282703846,25.4934645814,-10.936572932,,-0.0252708352517,0.028135183152,0.103705928341,0.993888764793
1402414659551172386,,errorv,,0,,1402414659,486166954,/enu,/base_link,,,0.510525572913,25.4412987361,-11.0256375084,,-0.0224512045175,0.0272637245926,0.10032380598,0.994327796398
1402414659551205611,,errorv,,0,,1402414659,496172904,/enu,/base_link,,,0.515133075238,25.4431094845,-11.0223855049,,-0.0220327067116,0.02742401916,0.0979219011189,0.994572161429
1402414659551239027,,errorv,,0,,1402414659,507165908,/enu,/base_link,,,0.520257738344,25.4451923279,-11.019270312,,-0.0216256061281,0.0274461510003,0.0952336341027,0.99484149335
1402414659565156782,,errorv,,0,,1402414659,564808131,base_link,/z_drive,,,0.0,0.0,0.0,,0.0,0.0,0.0,1.0
1402414659565187988,,errorv,,0,,1402414659,564898733,/z_drive,port,,,-0.3,0.3048,0.0,,0.0,0.0,0.0,1.0
1402414659565214911,,errorv,,0,,1402414659,564912020,/z_drive,starboard,,,-0.3,-0.3048,0.0,,0.0,0.0,0.0,1.0
1402414659585109027,,errorv,,0,,1402414659,584772615,base_link,/z_drive,,,0.0,0.0,0.0,,0.0,0.0,0.0,1.0
1402414659585141533,,errorv,,0,,1402414659,584797932,/z_drive,port,,,-0.3,0.3048,0.0,,0.0,0.0,0.0,1.0
1402414659585368403,,errorv,,0,,1402414659,584807724,/z_drive,starboard,,,-0.3,-0.3048,0.0,,0.0,0.0,0.0,1.0
1402414659591222316,,errorv,,0,,1402414659,517154932,/enu,/base_link,,,0.524980835419,25.4470090258,-11.0163668741,,-0.0213440575102,0.0275753069381,0.0927787153364,0.995075948678
1402414659591245989,,errorv,,0,,1402414659,527159929,/enu,/base_link,,,0.529905449538,25.4489535794,-11.0136902661,,-0.0209570174769,0.0275255117036,0.0902799958984,0.995315363071
1402414659591382378,,errorv,,0,,1402414659,537156105,/enu,/base_link,,,0.550706428232,25.4299749818,-10.9686682465,,-0.0192421645798,0.0280086360901,0.0865339651732,0.995669186165
1402414659591466637,,errorv,,0,,1402414659,547153949,/enu,/base_link,,,0.555595276725,25.4316418837,-10.9657420566,,-0.0190455388861,0.0279062950606,0.0840228841094,0.995890888145
1402414659592037923,,errorv,,0,,1402414659,691873775,/base_link,/gps,,,-0.84,0.0,-0.14,,0.0,0.0,0.0,1.0
1402414659592210553,,errorv,,0,,1402414659,692032938,base_link,imu,,,0.13,0.0,-0.1,,1.0,0.0,0.0,0.0
1402414659605045129,,errorv,,0,,1402414659,604773615,base_link,/z_drive,,,0.0,0.0,0.0,,0.0,0.0,0.0,1.0
1402414659605075921,,errorv,,0,,1402414659,604796719,/z_drive,port,,,-0.3,0.3048,0.0,,0.0,0.0,0.0,1.0
1402414659605120867,,errorv,,0,,1402414659,604806179,/z_drive,starboard,,,-0.3,-0.3048,0.0,,0.0,0.0,0.0,1.0
1402414659625073289,,errorv,,0,,1402414659,624762190,base_link,/z_drive,,,0.0,0.0,0.0,,0.0,0.0,0.0,1.0
1402414659625135597,,errorv,,0,,1402414659,624781546,/z_drive,port,,,-0.3,0.3048,0.0,,0.0,0.0,0.0,1.0
1402414659625210158,,errorv,,0,,1402414659,624791016,/z_drive,starboard,,,-0.3,-0.3048,0.0,,0.0,0.0,0.0,1.0
1402414659631096318,,errorv,,0,,1402414659,557128906,/enu,/base_link,,,0.560659782351,25.4332147442,-10.9627442482,,-0.0186939804915,0.027890549961,0.0814765592584,0.996109543478
1402414659631119917,,errorv,,0,,1402414659,568125009,/enu,/base_link,,,0.566056401069,25.4345707792,-10.9589426061,,-0.0183421525174,0.0279065026682,0.0786631673965,0.996341757955
1402414659631142320,,errorv,,0,,1402414659,578129053,/enu,/base_link,,,0.57116150964,25.4362427073,-10.9562619163,,-0.0179763569179,0.0278187264312,0.0760781449942,0.99655159671
1402414659631160291,,errorv,,0,,1402414659,588123083,/enu,/base_link,,,0.56484301192,25.4376912271,-10.9539828849,,-0.0179420567925,0.0265614657508,0.0743600466907,0.996716185577
1402414659645114860,,errorv,,0,,1402414659,644797687,base_link,/z_drive,,,0.0,0.0,0.0,,0.0,0.0,0.0,1.0
1402414659645144704,,errorv,,0,,1402414659,644821809,/z_drive,port,,,-0.3,0.3048,0.0,,0.0,0.0,0.0,1.0
1402414659645168516,,errorv,,0,,1402414659,644830755,/z_drive,starboard,,,-0.3,-0.3048,0.0,,0.0,0.0,0.0,1.0
1402414659665184707,,errorv,,0,,1402414659,664967261,base_link,/z_drive,,,0.0,0.0,0.0,,0.0,0.0,0.0,1.0
1402414659665211382,,errorv,,0,,1402414659,665016694,/z_drive,port,,,-0.3,0.3048,0.0,,0.0,0.0,0.0,1.0
1402414659665317258,,errorv,,0,,1402414659,665022154,/z_drive,starboard,,,-0.3,-0.3048,0.0,,0.0,0.0,0.0,1.0
1402414659671125553,,errorv,,0,,1402414659,598119020,/enu,/base_link,,,0.569811332398,25.439101774,-10.9507622002,,-0.0175251453322,0.026530309609,0.0717501183299,0.996915709813
1402414659671144368,,errorv,,0,,1402414659,608119010,/enu,/base_link,,,0.574805157576,25.4406273184,-10.947922979,,-0.0171044971116,0.0264104733454,0.0691301906958,0.997111297605
1402414659671281545,,errorv,,0,,1402414659,618104934,/enu,/base_link,,,0.579629697293,25.4421136727,-10.9448871326,,-0.0167314016435,0.0263546900933,0.0664732121266,0.99729975563
1402414659671339772,,errorv,,0,,1402414659,628089904,/enu,/base_link,,,0.584683403586,25.4434625741,-10.9416270794,,-0.0162183850208,0.0263898788647,0.0638169174424,0.997480796471
1402414659685107401,,errorv,,0,,1402414659,684848182,base_link,/z_drive,,,0.0,0.0,0.0,,0.0,0.0,0.0,1.0
1402414659685137626,,errorv,,0,,1402414659,684867390,/z_drive,port,,,-0.3,0.3048,0.0,,0.0,0.0,0.0,1.0
1402414659685292944,,errorv,,0,,1402414659,684875644,/z_drive,starboard,,,-0.3,-0.3048,0.0,,0.0,0.0,0.0,1.0
1402414659692169111,,errorv,,0,,1402414659,791980581,/base_link,/gps,,,-0.84,0.0,-0.14,,0.0,0.0,0.0,1.0
1402414659692323559,,errorv,,0,,1402414659,792139570,base_link,imu,,,0.13,0.0,-0.1,,1.0,0.0,0.0,0.0
1402414659705082613,,errorv,,0,,1402414659,704758136,base_link,/z_drive,,,0.0,0.0,0.0,,0.0,0.0,0.0,1.0
1402414659705108655,,errorv,,0,,1402414659,704778196,/z_drive,port,,,-0.3,0.3048,0.0,,0.0,0.0,0.0,1.0
1402414659705150119,,errorv,,0,,1402414659,704786764,/z_drive,starboard,,,-0.3,-0.3048,0.0,,0.0,0.0,0.0,1.0
1402414659711140641,,errorv,,0,,1402414659,638077020,/enu,/base_link,,,0.593329002488,25.4060109611,-10.9346050022,,-0.0136121265686,0.0256277149375,0.0596749182122,0.997795988353
1402414659711169786,,errorv,,0,,1402414659,648081064,/enu,/base_link,,,0.59838620898,25.4067987017,-10.9311391008,,-0.0131102310567,0.025542801456,0.0569543086596,0.997963874026
1402414659711328661,,errorv,,0,,1402414659,658092975,/enu,/base_link,,,0.603321923871,25.4076673464,-10.9278978813,,-0.0127663429702,0.0253570516046,0.0542206616902,0.998125322926
1402414659711397306,,errorv,,0,,1402414659,669092893,/enu,/base_link,,,0.608900167929,25.408723437,-10.9244405381,,-0.012379801706,0.0253208615207,0.0511948741436,0.998290879124
1402414659725230276,,errorv,,0,,1402414659,724786755,base_link,/z_drive,,,0.0,0.0,0.0,,0.0,0.0,0.0,1.0
1402414659725260888,,errorv,,0,,1402414659,724807115,/z_drive,port,,,-0.3,0.3048,0.0,,0.0,0.0,0.0,1.0
1402414659725349355,,errorv,,0,,1402414659,724817202,/z_drive,starboard,,,-0.3,-0.3048,0.0,,0.0,0.0,0.0,1.0
1402414659745120383,,errorv,,0,,1402414659,744767242,base_link,/z_drive,,,0.0,0.0,0.0,,0.0,0.0,0.0,1.0
1402414659745152327,,errorv,,0,,1402414659,744792228,/z_drive,port,,,-0.3,0.3048,0.0,,0.0,0.0,0.0,1.0
1402414659745202998,,errorv,,0,,1402414659,744802765,/z_drive,starboard,,,-0.3,-0.3048,0.0,,0.0,0.0,0.0,1.0
